{"107513640RR0001": {"name": "Mill Road Social Enterprises Association", "designationCode": "C", "categoryCode": "59", "address": "BOX 485", "city": "INVERNESS", "province": "NS", "country": "CA", "postalCode": "B0E1N0", "twitter": "None", "instagram": "None", "facebook": "None", "youtube": "None", "website": "None", "summary": "None", "logo": "None", "latitude": 46.19549400000005, "longitude": -61.28634049999994}, "802088898RR0001": {"name": "Mill Woods Seniors Association", "designationCode": "C", "categoryCode": "56", "address": "201-2610 HEWES WAY", "city": "EDMONTON", "province": "AB", "country": "CA", "postalCode": "T6L0A9", "twitter": "None", "instagram": "None", "facebook": "None", "youtube": "None", "website": "None", "summary": "None", "logo": "None", "latitude": 53.45689342018511, "longitude": -113.42656860329654}, "118918481RR0001": {"name": "Mill Woods United Church", "designationCode": "C", "categoryCode": "44", "address": "15 GRAND MEADOW CRESCENT", "city": "EDMONTON", "province": "AB", "country": "CA", "postalCode": "T6L1A3", "twitter": "None", "instagram": "None", "facebook": "None", "youtube": "None", "website": "None", "summary": "None", "logo": "None", "latitude": 53.47458859172489, "longitude": -113.43083576294097}, "107702417RR0001": {"name": "Millbrook-Cavan United Church", "designationCode": "C", "categoryCode": "44", "address": "1377 VISTA CRES", "city": "FRASERVILLE", "province": "ON", "country": "CA", "postalCode": "K0L1V0", "twitter": "None", "instagram": "None", "facebook": "None", "youtube": "None", "website": "None", "summary": "None", "logo": "None", "latitude": 44.186606296987634, "longitude": -78.47602027609827}, "119288918RR1610": {"name": "Mille-\u00celes River Congregation of Jehovah's Witnesses, Laval,Quebec", "designationCode": "C", "categoryCode": "61", "address": "85, BOULEVARD DES ENTREPRISES", "city": "BOISBRIAND", "province": "QC", "country": "CA", "postalCode": "J7G2T1", "twitter": "None", "instagram": "None", "facebook": "None", "youtube": "None", "website": "None", "summary": "None", "logo": "None", "latitude": 45.626341612239784, "longitude": -73.82791866596462}, "855671558RR0001": {"name": "Millennium Promise Canada/ La Promesse du Mill\u00e9naire Canada", "designationCode": "C", "categoryCode": "09", "address": "9500 RUE MEILLEUR             SUITE 800", "city": "MONTREAL", "province": "QC", "country": "CA", "postalCode": "H2N2B7", "twitter": "None", "instagram": "None", "facebook": "None", "youtube": "None", "website": "None", "summary": "None", "logo": "None", "latitude": 45.53846311068193, "longitude": -73.65833947838858}, "119288918RR1211": {"name": "Millhurst Congregation of Jehovah's Witnesses, Edmonton, Alberta", "designationCode": "C", "categoryCode": "61", "address": "3711 34A AVENUE", "city": "EDMONTON", "province": "AB", "country": "CA", "postalCode": "T6C3W6", "twitter": "None", "instagram": "None", "facebook": "None", "youtube": "None", "website": "None", "summary": "None", "logo": "None", "latitude": 53.46436700193325, "longitude": -113.40051178305184}, "803662899RR0001": {"name": "Milliken Christian Community Church", "designationCode": "C", "categoryCode": "39", "address": "390 BAMBURGH CIRCLE", "city": "SCARBOROUGH", "province": "ON", "country": "CA", "postalCode": "M1W3X3", "twitter": "None", "instagram": "None", "facebook": "None", "youtube": "None", "website": "None", "summary": "None", "logo": "None", "latitude": 43.81624249711446, "longitude": -79.32381227699231}, "862010808RR0001": {"name": "Mills Memorial Hospital Auxiliary", "designationCode": "A", "categoryCode": "13", "address": "POST OFFICE BOX 506", "city": "TERRACE", "province": "BC", "country": "CA", "postalCode": "V8G4B5", "twitter": "None", "instagram": "None", "facebook": "None", "youtube": "None", "website": "None", "summary": "None", "logo": "None", "latitude": 54.51590400000006, "longitude": -128.60321299999993}, "850631086RR0001": {"name": "Millshof Charitable Trust", "designationCode": "B", "categoryCode": "05", "address": "1401 PRINCESS AVE", "city": "BRANDON", "province": "MB", "country": "CA", "postalCode": "R7A7L7", "twitter": "None", "instagram": "None", "facebook": "None", "youtube": "None", "website": "None", "summary": "None", "logo": "None", "latitude": 49.84694947489748, "longitude": -99.957294}, "760534891RR0001": {"name": "Millstream Firefighter's Association", "designationCode": "C", "categoryCode": "59", "address": "953 ROUTE 880", "city": "BERWICK", "province": "NB", "country": "CA", "postalCode": "E5P3B3", "twitter": "None", "instagram": "None", "facebook": "None", "youtube": "None", "website": "None", "summary": "None", "logo": "None", "latitude": 45.78087944073227, "longitude": -65.59415436452262}, "119288918RR1498": {"name": "Milner Congregation of Jehovah's Witnesses, Langley, BritishColumbia", "designationCode": "C", "categoryCode": "61", "address": "107-20210 MICHAUD CRESCENT", "city": "LANGLEY", "province": "BC", "country": "CA", "postalCode": "V3A4B2", "twitter": "None", "instagram": "None", "facebook": "None", "youtube": "None", "website": "None", "summary": "None", "logo": "None", "latitude": 49.10248294162242, "longitude": -122.66235352610154}, "869735415RR0001": {"name": "Milton Heights Inc.", "designationCode": "C", "categoryCode": "09", "address": "B-107 ALBERT ST", "city": "REGINA", "province": "SK", "country": "CA", "postalCode": "S4R2N3", "twitter": "None", "instagram": "None", "facebook": "None", "youtube": "None", "website": "None", "summary": "None", "logo": "None", "latitude": 50.47668997446479, "longitude": -104.61799983868126}, "865518617RR0001": {"name": "Milton Korean Presbyterian Church", "designationCode": "C", "categoryCode": "36", "address": "10540 FIFTH LINE MASSAGAWEYA", "city": "ROCKWOOD", "province": "ON", "country": "CA", "postalCode": "N0B2K0", "twitter": "None", "instagram": "None", "facebook": "None", "youtube": "None", "website": "None", "summary": "None", "logo": "None", "latitude": 43.589940000000055, "longitude": -80.08728199999993}, "849625736RR0001": {"name": "Milton Missionary Baptist Church", "designationCode": "C", "categoryCode": "39", "address": "900 NIPISSING ROAD,", "city": "MILTON", "province": "ON", "country": "CA", "postalCode": "L9T4Z9", "twitter": "None", "instagram": "None", "facebook": "None", "youtube": "None", "website": "None", "summary": "None", "logo": "None", "latitude": 43.524109667753635, "longitude": -79.86268612681074}, "839701398RR0001": {"name": "Milton Philharmonic Orchestra", "designationCode": "C", "categoryCode": "22", "address": "10295 10 SIDEROAD", "city": "MILTON", "province": "ON", "country": "CA", "postalCode": "L9T2X9", "twitter": "None", "instagram": "None", "facebook": "None", "youtube": "None", "website": "None", "summary": "None", "logo": "None", "latitude": 43.582400043740584, "longitude": -79.92318459423318}, "107797383RR0134": {"name": "Milton Seventh-day Adventist Church", "designationCode": "C", "categoryCode": "41", "address": "P.O BOX 23012 STN. MAIN       25 BROWN STREET", "city": "MILTON", "province": "ON", "country": "CA", "postalCode": "L9T5B4", "twitter": "None", "instagram": "None", "facebook": "None", "youtube": "None", "website": "None", "summary": "None", "logo": "None", "latitude": 43.51078457259497, "longitude": -79.88460891061239}, "847899283RR0001": {"name": "Milton Transitional Housing Corp.", "designationCode": "C", "categoryCode": "09", "address": "406 - 420 MAIN ST E", "city": "MILTON", "province": "ON", "country": "CA", "postalCode": "L9T5G3", "twitter": "None", "instagram": "None", "facebook": "None", "youtube": "None", "website": "None", "summary": "None", "logo": "None", "latitude": 43.51784021896831, "longitude": -79.87805026377768}, "805717329RR0001": {"name": "Milton-Georges Brook Interdominational Cemetery, Inc.", "designationCode": "C", "categoryCode": "59", "address": "BOX 5245", "city": "CLARENVILLE", "province": "NL", "country": "CA", "postalCode": "A5A3A2", "twitter": "None", "instagram": "None", "facebook": "None", "youtube": "None", "website": "None", "summary": "None", "logo": "None", "latitude": 48.17855400000006, "longitude": -54.05186149999993}, "804094571RR0001": {"name": "Mimico Children's Choir", "designationCode": "C", "categoryCode": "22", "address": "26 SUPERIOR AVE", "city": "TORONTO", "province": "ON", "country": "CA", "postalCode": "M8V2M6", "twitter": "None", "instagram": "None", "facebook": "None", "youtube": "None", "website": "None", "summary": "None", "logo": "None", "latitude": 43.61512092587585, "longitude": -79.48979637414155}, "848631370RR0001": {"name": "Mind on Development", "designationCode": "B", "categoryCode": "03", "address": "416 RAHUL CRESCENT", "city": "OTTAWA", "province": "ON", "country": "CA", "postalCode": "K2C4H7", "twitter": "None", "instagram": "None", "facebook": "None", "youtube": "None", "website": "None", "summary": "None", "logo": "None", "latitude": 45.36112324952385, "longitude": -75.69570552550657}, "838347466RR0001": {"name": "Mindful Way Meditation and Retreat Centre", "designationCode": "C", "categoryCode": "11", "address": "PO BOX 900", "city": "HALIBURTON", "province": "ON", "country": "CA", "postalCode": "K0M1S0", "twitter": "None", "instagram": "None", "facebook": "None", "youtube": "None", "website": "None", "summary": "None", "logo": "None", "latitude": 45.24560095765924, "longitude": -78.57868961447684}, "836933507RR0001": {"name": "Mindfulness Everyday", "designationCode": "C", "categoryCode": "21", "address": "PH3-20 GUILDWOOD PARKWAY", "city": "SCARBOROUGH", "province": "ON", "country": "CA", "postalCode": "M1E5B6", "twitter": "None", "instagram": "None", "facebook": "None", "youtube": "None", "website": "None", "summary": "None", "logo": "None", "latitude": 43.74855090091753, "longitude": -79.20460468593126}, "819499880RR0001": {"name": "Mindfulness Without Borders Canada", "designationCode": "C", "categoryCode": "29", "address": "154 BANTRY AVE", "city": "RICHMOND HILL", "province": "ON", "country": "CA", "postalCode": "L4B4S6", "twitter": "None", "instagram": "None", "facebook": "None", "youtube": "None", "website": "None", "summary": "None", "logo": "None", "latitude": 43.8455823511165, "longitude": -79.4244670088868}, "844715300RR0001": {"name": "Mindsthroughmotion Inc.", "designationCode": "C", "categoryCode": "09", "address": "1123 PARKERS POINT RD         RR 2", "city": "GRAVENHURST", "province": "ON", "country": "CA", "postalCode": "P1P1R2", "twitter": "None", "instagram": "None", "facebook": "None", "youtube": "None", "website": "None", "summary": "None", "logo": "None", "latitude": 44.93652886459091, "longitude": -79.4071868759019}, "119041614RR0001": {"name": "Mineralogical Association of Canada/l'Association Min\u00e9ralogique du Canada", "designationCode": "C", "categoryCode": "21", "address": "490, RUE DE LA COURONNE", "city": "QUEBEC", "province": "QC", "country": "CA", "postalCode": "G1K9A9", "twitter": "None", "instagram": "None", "facebook": "None", "youtube": "None", "website": "None", "summary": "None", "logo": "None", "latitude": 46.812928580327934, "longitude": -71.22372043317516}, "816663868RR0001": {"name": "Miners for Cancer", "designationCode": "A", "categoryCode": "13", "address": "621 MAIN ST. P.O. BOX 4344", "city": "LIVELY", "province": "ON", "country": "CA", "postalCode": "P3Y1N3", "twitter": "None", "instagram": "None", "facebook": "None", "youtube": "None", "website": "None", "summary": "None", "logo": "None", "latitude": 46.43819455176293, "longitude": -81.14643067055225}, "841226897RR0001": {"name": "Minh Chau Charity Fund", "designationCode": "B", "categoryCode": "03", "address": "114 - 1055 CANADIAN PLACE", "city": "MISSISSAUGA", "province": "ON", "country": "CA", "postalCode": "L4W0C2", "twitter": "None", "instagram": "None", "facebook": "None", "youtube": "None", "website": "None", "summary": "None", "logo": "None", "latitude": 43.62671187457425, "longitude": -79.6273813054704}, "783632292RR0001": {"name": "Minhaj Welfare Foundation Canada", "designationCode": "C", "categoryCode": "09", "address": "33 CANTWELL CRES.", "city": "AJAX", "province": "ON", "country": "CA", "postalCode": "L1Z2A5", "twitter": "None", "instagram": "None", "facebook": "None", "youtube": "None", "website": "None", "summary": "None", "logo": "None", "latitude": 43.88877011408612, "longitude": -79.00632715543304}, "830447116RR0001": {"name": "Minist\u00e8re \u00c9vangile V\u00e9cu (M\u00c9V) / Lived Gospel Ministries (LGM)", "designationCode": "B", "categoryCode": "39", "address": "87 RUE LUCIEN-GENDRON", "city": "GATINEAU", "province": "QC", "country": "CA", "postalCode": "J8R0J1", "twitter": "None", "instagram": "None", "facebook": "None", "youtube": "None", "website": "None", "summary": "None", "logo": "None", "latitude": 45.50916244823708, "longitude": -75.57344270664773}, "807822655RR0001": {"name": "Minist\u00e8re d'\u00c9vang\u00e9lisation International du Qu\u00e9bec", "designationCode": "C", "categoryCode": "47", "address": "101, RUE PAPINEAU", "city": "BROMONT", "province": "QC", "country": "CA", "postalCode": "J2L2E4", "twitter": "None", "instagram": "None", "facebook": "None", "youtube": "None", "website": "None", "summary": "None", "logo": "None", "latitude": 45.308464071065764, "longitude": -72.63416002028376}, "777093691RR0001": {"name": "Minist\u00e8re de la onzi\u00e8me heure inc. / Eleventh Hour Ministry Inc.", "designationCode": "C", "categoryCode": "39", "address": "4585 RUE BELANGER", "city": "MONTREAL", "province": "QC", "country": "CA", "postalCode": "H1T1B8", "twitter": "None", "instagram": "None", "facebook": "None", "youtube": "None", "website": "None", "summary": "None", "logo": "None", "latitude": 45.56988126700899, "longitude": -73.58307560188109}, "811245281RR0001": {"name": "Minist\u00e8re des femmes partenaires avec Christ", "designationCode": "C", "categoryCode": "09", "address": "3615 22 ST NW", "city": "EDMONTON", "province": "AB", "country": "CA", "postalCode": "T6T1S1", "twitter": "None", "instagram": "None", "facebook": "None", "youtube": "None", "website": "None", "summary": "None", "logo": "None", "latitude": 53.47121770912921, "longitude": -113.3752574466792}, "860727619RR0001": {"name": "Minist\u00e8re du combat spirituel", "designationCode": "C", "categoryCode": "39", "address": "75 DEERHIDE CRESCENT          UNIT\u00c9 6", "city": "NORTH YORK", "province": "ON", "country": "CA", "postalCode": "M9M2Z2", "twitter": "None", "instagram": "None", "facebook": "None", "youtube": "None", "website": "None", "summary": "None", "logo": "None", "latitude": 43.74728685980174, "longitude": -79.53192653384511}, "848250908RR0001": {"name": "Minist\u00e8re la Gloire C\u00e9leste / Celestial Glory Ministries", "designationCode": "A", "categoryCode": "36", "address": "65 FORD ST", "city": "TORONTO", "province": "ON", "country": "CA", "postalCode": "M6N3A2", "twitter": "None", "instagram": "None", "facebook": "None", "youtube": "None", "website": "None", "summary": "None", "logo": "None", "latitude": 43.67235269914589, "longitude": -79.46191002911324}, "849450465RR0001": {"name": "Minist\u00e8re mieux vivre / Better Living Ministry", "designationCode": "C", "categoryCode": "41", "address": "475 4E RUE SARTIGAN", "city": "SAINT-GEORGES", "province": "QC", "country": "CA", "postalCode": "G5Y5B8", "twitter": "None", "instagram": "None", "facebook": "None", "youtube": "None", "website": "None", "summary": "None", "logo": "None", "latitude": 46.086680972560195, "longitude": -70.64367006982499}, "823179304RR0001": {"name": "Minist\u00e8re pentec\u00f4tiste Le Chemin / Ministerio Pentecostal El Camino", "designationCode": "C", "categoryCode": "39", "address": "9182,14E AVENUE", "city": "MONTR\u00c9AL", "province": "QC", "country": "CA", "postalCode": "H1Z3N2", "twitter": "None", "instagram": "None", "facebook": "None", "youtube": "None", "website": "None", "summary": "None", "logo": "None", "latitude": 45.5742817241042, "longitude": -73.62811364031383}, "822124707RR0001": {"name": "Minist\u00e8re promesse de vie - \u00c9glise Victoire / Promise of Life Ministry - Victory Church", "designationCode": "C", "categoryCode": "39", "address": "12404 AV. EDGER", "city": "MONTR\u00c9AL", "province": "QC", "country": "CA", "postalCode": "H1G5A9", "twitter": "None", "instagram": "None", "facebook": "None", "youtube": "None", "website": "None", "summary": "None", "logo": "None", "latitude": 45.612062036903524, "longitude": -73.63591309313851}, "826894255RR0001": {"name": "Minist\u00e8re vie \u00e9ternelle / Eternal Life Ministry", "designationCode": "C", "categoryCode": "39", "address": "805, RUE TAILLEUR", "city": "LAVAL", "province": "QC", "country": "CA", "postalCode": "H7X3R7", "twitter": "None", "instagram": "None", "facebook": "None", "youtube": "None", "website": "None", "summary": "None", "logo": "None", "latitude": 45.53345369914591, "longitude": -73.80097256160202}, "825805369RR0001": {"name": "Minist\u00e8re vie transform\u00e9e", "designationCode": "C", "categoryCode": "39", "address": "3971 BOUL. ROBERT", "city": "MONTREAL", "province": "QC", "country": "CA", "postalCode": "H1Z4H6", "twitter": "None", "instagram": "None", "facebook": "None", "youtube": "None", "website": "None", "summary": "None", "logo": "None", "latitude": 45.574255633100464, "longitude": -73.61150578313782}, "766072896RR0001": {"name": "Minist\u00e8re Christ pour les Nations", "designationCode": "C", "categoryCode": "39", "address": "3580 RUE MASSON", "city": "MONTREAL", "province": "QC", "country": "CA", "postalCode": "H1X1S2", "twitter": "None", "instagram": "None", "facebook": "None", "youtube": "None", "website": "None", "summary": "None", "logo": "None", "latitude": 45.55418339272323, "longitude": -73.57130219106715}, "756329520RR0001": {"name": "Minist\u00e8re Dieu est Lumi\u00e8re God Is Light Ministry", "designationCode": "C", "categoryCode": "39", "address": "3100 RUE DE BOURBON", "city": "SOREL-TRACY", "province": "QC", "country": "CA", "postalCode": "J3R4S2", "twitter": "None", "instagram": "None", "facebook": "None", "youtube": "None", "website": "None", "summary": "None", "logo": "None", "latitude": 46.01158950043269, "longitude": -73.15301305536961}, "816563688RR0001": {"name": "Minist\u00e8re International Nouvelle G\u00e9n\u00e9ration M.I.N.G. / Ministry International New Generation M.I.N.G.", "designationCode": "C", "categoryCode": "39", "address": "188 RUE DE BERRI", "city": "LAVAL", "province": "QC", "country": "CA", "postalCode": "H7G2W6", "twitter": "None", "instagram": "None", "facebook": "None", "youtube": "None", "website": "None", "summary": "None", "logo": "None", "latitude": 45.56418663613023, "longitude": -73.68428066002066}, "862658127RR0001": {"name": "Minist\u00e8re Multilingue International", "designationCode": "C", "categoryCode": "47", "address": "1382 BOUL. MARIE-VICTORIN", "city": "LONGUEUIL", "province": "QC", "country": "CA", "postalCode": "J4G1A3", "twitter": "None", "instagram": "None", "facebook": "None", "youtube": "None", "website": "None", "summary": "None", "logo": "None", "latitude": 45.56233529724743, "longitude": -73.49171521674661}, "821053378RR0001": {"name": "Minist\u00e8re Normand Beausoleil / Normand Beausoleil Ministry", "designationCode": "C", "categoryCode": "47", "address": "2167, RUE DUBOIS", "city": "MONTR\u00c9AL", "province": "QC", "country": "CA", "postalCode": "H4E1W6", "twitter": "None", "instagram": "None", "facebook": "None", "youtube": "None", "website": "None", "summary": "None", "logo": "None", "latitude": 45.45778447489746, "longitude": -73.59423296863639}, "822547907RR0001": {"name": "Minist\u00e8re Sentier Vers la Lumi\u00e8re / Ministerio Sendero Haciala Luz", "designationCode": "C", "categoryCode": "39", "address": "7040 GOUIN BOUL O", "city": "MONTREAL", "province": "QC", "country": "CA", "postalCode": "H4K1B6", "twitter": "None", "instagram": "None", "facebook": "None", "youtube": "None", "website": "None", "summary": "None", "logo": "None", "latitude": 45.52622477240469, "longitude": -73.73079551206078}, "809367394RR0001": {"name": "Minist\u00e8re Tacy/Tacy Ministry", "designationCode": "C", "categoryCode": "39", "address": "204-5993 RUE JEAN-TALON EST", "city": "MONTREAL", "province": "QC", "country": "CA", "postalCode": "H1S1M5", "twitter": "None", "instagram": "None", "facebook": "None", "youtube": "None", "website": "None", "summary": "None", "logo": "None", "latitude": 45.58650299999999, "longitude": -73.5793245}, "813064979RR0001": {"name": "Minist\u00e8res \u00e9vang\u00e9liques la r\u00e9demption divine/Gospel Divine Redemption Ministries", "designationCode": "C", "categoryCode": "39", "address": "3490 RUE FORESTIER", "city": "QU\u00c9BEC", "province": "QC", "country": "CA", "postalCode": "G1P3W3", "twitter": "None", "instagram": "None", "facebook": "None", "youtube": "None", "website": "None", "summary": "None", "logo": "None", "latitude": 46.822752984188305, "longitude": -71.32641994451481}, "819596925RR0001": {"name": "Minist\u00e8res de la Cit\u00e9 de Louange / City of Praise Ministries", "designationCode": "C", "categoryCode": "39", "address": "12433 AV DE RIVOLI", "city": "MONTREAL", "province": "QC", "country": "CA", "postalCode": "H4J2L8", "twitter": "None", "instagram": "None", "facebook": "None", "youtube": "None", "website": "None", "summary": "None", "logo": "None", "latitude": 45.5327740258237, "longitude": -73.72337773131756}, "837762616RR0001": {"name": "Minist\u00e8res de relation d'aide coeur \u00e0 coeur", "designationCode": "C", "categoryCode": "09", "address": "201, CHEMIN DU COLL\u00c8GE", "city": "DUNHAM", "province": "QC", "country": "CA", "postalCode": "J0E1M0", "twitter": "None", "instagram": "None", "facebook": "None", "youtube": "None", "website": "None", "summary": "None", "logo": "None", "latitude": 45.12947146378898, "longitude": -72.79378183236193}, "840826895RR0001": {"name": "Minist\u00e8res libert\u00e9 / Liberty Ministries", "designationCode": "C", "categoryCode": "39", "address": "1214 ANTOINE-BOUCHER", "city": "GATINEAU", "province": "QC", "country": "CA", "postalCode": "J9J3M8", "twitter": "None", "instagram": "None", "facebook": "None", "youtube": "None", "website": "None", "summary": "None", "logo": "None", "latitude": 45.42672149321934, "longitude": -75.81948192062437}, "844180026RR0001": {"name": "Minist\u00e8res toutes les nations de Montr\u00e9al / Every Nation Ministries Montr\u00e9al", "designationCode": "C", "categoryCode": "39", "address": "1450 RUE CITY COUNCILLORS     BUREAU 520", "city": "MONTREAL", "province": "QC", "country": "CA", "postalCode": "H3A2E6", "twitter": "None", "instagram": "None", "facebook": "None", "youtube": "None", "website": "None", "summary": "None", "logo": "None", "latitude": 45.50517696834794, "longitude": -73.56927370442602}, "846641264RR0001": {"name": "Minist\u00e8res Beth Repha\u00ebl de l'\u00e9glise de dieu / Beth Rephael Ministries Church of God", "designationCode": "C", "categoryCode": "39", "address": "15 MELBA", "city": "CH\u00c2TEAUGUAY", "province": "QC", "country": "CA", "postalCode": "J6J6E9", "twitter": "None", "instagram": "None", "facebook": "None", "youtube": "None", "website": "None", "summary": "None", "logo": "None", "latitude": 45.37110175823778, "longitude": -73.74545681432853}, "873967772RR0001": {"name": "Minist\u00e8res Colette Aub\u00e9 / Colette Aub\u00e9 Ministries", "designationCode": "C", "categoryCode": "39", "address": "CP 3044 SUCC LAPIERRE", "city": "LASALLE", "province": "QC", "country": "CA", "postalCode": "H8N3H2", "twitter": "None", "instagram": "None", "facebook": "None", "youtube": "None", "website": "None", "summary": "None", "logo": "None", "latitude": 45.43817431881884, "longitude": -73.61948150991618}, "819885054RR0001": {"name": "Minist\u00e8res EnseigneMoi/ TeachMe Ministries", "designationCode": "C", "categoryCode": "47", "address": "4008, RUE FOSTER", "city": "WATERLOO", "province": "QC", "country": "CA", "postalCode": "J0E2N0", "twitter": "None", "instagram": "None", "facebook": "None", "youtube": "None", "website": "None", "summary": "None", "logo": "None", "latitude": 45.337407504327835, "longitude": -72.5100220269202}, "821151487RR0001": {"name": "Minist\u00e8res Le Jourdain / The Jordan Ministries", "designationCode": "C", "categoryCode": "39", "address": "4690 RUE JEAN-PAUL GAGNON", "city": "TERREBONNE", "province": "QC", "country": "CA", "postalCode": "J6Y1B2", "twitter": "None", "instagram": "None", "facebook": "None", "youtube": "None", "website": "None", "summary": "None", "logo": "None", "latitude": 45.71463515208617, "longitude": -73.78179748992977}, "806998225RR0001": {"name": "Minist\u00e8res Parole de Christ", "designationCode": "C", "categoryCode": "39", "address": "308 - 11945 RUE DULONGPRE", "city": "MONTREAL", "province": "QC", "country": "CA", "postalCode": "H4J2N3", "twitter": "None", "instagram": "None", "facebook": "None", "youtube": "None", "website": "None", "summary": "None", "logo": "None", "latitude": 45.52637637665172, "longitude": -73.712626549397}, "851056903RR0001": {"name": "Minist\u00e8res Viens Ministries Inc.", "designationCode": "C", "categoryCode": "39", "address": "3917 RUE DEMERS", "city": "SHAWINIGAN", "province": "QC", "country": "CA", "postalCode": "G9P5A9", "twitter": "None", "instagram": "None", "facebook": "None", "youtube": "None", "website": "None", "summary": "None", "logo": "None", "latitude": 46.50950442050881, "longitude": -72.72792799985577}, "833579592RR0001": {"name": "Ministeres Nouvelle Vision - New Vision Ministries", "designationCode": "B", "categoryCode": "39", "address": "1-7627 AVENUE L\u00c9ONARD-DE VINCI", "city": "MONTR\u00c9AL", "province": "QC", "country": "CA", "postalCode": "H2A0A1", "twitter": "None", "instagram": "None", "facebook": "None", "youtube": "None", "website": "None", "summary": "None", "logo": "None", "latitude": 45.56617138135492, "longitude": -73.60033075714125}, "842827206RR0001": {"name": "Ministerio Camino De Alabanza", "designationCode": "C", "categoryCode": "39", "address": "960 GRENFELL DR", "city": "LONDON", "province": "ON", "country": "CA", "postalCode": "N5X4R8", "twitter": "None", "instagram": "None", "facebook": "None", "youtube": "None", "website": "None", "summary": "None", "logo": "None"}, "797477098RR0001": {"name": "Ministerio Cristiano Betel Inc.", "designationCode": "C", "categoryCode": "39", "address": "2 - 94 KENHAR DR", "city": "NORTH YORK", "province": "ON", "country": "CA", "postalCode": "M9L1N2", "twitter": "None", "instagram": "None", "facebook": "None", "youtube": "None", "website": "None", "summary": "None", "logo": "None", "latitude": 43.76155796425785, "longitude": -79.5451987883081}, "867658379RR0001": {"name": "Ministerio Evangelistico (Hechos 20:20)", "designationCode": "C", "categoryCode": "39", "address": "69 WILLIAM STREET", "city": "NORTH YORK", "province": "ON", "country": "CA", "postalCode": "M9N2G6", "twitter": "None", "instagram": "None", "facebook": "None", "youtube": "None", "website": "None", "summary": "None", "logo": "None", "latitude": 43.70392085648351, "longitude": -79.5127052679613}, "809765381RR0001": {"name": "Ministerio Reino de Restauracion (Kingdom of Restoration Ministry)", "designationCode": "C", "categoryCode": "39", "address": "69 CLOUGHLEY DRIVE,", "city": "BARRIE", "province": "ON", "country": "CA", "postalCode": "L4N9T7", "twitter": "None", "instagram": "None", "facebook": "None", "youtube": "None", "website": "None", "summary": "None", "logo": "None", "latitude": 44.39452964195861, "longitude": -79.74140760531488}, "817860224RR0001": {"name": "Ministerios Bellas Palabras de Vida", "designationCode": "C", "categoryCode": "39", "address": "23 EVERNBY BLVD", "city": "ETOBICOKE", "province": "ON", "country": "CA", "postalCode": "M9R3G9", "twitter": "None", "instagram": "None", "facebook": "None", "youtube": "None", "website": "None", "summary": "None", "logo": "None", "latitude": 43.70034434416293, "longitude": -79.56005155034929}, "806701264RR0001": {"name": "Ministerios Hispanos El Camino de la Biblia", "designationCode": "C", "categoryCode": "39", "address": "81 PAGE STREET", "city": "ST. CATHARINES", "province": "ON", "country": "CA", "postalCode": "L2R4A8", "twitter": "None", "instagram": "None", "facebook": "None", "youtube": "None", "website": "None", "summary": "None", "logo": "None", "latitude": 43.168282385798314, "longitude": -79.23386853277724}, "837310200RR0001": {"name": "Ministerios Roca Fuerte Canada", "designationCode": "C", "categoryCode": "39", "address": "12375-103A AVE", "city": "SURREY", "province": "BC", "country": "CA", "postalCode": "V3V3H1", "twitter": "None", "instagram": "None", "facebook": "None", "youtube": "None", "website": "None", "summary": "None", "logo": "None", "latitude": 49.19069249321934, "longitude": -122.87909939534894}, "856845151RR0001": {"name": "Ministry in Motion", "designationCode": "C", "categoryCode": "09", "address": "3915 61 AVENUE SE", "city": "CALGARY", "province": "AB", "country": "CA", "postalCode": "T2C1V5", "twitter": "None", "instagram": "None", "facebook": "None", "youtube": "None", "website": "None", "summary": "None", "logo": "None", "latitude": 50.99892449956731, "longitude": -113.97740327699232}, "816245500RR0001": {"name": "Ministry of Psalm 91 Inc.", "designationCode": "C", "categoryCode": "39", "address": "18 TARTAN WAY", "city": "EAST ST. PAUL", "province": "MB", "country": "CA", "postalCode": "R2E0H5", "twitter": "None", "instagram": "None", "facebook": "None", "youtube": "None", "website": "None", "summary": "None", "logo": "None", "latitude": 49.989399676351994, "longitude": -97.0464663475098}, "801956392RR0001": {"name": "Minnedosa Primary Care Centre Inc.", "designationCode": "C", "categoryCode": "11", "address": "PO BOX 985", "city": "MINNEDOSA", "province": "MB", "country": "CA", "postalCode": "R0J1E0", "twitter": "None", "instagram": "None", "facebook": "None", "youtube": "None", "website": "None", "summary": "None", "logo": "None", "latitude": 50.35204290882316, "longitude": -100.20187636199029}, "805168499RR0001": {"name": "Minnedosa Regional Events Centre Inc.", "designationCode": "C", "categoryCode": "56", "address": "P.O. BOX 1425", "city": "MINNEDOSA", "province": "MB", "country": "CA", "postalCode": "R0J1E0", "twitter": "None", "instagram": "None", "facebook": "None", "youtube": "None", "website": "None", "summary": "None", "logo": "None", "latitude": 50.35204290882316, "longitude": -100.20187636199029}, "838777738RR0001": {"name": "Minnedosa River's Edge Recreation Park Inc.", "designationCode": "C", "categoryCode": "56", "address": "POST OFFICE BOX 683", "city": "MINNEDOSA", "province": "MB", "country": "CA", "postalCode": "R0J1E0", "twitter": "None", "instagram": "None", "facebook": "None", "youtube": "None", "website": "None", "summary": "None", "logo": "None", "latitude": 50.35204290882316, "longitude": -100.20187636199029}, "804013290RR0001": {"name": "Minority Assist Foundation and Support Centre Incorporated", "designationCode": "C", "categoryCode": "49", "address": "115 WOODSTREAM BLVD           UNIT 21", "city": "WOODBRIDGE", "province": "ON", "country": "CA", "postalCode": "L4L8K5", "twitter": "None", "instagram": "None", "facebook": "None", "youtube": "None", "website": "None", "summary": "None", "logo": "None", "latitude": 43.77425486311996, "longitude": -79.60430604827182}, "832890503RR0001": {"name": "Minoru Grace Church", "designationCode": "C", "categoryCode": "39", "address": "8-7760 MINORU BLVD", "city": "RICHMOND", "province": "BC", "country": "CA", "postalCode": "V6Y1Z5", "twitter": "None", "instagram": "None", "facebook": "None", "youtube": "None", "website": "None", "summary": "None", "logo": "None", "latitude": 49.15637093280607, "longitude": -123.14024883757637}, "848052635RR0001": {"name": "Minpinerie Inc.", "designationCode": "C", "categoryCode": "54", "address": "1345 PAARDEBURGH STREET", "city": "OTTAWA", "province": "ON", "country": "CA", "postalCode": "K1V6V6", "twitter": "None", "instagram": "None", "facebook": "None", "youtube": "None", "website": "None", "summary": "None", "logo": "None", "latitude": 45.36953950571282, "longitude": -75.65522217542835}, "119041937RR0001": {"name": "Minto United Church", "designationCode": "C", "categoryCode": "44", "address": "1036 7TH AVENUE NORTHWEST", "city": "MOOSE JAW", "province": "SK", "country": "CA", "postalCode": "S6H4C4", "twitter": "None", "instagram": "None", "facebook": "None", "youtube": "None", "website": "None", "summary": "None", "logo": "None", "latitude": 50.39964382838223, "longitude": -105.55254832958137}, "807797410RR0001": {"name": "Minyan K'Vasikin", "designationCode": "C", "categoryCode": "42", "address": "146 CARIBOU ROAD", "city": "TORONTO", "province": "ON", "country": "CA", "postalCode": "M5N2B3", "twitter": "None", "instagram": "None", "facebook": "None", "youtube": "None", "website": "None", "summary": "None", "logo": "None", "latitude": 43.71847420901364, "longitude": -79.42536937122735}, "801437377RR0001": {"name": "Miracle Arena For All Nations", "designationCode": "C", "categoryCode": "39", "address": "20 MILVAN DR", "city": "NORTH YORK", "province": "ON", "country": "CA", "postalCode": "M9L1Z3", "twitter": "None", "instagram": "None", "facebook": "None", "youtube": "None", "website": "None", "summary": "None", "logo": "None", "latitude": 43.75199059948651, "longitude": -79.55322317242724}, "854267523RR0001": {"name": "Miracle Life Christian Centre/Centre de Miracle Vie", "designationCode": "C", "categoryCode": "39", "address": "2421 HILL RISE ST", "city": "OSHAWA", "province": "ON", "country": "CA", "postalCode": "L1L0J2", "twitter": "None", "instagram": "None", "facebook": "None", "youtube": "None", "website": "None", "summary": "None", "logo": "None", "latitude": 43.957320066367544, "longitude": -78.89743927303039}, "852847201RR0001": {"name": "Miracle Life Church Canada", "designationCode": "C", "categoryCode": "39", "address": "POST OFFICE BOX 499", "city": "SURREY", "province": "BC", "country": "CA", "postalCode": "V3T5B7", "twitter": "None", "instagram": "None", "facebook": "None", "youtube": "None", "website": "None", "summary": "None", "logo": "None", "latitude": 49.19164800000006, "longitude": -122.85002149999994}, "136652179RR0001": {"name": "Miracle Manor Church and Shiloh Training Centre Inc.", "designationCode": "C", "categoryCode": "39", "address": "617 20TH STREET WEST", "city": "SASKATOON", "province": "SK", "country": "CA", "postalCode": "S7M0X8", "twitter": "None", "instagram": "None", "facebook": "None", "youtube": "None", "website": "None", "summary": "None", "logo": "None", "latitude": 52.12615847013695, "longitude": -106.67892247446477}, "834269219RR0001": {"name": "Miracle Place-Wiarton", "designationCode": "C", "categoryCode": "09", "address": "549 CHARLES ST                BOX 205", "city": "WIARTON", "province": "ON", "country": "CA", "postalCode": "N0H2T0", "twitter": "None", "instagram": "None", "facebook": "None", "youtube": "None", "website": "None", "summary": "None", "logo": "None", "latitude": 44.73785849956731, "longitude": -81.13160199708581}, "822860797RR0001": {"name": "Miracles of God Prophetic Ministries", "designationCode": "C", "categoryCode": "39", "address": "1 SAGE COURT,", "city": "BRAMPTON", "province": "ON", "country": "CA", "postalCode": "L6X4J4", "twitter": "None", "instagram": "None", "facebook": "None", "youtube": "None", "website": "None", "summary": "None", "logo": "None", "latitude": 43.69578147126214, "longitude": -79.77750671316859}, "823638374RR0001": {"name": "Miramichi Big Brothers Big Sisters / Boys & Girls Club Charitable Foundation Inc.", "designationCode": "A", "categoryCode": "53", "address": "115 MAHER ST", "city": "MIRAMICHI", "province": "NB", "country": "CA", "postalCode": "E1N4B4", "twitter": "None", "instagram": "None", "facebook": "None", "youtube": "None", "website": "None", "summary": "None", "logo": "None", "latitude": 47.01650671192784, "longitude": -65.44735816830189}, "879559177RR0001": {"name": "Miramichi Ground Search & Rescue Inc.", "designationCode": "C", "categoryCode": "59", "address": "2010 RTE. 118 HWY", "city": "DOYLES BROOK", "province": "NB", "country": "CA", "postalCode": "E9E2H9", "twitter": "None", "instagram": "None", "facebook": "None", "youtube": "None", "website": "None", "summary": "None", "logo": "None", "latitude": 46.830615735849086, "longitude": -65.7602930587433}, "728680695RR0001": {"name": "Miriam And Larry Robbins Foundation", "designationCode": "B", "categoryCode": "03", "address": "115 RICHVIEW AVE", "city": "TORONTO", "province": "ON", "country": "CA", "postalCode": "M5P3G1", "twitter": "None", "instagram": "None", "facebook": "None", "youtube": "None", "website": "None", "summary": "None", "logo": "None", "latitude": 43.69321525451552, "longitude": -79.42106671937235}, "889411773RR0001": {"name": "Miriam Foundation / Fondation Miriam", "designationCode": "A", "categoryCode": "03", "address": "8000, BOUL. DECARIE, PORTE 620", "city": "MONTREAL", "province": "QC", "country": "CA", "postalCode": "H4P2S4", "twitter": "None", "instagram": "None", "facebook": "None", "youtube": "None", "website": "None", "summary": "None", "logo": "None", "latitude": 45.49759771161071, "longitude": -73.65889535778159}, "826035206RR0001": {"name": "Mise En Forme Services G\u00e9n\u00e9raux et Subventions D'\u00e9tudes", "designationCode": "C", "categoryCode": "21", "address": "106 RUE GLENBROOKE", "city": "DOLLARD-DES-ORMEAUX", "province": "QC", "country": "CA", "postalCode": "H9A2L8", "twitter": "None", "instagram": "None", "facebook": "None", "youtube": "None", "website": "None", "summary": "None", "logo": "None", "latitude": 45.491896069652114, "longitude": -73.82331169527941}, "857602296RR0001": {"name": "Misericordia Fellowship Center of Lethbridge", "designationCode": "C", "categoryCode": "39", "address": "BOX 912 STN. MAIN", "city": "LETHBRIDGE", "province": "AB", "country": "CA", "postalCode": "T1J3Z8", "twitter": "None", "instagram": "None", "facebook": "None", "youtube": "None", "website": "None", "summary": "None", "logo": "None", "latitude": 49.69383000000006, "longitude": -112.83373249999994}, "812126597RR0001": {"name": "Misfit Manor Dog Rescue Society", "designationCode": "C", "categoryCode": "54", "address": "2576 HWY 201, RR3", "city": "BRIDGETOWN", "province": "NS", "country": "CA", "postalCode": "B0S1C0", "twitter": "None", "instagram": "None", "facebook": "None", "youtube": "None", "website": "None", "summary": "None", "logo": "None", "latitude": 44.795617867242946, "longitude": -65.37218957699389}, "807234778RR0001": {"name": "Mishamikoweesh Corporation", "designationCode": "C", "categoryCode": "30", "address": "PO BOX 65", "city": "KINGFISHER LAKE", "province": "ON", "country": "CA", "postalCode": "P0V1Z0", "twitter": "None", "instagram": "None", "facebook": "None", "youtube": "None", "website": "None", "summary": "None", "logo": "None", "latitude": 52.9861038569526, "longitude": -89.87346391054417}, "854694668RR0001": {"name": "Mishko Bimaadziwin Family Support Services", "designationCode": "C", "categoryCode": "09", "address": "295-1100 MEMORIAL AVE", "city": "THUNDER BAY", "province": "ON", "country": "CA", "postalCode": "P7B4A3", "twitter": "None", "instagram": "None", "facebook": "None", "youtube": "None", "website": "None", "summary": "None", "logo": "None", "latitude": 48.40423121426511, "longitude": -89.24559377676118}, "801517996RR0001": {"name": "Miss Lizzy's Foundation", "designationCode": "B", "categoryCode": "03", "address": "125 MERSEA ROAD 3             RR 2", "city": "LEAMINGTON", "province": "ON", "country": "CA", "postalCode": "N8H3V5", "twitter": "None", "instagram": "None", "facebook": "None", "youtube": "None", "website": "None", "summary": "None", "logo": "None", "latitude": 42.06091966028668, "longitude": -82.64115695405772}, "821246634RR0001": {"name": "Missio Dei Communities Inc.", "designationCode": "C", "categoryCode": "39", "address": "834 STRATHCONA STREET", "city": "WINNIPEG", "province": "MB", "country": "CA", "postalCode": "R3G3G2", "twitter": "None", "instagram": "None", "facebook": "None", "youtube": "None", "website": "None", "summary": "None", "logo": "None", "latitude": 49.888181210658445, "longitude": -97.19100535140495}, "825593866RR0001": {"name": "Mission \u00e0 la mani\u00e8re de Dieu / Mision a la manera de dios", "designationCode": "C", "categoryCode": "39", "address": "2510 RUE BERG\u00c8RES", "city": "LONGUEUIL", "province": "QC", "country": "CA", "postalCode": "J4M1N1", "twitter": "None", "instagram": "None", "facebook": "None", "youtube": "None", "website": "None", "summary": "None", "logo": "None", "latitude": 45.53923251788916, "longitude": -73.45484573036528}, "839739687RR0001": {"name": "Mission \u00e9vang\u00e9lique cath\u00e9drale de vie / Mision Evangelica Catedral de Vida", "designationCode": "C", "categoryCode": "39", "address": "2790, RUE DE BOURGOGNE", "city": "BROSSARD", "province": "QC", "country": "CA", "postalCode": "J4Z1T5", "twitter": "None", "instagram": "None", "facebook": "None", "youtube": "None", "website": "None", "summary": "None", "logo": "None", "latitude": 45.46544558338634, "longitude": -73.46144570053087}, "777537697RR0001": {"name": "Mission \u00e9vang\u00e9lique la r\u00e9v\u00e9lation divine M.\u00c9.R\u00c9.DI.", "designationCode": "C", "categoryCode": "39", "address": "300A - 185 RUE DE LOUVAIN O", "city": "MONTREAL", "province": "QC", "country": "CA", "postalCode": "H2N1A3", "twitter": "None", "instagram": "None", "facebook": "None", "youtube": "None", "website": "None", "summary": "None", "logo": "None", "latitude": 45.54203244710036, "longitude": -73.65675603173977}, "700870926RR0001": {"name": "Mission \u00c9vang\u00e9lique Paix et Libert\u00e9 en Christ Peace and Freedom in Christ Evangelical Mission", "designationCode": "C", "categoryCode": "39", "address": "2357 RUE JOHN-CAMPBELL", "city": "LASALLE", "province": "QC", "country": "CA", "postalCode": "H8N1C5", "twitter": "None", "instagram": "None", "facebook": "None", "youtube": "None", "website": "None", "summary": "None", "logo": "None", "latitude": 45.44082908272252, "longitude": -73.62692927295294}, "144403516RR0001": {"name": "Mission \u00c9vang\u00e9lique Prince de Paix", "designationCode": "C", "categoryCode": "47", "address": "8415 RUE BIRNAM               PORTE 3", "city": "MONTR\u00c9AL", "province": "QC", "country": "CA", "postalCode": "H3N2V2", "twitter": "None", "instagram": "None", "facebook": "None", "youtube": "None", "website": "None", "summary": "None", "logo": "None", "latitude": 45.529602851520515, "longitude": -73.64213330016162}, "809081235RR0001": {"name": "Mission catholique Notre-Dame-d'Afrique (Montr\u00e9al)", "designationCode": "C", "categoryCode": "38", "address": "4550, AVENUE D'ORL\u00c9ANS", "city": "MONTR\u00c9AL", "province": "QC", "country": "CA", "postalCode": "H1X2K4", "twitter": "None", "instagram": "None", "facebook": "None", "youtube": "None", "website": "None", "summary": "None", "logo": "None", "latitude": 45.55435909740904, "longitude": -73.5608794185469}, "873102412RR0001": {"name": "Mission chr\u00e9tienne \u00e9vang\u00e9lique pour l'Am\u00e9rique latine / Mision Cristiana Evangelica Para La America Latina", "designationCode": "C", "categoryCode": "39", "address": "1225, RUE SAINT-PIERRE OUEST", "city": "SAINT-HYACINTHE", "province": "QC", "country": "CA", "postalCode": "J2T1P3", "twitter": "None", "instagram": "None", "facebook": "None", "youtube": "None", "website": "None", "summary": "None", "logo": "None", "latitude": 45.62129033101815, "longitude": -72.93812618818413}}