{"118945872RR0001": {"name": "GRAND RIVER CEMETERY COMPANY", "designationCode": "C", "categoryCode": "52", "address": "P.O. BOX 6, MODULE 3          GRAND RIVER", "city": "RICHMOND CO", "province": "NS", "country": "CA", "postalCode": "B0E1M0", "twitter": "None", "instagram": "None", "facebook": "None", "youtube": "None", "website": "None", "summary": "None", "logo": "None", "latitude": 45.604549548556285, "longitude": -61.05730401536424}, "888224631RR0001": {"name": "GRAND RIVER COMMUNITY (BAPTIST) CHURCH", "designationCode": "C", "categoryCode": "31", "address": "P.O. BOX 32", "city": "ELORA", "province": "ON", "country": "CA", "postalCode": "N0B1S0", "twitter": "None", "instagram": "None", "facebook": "None", "youtube": "None", "website": "None", "summary": "None", "logo": "None", "latitude": 43.73237071669247, "longitude": -80.50547829004643}, "107447435RR0001": {"name": "GRAND RIVER CONSERVATION AUTHORITY", "designationCode": "C", "categoryCode": "52", "address": "400 CLYDE ROAD                P.O. BOX 729", "city": "CAMBRIDGE", "province": "ON", "country": "CA", "postalCode": "N1R5W6", "twitter": "None", "instagram": "None", "facebook": "None", "youtube": "None", "website": "None", "summary": "None", "logo": "None", "latitude": 43.37313252359215, "longitude": -80.28791553115056}, "118946045RR0001": {"name": "GRAND RIVER CONSERVATION FOUNDATION", "designationCode": "C", "categoryCode": "52", "address": "P.O. BOX 729 400 CLYDE ROAD", "city": "CAMBRIDGE", "province": "ON", "country": "CA", "postalCode": "N1R5W6", "twitter": "None", "instagram": "None", "facebook": "None", "youtube": "None", "website": "None", "summary": "None", "logo": "None"}, "107579823RR0001": {"name": "GRAND RIVER HOSPITAL CORPORATION", "designationCode": "C", "categoryCode": "10", "address": "PO BOX 9056 STN C", "city": "KITCHENER", "province": "ON", "country": "CA", "postalCode": "N2G1G3", "twitter": "None", "instagram": "None", "facebook": "None", "youtube": "None", "website": "None", "summary": "None", "logo": "None", "latitude": 43.45123200000006, "longitude": -80.49304249999993}, "890123862RR0001": {"name": "GRAND RIVER HOSPITAL CORPORATION CHARITY TRUST", "designationCode": "C", "categoryCode": "75", "address": "835 KING ST W", "city": "KITCHENER", "province": "ON", "country": "CA", "postalCode": "N2G1G3", "twitter": "None", "instagram": "None", "facebook": "None", "youtube": "None", "website": "None", "summary": "None", "logo": "None", "latitude": 43.4571292927467, "longitude": -80.51156256414085}, "889180394RR0001": {"name": "GRAND RIVER HOSPITAL FOUNDATION", "designationCode": "A", "categoryCode": "13", "address": "835 KING STREET WEST", "city": "KITCHENER", "province": "ON", "country": "CA", "postalCode": "N2G1G3", "twitter": "None", "instagram": "None", "facebook": "None", "youtube": "None", "website": "None", "summary": "None", "logo": "None", "latitude": 43.4571292927467, "longitude": -80.51156256414085}, "118945880RR0001": {"name": "GRAND RIVER PRESBYTERIAN CHURCH", "designationCode": "C", "categoryCode": "39", "address": "PO BOX 1 COMP 8", "city": "GRAND RIVER", "province": "NS", "country": "CA", "postalCode": "B0E1M0", "twitter": "None", "instagram": "None", "facebook": "None", "youtube": "None", "website": "None", "summary": "None", "logo": "None", "latitude": 46.23535546740507, "longitude": -61.30111391460403}, "864084900RR0001": {"name": "GRAND RIVER SPIRITUAL AND EDUCATIONAL RESOURCES", "designationCode": "C", "categoryCode": "49", "address": "P.O. BOX 553", "city": "PARIS", "province": "ON", "country": "CA", "postalCode": "N3L3E7", "twitter": "None", "instagram": "None", "facebook": "None", "youtube": "None", "website": "None", "summary": "None", "logo": "None", "latitude": 43.190664000000055, "longitude": -80.38167199999994}, "118945898RR0001": {"name": "GRAND RIVER UNITED CHURCH", "designationCode": "C", "categoryCode": "44", "address": "1585 MOHAWK ROAD RR#1", "city": "OHSWEKEN", "province": "ON", "country": "CA", "postalCode": "N0A1M0", "twitter": "None", "instagram": "None", "facebook": "None", "youtube": "None", "website": "None", "summary": "None", "logo": "None", "latitude": 43.086805171452305, "longitude": -80.17327387233331}, "118945914RR0001": {"name": "GRAND S\u00c9MINAIRE DE MONTR\u00c9AL", "designationCode": "C", "categoryCode": "20", "address": "2065 RUE SHERBROOKE OUEST", "city": "MONTREAL", "province": "QC", "country": "CA", "postalCode": "H3H1G6", "twitter": "None", "instagram": "None", "facebook": "None", "youtube": "None", "website": "None", "summary": "None", "logo": "None", "latitude": 45.49298040221559, "longitude": -73.5854491729755}, "107447492RR0001": {"name": "GRAND S\u00c9MINAIRE DE NICOLET", "designationCode": "C", "categoryCode": "20", "address": "700 BOUL LOUIS-FRECHETTE", "city": "NICOLET", "province": "QC", "country": "CA", "postalCode": "J3T1V5", "twitter": "None", "instagram": "None", "facebook": "None", "youtube": "None", "website": "None", "summary": "None", "logo": "None", "latitude": 46.23100166636865, "longitude": -72.61269451148387}, "118945963RR0001": {"name": "GRAND SEMINAIRE DE CHICOUTIMI", "designationCode": "C", "categoryCode": "20", "address": "602, RUE RACINE EST", "city": "CHICOUTIMI", "province": "QC", "country": "CA", "postalCode": "G7H1V1", "twitter": "None", "instagram": "None", "facebook": "None", "youtube": "None", "website": "None", "summary": "None", "logo": "None", "latitude": 48.42955548009162, "longitude": -71.04963086081135}, "118945930RR0001": {"name": "GRAND SEMINAIRE DE RIMOUSKI", "designationCode": "C", "categoryCode": "20", "address": "49 OUEST ST JEAN BAPTISTE", "city": "RIMOUSKI", "province": "QC", "country": "CA", "postalCode": "G5L4J2", "twitter": "None", "instagram": "None", "facebook": "None", "youtube": "None", "website": "None", "summary": "None", "logo": "None", "latitude": 48.4472260155639, "longitude": -68.52486508765837}, "118945948RR0001": {"name": "GRAND SEMINAIRE DE SAINT-HYACINTHE", "designationCode": "C", "categoryCode": "20", "address": "1900 RUE GIROUARD O", "city": "SAINT-HYACINTHE", "province": "QC", "country": "CA", "postalCode": "J2S7B4", "twitter": "None", "instagram": "None", "facebook": "None", "youtube": "None", "website": "None", "summary": "None", "logo": "None", "latitude": 45.62391797590707, "longitude": -72.94864985033708}, "107447484RR0001": {"name": "GRAND SEMINAIRE DE TROIS-RIVIERES", "designationCode": "C", "categoryCode": "20", "address": "362 BONAVENTURE CP 879", "city": "TROIS RIVIERES", "province": "QC", "country": "CA", "postalCode": "G9A5J9", "twitter": "None", "instagram": "None", "facebook": "None", "youtube": "None", "website": "None", "summary": "None", "logo": "None", "latitude": 46.34404310744968, "longitude": -72.54272521008151}, "856549878RR0001": {"name": "GRAND THEATRE FOUNDATION", "designationCode": "A", "categoryCode": "03", "address": "PO BOX 514", "city": "KINGSTON", "province": "ON", "country": "CA", "postalCode": "K7L4W5", "twitter": "None", "instagram": "None", "facebook": "None", "youtube": "None", "website": "None", "summary": "None", "logo": "None", "latitude": 44.23153200000006, "longitude": -76.47933049999993}, "139905152RR0001": {"name": "GRAND VALLEY CHRISTIAN CENTRE", "designationCode": "C", "categoryCode": "47", "address": "379 GOLF RD", "city": "BRANTFORD", "province": "ON", "country": "CA", "postalCode": "N3T5L8", "twitter": "None", "instagram": "None", "facebook": "None", "youtube": "None", "website": "None", "summary": "None", "logo": "None", "latitude": 43.180942428270214, "longitude": -80.31218625882005}, "118946037RR0001": {"name": "GRAND VALLEY CHURCH OF CHRIST", "designationCode": "C", "categoryCode": "39", "address": "50 AMARANTH ST E", "city": "GRAND VALLEY", "province": "ON", "country": "CA", "postalCode": "L9W5L2", "twitter": "None", "instagram": "None", "facebook": "None", "youtube": "None", "website": "None", "summary": "None", "logo": "None", "latitude": 43.89958419458693, "longitude": -80.31298864530548}, "130004344RR0001": {"name": "GRAND VALLEY COMMUNITY CHURCH", "designationCode": "C", "categoryCode": "39", "address": "1620 BRAECREST DR.", "city": "BRANDON", "province": "MB", "country": "CA", "postalCode": "R7B0B3", "twitter": "None", "instagram": "None", "facebook": "None", "youtube": "None", "website": "None", "summary": "None", "logo": "None", "latitude": 49.871728483409825, "longitude": -99.96014160935425}, "119288918RR1054": {"name": "GRAND VALLEY CONGREGATION OF JEHOVAH'S WITNESSES", "designationCode": "C", "categoryCode": "61", "address": "22 - 54 DUFFERIN AVE", "city": "BRANTFORD", "province": "ON", "country": "CA", "postalCode": "N3T4P5", "twitter": "None", "instagram": "None", "facebook": "None", "youtube": "None", "website": "None", "summary": "None", "logo": "None", "latitude": 43.1451729161274, "longitude": -80.27698616969035}, "872604772RR0001": {"name": "GRAND VALLEY EDUCATIONAL SOCIETY", "designationCode": "C", "categoryCode": "20", "address": "39 NELSON STREET", "city": "BRANTFORD", "province": "ON", "country": "CA", "postalCode": "N3T2M7", "twitter": "None", "instagram": "None", "facebook": "None", "youtube": "None", "website": "None", "summary": "None", "logo": "None", "latitude": 43.14202252510254, "longitude": -80.2651417440995}, "890260979RR0001": {"name": "GRAND VALLEY LUTHERAN CHURCH,", "designationCode": "C", "categoryCode": "32", "address": "PO BOX 33", "city": "LISIEUX", "province": "SK", "country": "CA", "postalCode": "S0H2R0", "twitter": "None", "instagram": "None", "facebook": "None", "youtube": "None", "website": "None", "summary": "None", "logo": "None", "latitude": 49.27857000000006, "longitude": -105.97451999999998}, "119288918RR0060": {"name": "GRAND VALLEY ONTARIO CONGREGATION OF JEHOVAH'S WITNESSES", "designationCode": "C", "categoryCode": "61", "address": "45 COOPER ST", "city": "GRAND VALLEY", "province": "ON", "country": "CA", "postalCode": "L9W5N5", "twitter": "None", "instagram": "None", "facebook": "None", "youtube": "None", "website": "None", "summary": "None", "logo": "None", "latitude": 43.894894316406, "longitude": -80.31287662528152}, "118946078RR0001": {"name": "GRAND VALLEY PUBLIC LIBRARY BOARD", "designationCode": "C", "categoryCode": "50", "address": "4 AMARANTH ST E", "city": "GRAND VALLEY", "province": "ON", "country": "CA", "postalCode": "L9W5L2", "twitter": "None", "instagram": "None", "facebook": "None", "youtube": "None", "website": "None", "summary": "None", "logo": "None", "latitude": 43.8991761215252, "longitude": -80.31515721221193}, "118946086RR0001": {"name": "GRAND VALLEY TRAILS ASSOCIATION", "designationCode": "C", "categoryCode": "56", "address": "PO BOX 40068", "city": "WATERLOO", "province": "ON", "country": "CA", "postalCode": "N2J4V1", "twitter": "None", "instagram": "None", "facebook": "None", "youtube": "None", "website": "None", "summary": "None", "logo": "None", "latitude": 43.46338200000005, "longitude": -80.52075349999993}, "892354564RR0001": {"name": "GRAND VALLEY WOODCARVERS", "designationCode": "C", "categoryCode": "22", "address": "PO BOX 25011 SHOPPERS DRUG    MART POSTAL OUTLET", "city": "KITCHENER", "province": "ON", "country": "CA", "postalCode": "N2A4A5", "twitter": "None", "instagram": "None", "facebook": "None", "youtube": "None", "website": "None", "summary": "None", "logo": "None", "latitude": 43.45104008165473, "longitude": -80.44395000115378}, "877867762RR0001": {"name": "GRAND-COEUR SAINT-LOUIS-DE-FRANCE", "designationCode": "C", "categoryCode": "09", "address": "1170 RUE LOUIS-DE-FRANCE", "city": "TROIS RIVIERES", "province": "QC", "country": "CA", "postalCode": "G8W2C2", "twitter": "None", "instagram": "None", "facebook": "None", "youtube": "None", "website": "None", "summary": "None", "logo": "None", "latitude": 46.429703163454455, "longitude": -72.58638592919404}, "132147232RR0001": {"name": "GRANDE CACHE CHILD CARE SOCIETY", "designationCode": "C", "categoryCode": "56", "address": "BOX 1540", "city": "GRANDE CACHE", "province": "AB", "country": "CA", "postalCode": "T0E0Y0", "twitter": "None", "instagram": "None", "facebook": "None", "youtube": "None", "website": "None", "summary": "None", "logo": "None", "latitude": 53.888100000000065, "longitude": -119.11633999999998}, "825731748RR0001": {"name": "GRANDE CACHE CORNERSTONE MOUNTAIN ASSEMBLY", "designationCode": "C", "categoryCode": "36", "address": "PO BOX 358", "city": "GRANDE CACHE", "province": "AB", "country": "CA", "postalCode": "T0E0Y0", "twitter": "None", "instagram": "None", "facebook": "None", "youtube": "None", "website": "None", "summary": "None", "logo": "None", "latitude": 53.888100000000065, "longitude": -119.11633999999998}, "869219535RR0001": {"name": "GRANDE CACHE SEARCH AND RESCUE SOCIETY", "designationCode": "C", "categoryCode": "59", "address": "BOX 866", "city": "GRANDE CACHE", "province": "AB", "country": "CA", "postalCode": "T0E0Y0", "twitter": "None", "instagram": "None", "facebook": "None", "youtube": "None", "website": "None", "summary": "None", "logo": "None", "latitude": 53.888100000000065, "longitude": -119.11633999999998}, "107446593RR0001": {"name": "GRANDE CACHE TRANSITION HOUSE SOCIETY", "designationCode": "C", "categoryCode": "09", "address": "BOX 1242", "city": "GRANDE CACHE", "province": "AB", "country": "CA", "postalCode": "T0E0Y0", "twitter": "None", "instagram": "None", "facebook": "None", "youtube": "None", "website": "None", "summary": "None", "logo": "None", "latitude": 53.888100000000065, "longitude": -119.11633999999998}, "107446601RR0001": {"name": "GRANDE CACHE UNITED CHURCH", "designationCode": "C", "categoryCode": "44", "address": "PO BOX 655", "city": "GRANDE CACHE", "province": "AB", "country": "CA", "postalCode": "T0E0Y0", "twitter": "None", "instagram": "None", "facebook": "None", "youtube": "None", "website": "None", "summary": "None", "logo": "None", "latitude": 53.888100000000065, "longitude": -119.11633999999998}, "107446619RR0001": {"name": "GRANDE PRAIRIE & DISTRICT GOLDEN AGE CENTRE", "designationCode": "C", "categoryCode": "56", "address": "10222-101 AVENUE", "city": "GRANDE PRAIRIE", "province": "AB", "country": "CA", "postalCode": "T8V0Y5", "twitter": "None", "instagram": "None", "facebook": "None", "youtube": "None", "website": "None", "summary": "None", "logo": "None", "latitude": 55.171622460470736, "longitude": -118.8025205750182}, "118945419RR0001": {"name": "GRANDE PRAIRIE & DISTRICT S.P.C.A.", "designationCode": "C", "categoryCode": "54", "address": "12220 104 AVE", "city": "GRANDE PRAIRIE", "province": "AB", "country": "CA", "postalCode": "T8V8A8", "twitter": "None", "instagram": "None", "facebook": "None", "youtube": "None", "website": "None", "summary": "None", "logo": "None", "latitude": 55.1744305199084, "longitude": -118.86641269747244}, "130841810RR0001": {"name": "GRANDE PRAIRIE & DISTRICT SOCIETY FOR CHRISTIAN EDUCATION", "designationCode": "C", "categoryCode": "20", "address": "8202 110 ST", "city": "GRAND-PRAIRIE", "province": "AB", "country": "CA", "postalCode": "T8W1M3", "twitter": "None", "instagram": "None", "facebook": "None", "youtube": "None", "website": "None", "summary": "None", "logo": "None", "latitude": 55.15536611518263, "longitude": -118.82741805946631}, "131894461RR0001": {"name": "GRANDE PRAIRIE & DISTRICT VICTIM SERVICES ASSOCIATION", "designationCode": "C", "categoryCode": "59", "address": "10202 99 ST", "city": "GRANDE PRAIRIE", "province": "AB", "country": "CA", "postalCode": "T8V2H4", "twitter": "None", "instagram": "None", "facebook": "None", "youtube": "None", "website": "None", "summary": "None", "logo": "None", "latitude": 55.17269958090483, "longitude": -118.7917280816833}, "136762127RR0001": {"name": "GRANDE PRAIRIE AND DISTRICT BURN SOCIETY", "designationCode": "C", "categoryCode": "59", "address": "BOX 21314", "city": "GRANDE PRAIRIE", "province": "AB", "country": "CA", "postalCode": "T8V6W7", "twitter": "None", "instagram": "None", "facebook": "None", "youtube": "None", "website": "None", "summary": "None", "logo": "None", "latitude": 55.171122000000054, "longitude": -118.79491399999993}, "896151461RR0001": {"name": "GRANDE PRAIRIE AND DISTRICT CATHOLIC SCHOOLS EDUCATION FOUNDATION", "designationCode": "A", "categoryCode": "21", "address": "9902 101 ST", "city": "GRANDE PRAIRIE", "province": "AB", "country": "CA", "postalCode": "T8V2P4", "twitter": "None", "instagram": "None", "facebook": "None", "youtube": "None", "website": "None", "summary": "None", "logo": "None", "latitude": 55.16985516319323, "longitude": -118.79772012136316}, "872266598RR0001": {"name": "GRANDE PRAIRIE AND DISTRICT GRIEF SUPPORT ASSOCIATION", "designationCode": "C", "categoryCode": "09", "address": "314-10031 103RD AVE", "city": "GRANDE PRAIRIE", "province": "AB", "country": "CA", "postalCode": "T8V1B9", "twitter": "None", "instagram": "None", "facebook": "None", "youtube": "None", "website": "None", "summary": "None", "logo": "None", "latitude": 55.17345248124544, "longitude": -118.797444}, "118945377RR0001": {"name": "GRANDE PRAIRIE AND DISTRICT MUSIC FESTIVAL ASSOCIATION", "designationCode": "C", "categoryCode": "22", "address": "BOX 174", "city": "GRANDE PRAIRIE", "province": "AB", "country": "CA", "postalCode": "T8V3A4", "twitter": "None", "instagram": "None", "facebook": "None", "youtube": "None", "website": "None", "summary": "None", "logo": "None", "latitude": 55.171122000000054, "longitude": -118.79491399999993}, "857000400RR0001": {"name": "GRANDE PRAIRIE CHILDREN'S LITERATURE ROUNDTABLE FOUNDATION", "designationCode": "C", "categoryCode": "21", "address": "7631 - 98 ST", "city": "GRANDE PRAIRIE", "province": "AB", "country": "CA", "postalCode": "T8V4A1", "twitter": "None", "instagram": "None", "facebook": "None", "youtube": "None", "website": "None", "summary": "None", "logo": "None", "latitude": 55.15037435221301, "longitude": -118.78854020021376}, "106923642RR0001": {"name": "GRANDE PRAIRIE CHURCH OF CHRIST", "designationCode": "C", "categoryCode": "39", "address": "9602 92 AVE", "city": "GRANDE PRAIRIE", "province": "AB", "country": "CA", "postalCode": "T8V0H4", "twitter": "None", "instagram": "None", "facebook": "None", "youtube": "None", "website": "None", "summary": "None", "logo": "None", "latitude": 55.16349645383431, "longitude": -118.7834903068267}, "107446734RR0001": {"name": "GRANDE PRAIRIE FAMILY EDUCATION SOCIETY", "designationCode": "C", "categoryCode": "59", "address": "10122 102 AVE", "city": "GRANDE PRAIRIE", "province": "AB", "country": "CA", "postalCode": "T8V1A1", "twitter": "None", "instagram": "None", "facebook": "None", "youtube": "None", "website": "None", "summary": "None", "logo": "None", "latitude": 55.17253152264969, "longitude": -118.79949069317328}, "107443285RR0001": {"name": "GRANDE PRAIRIE FRIENDSHIP CENTRE", "designationCode": "C", "categoryCode": "09", "address": "10507 98 AVE", "city": "GRANDE PRAIRIE", "province": "AB", "country": "CA", "postalCode": "T8V4L1", "twitter": "None", "instagram": "None", "facebook": "None", "youtube": "None", "website": "None", "summary": "None", "logo": "None", "latitude": 55.16885551399403, "longitude": -118.81149283236194}, "118945443RR0001": {"name": "GRANDE PRAIRIE INDOOR PLAYGROUND SOCIETY", "designationCode": "C", "categoryCode": "01", "address": "PO BOX 1293  STN MAIN", "city": "GRANDE PRAIRIE", "province": "AB", "country": "CA", "postalCode": "T8V4Z1", "twitter": "None", "instagram": "None", "facebook": "None", "youtube": "None", "website": "None", "summary": "None", "logo": "None", "latitude": 55.171122000000054, "longitude": -118.79491399999993}, "893138669RR0001": {"name": "GRANDE PRAIRIE LIVE THEATRE SOCIETY", "designationCode": "C", "categoryCode": "22", "address": "10130 98 AVENUE", "city": "GRANDE PRAIRIE", "province": "AB", "country": "CA", "postalCode": "T8V0P6", "twitter": "None", "instagram": "None", "facebook": "None", "youtube": "None", "website": "None", "summary": "None", "logo": "None", "latitude": 55.1689054565756, "longitude": -118.80004402553521}, "889095568RR0001": {"name": "GRANDE PRAIRIE NATIVE BIBLE FELLOWSHIP", "designationCode": "C", "categoryCode": "39", "address": "P.O. BOX 21131                RPO CO-OP PLAZA", "city": "GRANDE PRAIRIE", "province": "AB", "country": "CA", "postalCode": "T8V6W7", "twitter": "None", "instagram": "None", "facebook": "None", "youtube": "None", "website": "None", "summary": "None", "logo": "None", "latitude": 55.17067000000003, "longitude": -118.78942999999998}, "823107693RR0001": {"name": "GRANDE PRAIRIE NORTH COUNTRY COMMUNITY CHURCH OF THE NAZARENE", "designationCode": "C", "categoryCode": "39", "address": "PO BOX 21278", "city": "GRANDE PRAIRIE", "province": "AB", "country": "CA", "postalCode": "T8V6W7", "twitter": "None", "instagram": "None", "facebook": "None", "youtube": "None", "website": "None", "summary": "None", "logo": "None", "latitude": 55.171122000000054, "longitude": -118.79491399999993}, "889304465RR0001": {"name": "GRANDE PRAIRIE PEOPLE'S FULL GOSPEL ASSEMBLY", "designationCode": "C", "categoryCode": "39", "address": "11850 108 STREET", "city": "GRANDE PRAIRIE", "province": "AB", "country": "CA", "postalCode": "T8V8G5", "twitter": "None", "instagram": "None", "facebook": "None", "youtube": "None", "website": "None", "summary": "None", "logo": "None", "latitude": 55.186919483467435, "longitude": -118.82016780458171}, "118945468RR0001": {"name": "GRANDE PRAIRIE PUBLIC LIBRARY", "designationCode": "C", "categoryCode": "50", "address": "101-9839 103 AVE", "city": "GRANDE PRAIRIE", "province": "AB", "country": "CA", "postalCode": "T8V6M7", "twitter": "None", "instagram": "None", "facebook": "None", "youtube": "None", "website": "None", "summary": "None", "logo": "None", "latitude": 55.173629536211045, "longitude": -118.79001033527612}, "107446668RR0001": {"name": "GRANDE PRAIRIE REGIONAL AGRICULTURAL AND EXHIBITION SOCIETY", "designationCode": "C", "categoryCode": "56", "address": "PO BOX 370", "city": "GRANDE PRAIRIE", "province": "AB", "country": "CA", "postalCode": "T8V3A5", "twitter": "None", "instagram": "None", "facebook": "None", "youtube": "None", "website": "None", "summary": "None", "logo": "None"}, "118945492RR0001": {"name": "GRANDE PRAIRIE REGIONAL COLLEGE", "designationCode": "C", "categoryCode": "20", "address": "10726 106 AVENUE", "city": "GRANDE PRAIRIE", "province": "AB", "country": "CA", "postalCode": "T8V4C4", "twitter": "None", "instagram": "None", "facebook": "None", "youtube": "None", "website": "None", "summary": "None", "logo": "None", "latitude": 55.175526823441956, "longitude": -118.82005659537387}, "106693047RR0022": {"name": "GRANDE PRAIRIE SEVENTH-DAY ADVENTIST CHURCH", "designationCode": "C", "categoryCode": "41", "address": "5816 HIGHWAY, 2A", "city": "LACOMBE", "province": "AB", "country": "CA", "postalCode": "T4L2G5", "twitter": "None", "instagram": "None", "facebook": "None", "youtube": "None", "website": "None", "summary": "None", "logo": "None", "latitude": 52.474063600197404, "longitude": -113.71692568401835}, "122948508RR0001": {"name": "GRANDE PRAIRIE VOLUNTEER SERVICES BUREAU ASSOCIATION", "designationCode": "C", "categoryCode": "59", "address": "BLD C 10116-102 AVENUE", "city": "GRANDE PRAIRIE", "province": "AB", "country": "CA", "postalCode": "T8V1A1", "twitter": "None", "instagram": "None", "facebook": "None", "youtube": "None", "website": "None", "summary": "None", "logo": "None", "latitude": 55.17254649653755, "longitude": -118.7980101931733}, "129126462RR0001": {"name": "GRANDE PRAIRIE WOMEN'S RESIDENCE ASSOCIATION", "designationCode": "C", "categoryCode": "59", "address": "PO BOX 1395", "city": "GRANDE PRAIRIE", "province": "AB", "country": "CA", "postalCode": "T8V4Z2", "twitter": "None", "instagram": "None", "facebook": "None", "youtube": "None", "website": "None", "summary": "None", "logo": "None", "latitude": 55.171122000000054, "longitude": -118.79491399999993}, "875596603RR0001": {"name": "GRANDE PRAIRIE YOUTH EMERGENCY SHELTER SOCIETY", "designationCode": "C", "categoryCode": "01", "address": "PO BOX 21099 RPO CO-OP PLAZA", "city": "GRANDE PRAIRIE", "province": "AB", "country": "CA", "postalCode": "T8V6W7", "twitter": "None", "instagram": "None", "facebook": "None", "youtube": "None", "website": "None", "summary": "None", "logo": "None", "latitude": 55.17067000000003, "longitude": -118.78942999999998}, "102169158RR0001": {"name": "GRANDE SPIRIT FOUNDATION", "designationCode": "C", "categoryCode": "09", "address": "9505 102 AVENUE", "city": "GRANDE PRAIRIE", "province": "AB", "country": "CA", "postalCode": "T8V7G9", "twitter": "None", "instagram": "None", "facebook": "None", "youtube": "None", "website": "None", "summary": "None", "logo": "None", "latitude": 55.172461528420754, "longitude": -118.78047947155059}, "107447054RR0001": {"name": "GRANDIN AFTER SCHOOL CARE PROGRAM", "designationCode": "C", "categoryCode": "01", "address": "9844 110TH ST NW", "city": "EDMONTON", "province": "AB", "country": "CA", "postalCode": "T5K1J2", "twitter": "None", "instagram": "None", "facebook": "None", "youtube": "None", "website": "None", "summary": "None", "logo": "None", "latitude": 53.53664324562871, "longitude": -113.51033018659416}, "868012444RR0001": {"name": "GRANDIN PROVIDENT FUND TRUST/LE FOND DE PREVOYANCE GRANDIN", "designationCode": "A", "categoryCode": "45", "address": "5 ST VITAL AVENUE", "city": "ST ALBERT", "province": "AB", "country": "CA", "postalCode": "T8N1K1", "twitter": "None", "instagram": "None", "facebook": "None", "youtube": "None", "website": "None", "summary": "None", "logo": "None", "latitude": 53.6385147571699, "longitude": -113.63019157288342}, "861319754RR0001": {"name": "GRANDIR SANS FRONTIERES/GROWING WITHOUT BORDERS", "designationCode": "C", "categoryCode": "09", "address": "4932 RUE WELLINGTON", "city": "VERDUN", "province": "QC", "country": "CA", "postalCode": "H4G1X6", "twitter": "None", "instagram": "None", "facebook": "None", "youtube": "None", "website": "None", "summary": "None", "logo": "None", "latitude": 45.45628820260836, "longitude": -73.56760518731625}, "119288918RR0594": {"name": "GRANDRAVINE CONGREGATION OF JEHOVAH'S WITNESSES", "designationCode": "C", "categoryCode": "61", "address": "77 CHAMPAGNE DRIVE", "city": "NORTH YORK", "province": "ON", "country": "CA", "postalCode": "M3J2C6", "twitter": "None", "instagram": "None", "facebook": "None", "youtube": "None", "website": "None", "summary": "None", "logo": "None", "latitude": 43.76610834999131, "longitude": -79.4708426732649}, "858305501RR0001": {"name": "GRANDRAVINE SPECIAL HOCKEY", "designationCode": "C", "categoryCode": "56", "address": "48 MANGROVE ROAD", "city": "TORONTO", "province": "ON", "country": "CA", "postalCode": "M6L2A3", "twitter": "None", "instagram": "None", "facebook": "None", "youtube": "None", "website": "None", "summary": "None", "logo": "None", "latitude": 43.715209965866435, "longitude": -79.49605914123747}, "133354704RR0001": {"name": "GRANDS AMIS DE LA VALLEE", "designationCode": "C", "categoryCode": "09", "address": "10 - 56 RUE DU PONT", "city": "AMQUI", "province": "QC", "country": "CA", "postalCode": "G5J0E5", "twitter": "None", "instagram": "None", "facebook": "None", "youtube": "None", "website": "None", "summary": "None", "logo": "None", "latitude": 48.46591184984709, "longitude": -67.43047695920133}, "860362151RR0001": {"name": "GRANDS FRERES ET GRANDES SOEURS DE TROIS-RIVIERES", "designationCode": "C", "categoryCode": "09", "address": "10 RUE VAILLANCOURT           BUREAU 304", "city": "TROIS RIVIERES", "province": "QC", "country": "CA", "postalCode": "G8T1Y5", "twitter": "None", "instagram": "None", "facebook": "None", "youtube": "None", "website": "None", "summary": "None", "logo": "None", "latitude": 46.38076832696625, "longitude": -72.54524388164337}, "118945989RR0001": {"name": "GRANDS FRERES ET GRANDES SOEURS, LAC SAINT-JEAN NORD INC.", "designationCode": "C", "categoryCode": "01", "address": "106-1420 BOUL. WALLBERG", "city": "DOLBEAU-MISTASSINI", "province": "QC", "country": "CA", "postalCode": "G8L1H4", "twitter": "None", "instagram": "None", "facebook": "None", "youtube": "None", "website": "None", "summary": "None", "logo": "None", "latitude": 48.8789510177736, "longitude": -72.22900946514528}, "107617565RR0001": {"name": "GRANDS FRERES GRANDES SOEURS DU GRAND MONTREAL / BIG BROTHERS BIG SISTERS OF GREATER MONTREAL", "designationCode": "C", "categoryCode": "09", "address": "202 - 3155 RUE HOCHELAGA", "city": "MONTREAL", "province": "QC", "country": "CA", "postalCode": "H1W1G4", "twitter": "None", "instagram": "None", "facebook": "None", "youtube": "None", "website": "None", "summary": "None", "logo": "None", "latitude": 45.542420024986974, "longitude": -73.55416159259026}, "118946003RR0001": {"name": "GRANDS-PARENTS TENDRESSE", "designationCode": "C", "categoryCode": "09", "address": "374 RUE LAVIOLETTE", "city": "ST-JEROME", "province": "QC", "country": "CA", "postalCode": "J7Y2S9", "twitter": "None", "instagram": "None", "facebook": "None", "youtube": "None", "website": "None", "summary": "None", "logo": "None", "latitude": 45.7782482828207, "longitude": -74.00692284834653}, "872803598RR0001": {"name": "GRANDVIEW & DISTRICT COMMUNITY FOUNDATION INC", "designationCode": "A", "categoryCode": "13", "address": "PO BOX 238", "city": "GRANDVIEW", "province": "MB", "country": "CA", "postalCode": "R0L0Y0", "twitter": "None", "instagram": "None", "facebook": "None", "youtube": "None", "website": "None", "summary": "None", "logo": "None", "latitude": 51.17220000000003, "longitude": -100.69866999999994}, "869355016RR0001": {"name": "GRANDVIEW & DISTRICT COMMUNITY RESOURCE COUNCIL, INC.", "designationCode": "C", "categoryCode": "09", "address": "BOX 235", "city": "GRANDVIEW", "province": "MB", "country": "CA", "postalCode": "R0L0Y0", "twitter": "None", "instagram": "None", "facebook": "None", "youtube": "None", "website": "None", "summary": "None", "logo": "None", "latitude": 51.17220000000003, "longitude": -100.69866999999994}, "130485196RR0001": {"name": "GRANDVIEW ADVENTIST ACADEMY", "designationCode": "C", "categoryCode": "20", "address": "3975 HWY 6", "city": "MT HOPE", "province": "ON", "country": "CA", "postalCode": "L0R1W0", "twitter": "None", "instagram": "None", "facebook": "None", "youtube": "None", "website": "None", "summary": "None", "logo": "None", "latitude": 43.134247743003044, "longitude": -79.92446496212057}, "118946094RR0001": {"name": "GRANDVIEW BAPTIST CHURCH", "designationCode": "C", "categoryCode": "31", "address": "250 OLD CHICOPEE DR", "city": "KITCHENER", "province": "ON", "country": "CA", "postalCode": "N2A4J2", "twitter": "None", "instagram": "None", "facebook": "None", "youtube": "None", "website": "None", "summary": "None", "logo": "None", "latitude": 43.442621024986956, "longitude": -80.43122530287425}, "881812812RR0001": {"name": "GRANDVIEW CALVARY BAPTIST CHURCH", "designationCode": "C", "categoryCode": "31", "address": "1803 EAST 1ST AVE", "city": "VANCOUVER", "province": "BC", "country": "CA", "postalCode": "V5N1B2", "twitter": "None", "instagram": "None", "facebook": "None", "youtube": "None", "website": "None", "summary": "None", "logo": "None", "latitude": 49.269606525967916, "longitude": -123.06736308090484}, "118945559RR0001": {"name": "GRANDVIEW CHAPEL", "designationCode": "C", "categoryCode": "39", "address": "900-94TH AVENUE", "city": "DAWSON CREEK", "province": "BC", "country": "CA", "postalCode": "V1G1G2", "twitter": "None", "instagram": "None", "facebook": "None", "youtube": "None", "website": "None", "summary": "None", "logo": "None", "latitude": 55.76873247879259, "longitude": -120.226401}, "107447856RR0001": {"name": "GRANDVIEW CHILDREN'S CENTRE", "designationCode": "C", "categoryCode": "20", "address": "600 TOWNLINE ROAD SOUTH", "city": "OSHAWA", "province": "ON", "country": "CA", "postalCode": "L1H7K6", "twitter": "None", "instagram": "None", "facebook": "None", "youtube": "None", "website": "None", "summary": "None", "logo": "None", "latitude": 43.891981775722904, "longitude": -78.80708513344624}, "891058547RR0001": {"name": "GRANDVIEW CHILDREN'S FOUNDATION", "designationCode": "A", "categoryCode": "23", "address": "600 TOWNLINE RD S", "city": "OSHAWA", "province": "ON", "country": "CA", "postalCode": "L1H7K6", "twitter": "None", "instagram": "None", "facebook": "None", "youtube": "None", "website": "None", "summary": "None", "logo": "None", "latitude": 43.891981775722904, "longitude": -78.80708513344624}, "118946110RR0001": {"name": "GRANDVIEW CHURCH OF GOD IN CHRIST, MENNONITE", "designationCode": "C", "categoryCode": "34", "address": "RR 1", "city": "GILBERT PLAINS", "province": "MB", "country": "CA", "postalCode": "R0L0X0", "twitter": "None", "instagram": "None", "facebook": "None", "youtube": "None", "website": "None", "summary": "None", "logo": "None", "latitude": 51.144900000000064, "longitude": -100.48893999999996}, "121934079RR0001": {"name": "GRANDVIEW COMMUNITY CENTRE ASSOCIATION", "designationCode": "C", "categoryCode": "56", "address": "3350 VICTORIA DR", "city": "VANCOUVER", "province": "BC", "country": "CA", "postalCode": "V5N4M4", "twitter": "None", "instagram": "None", "facebook": "None", "youtube": "None", "website": "None", "summary": "None", "logo": "None", "latitude": 49.25496473749123, "longitude": -123.0660334371593}, "118946151RR0001": {"name": "GRANDVIEW DROP IN CENTRE INC.", "designationCode": "C", "categoryCode": "56", "address": "432 MAIN ST BOX 101", "city": "GRANDVIEW", "province": "MB", "country": "CA", "postalCode": "R0L0Y0", "twitter": "None", "instagram": "None", "facebook": "None", "youtube": "None", "website": "None", "summary": "None", "logo": "None", "latitude": 51.17349267526579, "longitude": -100.69928972946052}, "107447831RR0001": {"name": "GRANDVIEW FAMILY WORSHIP CENTRE", "designationCode": "C", "categoryCode": "36", "address": "BOX 211                       120 JACKSON AVENUE", "city": "GRANDVIEW", "province": "MB", "country": "CA", "postalCode": "R0L0Y0", "twitter": "None", "instagram": "None", "facebook": "None", "youtube": "None", "website": "None", "summary": "None", "logo": "None", "latitude": 51.17425648668147, "longitude": -100.695501}, "898022728RR0001": {"name": "GRANDVIEW LODGE AUXILIARY", "designationCode": "C", "categoryCode": "19", "address": "219 EVANS STREET", "city": "THUNDER BAY", "province": "ON", "country": "CA", "postalCode": "P7B5H5", "twitter": "None", "instagram": "None", "facebook": "None", "youtube": "None", "website": "None", "summary": "None", "logo": "None", "latitude": 48.438160533989326, "longitude": -89.25970511867374}, "118946177RR0001": {"name": "GRANDVIEW NURSERY SCHOOL INC.", "designationCode": "C", "categoryCode": "20", "address": "BOX 218", "city": "GRANDVIEW", "province": "MB", "country": "CA", "postalCode": "R0L0Y0", "twitter": "None", "instagram": "None", "facebook": "None", "youtube": "None", "website": "None", "summary": "None", "logo": "None", "latitude": 51.17220000000003, "longitude": -100.69866999999994}, "118818491RR0079": {"name": "GRANDVIEW SEVENTH-DAY ADVENTIST CHURCH", "designationCode": "C", "categoryCode": "41", "address": "PO 1000", "city": "ABBOTSFORD", "province": "BC", "country": "CA", "postalCode": "V2S4P5", "twitter": "None", "instagram": "None", "facebook": "None", "youtube": "None", "website": "None", "summary": "None", "logo": "None", "latitude": 49.03851300000005, "longitude": -122.29441549999993}, "107447872RR0001": {"name": "GRANDVIEW UNITED CHURCH", "designationCode": "C", "categoryCode": "44", "address": "BOX 370", "city": "GRANDVIEW", "province": "MB", "country": "CA", "postalCode": "R0L0Y0", "twitter": "None", "instagram": "None", "facebook": "None", "youtube": "None", "website": "None", "summary": "None", "logo": "None", "latitude": 51.17220000000003, "longitude": -100.69866999999994}, "898994728RR0001": {"name": "GRANDVIEW-WOODLAND COMMUNITY POLICE OFFICE SOCIETY", "designationCode": "C", "categoryCode": "59", "address": "1977 COMMERCIAL DRIVE", "city": "VANCOUVER", "province": "BC", "country": "CA", "postalCode": "V5N4A8", "twitter": "None", "instagram": "None", "facebook": "None", "youtube": "None", "website": "None", "summary": "None", "logo": "None", "latitude": 49.267156987902936, "longitude": -123.06973828548352}, "886895127RR0001": {"name": "GRANDVIEW'S TINY TREASURES CHILDREN'S CENTRE INC.", "designationCode": "C", "categoryCode": "01", "address": "BOX 386                       535 MAIN STREET", "city": "GRANDVIEW", "province": "MB", "country": "CA", "postalCode": "R0L0Y0", "twitter": "None", "instagram": "None", "facebook": "None", "youtube": "None", "website": "None", "summary": "None", "logo": "None", "latitude": 51.17512761719183, "longitude": -100.69642100922067}, "118946243RR0001": {"name": "GRANGEVILLE BAPTIST CHURCH", "designationCode": "C", "categoryCode": "31", "address": "19 BECKWITH ROAD", "city": "HARCOURT", "province": "NB", "country": "CA", "postalCode": "E4T2P8", "twitter": "None", "instagram": "None", "facebook": "None", "youtube": "None", "website": "None", "summary": "None", "logo": "None", "latitude": 46.48687653064807, "longitude": -65.25967199056261}, "891311367RR0001": {"name": "GRANGEVILLE UNITED CHURCH CEMETERY FUND", "designationCode": "C", "categoryCode": "59", "address": "49 WARD ROAD", "city": "HARCOURT", "province": "NB", "country": "CA", "postalCode": "E4T2X5", "twitter": "None", "instagram": "None", "facebook": "None", "youtube": "None", "website": "None", "summary": "None", "logo": "None", "latitude": 46.49899503832946, "longitude": -65.27121655697796}, "892432725RR0001": {"name": "GRANISLE PUBLIC LIBRARY ASSOCIATION", "designationCode": "C", "categoryCode": "50", "address": "PO BOX 550", "city": "GRANISLE", "province": "BC", "country": "CA", "postalCode": "V0J1W0", "twitter": "None", "instagram": "None", "facebook": "None", "youtube": "None", "website": "None", "summary": "None", "logo": "None", "latitude": 54.9212895163928, "longitude": -126.54672808639513}, "118946318RR0001": {"name": "GRANT MEMORIAL BAPTIST CHURCH INC", "designationCode": "C", "categoryCode": "31", "address": "877 WILKES AVE", "city": "WINNIPEG", "province": "MB", "country": "CA", "postalCode": "R3P1B8", "twitter": "None", "instagram": "None", "facebook": "None", "youtube": "None", "website": "None", "summary": "None", "logo": "None", "latitude": 49.847063039536486, "longitude": -97.18311726032502}, "830899217RR0001": {"name": "GRANTHAM MENNONITE BRETHREN CHURCH", "designationCode": "C", "categoryCode": "34", "address": "469 GRANTHAM AVENUE", "city": "ST CATHARINES", "province": "ON", "country": "CA", "postalCode": "L2M3J2", "twitter": "None", "instagram": "None", "facebook": "None", "youtube": "None", "website": "None", "summary": "None", "logo": "None", "latitude": 43.196328356367964, "longitude": -79.22128162709826}, "118946326RR0001": {"name": "GRANTON COMMUNITY BIBLE CHURCH INC.", "designationCode": "C", "categoryCode": "39", "address": "24294 ADELAIDE ST N           RR 3", "city": "LUCAN", "province": "ON", "country": "CA", "postalCode": "N0M2J0", "twitter": "None", "instagram": "None", "facebook": "None", "youtube": "None", "website": "None", "summary": "None", "logo": "None", "latitude": 43.17415445992249, "longitude": -81.3265588164356}, "892975475RR0001": {"name": "GRANUM CHARITABLE TRUST", "designationCode": "B", "categoryCode": "39", "address": "3425 2 AVENUE SOUTH", "city": "LETHBRIDGE", "province": "AB", "country": "CA", "postalCode": "T1J4V1", "twitter": "None", "instagram": "None", "facebook": "None", "youtube": "None", "website": "None", "summary": "None", "logo": "None", "latitude": 49.696839530439966, "longitude": -112.78914308381903}, "861672723RR0001": {"name": "GRANUM EDUCATIONAL SUPPORT SOCIETY", "designationCode": "C", "categoryCode": "21", "address": "POST OFFICE BOX 220", "city": "GRANUM", "province": "AB", "country": "CA", "postalCode": "T0L1A0", "twitter": "None", "instagram": "None", "facebook": "None", "youtube": "None", "website": "None", "summary": "None", "logo": "None", "latitude": 49.873620000000074, "longitude": -113.51807999999994}, "118946367RR0001": {"name": "GRANUM EVANGELICAL LUTHERAN CHURCH", "designationCode": "C", "categoryCode": "32", "address": "BOX 101", "city": "GRANUM", "province": "AB", "country": "CA", "postalCode": "T0L1A0", "twitter": "None", "instagram": "None", "facebook": "None", "youtube": "None", "website": "None", "summary": "None", "logo": "None", "latitude": 49.873620000000074, "longitude": -113.51807999999994}, "892893363RR0001": {"name": "GRANVILLE CENTRE UNITED BAPTIST CHURCH,", "designationCode": "C", "categoryCode": "44", "address": "P.O. BOX 421", "city": "ANNAPOLIS ROYAL", "province": "NS", "country": "CA", "postalCode": "B0S1A0", "twitter": "None", "instagram": "None", "facebook": "None", "youtube": "None", "website": "None", "summary": "None", "logo": "None", "latitude": 44.74294007660574, "longitude": -65.518980048906}, "118946409RR0001": {"name": "GRANVILLE CHAPEL", "designationCode": "C", "categoryCode": "39", "address": "5901 GRANVILLE ST.", "city": "VANCOUVER", "province": "BC", "country": "CA", "postalCode": "V6M3C9", "twitter": "None", "instagram": "None", "facebook": "None", "youtube": "None", "website": "None", "summary": "None", "logo": "None", "latitude": 49.232268366639744, "longitude": -123.13972600559724}, "888064797RR0002": {"name": "GRANVILLE FERRY UNITED BAPTIST CHURCH", "designationCode": "C", "categoryCode": "31", "address": "RR #2", "city": "GRANVILLE FERRY", "province": "NS", "country": "CA", "postalCode": "B0S1K0", "twitter": "None", "instagram": "None", "facebook": "None", "youtube": "None", "website": "None", "summary": "None", "logo": "None", "latitude": 44.709341503908384, "longitude": -65.74216569570484}, "889365813RR0001": {"name": "GRAPES FOR HUMANITY", "designationCode": "C", "categoryCode": "09", "address": "1800 - 181 BAY ST", "city": "TORONTO", "province": "ON", "country": "CA", "postalCode": "M5J2T9", "twitter": "None", "instagram": "None", "facebook": "None", "youtube": "None", "website": "None", "summary": "None", "logo": "None", "latitude": 43.64715434416293, "longitude": -79.37959157588452}, "102177979RR0001": {"name": "GRAPHITE BIBLE CAMP INC.", "designationCode": "C", "categoryCode": "56", "address": "702 GRAPHITE RD               RR1", "city": "MAYNOOTH", "province": "ON", "country": "CA", "postalCode": "K0L2S0", "twitter": "None", "instagram": "None", "facebook": "None", "youtube": "None", "website": "None", "summary": "None", "logo": "None", "latitude": 45.2070158222929, "longitude": -77.8779122780232}}