{"118781814RR0001": {"name": "ALDERSGATE HOMES INCORPORATED", "designationCode": "C", "categoryCode": "01", "address": "7 ALDERSGATE DR", "city": "BELLEVILLE", "province": "ON", "country": "CA", "postalCode": "K8P4W9", "twitter": "None", "instagram": "None", "facebook": "None", "youtube": "None", "website": "None", "summary": "None", "logo": "None", "latitude": 44.15188265797229, "longitude": -77.41277173312666}, "119288918RR0298": {"name": "ALDERSHOT CONGREGATION OF JEHOVAH'S WITNESSES BURLINGTON ONTARIO", "designationCode": "C", "categoryCode": "61", "address": "4025 MAINWAY", "city": "BURLINGTON", "province": "ON", "country": "CA", "postalCode": "L7M2L7", "twitter": "None", "instagram": "None", "facebook": "None", "youtube": "None", "website": "None", "summary": "None", "logo": "None", "latitude": 43.3746304765709, "longitude": -79.79346716755114}, "118781855RR0001": {"name": "ALDERVILLE UNITED CHURCH", "designationCode": "C", "categoryCode": "44", "address": "RR 2", "city": "ROSENEATH", "province": "ON", "country": "CA", "postalCode": "K0K2X0", "twitter": "None", "instagram": "None", "facebook": "None", "youtube": "None", "website": "None", "summary": "None", "logo": "None", "latitude": 44.19355000000007, "longitude": -78.05722999999995}, "106696784RR0001": {"name": "ALDERWOOD UNITED CHURCH", "designationCode": "C", "categoryCode": "44", "address": "44 DELMA DRIVE", "city": "TORONTO", "province": "ON", "country": "CA", "postalCode": "M8W4N6", "twitter": "None", "instagram": "None", "facebook": "None", "youtube": "None", "website": "None", "summary": "None", "logo": "None", "latitude": 43.6034141987132, "longitude": -79.55062534378756}, "889032447RR0001": {"name": "ALDERWOOD WORKING COUNCIL", "designationCode": "C", "categoryCode": "09", "address": "ALDERWOOD REST HOME", "city": "BADDECK VICTORIA CO", "province": "NS", "country": "CA", "postalCode": "B0E1B0", "twitter": "None", "instagram": "None", "facebook": "None", "youtube": "None", "website": "None", "summary": "None", "logo": "None", "latitude": 46.09514804622261, "longitude": -60.76424832859281}, "119288918RR1355": {"name": "ALEGRIA CONGREGATION OF JEHOVAH'S WITNESSES, TORONTO, ONTARIO", "designationCode": "C", "categoryCode": "61", "address": "108 - 15 BEDFORD PARK AVE", "city": "TORONTO", "province": "ON", "country": "CA", "postalCode": "M5M1H8", "twitter": "None", "instagram": "None", "facebook": "None", "youtube": "None", "website": "None", "summary": "None", "logo": "None", "latitude": 43.72715178377298, "longitude": -79.40407734748115}, "864774088RR0001": {"name": "ALEH REHABILITATION OF CANADA", "designationCode": "C", "categoryCode": "10", "address": "95 BARBER GREENE RD, SUITE 302", "city": "DON MILLS", "province": "ON", "country": "CA", "postalCode": "M3C3E9", "twitter": "None", "instagram": "None", "facebook": "None", "youtube": "None", "website": "None", "summary": "None", "logo": "None", "latitude": 43.729918672456826, "longitude": -79.34975403583566}, "134048677RR0001": {"name": "ALEPH-BET CHILD LIFE ENRICHMENT PROGRAM INC", "designationCode": "C", "categoryCode": "01", "address": "1007 SINCLAIR", "city": "WINNIPEG", "province": "MB", "country": "CA", "postalCode": "R2V3J5", "twitter": "None", "instagram": "None", "facebook": "None", "youtube": "None", "website": "None", "summary": "None", "logo": "None", "latitude": 49.94725612155928, "longitude": -97.13702981020319}, "850417478RR0001": {"name": "ALEPH: ALLIANCE FOR JEWISH RENEWAL (CANADA)", "designationCode": "C", "categoryCode": "49", "address": "3245 GUNPOWDER TRAIL", "city": "HORNBY ISLAND", "province": "BC", "country": "CA", "postalCode": "V0R1Z0", "twitter": "None", "instagram": "None", "facebook": "None", "youtube": "None", "website": "None", "summary": "None", "logo": "None", "latitude": 49.54648728451623, "longitude": -124.67062288140222}, "137056081RR0001": {"name": "ALERT BAY NON-PROFIT SENIOR CITIZENS HOUSING SOCIETY", "designationCode": "C", "categoryCode": "09", "address": "P.O. BOX 146", "city": "ALERT BAY", "province": "BC", "country": "CA", "postalCode": "V0N1A0", "twitter": "None", "instagram": "None", "facebook": "None", "youtube": "None", "website": "None", "summary": "None", "logo": "None", "latitude": 50.6420595, "longitude": -127.02791249999999}, "118781988RR0001": {"name": "ALEX ANDERSON MEMORIAL SPORTS CLUB AND LEGION HALL INC.", "designationCode": "C", "categoryCode": "59", "address": "PO BOX 160", "city": "VICTORIA BEACH", "province": "MB", "country": "CA", "postalCode": "R0E2C0", "twitter": "None", "instagram": "None", "facebook": "None", "youtube": "None", "website": "None", "summary": "None", "logo": "None", "latitude": 50.69768737686306, "longitude": -96.55575829762454}, "118782127RR0001": {"name": "ALEX OSITIS FOUNDATION INC.", "designationCode": "A", "categoryCode": "13", "address": "BOX 1251", "city": "ROSETOWN", "province": "SK", "country": "CA", "postalCode": "S0L2V0", "twitter": "None", "instagram": "None", "facebook": "None", "youtube": "None", "website": "None", "summary": "None", "logo": "None", "latitude": 51.16386860615565, "longitude": -106.82425899521579}, "878052158RR0001": {"name": "ALEX WILSON COMMUNITY GARDEN CORPORATION", "designationCode": "C", "categoryCode": "59", "address": "203-131 BLOOR ST.W.  BOX 105", "city": "TORONTO", "province": "ON", "country": "CA", "postalCode": "M5S1R8", "twitter": "None", "instagram": "None", "facebook": "None", "youtube": "None", "website": "None", "summary": "None", "logo": "None", "latitude": 43.667372648743196, "longitude": -79.40049643191246}, "123781593RR0001": {"name": "ALEXANDER E GROSSMAN FOUNDATION", "designationCode": "B", "categoryCode": "03", "address": "303-970 LAWRENCE AVENUE W", "city": "TORONTO", "province": "ON", "country": "CA", "postalCode": "M6A3B6", "twitter": "None", "instagram": "None", "facebook": "None", "youtube": "None", "website": "None", "summary": "None", "logo": "None", "latitude": 43.713414238444024, "longitude": -79.45809593770547}, "878046309RR0001": {"name": "ALEXANDER FLEMING PATTILLO MEMORIAL FOUNDATION", "designationCode": "B", "categoryCode": "25", "address": "P.O. BOX 96", "city": "CHESTER", "province": "NS", "country": "CA", "postalCode": "B0J1J0", "twitter": "None", "instagram": "None", "facebook": "None", "youtube": "None", "website": "None", "summary": "None", "logo": "None", "latitude": 44.549654888646664, "longitude": -64.2288348174421}, "889310645RR0001": {"name": "ALEXANDER GALT REGIONAL HIGH SCHOOL SCHOLARSHIP AND BURSARY FUND", "designationCode": "C", "categoryCode": "21", "address": "P.O BOX 5002                  1700 RUE COLLEGE", "city": "SHERBROOKE", "province": "QC", "country": "CA", "postalCode": "J1M1Z9", "twitter": "None", "instagram": "None", "facebook": "None", "youtube": "None", "website": "None", "summary": "None", "logo": "None", "latitude": 45.36715657942843, "longitude": -71.81237686647204}, "887860260RR0001": {"name": "ALEXANDER PASTORAL CHARGE,", "designationCode": "C", "categoryCode": "44", "address": "BOX 75", "city": "ALEXANDER", "province": "MB", "country": "CA", "postalCode": "R0K0A0", "twitter": "None", "instagram": "None", "facebook": "None", "youtube": "None", "website": "None", "summary": "None", "logo": "None", "latitude": 49.41068548304382, "longitude": -100.02339714097964}, "119923027RR0001": {"name": "ALEXANDER VON HUMBOLDT ECOLE INTERNATIONALE ALLEMANDE INC./ALEXANDER VON HUMBOLDT GERMAN INTERNATIONAL SCHOOL INC./ALEXANDER VON HUMBOLDT DEUTSCHE INTERNATIONALE SCHULE INC.", "designationCode": "C", "categoryCode": "20", "address": "216 VICTORIA ST", "city": "BAIE D'URF\u00c9", "province": "QC", "country": "CA", "postalCode": "H9X2H9", "twitter": "None", "instagram": "None", "facebook": "None", "youtube": "None", "website": "None", "summary": "None", "logo": "None", "latitude": 45.41707150813699, "longitude": -73.90906046318338}, "118781996RR0001": {"name": "ALEXANDRA CENTRE SOCIETY", "designationCode": "C", "categoryCode": "56", "address": "922 - 9TH AVENUE S.E.", "city": "CALGARY", "province": "AB", "country": "CA", "postalCode": "T2G0S4", "twitter": "None", "instagram": "None", "facebook": "None", "youtube": "None", "website": "None", "summary": "None", "logo": "None", "latitude": 51.043323033329514, "longitude": -114.04094643204068}, "108070954RR0001": {"name": "ALEXANDRA CHILDREN'S CENTER", "designationCode": "C", "categoryCode": "01", "address": "3405 DEVONSHIRE AVE", "city": "HALIFAX", "province": "NS", "country": "CA", "postalCode": "B3K3M3", "twitter": "None", "instagram": "None", "facebook": "None", "youtube": "None", "website": "None", "summary": "None", "logo": "None", "latitude": 44.66735352264969, "longitude": -63.603252471550576}, "132824905RR0001": {"name": "ALEXANDRA COMMUNITY HEALTH CENTRE", "designationCode": "C", "categoryCode": "11", "address": "101 - 2840 2 AVE SE", "city": "CALGARY", "province": "AB", "country": "CA", "postalCode": "T2A7X9", "twitter": "None", "instagram": "None", "facebook": "None", "youtube": "None", "website": "None", "summary": "None", "logo": "None"}, "119211845RR0001": {"name": "ALEXANDRA FOUNDATION FOR NEIGHBOURHOOD HOUSES", "designationCode": "A", "categoryCode": "03", "address": "203-3102 MAIN ST", "city": "VANCOUVER", "province": "BC", "country": "CA", "postalCode": "V5T3G7", "twitter": "None", "instagram": "None", "facebook": "None", "youtube": "None", "website": "None", "summary": "None", "logo": "None", "latitude": 49.257205292255776, "longitude": -123.10116061876066}, "106697675RR0001": {"name": "ALEXANDRA HOSPITAL", "designationCode": "C", "categoryCode": "10", "address": "29 NOXON STREET", "city": "INGERSOLL", "province": "ON", "country": "CA", "postalCode": "N5C3V6", "twitter": "None", "instagram": "None", "facebook": "None", "youtube": "None", "website": "None", "summary": "None", "logo": "None", "latitude": 43.031970592984386, "longitude": -80.87480284546453}, "869077768RR0001": {"name": "ALEXANDRA HOSPITAL FOUNDATION", "designationCode": "C", "categoryCode": "11", "address": "29 NOXON STREET", "city": "INGERSOLL", "province": "ON", "country": "CA", "postalCode": "N5C3V6", "twitter": "None", "instagram": "None", "facebook": "None", "youtube": "None", "website": "None", "summary": "None", "logo": "None", "latitude": 43.031970592984386, "longitude": -80.87480284546453}, "890601248RR0001": {"name": "ALEXANDRA MARINE AND GENERAL HOSPITAL FOUNDATION", "designationCode": "A", "categoryCode": "13", "address": "120 NAPIER ST", "city": "GODERICH", "province": "ON", "country": "CA", "postalCode": "N7A1W5", "twitter": "None", "instagram": "None", "facebook": "None", "youtube": "None", "website": "None", "summary": "None", "logo": "None", "latitude": 43.75022589821498, "longitude": -81.70606089821497}, "106697709RR0001": {"name": "ALEXANDRA MARINE AND GENERAL HOSPITAL OF GODERICH", "designationCode": "C", "categoryCode": "10", "address": "120 NAPIER ST", "city": "GODERICH", "province": "ON", "country": "CA", "postalCode": "N7A1W5", "twitter": "None", "instagram": "None", "facebook": "None", "youtube": "None", "website": "None", "summary": "None", "logo": "None", "latitude": 43.75022589821498, "longitude": -81.70606089821497}, "118782051RR0001": {"name": "ALEXANDRA PARK COMMUNITY CENTRE", "designationCode": "C", "categoryCode": "56", "address": "105 GRANGE CRT", "city": "TORONTO", "province": "ON", "country": "CA", "postalCode": "M5T2J6", "twitter": "None", "instagram": "None", "facebook": "None", "youtube": "None", "website": "None", "summary": "None", "logo": "None", "latitude": 43.651612813203364, "longitude": -79.39886622661436}, "132001868RR0001": {"name": "ALEXANDRA PARK NEIGHBOURHOOD LEARNING CENTRE OF TORONTO", "designationCode": "C", "categoryCode": "21", "address": "707 DUNDAS ST W ROOM 2", "city": "TORONTO", "province": "ON", "country": "CA", "postalCode": "M5T2W6", "twitter": "None", "instagram": "None", "facebook": "None", "youtube": "None", "website": "None", "summary": "None", "logo": "None", "latitude": 43.652025829563314, "longitude": -79.40462500931949}, "118782069RR0001": {"name": "ALEXANDRA PRESBYTERIAN CHURCH", "designationCode": "C", "categoryCode": "37", "address": "410 COLBORNE ST", "city": "BRANTFORD", "province": "ON", "country": "CA", "postalCode": "N3S3N6", "twitter": "None", "instagram": "None", "facebook": "None", "youtube": "None", "website": "None", "summary": "None", "logo": "None", "latitude": 43.1392215004327, "longitude": -80.25318414363205}, "118782077RR0001": {"name": "ALEXANDRA UNITED BAPTIST CHURCH", "designationCode": "C", "categoryCode": "31", "address": "78 CORTLAND ST", "city": "CHARLOTTETOWN", "province": "PE", "country": "CA", "postalCode": "C1E1T5", "twitter": "None", "instagram": "None", "facebook": "None", "youtube": "None", "website": "None", "summary": "None", "logo": "None", "latitude": 46.26273174632121, "longitude": -63.15981161267247}, "889968079RR0001": {"name": "ALEXANDRE MCKENZIE EDUCATION ENDOWMENT FUND", "designationCode": "B", "categoryCode": "25", "address": "1402 - 1 KING ST W", "city": "HAMILTON", "province": "ON", "country": "CA", "postalCode": "L8P1A4", "twitter": "None", "instagram": "None", "facebook": "None", "youtube": "None", "website": "None", "summary": "None", "logo": "None", "latitude": 43.26019321073324, "longitude": -79.88135629363086}, "890767999RR0001": {"name": "ALEXANDRIA LIONS CHARITABLE ORGANIZATION", "designationCode": "C", "categoryCode": "65", "address": "PO BOX 264", "city": "ALEXANDRIA", "province": "ON", "country": "CA", "postalCode": "K0C1A0", "twitter": "None", "instagram": "None", "facebook": "None", "youtube": "None", "website": "None", "summary": "None", "logo": "None", "latitude": 45.324006000000054, "longitude": -74.57325649999993}, "118782101RR0001": {"name": "ALEXANDRIA UNITED CHURCH", "designationCode": "C", "categoryCode": "44", "address": "P.O. BOX 817                  36 KINCARDINE ST", "city": "ALEXANDRIA", "province": "ON", "country": "CA", "postalCode": "K0C1A0", "twitter": "None", "instagram": "None", "facebook": "None", "youtube": "None", "website": "None", "summary": "None", "logo": "None", "latitude": 45.312734276757254, "longitude": -74.63968485736008}, "107293672RR0001": {"name": "ALEXIS PARK CHURCH", "designationCode": "C", "categoryCode": "36", "address": "3906 - 35A STREET", "city": "VERNON", "province": "BC", "country": "CA", "postalCode": "V1T6W1", "twitter": "None", "instagram": "None", "facebook": "None", "youtube": "None", "website": "None", "summary": "None", "logo": "None", "latitude": 50.27212500000006, "longitude": -119.28128749999993}, "872980552RR0001": {"name": "ALFRED B DIXON ELEMENTARY SCHOOL PARENT ADVISORY COUNCIL", "designationCode": "C", "categoryCode": "21", "address": "9331 DIAMOND ROAD", "city": "RICHMOND", "province": "BC", "country": "CA", "postalCode": "V7E1P5", "twitter": "None", "instagram": "None", "facebook": "None", "youtube": "None", "website": "None", "summary": "None", "logo": "None", "latitude": 49.14455503413999, "longitude": -123.18391061078734}, "899846356RR0001": {"name": "ALFRED BROWN HANDIBUS SOCIETY", "designationCode": "C", "categoryCode": "09", "address": "PO BOX 249", "city": "CONSORT", "province": "AB", "country": "CA", "postalCode": "T0C1B0", "twitter": "None", "instagram": "None", "facebook": "None", "youtube": "None", "website": "None", "summary": "None", "logo": "None", "latitude": 51.97709700000001, "longitude": -110.57295375000001}, "871581385RR0001": {"name": "ALFRED-LEFAIVRE FOOD BANK/LA BANQUE ALIMENTAIRE ALFRED-LEFAIVRE", "designationCode": "C", "categoryCode": "09", "address": "344, ST-PHILIPPE C.P.209", "city": "ALFRED", "province": "ON", "country": "CA", "postalCode": "K0B1A0", "twitter": "None", "instagram": "None", "facebook": "None", "youtube": "None", "website": "None", "summary": "None", "logo": "None", "latitude": 45.55837164883226, "longitude": -74.88129382473304}, "118782192RR0001": {"name": "ALGOMA ARTS FESTIVAL ASSOCIATION", "designationCode": "C", "categoryCode": "22", "address": "680 ALBERT STREET EAST", "city": "SAULT STE. MARIE", "province": "ON", "country": "CA", "postalCode": "P6A2K6", "twitter": "None", "instagram": "None", "facebook": "None", "youtube": "None", "website": "None", "summary": "None", "logo": "None", "latitude": 46.50894594759489, "longitude": -84.32692209800393}, "106699382RR0001": {"name": "ALGOMA CONSERVATORY OF MUSIC", "designationCode": "C", "categoryCode": "22", "address": "75 HURON ST", "city": "SAULT STE. MARIE", "province": "ON", "country": "CA", "postalCode": "P6A5P4", "twitter": "None", "instagram": "None", "facebook": "None", "youtube": "None", "website": "None", "summary": "None", "logo": "None", "latitude": 46.516148970153374, "longitude": -84.3484310176077}, "131909046RR0001": {"name": "ALGOMA CRISIS PREGNANCY CENTRE", "designationCode": "C", "categoryCode": "09", "address": "177 MCDOUGALD ST", "city": "SAULT STE MARIE", "province": "ON", "country": "CA", "postalCode": "P6A3A9", "twitter": "None", "instagram": "None", "facebook": "None", "youtube": "None", "website": "None", "summary": "None", "logo": "None", "latitude": 46.511133149604674, "longitude": -84.3283876737549}, "106699374RR0001": {"name": "ALGOMA FAMILY SERVICES", "designationCode": "C", "categoryCode": "11", "address": "205 MCNABB ST", "city": "SAULT STE MARIE", "province": "ON", "country": "CA", "postalCode": "P6B1Y3", "twitter": "None", "instagram": "None", "facebook": "None", "youtube": "None", "website": "None", "summary": "None", "logo": "None", "latitude": 46.52177251399405, "longitude": -84.31771436081135}, "139927156RR0001": {"name": "ALGOMA FAMILY SERVICES FOUNDATION", "designationCode": "B", "categoryCode": "13", "address": "205 MCNABB ST", "city": "SAULT STE MARIE", "province": "ON", "country": "CA", "postalCode": "P6B1Y3", "twitter": "None", "instagram": "None", "facebook": "None", "youtube": "None", "website": "None", "summary": "None", "logo": "None", "latitude": 46.52177251399405, "longitude": -84.31771436081135}, "118782259RR0001": {"name": "ALGOMA FESTIVAL CHOIR", "designationCode": "C", "categoryCode": "22", "address": "56 ATLAS ST", "city": "SAULT STE. MARIE", "province": "ON", "country": "CA", "postalCode": "P6A4Z4", "twitter": "None", "instagram": "None", "facebook": "None", "youtube": "None", "website": "None", "summary": "None", "logo": "None", "latitude": 46.500519300305854, "longitude": -84.27895406062107}, "889710778RR0001": {"name": "ALGOMA HIGHLANDS CONSERVANCY", "designationCode": "C", "categoryCode": "59", "address": "PO BOX 22037 RPO CAMBRIAN MALL", "city": "SAULT STE. MARIE", "province": "ON", "country": "CA", "postalCode": "P6B6H4", "twitter": "None", "instagram": "None", "facebook": "None", "youtube": "None", "website": "None", "summary": "None", "logo": "None", "latitude": 46.517883000000054, "longitude": -84.34795399999993}, "891525941RR0001": {"name": "ALGOMA PRESBYTERY UNITED CHURCH OF CANADA", "designationCode": "C", "categoryCode": "44", "address": "712 WELLINGTON ST.E", "city": "SAULT STE MARIE", "province": "ON", "country": "CA", "postalCode": "P6A2M7", "twitter": "None", "instagram": "None", "facebook": "None", "youtube": "None", "website": "None", "summary": "None", "logo": "None", "latitude": 46.5093655226497, "longitude": -84.3245325}, "863953766RR0001": {"name": "ALGOMA RESIDENTIAL COMMUNITY HOSPICE", "designationCode": "C", "categoryCode": "01", "address": "229 4TH LINE WEST", "city": "SAULT STE-MARIE", "province": "ON", "country": "CA", "postalCode": "P6A0B5", "twitter": "None", "instagram": "None", "facebook": "None", "youtube": "None", "website": "None", "summary": "None", "logo": "None", "latitude": 46.566380541693654, "longitude": -84.36322952983438}, "813602018RR0001": {"name": "ALGOMA STEEL INC. EMPLOYEES' CHARITY TRUST", "designationCode": "B", "categoryCode": "75", "address": "105 WEST STREET", "city": "SAULT STE. MARIE", "province": "ON", "country": "CA", "postalCode": "P6A7B4", "twitter": "None", "instagram": "None", "facebook": "None", "youtube": "None", "website": "None", "summary": "None", "logo": "None", "latitude": 46.51988450236594, "longitude": -84.359300490074}, "118782275RR0001": {"name": "ALGOMA SUBSTANCE ABUSE REHABILITATION CENTER", "designationCode": "C", "categoryCode": "09", "address": "91 BRETON ROAD", "city": "SAULT STE. MARIE", "province": "ON", "country": "CA", "postalCode": "P6B5T8", "twitter": "None", "instagram": "None", "facebook": "None", "youtube": "None", "website": "None", "summary": "None", "logo": "None", "latitude": 46.51091584205681, "longitude": -84.30159626796129}, "826630865RR0001": {"name": "ALGOMA UNIVERSITY UNIVERSIT\u00c9 ALGOMA", "designationCode": "C", "categoryCode": "20", "address": "1520 QUEEN STREET EAST", "city": "SAULT STE. MARIE", "province": "ON", "country": "CA", "postalCode": "P6A2G4", "twitter": "None", "instagram": "None", "facebook": "None", "youtube": "None", "website": "None", "summary": "None", "logo": "None", "latitude": 46.50002608491905, "longitude": -84.28806236419665}, "878795020RR0001": {"name": "ALGONQUIN & LAKESHORE CATHOLIC DISTRICT SCHOOL BOARD", "designationCode": "C", "categoryCode": "20", "address": "151 DAIRY AVENUE", "city": "NAPANEE", "province": "ON", "country": "CA", "postalCode": "K7R4B2", "twitter": "None", "instagram": "None", "facebook": "None", "youtube": "None", "website": "None", "summary": "None", "logo": "None", "latitude": 44.254671870419315, "longitude": -76.94882879866105}, "865344246RR0001": {"name": "ALGONQUIN AND LAKESHORE CATHOLIC EDUCATION FOUNDATION", "designationCode": "A", "categoryCode": "23", "address": "151 DAIRY AVENUE", "city": "NAPANEE", "province": "ON", "country": "CA", "postalCode": "K7R4B2", "twitter": "None", "instagram": "None", "facebook": "None", "youtube": "None", "website": "None", "summary": "None", "logo": "None", "latitude": 44.254671870419315, "longitude": -76.94882879866105}, "118782291RR0001": {"name": "ALGONQUIN ARTS COUNCIL", "designationCode": "C", "categoryCode": "22", "address": "23E BRIDGE ST WEST            BOX 1360", "city": "BANCROFT", "province": "ON", "country": "CA", "postalCode": "K0L1C0", "twitter": "None", "instagram": "None", "facebook": "None", "youtube": "None", "website": "None", "summary": "None", "logo": "None", "latitude": 45.055852239962924, "longitude": -77.85442266628216}, "870538501RR0001": {"name": "ALGONQUIN CHILD AND FAMILY SERVICES", "designationCode": "C", "categoryCode": "11", "address": "222 MAIN STREET EAST", "city": "NORTH BAY", "province": "ON", "country": "CA", "postalCode": "P1B1B1", "twitter": "None", "instagram": "None", "facebook": "None", "youtube": "None", "website": "None", "summary": "None", "logo": "None", "latitude": 46.30853790036927, "longitude": -79.46231410655564}, "854257003RR0001": {"name": "ALGONQUIN COLLEGE CAMPUS MINISTRY", "designationCode": "C", "categoryCode": "39", "address": "2485 HUNTERS POINT", "city": "OTTAWA", "province": "ON", "country": "CA", "postalCode": "K1T2A3", "twitter": "None", "instagram": "None", "facebook": "None", "youtube": "None", "website": "None", "summary": "None", "logo": "None", "latitude": 45.34795138856827, "longitude": -75.64822191947053}, "883220931RR0001": {"name": "ALHIJRA ISLAMIC FOUNDATION INC", "designationCode": "C", "categoryCode": "23", "address": "700 200 GRAHAM AVE", "city": "WINNIPEG", "province": "MB", "country": "CA", "postalCode": "R3C4L5", "twitter": "None", "instagram": "None", "facebook": "None", "youtube": "None", "website": "None", "summary": "None", "logo": "None", "latitude": 49.891999890139864, "longitude": -97.14324598715245}, "859953440RR0001": {"name": "ALI KHAN FOUNDATION", "designationCode": "B", "categoryCode": "03", "address": "44 CARACAS RD", "city": "NORTH YORK", "province": "ON", "country": "CA", "postalCode": "M2K1A9", "twitter": "None", "instagram": "None", "facebook": "None", "youtube": "None", "website": "None", "summary": "None", "logo": "None", "latitude": 43.76752721622701, "longitude": -79.37790851041602}, "132030867RR0001": {"name": "ALICE AND MURRAY MAITLAND FOUNDATION", "designationCode": "B", "categoryCode": "03", "address": "130 KING ST. WEST, 20TH FLOOR BOX 430 STN FIRST CANADIAN PL", "city": "TORONTO", "province": "ON", "country": "CA", "postalCode": "M5X1K1", "twitter": "None", "instagram": "None", "facebook": "None", "youtube": "None", "website": "None", "summary": "None", "logo": "None", "latitude": 43.64826932503962, "longitude": -79.38190945606182}, "106699903RR0001": {"name": "ALICE SADDY ASSOCIATION", "designationCode": "C", "categoryCode": "01", "address": "401 - 111 WATERLOO STREET", "city": "LONDON", "province": "ON", "country": "CA", "postalCode": "N6B2M4", "twitter": "None", "instagram": "None", "facebook": "None", "youtube": "None", "website": "None", "summary": "None", "logo": "None", "latitude": 42.97699346404877, "longitude": -81.2381310286223}, "892867763RR0001": {"name": "ALIDA HISTORY BOOK AND ARCHIVES ASSOCIATION", "designationCode": "C", "categoryCode": "50", "address": "BOX 127", "city": "ALIDA", "province": "SK", "country": "CA", "postalCode": "S0C0B0", "twitter": "None", "instagram": "None", "facebook": "None", "youtube": "None", "website": "None", "summary": "None", "logo": "None", "latitude": 49.76267632742449, "longitude": -102.23720043681257}, "119211894RR0001": {"name": "ALISCHILD FOUNDATION", "designationCode": "B", "categoryCode": "21", "address": "30 WERTHEIM COURT, SUITE 14B", "city": "RICHMOND HILL", "province": "ON", "country": "CA", "postalCode": "L4B1B9", "twitter": "None", "instagram": "None", "facebook": "None", "youtube": "None", "website": "None", "summary": "None", "logo": "None", "latitude": 43.84559070051096, "longitude": -79.3850354223765}, "118782366RR0001": {"name": "ALIVE! CANADA - SUICIDE AWARENESS AND PREVENTION", "designationCode": "C", "categoryCode": "59", "address": "1ST FLOOR, JEANNE MANCE BLDG  1030 OUELLETTE AVE", "city": "WINDSOR", "province": "ON", "country": "CA", "postalCode": "N9A1E1", "twitter": "None", "instagram": "None", "facebook": "None", "youtube": "None", "website": "None", "summary": "None", "logo": "None", "latitude": 42.30782979363385, "longitude": -83.03269540664385}, "140784513RR0001": {"name": "ALIX CHARITABLE TRUST", "designationCode": "B", "categoryCode": "39", "address": "3425-2ND AVENUE SOUTH", "city": "LETHBRIDGE", "province": "AB", "country": "CA", "postalCode": "T1J4V1", "twitter": "None", "instagram": "None", "facebook": "None", "youtube": "None", "website": "None", "summary": "None", "logo": "None", "latitude": 49.696839530439966, "longitude": -112.78914308381903}, "106700198RR0001": {"name": "ALIX EVANGELICAL FREE CHURCH", "designationCode": "C", "categoryCode": "39", "address": "PO BOX 700", "city": "ALIX", "province": "AB", "country": "CA", "postalCode": "T0C0B0", "twitter": "None", "instagram": "None", "facebook": "None", "youtube": "None", "website": "None", "summary": "None", "logo": "None", "latitude": 52.40040000000005, "longitude": -113.18861999999996}, "890669393RR0001": {"name": "ALIX PASTORAL CHARGE,", "designationCode": "C", "categoryCode": "44", "address": "BOX 9", "city": "ALIX", "province": "AB", "country": "CA", "postalCode": "T0C0B0", "twitter": "None", "instagram": "None", "facebook": "None", "youtube": "None", "website": "None", "summary": "None", "logo": "None", "latitude": 52.40040000000005, "longitude": -113.18861999999996}, "118782408RR0001": {"name": "ALIX WAGON WHEEL MUSEUM ASSOCIATION", "designationCode": "C", "categoryCode": "50", "address": "BOX 245", "city": "ALIX", "province": "AB", "country": "CA", "postalCode": "T0C0B0", "twitter": "None", "instagram": "None", "facebook": "None", "youtube": "None", "website": "None", "summary": "None", "logo": "None", "latitude": 52.40040000000005, "longitude": -113.18861999999996}, "870056363RR0001": {"name": "ALIZA AND CHAIM KORNFELD FOUNDATION", "designationCode": "B", "categoryCode": "03", "address": "640 - 943 WEST BROADWAY", "city": "VANCOUVER", "province": "BC", "country": "CA", "postalCode": "V5Z4E1", "twitter": "None", "instagram": "None", "facebook": "None", "youtube": "None", "website": "None", "summary": "None", "logo": "None", "latitude": 49.26342748600598, "longitude": -123.12512966472387}, "881548564RR0001": {"name": "ALKA CHARITABLE CENTER", "designationCode": "B", "categoryCode": "25", "address": "419 2911 - 109 STREET", "city": "EDMONTON", "province": "AB", "country": "CA", "postalCode": "T6J5C9", "twitter": "None", "instagram": "None", "facebook": "None", "youtube": "None", "website": "None", "summary": "None", "logo": "None", "latitude": 53.46044221345704, "longitude": -113.50999308439594}, "889978664RR0001": {"name": "ALL CHARITIES CAMPAIGN", "designationCode": "B", "categoryCode": "75", "address": "430-405 BROADWAY", "city": "WINNIPEG", "province": "MB", "country": "CA", "postalCode": "R3C3L6", "twitter": "None", "instagram": "None", "facebook": "None", "youtube": "None", "website": "None", "summary": "None", "logo": "None", "latitude": 49.88665216183834, "longitude": -97.14501615932818}, "888480639RR0001": {"name": "ALL CITY CHOIR", "designationCode": "C", "categoryCode": "22", "address": "46-678 UPPER QUEEN STREET", "city": "LONDON", "province": "ON", "country": "CA", "postalCode": "N6C5L2", "twitter": "None", "instagram": "None", "facebook": "None", "youtube": "None", "website": "None", "summary": "None", "logo": "None", "latitude": 42.94769643643757, "longitude": -81.23823}, "107910192RR0004": {"name": "ALL HALLOWS PARISH", "designationCode": "C", "categoryCode": "38", "address": "109 HUMBER ROAD", "city": "CORNER BROOK", "province": "NL", "country": "CA", "postalCode": "A2H1G1", "twitter": "None", "instagram": "None", "facebook": "None", "youtube": "None", "website": "None", "summary": "None", "logo": "None", "latitude": 48.9632931487966, "longitude": -57.930876112989594}, "888267044RR0001": {"name": "ALL NATIONS BAPTIST CHURCH OF METROPOLITAN TORONTO", "designationCode": "C", "categoryCode": "31", "address": "3149 POLO PLACE", "city": "MISSISSAUGA", "province": "ON", "country": "CA", "postalCode": "L5M6K9", "twitter": "None", "instagram": "None", "facebook": "None", "youtube": "None", "website": "None", "summary": "None", "logo": "None", "latitude": 43.563458828207, "longitude": -79.74524168125673}, "887527745RR0001": {"name": "ALL NATIONS BAPTIST CHURCH OF MONTREAL / \u00c9GLISE BAPTISTE TOUTES NATIONS DE MONTREAL", "designationCode": "C", "categoryCode": "31", "address": "6830 COTE ST LUC", "city": "MONTREAL", "province": "QC", "country": "CA", "postalCode": "H4V1H5", "twitter": "None", "instagram": "None", "facebook": "None", "youtube": "None", "website": "None", "summary": "None", "logo": "None", "latitude": 45.46811839465645, "longitude": -73.65123565915529}, "865363881RR0001": {"name": "ALL NATIONS BIBLE CHURCH", "designationCode": "C", "categoryCode": "39", "address": "2355 DERRY RD                 UNIT 9", "city": "EAST MISSISSAUGA", "province": "ON", "country": "CA", "postalCode": "L5S1V6", "twitter": "None", "instagram": "None", "facebook": "None", "youtube": "None", "website": "None", "summary": "None", "logo": "None", "latitude": 43.69146802585236, "longitude": -79.65630373446196}, "106702608RR0001": {"name": "ALL NATIONS CHRISTIAN FELLOWSHIP", "designationCode": "C", "categoryCode": "39", "address": "5819 189A ST", "city": "SURREY", "province": "BC", "country": "CA", "postalCode": "V3S7R7", "twitter": "None", "instagram": "None", "facebook": "None", "youtube": "None", "website": "None", "summary": "None", "logo": "None", "latitude": 49.10868774271452, "longitude": -122.69819395005473}, "134748805RR0001": {"name": "ALL NATIONS CHRISTIAN FELLOWSHIP OF TORONTO", "designationCode": "C", "categoryCode": "39", "address": "7 WOLFE COURT", "city": "VAUGHAN", "province": "ON", "country": "CA", "postalCode": "L4J6T9", "twitter": "None", "instagram": "None", "facebook": "None", "youtube": "None", "website": "None", "summary": "None", "logo": "None", "latitude": 43.7938494496507, "longitude": -79.45058903439336}, "106702616RR0001": {"name": "ALL NATIONS CHURCH", "designationCode": "C", "categoryCode": "31", "address": "414 ST. RAPHAEL ST", "city": "SUDBURY", "province": "ON", "country": "CA", "postalCode": "P3B1M4", "twitter": "None", "instagram": "None", "facebook": "None", "youtube": "None", "website": "None", "summary": "None", "logo": "None", "latitude": 46.49077812048977, "longitude": -80.98227782689216}, "888061371RR0001": {"name": "ALL NATIONS CHURCH OF JESUS", "designationCode": "C", "categoryCode": "39", "address": "108, 2640-52 ST. NE", "city": "CALGARY", "province": "AB", "country": "CA", "postalCode": "T1Y3R6", "twitter": "None", "instagram": "None", "facebook": "None", "youtube": "None", "website": "None", "summary": "None", "logo": "None", "latitude": 51.066233541553146, "longitude": -113.95852677747986}, "888021847RR0001": {"name": "ALL NATIONS FULL GOSPEL CHURCH", "designationCode": "C", "categoryCode": "39", "address": "4401 STEELES AVE W", "city": "TORONTO", "province": "ON", "country": "CA", "postalCode": "M3N2S4", "twitter": "None", "instagram": "None", "facebook": "None", "youtube": "None", "website": "None", "summary": "None", "logo": "None", "latitude": 43.77300881926288, "longitude": -79.53317610946982}, "872520705RR0001": {"name": "ALL NATIONS FULL GOSPEL CHURCHES INTERNATIONAL", "designationCode": "C", "categoryCode": "49", "address": "4401 STEELES AVE. WEST", "city": "NORTH YORK", "province": "ON", "country": "CA", "postalCode": "M3N2S4", "twitter": "None", "instagram": "None", "facebook": "None", "youtube": "None", "website": "None", "summary": "None", "logo": "None", "latitude": 43.77300881926288, "longitude": -79.53317610946982}, "854970407RR0001": {"name": "ALL NATIONS HOPE AIDS NETWORK INC.", "designationCode": "C", "categoryCode": "11", "address": "2735 5 AVE", "city": "REGINA", "province": "SK", "country": "CA", "postalCode": "S4T0L2", "twitter": "None", "instagram": "None", "facebook": "None", "youtube": "None", "website": "None", "summary": "None", "logo": "None", "latitude": 50.461372499567304, "longitude": -104.62065202553522}, "862414539RR0001": {"name": "ALL NATIONS HOUSE OF PRAYER", "designationCode": "C", "categoryCode": "39", "address": "770 GORDON BAKER ROAD", "city": "NORTH YORK", "province": "ON", "country": "CA", "postalCode": "M2H3B4", "twitter": "None", "instagram": "None", "facebook": "None", "youtube": "None", "website": "None", "summary": "None", "logo": "None", "latitude": 43.80961984322112, "longitude": -79.34379080245019}, "886394162RR0001": {"name": "ALL NATIONS INTERNATIONAL DEVELOPMENT AGENCY", "designationCode": "C", "categoryCode": "02", "address": "4401 STEELES AVE WEST", "city": "TORONTO", "province": "ON", "country": "CA", "postalCode": "M3N2S4", "twitter": "None", "instagram": "None", "facebook": "None", "youtube": "None", "website": "None", "summary": "None", "logo": "None", "latitude": 43.77300881926288, "longitude": -79.53317610946982}, "107797383RR0122": {"name": "ALL NATIONS SEVENTH-DAY ADVENTIST CHURCH OF TORONTO, ONTARIO", "designationCode": "C", "categoryCode": "41", "address": "43 FOREST GROVE DRIVE", "city": "TORONTO", "province": "ON", "country": "CA", "postalCode": "M2K1Z4", "twitter": "None", "instagram": "None", "facebook": "None", "youtube": "None", "website": "None", "summary": "None", "logo": "None", "latitude": 43.77963713347583, "longitude": -79.37905981308778}, "879177913RR0001": {"name": "ALL NATIONS VICTORY", "designationCode": "C", "categoryCode": "39", "address": "BOX 291", "city": "COCHRANE", "province": "AB", "country": "CA", "postalCode": "T4C1A5", "twitter": "None", "instagram": "None", "facebook": "None", "youtube": "None", "website": "None", "summary": "None", "logo": "None", "latitude": 51.19089900000006, "longitude": -114.46804249999994}, "131905267RR0001": {"name": "ALL NATIONS' HEALING HOSPITAL INC.", "designationCode": "C", "categoryCode": "10", "address": "PO BOX 300", "city": "FORT QU'APPELLE", "province": "SK", "country": "CA", "postalCode": "S0G1S0", "twitter": "None", "instagram": "None", "facebook": "None", "youtube": "None", "website": "None", "summary": "None", "logo": "None", "latitude": 50.76964000000004, "longitude": -103.79339999999996}, "892699240RR0001": {"name": "ALL NATIVE CIRCLE CONFERENCE", "designationCode": "C", "categoryCode": "44", "address": "367 SELKIRK AVENUE", "city": "WINNIPEG", "province": "MB", "country": "CA", "postalCode": "R2W2M3", "twitter": "None", "instagram": "None", "facebook": "None", "youtube": "None", "website": "None", "summary": "None", "logo": "None", "latitude": 49.91400894644806, "longitude": -97.13970436995795}, "854777067RR0001": {"name": "ALL ONE SKY FOUNDATION", "designationCode": "C", "categoryCode": "59", "address": "PO BOX 19012                  809 49 AVENUE SW", "city": "CALGARY", "province": "AB", "country": "CA", "postalCode": "T2S1G8", "twitter": "None", "instagram": "None", "facebook": "None", "youtube": "None", "website": "None", "summary": "None", "logo": "None", "latitude": 51.00958155785112, "longitude": -114.08229355689883}, "884451725RR0001": {"name": "ALL OUR RELATIONS", "designationCode": "C", "categoryCode": "01", "address": "630 INGLIS FALLS PLACE", "city": "WATERLOO", "province": "ON", "country": "CA", "postalCode": "N2V2L4", "twitter": "None", "instagram": "None", "facebook": "None", "youtube": "None", "website": "None", "summary": "None", "logo": "None", "latitude": 43.49379382988043, "longitude": -80.57404893686875}, "889206892RR0001": {"name": "ALL PEOPLE'S CHURCH INC.", "designationCode": "C", "categoryCode": "39", "address": "41 FINCHGATE BOULEVARD", "city": "BRAMPTON", "province": "ON", "country": "CA", "postalCode": "L6T3H8", "twitter": "None", "instagram": "None", "facebook": "None", "youtube": "None", "website": "None", "summary": "None", "logo": "None", "latitude": 43.72779393753259, "longitude": -79.71287955095488}, "138197587RR0001": {"name": "ALL PEOPLES CHURCH", "designationCode": "C", "categoryCode": "39", "address": "FALCON BEACH P.O. BOX 250", "city": "FALCON LAKE", "province": "MB", "country": "CA", "postalCode": "R0E0N0", "twitter": "None", "instagram": "None", "facebook": "None", "youtube": "None", "website": "None", "summary": "None", "logo": "None"}, "106702699RR0001": {"name": "ALL PEOPLES UNITED CHURCH", "designationCode": "C", "categoryCode": "44", "address": "400 ANTWERP AVENUE", "city": "SUDBURY AVENUE", "province": "ON", "country": "CA", "postalCode": "P3C4M7", "twitter": "None", "instagram": "None", "facebook": "None", "youtube": "None", "website": "None", "summary": "None", "logo": "None", "latitude": 46.50204829119393, "longitude": -81.00187318679086}, "106702756RR0001": {"name": "ALL SAINTS ANGLICAN CHURCH", "designationCode": "C", "categoryCode": "30", "address": "12935 KEELE STREET", "city": "KING CITY", "province": "ON", "country": "CA", "postalCode": "L7B1G2", "twitter": "None", "instagram": "None", "facebook": "None", "youtube": "None", "website": "None", "summary": "None", "logo": "None", "latitude": 43.927028704861534, "longitude": -79.52770322664736}, "106702806RR0002": {"name": "ALL SAINTS ANGLICAN CHURCH", "designationCode": "C", "categoryCode": "30", "address": "330 CITY HALL SQUARE W", "city": "WINDSOR", "province": "ON", "country": "CA", "postalCode": "N9A1J3", "twitter": "None", "instagram": "None", "facebook": "None", "youtube": "None", "website": "None", "summary": "None", "logo": "None", "latitude": 42.31742168225661, "longitude": -83.03567641472821}, "118783109RR0002": {"name": "ALL SAINTS ANGLICAN CHURCH", "designationCode": "C", "categoryCode": "30", "address": "44 PINE STREET                BOX 855", "city": "CONISTON", "province": "ON", "country": "CA", "postalCode": "P0M1M0", "twitter": "None", "instagram": "None", "facebook": "None", "youtube": "None", "website": "None", "summary": "None", "logo": "None", "latitude": 46.489471019736264, "longitude": -80.84535707662572}, "118783117RR0001": {"name": "ALL SAINTS ANGLICAN CHURCH", "designationCode": "C", "categoryCode": "30", "address": "PO BOX 309", "city": "MATLOCK", "province": "MB", "country": "CA", "postalCode": "R0C2B0", "twitter": "None", "instagram": "None", "facebook": "None", "youtube": "None", "website": "None", "summary": "None", "logo": "None", "latitude": 50.43305638692672, "longitude": -97.04421705706282}, "118783125RR0001": {"name": "ALL SAINTS ANGLICAN CHURCH", "designationCode": "C", "categoryCode": "30", "address": "PO BOX 578", "city": "GLADSTONE", "province": "MB", "country": "CA", "postalCode": "R0J0T0", "twitter": "None", "instagram": "None", "facebook": "None", "youtube": "None", "website": "None", "summary": "None", "logo": "None", "latitude": 50.22542000000004, "longitude": -98.95074999999997}, "118783133RR0001": {"name": "ALL SAINTS ANGLICAN CHURCH", "designationCode": "C", "categoryCode": "30", "address": "BOX 328", "city": "MELVILLE", "province": "SK", "country": "CA", "postalCode": "S0A2P0", "twitter": "None", "instagram": "None", "facebook": "None", "youtube": "None", "website": "None", "summary": "None", "logo": "None", "latitude": 50.87164886256234, "longitude": -103.09293300498788}, "118783141RR0001": {"name": "ALL SAINTS ANGLICAN CHURCH", "designationCode": "C", "categoryCode": "30", "address": "PO BOX 276", "city": "MELFORT", "province": "SK", "country": "CA", "postalCode": "S0E1A0", "twitter": "None", "instagram": "None", "facebook": "None", "youtube": "None", "website": "None", "summary": "None", "logo": "None", "latitude": 52.85637, "longitude": -104.63436225000001}, "118783158RR0001": {"name": "ALL SAINTS ANGLICAN CHURCH", "designationCode": "C", "categoryCode": "30", "address": "PO BOX 96", "city": "LA RONGE", "province": "SK", "country": "CA", "postalCode": "S0J1L0", "twitter": "None", "instagram": "None", "facebook": "None", "youtube": "None", "website": "None", "summary": "None", "logo": "None", "latitude": 55.104968852218384, "longitude": -105.2789552305204}, "118783174RR0001": {"name": "ALL SAINTS ANGLICAN CHURCH", "designationCode": "C", "categoryCode": "30", "address": "142 MASSEY ROAD", "city": "REGINA", "province": "SK", "country": "CA", "postalCode": "S4S4M9", "twitter": "None", "instagram": "None", "facebook": "None", "youtube": "None", "website": "None", "summary": "None", "logo": "None", "latitude": 50.41097983236193, "longitude": -104.60909315021024}}