{"120279609RR0001": {"name": "(A.B.C.) \"Association des b\u00e8gues du Canada inc.\"", "designationCode": "C", "categoryCode": "11", "address": "203-6970 RUE CHRISTOPHE COLOMB", "city": "MONTREAL", "province": "QC", "country": "CA", "postalCode": "H2S2H5", "twitter": "None", "instagram": "None", "facebook": "None", "youtube": "None", "website": "None", "summary": "None", "logo": "None", "latitude": 45.54129187067911, "longitude": -73.60942432800452}, "136747276RR0001": {"name": "(A.C.C.E.S.) ACCESSIBLE COMMUNITY COUNSELLING AND EMPLOYMENT SERVICES", "designationCode": "C", "categoryCode": "20", "address": "489 COLLEGE ST., STE 100", "city": "TORONTO", "province": "ON", "country": "CA", "postalCode": "M6G1A5", "twitter": "None", "instagram": "None", "facebook": "None", "youtube": "None", "website": "None", "summary": "None", "logo": "None", "latitude": 43.65570522344037, "longitude": -79.40915765251886}, "119052124RR0001": {"name": "(C A H R D ) CENTRE FOR ABORIGINAL HUMAN RESOURCE DEVELOPMENT INC.", "designationCode": "C", "categoryCode": "09", "address": "304-181 HIGGINS AVENUE", "city": "WINNIPEG", "province": "MB", "country": "CA", "postalCode": "R3B3G1", "twitter": "None", "instagram": "None", "facebook": "None", "youtube": "None", "website": "None", "summary": "None", "logo": "None", "latitude": 49.90420237001527, "longitude": -97.13186954550187}, "139415707RR0001": {"name": "(CAFGRAF) GROUPE D'ENTRAIDE EN SANT\u00c9 MENTALE DE LAVAL", "designationCode": "C", "categoryCode": "09", "address": "201 - 68 BOUL CARTIER O", "city": "LAVAL", "province": "QC", "country": "CA", "postalCode": "H7N2H5", "twitter": "None", "instagram": "None", "facebook": "None", "youtube": "None", "website": "None", "summary": "None", "logo": "None", "latitude": 45.55888200000001, "longitude": -73.69049475641744}, "106807464RR0001": {"name": "(CAPE) Center for Adults in Progressive Employment Society", "designationCode": "C", "categoryCode": "09", "address": "40 LOWER MACLEAN ST", "city": "GLACE BAY", "province": "NS", "country": "CA", "postalCode": "B1A2K7", "twitter": "None", "instagram": "None", "facebook": "None", "youtube": "None", "website": "None", "summary": "None", "logo": "None", "latitude": 46.19281886539898, "longitude": -59.95738786262901}, "118948306RR0001": {"name": "(GROSVENOR ROAD) GRACE COMMUNITY CHURCH", "designationCode": "C", "categoryCode": "39", "address": "14618 110 AVENUE", "city": "SURREY", "province": "BC", "country": "CA", "postalCode": "V3R2A9", "twitter": "None", "instagram": "None", "facebook": "None", "youtube": "None", "website": "None", "summary": "None", "logo": "None", "latitude": 49.202342528997676, "longitude": -122.81699155689884}, "858665102RR0001": {"name": "(L') A.R.C.H.E. DE L'ESTRIE", "designationCode": "C", "categoryCode": "01", "address": "782 RUE GALT O", "city": "SHERBROOKE", "province": "QC", "country": "CA", "postalCode": "J1H1Z2", "twitter": "None", "instagram": "None", "facebook": "None", "youtube": "None", "website": "None", "summary": "None", "logo": "None", "latitude": 45.393638574788014, "longitude": -71.89802327448216}, "118191501RR0001": {"name": "(LE) PAVOIS - PROGRAMME D'ACTIVITES VALORISANTES OFFRANT INTERACTION ET SOUTIEN", "designationCode": "C", "categoryCode": "09", "address": "2380, AVENUE DU MONT-THABOR", "city": "QU\u00c9BEC", "province": "QC", "country": "CA", "postalCode": "G1J3W7", "twitter": "None", "instagram": "None", "facebook": "None", "youtube": "None", "website": "None", "summary": "None", "logo": "None", "latitude": 46.83942069054757, "longitude": -71.2327553974264}, "893589069RR0001": {"name": "(LES) BOUTS D'CHOUX", "designationCode": "C", "categoryCode": "20", "address": "98 ESSEX ST", "city": "TORONTO", "province": "ON", "country": "CA", "postalCode": "M6G1T3", "twitter": "None", "instagram": "None", "facebook": "None", "youtube": "None", "website": "None", "summary": "None", "logo": "None", "latitude": 43.66759216905171, "longitude": -79.42398567084071}, "822335261RR0001": {"name": "(MEMFB) Mississauga East Malton Food Bank", "designationCode": "C", "categoryCode": "09", "address": "27 - 145 CLARENCE ST", "city": "BRAMPTON", "province": "ON", "country": "CA", "postalCode": "L6W1T2", "twitter": "None", "instagram": "None", "facebook": "None", "youtube": "None", "website": "None", "summary": "None", "logo": "None", "latitude": 43.68895445663879, "longitude": -79.74235933541279}, "121500284RR0001": {"name": "(PVS) POLICE VICTIM SERVICES OF BRITISH COLUMBIA", "designationCode": "C", "categoryCode": "59", "address": "120-12414 82ND AVENUE", "city": "SURREY", "province": "BC", "country": "CA", "postalCode": "V3W3E9", "twitter": "None", "instagram": "None", "facebook": "None", "youtube": "None", "website": "None", "summary": "None", "logo": "None", "latitude": 49.152024525102526, "longitude": -122.87852052844941}, "867140527RR0001": {"name": "(RAANBSLGIM) REGROUPEMENT DES AIDANTS ET AIDANTES NATURELS BAS-ST-LAURENT, GASPESIE, ILES DE LA MADELEINE", "designationCode": "C", "categoryCode": "09", "address": "299 RTE 132 OUEST", "city": "ST-OMER", "province": "QC", "country": "CA", "postalCode": "G0C2Z0", "twitter": "None", "instagram": "None", "facebook": "None", "youtube": "None", "website": "None", "summary": "None", "logo": "None", "latitude": 48.10854483179293, "longitude": -66.25509784767584}, "868793225RR0001": {"name": "(S. C. A. C. S. A.) SUNSHINE COAST ARMY CADET SUPPORT ASSOCIATION", "designationCode": "C", "categoryCode": "29", "address": "P O BOX 1872", "city": "SECHELT", "province": "BC", "country": "CA", "postalCode": "V0N3A0", "twitter": "None", "instagram": "None", "facebook": "None", "youtube": "None", "website": "None", "summary": "None", "logo": "None", "latitude": 49.473460000000046, "longitude": -123.75460999999996}, "108035544RR0001": {"name": "(S.P.A.N.) ST. PAUL ABILITIES NETWORK SOCIETY", "designationCode": "C", "categoryCode": "11", "address": "4637-45 AVE", "city": "ST. PAUL", "province": "AB", "country": "CA", "postalCode": "T0A3A3", "twitter": "None", "instagram": "None", "facebook": "None", "youtube": "None", "website": "None", "summary": "None", "logo": "None", "latitude": 53.986229657681946, "longitude": -111.2873732672866}, "893184473RR0001": {"name": "(SHOUTERS) NATIONAL EVANGELICAL SPIRITUAL BAPTIST FAITH INTERNATIONAL CENTRE OF CANADA", "designationCode": "C", "categoryCode": "31", "address": "116 COURTLANDS DR.", "city": "SCARBOROUGH", "province": "ON", "country": "CA", "postalCode": "M1B4M7", "twitter": "None", "instagram": "None", "facebook": "None", "youtube": "None", "website": "None", "summary": "None", "logo": "None", "latitude": 43.81778738663505, "longitude": -79.214756758382}, "826488231RR0001": {"name": "(1)NE:foundation", "designationCode": "A", "categoryCode": "03", "address": "3-1111 3RD STREET SOUTHEAST", "city": "CALGARY", "province": "AB", "country": "CA", "postalCode": "T2G0B7", "twitter": "None", "instagram": "None", "facebook": "None", "youtube": "None", "website": "None", "summary": "None", "logo": "None", "latitude": 51.04160544931495, "longitude": -114.0559252884854}, "834621724RR0001": {"name": "*BEAR RING \"U\" 'N MIND* FOUNDATION", "designationCode": "B", "categoryCode": "13", "address": "2250 CLARK ROAD", "city": "COURTENAY", "province": "BC", "country": "CA", "postalCode": "V9J1T1", "twitter": "None", "instagram": "None", "facebook": "None", "youtube": "None", "website": "None", "summary": "None", "logo": "None", "latitude": 49.757124842774545, "longitude": -124.99898035650098}, "890392392RR0001": {"name": "\u00c0 coeur ouvert (fonds de d\u00e9pannage)", "designationCode": "C", "categoryCode": "09", "address": "120 JACQUES-BIZARD", "city": "L'ILES BIZARD", "province": "QC", "country": "CA", "postalCode": "H9C2T9", "twitter": "None", "instagram": "None", "facebook": "None", "youtube": "None", "website": "None", "summary": "None", "logo": "None", "latitude": 45.488430930578126, "longitude": -73.86916919247273}, "100107598RR0001": {"name": "\u00c0 la port\u00e9e des sons inc.", "designationCode": "C", "categoryCode": "22", "address": "175, RUE RINGUET", "city": "DRUMMONDVILLE", "province": "QC", "country": "CA", "postalCode": "J2C2P7", "twitter": "None", "instagram": "None", "facebook": "None", "youtube": "None", "website": "None", "summary": "None", "logo": "None", "latitude": 45.87777438297103, "longitude": -72.49988592192243}, "106952633RR0001": {"name": "\u00c0 LA SOURCE SEPT-\u00ceLES", "designationCode": "C", "categoryCode": "09", "address": "469, AV. DE QUEN", "city": "SEPT-\u00ceLES", "province": "QC", "country": "CA", "postalCode": "G4R2R1", "twitter": "None", "instagram": "None", "facebook": "None", "youtube": "None", "website": "None", "summary": "None", "logo": "None", "latitude": 50.20760842602005, "longitude": -66.38336078284935}, "734970320RR0001": {"name": "\u00c9checs en t\u00e9te", "designationCode": "C", "categoryCode": "21", "address": "27 RUE DE GAULLE", "city": "LEVIS", "province": "QC", "country": "CA", "postalCode": "G6V3K9", "twitter": "None", "instagram": "None", "facebook": "None", "youtube": "None", "website": "None", "summary": "None", "logo": "None", "latitude": 46.825360763258075, "longitude": -71.14535556895962}, "855642799RR0001": {"name": "\u00c9co-Maris", "designationCode": "C", "categoryCode": "20", "address": "603F - 5333 AV CASGRAIN", "city": "MONTREAL", "province": "QC", "country": "CA", "postalCode": "H2T1X3", "twitter": "None", "instagram": "None", "facebook": "None", "youtube": "None", "website": "None", "summary": "None", "logo": "None", "latitude": 45.52595122872049, "longitude": -73.59527018093961}, "728254095RR0001": {"name": "\u00c9cole \u00c9tudes Talmudiques Beth Yosef Meir", "designationCode": "C", "categoryCode": "20", "address": "5751 AV ELDRIDGE", "city": "COTE SAINT-LUC", "province": "QC", "country": "CA", "postalCode": "H4W2E3", "twitter": "None", "instagram": "None", "facebook": "None", "youtube": "None", "website": "None", "summary": "None", "logo": "None", "latitude": 45.46561461117192, "longitude": -73.66914302885344}, "830961827RR0001": {"name": "\u00c9cole d'Entrepreneurship de Beauce", "designationCode": "C", "categoryCode": "20", "address": "18255, BOUL. LACROIX", "city": "SAINT-GEORGES", "province": "QC", "country": "CA", "postalCode": "G5Y5B8", "twitter": "None", "instagram": "None", "facebook": "None", "youtube": "None", "website": "None", "summary": "None", "logo": "None", "latitude": 46.093707999712, "longitude": -70.6371113240986}, "815664263RR0001": {"name": "\u00c9cole d'Entrepreneurship du Qu\u00e9bec", "designationCode": "C", "categoryCode": "21", "address": "18255 BOULEVARD LACROIX       RR 2", "city": "VILLE DE SAINT-GEORGES", "province": "QC", "country": "CA", "postalCode": "G5Y5B8", "twitter": "None", "instagram": "None", "facebook": "None", "youtube": "None", "website": "None", "summary": "None", "logo": "None", "latitude": 46.093707999712, "longitude": -70.6371113240986}, "803533009RR0001": {"name": "\u00c9cole dans la rue (EDLAR)", "designationCode": "C", "categoryCode": "09", "address": "1960 ARAGON", "city": "TERREBONNE", "province": "QC", "country": "CA", "postalCode": "J6X3M5", "twitter": "None", "instagram": "None", "facebook": "None", "youtube": "None", "website": "None", "summary": "None", "logo": "None", "latitude": 45.722583586733236, "longitude": -73.67771238830846}, "103075511RR0001": {"name": "\u00c9cole de danse contemporaine de Montr\u00e9al /Montreal School ofContemporary Dance", "designationCode": "C", "categoryCode": "22", "address": "600 - 1435 RUE DE BLEURY", "city": "MONTREAL", "province": "QC", "country": "CA", "postalCode": "H3A2H7", "twitter": "None", "instagram": "None", "facebook": "None", "youtube": "None", "website": "None", "summary": "None", "logo": "None", "latitude": 45.50669398447676, "longitude": -73.56772820064644}, "144991718RR0001": {"name": "\u00c9cole de musique de Lanaudi\u00e8re", "designationCode": "C", "categoryCode": "22", "address": "20 RUE ST-CHARLES BORROMEE  S", "city": "JOLIETTE", "province": "QC", "country": "CA", "postalCode": "J6E4T1", "twitter": "None", "instagram": "None", "facebook": "None", "youtube": "None", "website": "None", "summary": "None", "logo": "None", "latitude": 46.02611159006534, "longitude": -73.4378227121386}, "891436875RR0001": {"name": "\u00c9cole de musique l'Accroche Notes", "designationCode": "C", "categoryCode": "22", "address": "17 RUE NOTRE-DAME", "city": "LEVIS", "province": "QC", "country": "CA", "postalCode": "G6V4A3", "twitter": "None", "instagram": "None", "facebook": "None", "youtube": "None", "website": "None", "summary": "None", "logo": "None", "latitude": 46.810815295602644, "longitude": -71.18131914198726}, "860197649RR0001": {"name": "\u00c9cole de musique Amadeus et Cie", "designationCode": "C", "categoryCode": "22", "address": "6350 3E AVENUE EST", "city": "QUEBEC", "province": "QC", "country": "CA", "postalCode": "G1H3K8", "twitter": "None", "instagram": "None", "facebook": "None", "youtube": "None", "website": "None", "summary": "None", "logo": "None", "latitude": 46.854915871515836, "longitude": -71.25583583230461}, "837901545RR0001": {"name": "\u00c9cole de Cirque des \u00celes", "designationCode": "C", "categoryCode": "22", "address": "CASIER POSTAL 5095            L'\u00c9TANG DU NORD", "city": "\u00ceLES-DE-LA-MADELEINE", "province": "QC", "country": "CA", "postalCode": "G4T3Z8", "twitter": "None", "instagram": "None", "facebook": "None", "youtube": "None", "website": "None", "summary": "None", "logo": "None", "latitude": 47.37286500000006, "longitude": -61.89688249999993}, "833910706RR0001": {"name": "\u00c9cole du milieu de L\u00e9vis", "designationCode": "C", "categoryCode": "21", "address": "250-6150 RUE SAINT-GEORGES", "city": "L\u00c9VIS", "province": "QC", "country": "CA", "postalCode": "G6V4J8", "twitter": "None", "instagram": "None", "facebook": "None", "youtube": "None", "website": "None", "summary": "None", "logo": "None", "latitude": 46.80785820483004, "longitude": -71.17824999708581}, "889492500RR0001": {"name": "\u00c9cole du Ballet de Qu\u00e9bec", "designationCode": "C", "categoryCode": "22", "address": "108-1415, FRANK-CARREL", "city": "QU\u00c9BEC", "province": "QC", "country": "CA", "postalCode": "G1N4N7", "twitter": "None", "instagram": "None", "facebook": "None", "youtube": "None", "website": "None", "summary": "None", "logo": "None", "latitude": 46.79725985452162, "longitude": -71.26072790766953}, "853387496RR0001": {"name": "\u00c9cole primaire Montessori", "designationCode": "C", "categoryCode": "20", "address": "25 CH. ROY", "city": "MAGOG", "province": "QC", "country": "CA", "postalCode": "J1X0N4", "twitter": "None", "instagram": "None", "facebook": "None", "youtube": "None", "website": "None", "summary": "None", "logo": "None", "latitude": 45.15966558944588, "longitude": -72.14774716697423}, "863219887RR0001": {"name": "\u00c9cole r\u00e9gionale de musique de Pont-Rouge", "designationCode": "C", "categoryCode": "22", "address": "383 - 189 RUE DUPONT", "city": "PONT-ROUGE", "province": "QC", "country": "CA", "postalCode": "G3H1N4", "twitter": "None", "instagram": "None", "facebook": "None", "youtube": "None", "website": "None", "summary": "None", "logo": "None", "latitude": 46.75608364866507, "longitude": -71.69598880845234}, "843140757RR0001": {"name": "\u00c9cole Al Farabi", "designationCode": "C", "categoryCode": "20", "address": "1749 CH GOMIN", "city": "QUEBEC", "province": "QC", "country": "CA", "postalCode": "G1S1P1", "twitter": "None", "instagram": "None", "facebook": "None", "youtube": "None", "website": "None", "summary": "None", "logo": "None", "latitude": 46.78740668826853, "longitude": -71.25345918469051}, "118892231RR0001": {"name": "\u00c9cole Apostolique de Chicoutimi", "designationCode": "C", "categoryCode": "20", "address": "913 RUE JACQUES-CARTIER EST", "city": "CHICOUTIMI", "province": "QC", "country": "CA", "postalCode": "G7H2A3", "twitter": "None", "instagram": "None", "facebook": "None", "youtube": "None", "website": "None", "summary": "None", "logo": "None", "latitude": 48.4239043733335, "longitude": -71.04142708935895}, "107584153RR0001": {"name": "\u00c9cole Lucien-Guilbault Inc.", "designationCode": "C", "categoryCode": "20", "address": "3165 RUE DE LOUVAIN E", "city": "MONTREAL", "province": "QC", "country": "CA", "postalCode": "H1Z1J7", "twitter": "None", "instagram": "None", "facebook": "None", "youtube": "None", "website": "None", "summary": "None", "logo": "None", "latitude": 45.57246469043007, "longitude": -73.63098580319176}, "832634240RR0001": {"name": "\u00c9cole Mesivta Kerem Menachem / Mesivta Kerem Menachem Schoo l", "designationCode": "C", "categoryCode": "20", "address": "6253 WESTBURY", "city": "MONTREAL", "province": "QC", "country": "CA", "postalCode": "H3W2X4", "twitter": "None", "instagram": "None", "facebook": "None", "youtube": "None", "website": "None", "summary": "None", "logo": "None", "latitude": 45.49187507161402, "longitude": -73.64152894878532}, "829309855RR0001": {"name": "\u00c9cole Qu\u00e9bec monde", "designationCode": "C", "categoryCode": "20", "address": "511, RUE SAINT-JOSEPH E       PORTE 200", "city": "QUEBEC", "province": "QC", "country": "CA", "postalCode": "G1K3B7", "twitter": "None", "instagram": "None", "facebook": "None", "youtube": "None", "website": "None", "summary": "None", "logo": "None", "latitude": 46.814501078666765, "longitude": -71.22328617646482}, "760593095RR0001": {"name": "\u00c9cole Sup\u00e9rieure de Th\u00e9ologie \u00c9vang\u00e9lique en Ligne", "designationCode": "C", "categoryCode": "20", "address": "471 RUE CHAUVIN", "city": "LAVAL", "province": "QC", "country": "CA", "postalCode": "H7G3P8", "twitter": "None", "instagram": "None", "facebook": "None", "youtube": "None", "website": "None", "summary": "None", "logo": "None", "latitude": 45.57599656287145, "longitude": -73.68743231750253}, "107608168RR0001": {"name": "\u00c9comus\u00e9e de la maison du fier monde", "designationCode": "C", "categoryCode": "22", "address": "2050, RUE AMHERST", "city": "MONTREAL", "province": "QC", "country": "CA", "postalCode": "H2L3L8", "twitter": "None", "instagram": "None", "facebook": "None", "youtube": "None", "website": "None", "summary": "None", "logo": "None", "latitude": 45.52043385509856, "longitude": -73.5635625960527}, "835838111RR0001": {"name": "\u00c9conord", "designationCode": "C", "categoryCode": "52", "address": "10861 BOUL PIE-IX", "city": "MONTREAL-NORD", "province": "QC", "country": "CA", "postalCode": "H1H4A9", "twitter": "None", "instagram": "None", "facebook": "None", "youtube": "None", "website": "None", "summary": "None", "logo": "None", "latitude": 45.59089894866977, "longitude": -73.63721240296633}, "107015208RR0001": {"name": "\u00c9coute Entraide Inc.", "designationCode": "C", "categoryCode": "09", "address": "6500 RUE DE SAINT-VALLIER", "city": "MONTREAL", "province": "QC", "country": "CA", "postalCode": "H2S2P7", "twitter": "None", "instagram": "None", "facebook": "None", "youtube": "None", "website": "None", "summary": "None", "logo": "None", "latitude": 45.53504682624509, "longitude": -73.60498231516524}, "807337894RR0001": {"name": "\u00c9ditions N\u00e9h\u00e9mie", "designationCode": "C", "categoryCode": "47", "address": "1313 RTE DE L'EGLISE", "city": "QUEBEC", "province": "QC", "country": "CA", "postalCode": "G1W3P3", "twitter": "None", "instagram": "None", "facebook": "None", "youtube": "None", "website": "None", "summary": "None", "logo": "None", "latitude": 46.76364982682202, "longitude": -71.28347997388785}, "820014751RR0001": {"name": "\u00c9ducation sans fronti\u00e8res", "designationCode": "B", "categoryCode": "21", "address": "6 DEERGLEN DR", "city": "BRAMPTON", "province": "ON", "country": "CA", "postalCode": "L6R1L9", "twitter": "None", "instagram": "None", "facebook": "None", "youtube": "None", "website": "None", "summary": "None", "logo": "None", "latitude": 43.74746285374221, "longitude": -79.75951207190246}, "836781559RR0001": {"name": "\u00c9glise \u00e9rythr\u00e9enne orthodox tewahdo St-Mary / Eritrean Orthodox Tewahdo St. Mary Church", "designationCode": "C", "categoryCode": "39", "address": "P.O. BOX 47073                8096 BOUL.CHAMPLAIN", "city": "LASALLE", "province": "QC", "country": "CA", "postalCode": "H8P3V9", "twitter": "None", "instagram": "None", "facebook": "None", "youtube": "None", "website": "None", "summary": "None", "logo": "None", "latitude": 45.42718706795001, "longitude": -73.61168557695238}, "851569285RR0001": {"name": "\u00c9glise \u00e9vang\u00e9lique \"Christ-pour-tous\"", "designationCode": "C", "categoryCode": "39", "address": "12192 CHARLES-RENARD R.D.P.", "city": "MONTR\u00c9AL", "province": "QC", "country": "CA", "postalCode": "H1E1X6", "twitter": "None", "instagram": "None", "facebook": "None", "youtube": "None", "website": "None", "summary": "None", "logo": "None", "latitude": 45.637135533989344, "longitude": -73.59191295242067}, "851372300RR0001": {"name": "\u00c9glise \u00e9vang\u00e9lique baptiste \"J\u00e9sus le sauveur\" / Biserica Evanghelica Baptista \"Isus M\u00e2ntuitorul\"", "designationCode": "C", "categoryCode": "39", "address": "101 - 7325 BOUL NOTRE-DAME", "city": "LAVAL", "province": "QC", "country": "CA", "postalCode": "H7X0B2", "twitter": "None", "instagram": "None", "facebook": "None", "youtube": "None", "website": "None", "summary": "None", "logo": "None", "latitude": 45.525136126579596, "longitude": -73.7964541870851}, "826847410RR0001": {"name": "\u00c9glise \u00e9vang\u00e9lique baptiste de Montr\u00e9al-Nord", "designationCode": "C", "categoryCode": "31", "address": "1192, AVILA-DESROCHES", "city": "LAVAL", "province": "QC", "country": "CA", "postalCode": "H7L6B9", "twitter": "None", "instagram": "None", "facebook": "None", "youtube": "None", "website": "None", "summary": "None", "logo": "None", "latitude": 45.61950316042469, "longitude": -73.76882598707382}, "809593759RR0001": {"name": "\u00c9glise \u00e9vang\u00e9lique baptiste de St-Liboire", "designationCode": "C", "categoryCode": "39", "address": "175, RUE PAQUETTE", "city": "ST-LIBOIRE", "province": "QC", "country": "CA", "postalCode": "J0H1R0", "twitter": "None", "instagram": "None", "facebook": "None", "youtube": "None", "website": "None", "summary": "None", "logo": "None", "latitude": 45.64852561613493, "longitude": -72.761259049397}, "107286999RR0001": {"name": "\u00c9glise \u00e9vang\u00e9lique baptiste souffle de vie de Montr\u00e9al", "designationCode": "C", "categoryCode": "39", "address": "326  CABANO", "city": "VILLE LASALLE", "province": "QC", "country": "CA", "postalCode": "H8R2M1", "twitter": "None", "instagram": "None", "facebook": "None", "youtube": "None", "website": "None", "summary": "None", "logo": "None", "latitude": 45.41817378879331, "longitude": -73.63350708024102}, "883349201RR0001": {"name": "\u00c9glise \u00e9vang\u00e9lique baptiste Shalom (E.E.B.S)", "designationCode": "C", "categoryCode": "39", "address": "3169 RUE BELANGER", "city": "MONTREAL", "province": "QC", "country": "CA", "postalCode": "H1Y1B6", "twitter": "None", "instagram": "None", "facebook": "None", "youtube": "None", "website": "None", "summary": "None", "logo": "None", "latitude": 45.556324815165254, "longitude": -73.59486492564469}, "814091690RR0001": {"name": "\u00c9glise \u00e9vang\u00e9lique d'adoption / Gospel Adoption Church", "designationCode": "C", "categoryCode": "39", "address": "4-219 RUE ANNA", "city": "QUEBEC", "province": "QC", "country": "CA", "postalCode": "G1N3K5", "twitter": "None", "instagram": "None", "facebook": "None", "youtube": "None", "website": "None", "summary": "None", "logo": "None", "latitude": 46.807279731894496, "longitude": -71.24732369357731}, "808041230RR0001": {"name": "\u00c9glise \u00e9vang\u00e9lique de Dieu Eben-Ezer de Salem", "designationCode": "C", "categoryCode": "39", "address": "11570 AV LOUIS-JOBIN", "city": "MONTREAL", "province": "QC", "country": "CA", "postalCode": "H1E3L2", "twitter": "None", "instagram": "None", "facebook": "None", "youtube": "None", "website": "None", "summary": "None", "logo": "None", "latitude": 45.639016649171985, "longitude": -73.56984632488877}, "107287401RR0001": {"name": "\u00c9glise \u00e9vang\u00e9lique de St-Hubert", "designationCode": "C", "categoryCode": "39", "address": "4235 RUE DOMVILLE", "city": "SAINT-HUBERT", "province": "QC", "country": "CA", "postalCode": "J3Y1X5", "twitter": "None", "instagram": "None", "facebook": "None", "youtube": "None", "website": "None", "summary": "None", "logo": "None", "latitude": 45.48692767164878, "longitude": -73.43332779542975}, "118782630RR0004": {"name": "\u00c9glise \u00e9vang\u00e9lique du Berger de l'Alliance chr\u00e9tienne et missionnaire", "designationCode": "C", "categoryCode": "39", "address": "631 DE STRASBOURG", "city": "QU\u00c9BEC", "province": "QC", "country": "CA", "postalCode": "G1X3A2", "twitter": "None", "instagram": "None", "facebook": "None", "youtube": "None", "website": "None", "summary": "None", "logo": "None", "latitude": 46.777368613941896, "longitude": -71.32503266429119}, "824559223RR0001": {"name": "\u00c9glise \u00e9vang\u00e9lique foi & Actions de Montr\u00e9al inc.", "designationCode": "C", "categoryCode": "39", "address": "11445, AVENUE VALADE", "city": "MONTREAL", "province": "QC", "country": "CA", "postalCode": "H1G3S5", "twitter": "None", "instagram": "None", "facebook": "None", "youtube": "None", "website": "None", "summary": "None", "logo": "None", "latitude": 45.610365331121194, "longitude": -73.61225920508984}, "850681651RR0001": {"name": "\u00c9glise \u00e9vang\u00e9lique mahana\u00efm de la Rive-Nord", "designationCode": "C", "categoryCode": "39", "address": "139 DE GENTILLY", "city": "LAVAL", "province": "QC", "country": "CA", "postalCode": "H7K1S8", "twitter": "None", "instagram": "None", "facebook": "None", "youtube": "None", "website": "None", "summary": "None", "logo": "None", "latitude": 45.61393164669049, "longitude": -73.72922754039463}, "828222562RR0001": {"name": "\u00c9glise \u00e9vang\u00e9lique parole de foi d'Ottawa inc.", "designationCode": "C", "categoryCode": "39", "address": "320 RUE LAJOIE", "city": "VANIER OTTAWA", "province": "ON", "country": "CA", "postalCode": "K1L7H4", "twitter": "None", "instagram": "None", "facebook": "None", "youtube": "None", "website": "None", "summary": "None", "logo": "None", "latitude": 45.43479759781306, "longitude": -75.65882385201053}, "834707457RR0001": {"name": "\u00c9glise \u00e9vang\u00e9lique parole de Christ", "designationCode": "C", "categoryCode": "39", "address": "1213 RUE DES LYS", "city": "VILLE DE FARNHAM", "province": "QC", "country": "CA", "postalCode": "J2N2T2", "twitter": "None", "instagram": "None", "facebook": "None", "youtube": "None", "website": "None", "summary": "None", "logo": "None", "latitude": 45.29241807799065, "longitude": -72.97885498361137}, "837910553RR0001": {"name": "\u00c9glise \u00e9vang\u00e9lique tabernacle de la foi", "designationCode": "C", "categoryCode": "39", "address": "9730 - 2IEME RUE", "city": "MONTREAL", "province": "QC", "country": "CA", "postalCode": "H1C1Z9", "twitter": "None", "instagram": "None", "facebook": "None", "youtube": "None", "website": "None", "summary": "None", "logo": "None", "latitude": 45.6589858262451, "longitude": -73.56933904273191}, "806059895RR0001": {"name": "\u00c9glise \u00e9vang\u00e9lique Baptiste de la nouvelle vision", "designationCode": "C", "categoryCode": "31", "address": "3820, BOULEVARD HENRI-BOURASSAEST", "city": "MONTR\u00c9AL-NORD", "province": "QC", "country": "CA", "postalCode": "H1H1K4", "twitter": "None", "instagram": "None", "facebook": "None", "youtube": "None", "website": "None", "summary": "None", "logo": "None", "latitude": 45.59256600000006, "longitude": -73.64506849999994}, "806446829RR0001": {"name": "\u00c9glise \u00e9vang\u00e9lique Baptiste espoir et vie de la Mont\u00e9r\u00e9gie", "designationCode": "C", "categoryCode": "39", "address": "365 RUE D'AUTEUIL", "city": "SAINTE-CATHERINE", "province": "QC", "country": "CA", "postalCode": "J5C1M5", "twitter": "None", "instagram": "None", "facebook": "None", "youtube": "None", "website": "None", "summary": "None", "logo": "None", "latitude": 45.40184097945645, "longitude": -73.56703216261774}, "826437865RR0001": {"name": "\u00c9glise \u00e9vang\u00e9lique Cit\u00e9 de David", "designationCode": "C", "categoryCode": "39", "address": "2475 RUE DU LANGUEDOC", "city": "TERREBONNE", "province": "QC", "country": "CA", "postalCode": "J6Y2A1", "twitter": "None", "instagram": "None", "facebook": "None", "youtube": "None", "website": "None", "summary": "None", "logo": "None", "latitude": 45.690073313347575, "longitude": -73.79110653563411}, "877269415RR0001": {"name": "\u00c9glise \u00e9vang\u00e9lique Farnham", "designationCode": "C", "categoryCode": "46", "address": "201, BOULEVARD MAGENTA EST", "city": "FARNHAM", "province": "QC", "country": "CA", "postalCode": "J2N1A9", "twitter": "None", "instagram": "None", "facebook": "None", "youtube": "None", "website": "None", "summary": "None", "logo": "None", "latitude": 45.29052948990111, "longitude": -72.97685036081135}, "850911173RR0001": {"name": "\u00c9glise \u00e9vang\u00e9lique Mont Hermon", "designationCode": "C", "categoryCode": "39", "address": "11603 BOUL ROLLAND", "city": "MONTREAL-NORD", "province": "QC", "country": "CA", "postalCode": "H1G3V4", "twitter": "None", "instagram": "None", "facebook": "None", "youtube": "None", "website": "None", "summary": "None", "logo": "None", "latitude": 45.61228606134223, "longitude": -73.61605952011087}, "832473904RR0001": {"name": "\u00c9glise \u00c9vang\u00e9lique de la r\u00e9surrection/Resurrection Evangelical Church", "designationCode": "C", "categoryCode": "39", "address": "7003 CHEMIN C\u00d4TE-DES-NEIGES", "city": "MONTR\u00c9AL", "province": "QC", "country": "CA", "postalCode": "H3S2B6", "twitter": "None", "instagram": "None", "facebook": "None", "youtube": "None", "website": "None", "summary": "None", "logo": "None", "latitude": 45.50434817822697, "longitude": -73.63951787062177}, "829406404RR0001": {"name": "\u00c9glise \u00c9vang\u00e9lique de la Fraternit\u00e9", "designationCode": "C", "categoryCode": "39", "address": "1170 MONT\u00c9E DU MOULIN", "city": "ST-FRAN\u00c7OIS-LAVAL", "province": "QC", "country": "CA", "postalCode": "H7A4C6", "twitter": "None", "instagram": "None", "facebook": "None", "youtube": "None", "website": "None", "summary": "None", "logo": "None", "latitude": 45.675171818195025, "longitude": -73.58146514129477}, "858042633RR0001": {"name": "\u00c9glise \u00c9vang\u00e9lique de la Gr\u00e2ce Divine", "designationCode": "C", "categoryCode": "39", "address": "41 STONEMEADOW DR", "city": "KANATA", "province": "ON", "country": "CA", "postalCode": "K2M2J9", "twitter": "None", "instagram": "None", "facebook": "None", "youtube": "None", "website": "None", "summary": "None", "logo": "None", "latitude": 45.288273623665404, "longitude": -75.84688621706373}, "852342518RR0001": {"name": "\u00c9glise \u00c9vang\u00e9lique de la R\u00e9conciliation", "designationCode": "C", "categoryCode": "39", "address": "6849 LAMIRANDE", "city": "LAVAL", "province": "QC", "country": "CA", "postalCode": "H7L4X8", "twitter": "None", "instagram": "None", "facebook": "None", "youtube": "None", "website": "None", "summary": "None", "logo": "None", "latitude": 45.597066799613366, "longitude": -73.79319383775763}, "717940522RR0001": {"name": "\u00c9glise \u00c9vang\u00e9lique de la R\u00e9demption", "designationCode": "C", "categoryCode": "39", "address": "12577 AV GILBERT-BARBIER", "city": "MONTREAL", "province": "QC", "country": "CA", "postalCode": "H1E4S6", "twitter": "None", "instagram": "None", "facebook": "None", "youtube": "None", "website": "None", "summary": "None", "logo": "None", "latitude": 45.631987312799325, "longitude": -73.60616265791454}, "807708714RR0001": {"name": "\u00c9glise \u00c9vang\u00e9lique des combattants de la foi", "designationCode": "C", "categoryCode": "39", "address": "8400 24E AVENUE", "city": "MONTR\u00c9AL", "province": "QC", "country": "CA", "postalCode": "H1Z3Z3", "twitter": "None", "instagram": "None", "facebook": "None", "youtube": "None", "website": "None", "summary": "None", "logo": "None", "latitude": 45.575073807923225, "longitude": -73.60725541730613}, "800694200RR0001": {"name": "\u00c9glise \u00c9vang\u00e9lique du dernier temps", "designationCode": "C", "categoryCode": "39", "address": "6655 RUE BOMBARDIER", "city": "SAINT-LEONARD", "province": "QC", "country": "CA", "postalCode": "H1P2W2", "twitter": "None", "instagram": "None", "facebook": "None", "youtube": "None", "website": "None", "summary": "None", "logo": "None", "latitude": 45.602098511252734, "longitude": -73.59165500072115}, "823347208RR0001": {"name": "\u00c9glise \u00c9vang\u00e9lique la Main de l'\u00c9ternel", "designationCode": "C", "categoryCode": "39", "address": "2682 EGLITON AVENUE           P.O. BOX 44577", "city": "SCARBOROUGH", "province": "ON", "country": "CA", "postalCode": "M1K5K2", "twitter": "None", "instagram": "None", "facebook": "None", "youtube": "None", "website": "None", "summary": "None", "logo": "None", "latitude": 43.73639764259692, "longitude": -79.24989763770199}, "850868738RR0001": {"name": "\u00c9glise \u00c9vang\u00e9lique verbe de la vie/Igreja Evang\u00e9lica Verbo da Vida", "designationCode": "C", "categoryCode": "39", "address": "166 RUE DE L'OURS-NOIR", "city": "GATINEAU", "province": "QC", "country": "CA", "postalCode": "J9J1Y5", "twitter": "None", "instagram": "None", "facebook": "None", "youtube": "None", "website": "None", "summary": "None", "logo": "None", "latitude": 45.41516055063776, "longitude": -75.85159417208146}, "807395793RR0001": {"name": "\u00c9glise \u00c9vang\u00e9lique Baptiste de l'\u00e9rable", "designationCode": "C", "categoryCode": "31", "address": "1325 AV FORAND", "city": "PLESSISVILLE", "province": "QC", "country": "CA", "postalCode": "G6L1X5", "twitter": "None", "instagram": "None", "facebook": "None", "youtube": "None", "website": "None", "summary": "None", "logo": "None", "latitude": 46.21041053537431, "longitude": -71.77946174037724}, "118896257RR0001": {"name": "\u00c9glise \u00c9vang\u00e9lique Baptiste de Magog", "designationCode": "C", "categoryCode": "39", "address": "112 MERRY SUD                 C.P. 53", "city": "MAGOG", "province": "QC", "country": "CA", "postalCode": "J1X3W7", "twitter": "None", "instagram": "None", "facebook": "None", "youtube": "None", "website": "None", "summary": "None", "logo": "None", "latitude": 45.26334263139838, "longitude": -72.15675779234267}, "856385950RR0001": {"name": "\u00c9glise \u00c9vang\u00e9lique Baptiste de St-C\u00e9saire", "designationCode": "C", "categoryCode": "39", "address": "163 ROUTE 112", "city": "ST-C\u00c9SAIRE", "province": "QC", "country": "CA", "postalCode": "J0L1T0", "twitter": "None", "instagram": "None", "facebook": "None", "youtube": "None", "website": "None", "summary": "None", "logo": "None", "latitude": 45.41520736771659, "longitude": -73.02538931406072}, "106727399RR0001": {"name": "\u00c9glise \u00c9vang\u00e9lique Baptiste de Ste-Anne de Madawaska", "designationCode": "C", "categoryCode": "31", "address": "C.P. 700                      12, CHEMIN GUERRETTE", "city": "STE-ANNE DE MADAWASKA", "province": "NB", "country": "CA", "postalCode": "E7E1A2", "twitter": "None", "instagram": "None", "facebook": "None", "youtube": "None", "website": "None", "summary": "None", "logo": "None", "latitude": 47.261254617006486, "longitude": -68.00218344728458}, "846660694RR0001": {"name": "\u00c9glise \u00c9vang\u00e9lique Baptiste de Waterloo", "designationCode": "C", "categoryCode": "31", "address": "175 BOUL DE LA MAIRIE", "city": "GRANBY", "province": "QC", "country": "CA", "postalCode": "J2H2M4", "twitter": "None", "instagram": "None", "facebook": "None", "youtube": "None", "website": "None", "summary": "None", "logo": "None", "latitude": 45.43088552394869, "longitude": -72.73530972300767}, "803673854RR0001": {"name": "\u00c9glise \u00c9vang\u00e9lique Baptiste Sina\u00ef", "designationCode": "C", "categoryCode": "31", "address": "1840 RUE ROUSSILLON", "city": "TERREBONNE", "province": "QC", "country": "CA", "postalCode": "J6X3X8", "twitter": "None", "instagram": "None", "facebook": "None", "youtube": "None", "website": "None", "summary": "None", "logo": "None", "latitude": 45.72036903136362, "longitude": -73.68210129727608}, "852527316RR0001": {"name": "\u00c9glise \u00c9vang\u00e9lique Chr\u00e9tienne Spirituelle", "designationCode": "C", "categoryCode": "39", "address": "305 13TH STREET WEST", "city": "CORNWALL", "province": "ON", "country": "CA", "postalCode": "K6J3G7", "twitter": "None", "instagram": "None", "facebook": "None", "youtube": "None", "website": "None", "summary": "None", "logo": "None", "latitude": 45.03274135971483, "longitude": -74.74418177950248}, "806817680RR0001": {"name": "\u00c9glise \u00c9vang\u00e9lique Logos de Montr\u00e9al / Logos Evangelical Church of Montreal", "designationCode": "B", "categoryCode": "39", "address": "5673 RUE HADLEY", "city": "MONTR\u00c9AL", "province": "QC", "country": "CA", "postalCode": "H4E3N1", "twitter": "None", "instagram": "None", "facebook": "None", "youtube": "None", "website": "None", "summary": "None", "logo": "None", "latitude": 45.461755875382295, "longitude": -73.59251948364003}, "814557906RR0001": {"name": "\u00c9glise \u00c9vang\u00e9lique Missionnaire Pentec\u00f4tiste Maranatha", "designationCode": "C", "categoryCode": "39", "address": "1700 RUE MARIA", "city": "TERREBONNE", "province": "QC", "country": "CA", "postalCode": "J7M1H3", "twitter": "None", "instagram": "None", "facebook": "None", "youtube": "None", "website": "None", "summary": "None", "logo": "None", "latitude": 45.76160760672852, "longitude": -73.72588163532217}, "850803651RR0001": {"name": "\u00c9glise \u00c9vang\u00e9lique Mont Des Oliviers", "designationCode": "C", "categoryCode": "39", "address": "3210 BOUL HENRI-BOURASSA E", "city": "MONTR\u00c9AL-NORD", "province": "QC", "country": "CA", "postalCode": "H1H5T1", "twitter": "None", "instagram": "None", "facebook": "None", "youtube": "None", "website": "None", "summary": "None", "logo": "None", "latitude": 45.583172822090155, "longitude": -73.6504455242658}, "838381358RR0001": {"name": "\u00c9glise \u00c9vang\u00e9lique P\u00e9niel d'Ottawa", "designationCode": "C", "categoryCode": "39", "address": "285, RUE QUEEN MARY", "city": "OTTAWA", "province": "ON", "country": "CA", "postalCode": "K1K1X1", "twitter": "None", "instagram": "None", "facebook": "None", "youtube": "None", "website": "None", "summary": "None", "logo": "None", "latitude": 45.42515947489746, "longitude": -75.65296392062437}, "800667941RR0001": {"name": "\u00c9glise \u00c9vang\u00e9lique Pasteur Shepherd Evangelical Church", "designationCode": "C", "categoryCode": "39", "address": "2 - 73 RUE DE L'EPEE", "city": "GATINEAU", "province": "QC", "country": "CA", "postalCode": "J8V4B3", "twitter": "None", "instagram": "None", "facebook": "None", "youtube": "None", "website": "None", "summary": "None", "logo": "None", "latitude": 45.49947944379367, "longitude": -75.7036116060647}, "820272334RR0001": {"name": "\u00c9glise \u00c9vang\u00e9lique Sion la Montagne de l'\u00c9ternel (E.E.S.M.E.)", "designationCode": "C", "categoryCode": "39", "address": "2839A SANDAL WOOD DRIVE", "city": "OTTAWA", "province": "ON", "country": "CA", "postalCode": "K1V7P4", "twitter": "None", "instagram": "None", "facebook": "None", "youtube": "None", "website": "None", "summary": "None", "logo": "None", "latitude": 45.37854885502211, "longitude": -75.64883729781552}, "846065118RR0001": {"name": "\u00c9glise \u00c9vang\u00e9lique Vision de la Lumi\u00e8re", "designationCode": "C", "categoryCode": "39", "address": "1139,DE NOYAN", "city": "TERREBONNE", "province": "QC", "country": "CA", "postalCode": "J6X1Y5", "twitter": "None", "instagram": "None", "facebook": "None", "youtube": "None", "website": "None", "summary": "None", "logo": "None", "latitude": 45.709222117404344, "longitude": -73.6546547463212}, "804118263RR0001": {"name": "\u00c9glise action \u00e9vang\u00e9lique (Temple de L'Alliance) de Sherbrooke", "designationCode": "C", "categoryCode": "39", "address": "295 RUE DEMERS", "city": "SHERBROOKE", "province": "QC", "country": "CA", "postalCode": "J1E3W9", "twitter": "None", "instagram": "None", "facebook": "None", "youtube": "None", "website": "None", "summary": "None", "logo": "None", "latitude": 45.41376939439666, "longitude": -71.86298894367809}, "118793074RR0049": {"name": "\u00c9glise adventiste du septi\u00e8me jour - Bethlehem", "designationCode": "C", "categoryCode": "41", "address": "1415 RUE FILION", "city": "SAINT-LAURENT", "province": "QC", "country": "CA", "postalCode": "H4L4E7", "twitter": "None", "instagram": "None", "facebook": "None", "youtube": "None", "website": "None", "summary": "None", "logo": "None", "latitude": 45.52142629860548, "longitude": -73.68340527450516}, "118793074RR0052": {"name": "\u00c9glise adventiste du septi\u00e8me jour - Centre Bonne Nouvelle", "designationCode": "C", "categoryCode": "41", "address": "940 CH. DE CHAMBLY", "city": "LONGUEUIL", "province": "QC", "country": "CA", "postalCode": "J4H3M3", "twitter": "None", "instagram": "None", "facebook": "None", "youtube": "None", "website": "None", "summary": "None", "logo": "None", "latitude": 45.53508763639002, "longitude": -73.49540467404336}, "118793074RR0051": {"name": "\u00c9glise adventiste du septi\u00e8me jour - Centre Il Est \u00c9crit de Montr\u00e9al", "designationCode": "C", "categoryCode": "41", "address": "4505 BOULEVARD ROSEMONT", "city": "MONTREAL", "province": "QC", "country": "CA", "postalCode": "H1T2E1", "twitter": "None", "instagram": "None", "facebook": "None", "youtube": "None", "website": "None", "summary": "None", "logo": "None", "latitude": 45.564607487102485, "longitude": -73.5705050012694}, "118793074RR0050": {"name": "\u00c9glise adventiste du septi\u00e8me jour - Saint-J\u00e9r\u00f4me", "designationCode": "C", "categoryCode": "41", "address": "67 - 116E AVENUE", "city": "SAINT-JEROME", "province": "QC", "country": "CA", "postalCode": "J7Y1C5", "twitter": "None", "instagram": "None", "facebook": "None", "youtube": "None", "website": "None", "summary": "None", "logo": "None", "latitude": 45.80914038776022, "longitude": -74.01837572176693}, "805263753RR0001": {"name": "\u00c9glise apostolique de la pentec\u00f4te du Qu\u00e9bec / Apostolic Church of Pentecost of Qu\u00e9bec", "designationCode": "C", "categoryCode": "36", "address": "612 AV ALBERT-ROUSSEAU", "city": "LEVIS", "province": "QC", "country": "CA", "postalCode": "G6J0E6", "twitter": "None", "instagram": "None", "facebook": "None", "youtube": "None", "website": "None", "summary": "None", "logo": "None", "latitude": 46.657733460153636, "longitude": -71.30681856131356}, "833049893RR0001": {"name": "\u00c9glise apostolique vie et sagesse / Wisdom and Life Apostolic Church", "designationCode": "C", "categoryCode": "39", "address": "290 D\u00c9CARIE", "city": "VILLE ST-LAURENT", "province": "QC", "country": "CA", "postalCode": "H4N2M2", "twitter": "None", "instagram": "None", "facebook": "None", "youtube": "None", "website": "None", "summary": "None", "logo": "None", "latitude": 45.50619742602007, "longitude": -73.66961954428977}, "815480553RR0001": {"name": "\u00c9glise baptiste \u00e9vang\u00e9lique de Gasp\u00e9 / Gasp\u00e9 Evangelical Baptist Church", "designationCode": "C", "categoryCode": "39", "address": "208 MONTEE DE WAKEHAM", "city": "GASPE", "province": "QC", "country": "CA", "postalCode": "G4X1V4", "twitter": "None", "instagram": "None", "facebook": "None", "youtube": "None", "website": "None", "summary": "None", "logo": "None", "latitude": 48.82606634448005, "longitude": -64.49055642466374}, "809617293RR0001": {"name": "\u00c9glise baptiste \u00e9vang\u00e9lique de St-J\u00e9r\u00f4me", "designationCode": "C", "categoryCode": "39", "address": "327, SAINT-GEORGES", "city": "SAINT-J\u00c9R\u00d4ME", "province": "QC", "country": "CA", "postalCode": "J7Z5A2", "twitter": "None", "instagram": "None", "facebook": "None", "youtube": "None", "website": "None", "summary": "None", "logo": "None", "latitude": 45.77673925867047, "longitude": -74.00302315511593}, "829029958RR0001": {"name": "\u00c9glise baptiste \u00e9vang\u00e9lique La rivi\u00e8re", "designationCode": "C", "categoryCode": "39", "address": "C.P. 682", "city": "RIVI\u00c8RE-DU-LOUP", "province": "QC", "country": "CA", "postalCode": "G5R3Z3", "twitter": "None", "instagram": "None", "facebook": "None", "youtube": "None", "website": "None", "summary": "None", "logo": "None", "latitude": 47.835060000000055, "longitude": -69.53702299999993}}