{"139462659RR0001": {"name": "BLUE RIBBON CHILD CARE SOCIETY", "designationCode": "C", "categoryCode": "01", "address": "149 KENBOROUGH CRESCENT", "city": "MARKHAM", "province": "ON", "country": "CA", "postalCode": "L3S3P4", "twitter": "None", "instagram": "None", "facebook": "None", "youtube": "None", "website": "None", "summary": "None", "logo": "None", "latitude": 43.839945816550234, "longitude": -79.2784954408508}, "891474710RR0001": {"name": "BLUE RIDGE CHARITABLE TRUST", "designationCode": "B", "categoryCode": "39", "address": "3425-2 AVENUE SOUTH", "city": "LETHBRIDGE", "province": "AB", "country": "CA", "postalCode": "T1J4V1", "twitter": "None", "instagram": "None", "facebook": "None", "youtube": "None", "website": "None", "summary": "None", "logo": "None", "latitude": 49.696839530439966, "longitude": -112.78914308381903}, "891502544RR0001": {"name": "BLUE SAINTS BOOSTER CLUB", "designationCode": "C", "categoryCode": "22", "address": "2015 LONG LAKE RD             PO BOX 40088", "city": "SUDBURY", "province": "ON", "country": "CA", "postalCode": "P3E4M8", "twitter": "None", "instagram": "None", "facebook": "None", "youtube": "None", "website": "None", "summary": "None", "logo": "None", "latitude": 46.45106230985938, "longitude": -81.00336237408771}, "130206220RR0001": {"name": "BLUE SKIES CULTURAL CENTRE", "designationCode": "C", "categoryCode": "22", "address": "7920 HWY 37                   RR 3", "city": "TWEED", "province": "ON", "country": "CA", "postalCode": "K0K3J0", "twitter": "None", "instagram": "None", "facebook": "None", "youtube": "None", "website": "None", "summary": "None", "logo": "None", "latitude": 44.517390178788915, "longitude": -77.32597347767515}, "866825862RR0001": {"name": "BLUE SKY CHARITABLE TRUST", "designationCode": "B", "categoryCode": "39", "address": "3425-2 AVENUE SOUTH", "city": "LETHBRIDGE", "province": "AB", "country": "CA", "postalCode": "T1J4V1", "twitter": "None", "instagram": "None", "facebook": "None", "youtube": "None", "website": "None", "summary": "None", "logo": "None", "latitude": 49.696839530439966, "longitude": -112.78914308381903}, "118829274RR0001": {"name": "BLUE SKY OPPORTUNITIES INC", "designationCode": "C", "categoryCode": "11", "address": "BOX 330", "city": "ALTONA", "province": "MB", "country": "CA", "postalCode": "R0G0B0", "twitter": "None", "instagram": "None", "facebook": "None", "youtube": "None", "website": "None", "summary": "None", "logo": "None", "latitude": 49.10353800000006, "longitude": -97.55120149999993}, "803339340RR0001": {"name": "BLUE VEIL MINISTRY", "designationCode": "C", "categoryCode": "09", "address": "109 MERCURY ROAD", "city": "TORONTO", "province": "ON", "country": "CA", "postalCode": "M9W3H7", "twitter": "None", "instagram": "None", "facebook": "None", "youtube": "None", "website": "None", "summary": "None", "logo": "None", "latitude": 43.723809984188314, "longitude": -79.59127813615888}, "888489069RR0001": {"name": "BLUE WATER RESCUE INC.", "designationCode": "C", "categoryCode": "59", "address": "423 ST CLAIR CRT", "city": "KINCARDINE", "province": "ON", "country": "CA", "postalCode": "N2Z3B4", "twitter": "None", "instagram": "None", "facebook": "None", "youtube": "None", "website": "None", "summary": "None", "logo": "None", "latitude": 44.16298939497357, "longitude": -81.63086355687017}, "106799067RR0001": {"name": "BLUE WATER REST HOME", "designationCode": "C", "categoryCode": "01", "address": "37792 ZURICH-HENSALL ROAD     R.R.#3", "city": "ZURICH", "province": "ON", "country": "CA", "postalCode": "N0M2T0", "twitter": "None", "instagram": "None", "facebook": "None", "youtube": "None", "website": "None", "summary": "None", "logo": "None", "latitude": 43.4193293097104, "longitude": -81.64274889366291}, "890210776RR0001": {"name": "BLUE'S MILLS AND AREA VOLUNTEER FIRE DEPT", "designationCode": "C", "categoryCode": "59", "address": "RR #1 RIVER DENYS INV CO", "city": "BLUE'S MILLS", "province": "NS", "country": "CA", "postalCode": "B0E2Y0", "twitter": "None", "instagram": "None", "facebook": "None", "youtube": "None", "website": "None", "summary": "None", "logo": "None", "latitude": 45.83117400000006, "longitude": -61.181508499999936}, "857075808RR0001": {"name": "BLUE'S MILLS GOSPEL HALL SOCIETY", "designationCode": "C", "categoryCode": "39", "address": "12 REYNOLDS STREET", "city": "PORT HAWKESBURY", "province": "NS", "country": "CA", "postalCode": "B9A2Z1", "twitter": "None", "instagram": "None", "facebook": "None", "youtube": "None", "website": "None", "summary": "None", "logo": "None", "latitude": 45.61067273604943, "longitude": -61.35468548943975}, "886243831RR0001": {"name": "BLUEBERRY CREEK COMMUNITY SCHOOL COUNCIL", "designationCode": "C", "categoryCode": "21", "address": "200 CENTRE AVENUE", "city": "CASTLEGAR", "province": "BC", "country": "CA", "postalCode": "V1N3B9", "twitter": "None", "instagram": "None", "facebook": "None", "youtube": "None", "website": "None", "summary": "None", "logo": "None", "latitude": 49.24557761826118, "longitude": -117.6586538240763}, "866730260RR0001": {"name": "BLUEFOX ASSOCIATION", "designationCode": "C", "categoryCode": "09", "address": "232 22 ST N", "city": "LETHBRIDGE", "province": "AB", "country": "CA", "postalCode": "T1H3R7", "twitter": "None", "instagram": "None", "facebook": "None", "youtube": "None", "website": "None", "summary": "None", "logo": "None", "latitude": 49.70147677687003, "longitude": -112.80998308719865}, "865323687RR0001": {"name": "BLUEGRASS CHARITABLE TRUST", "designationCode": "B", "categoryCode": "39", "address": "3425-2 AVENUE SOUTH", "city": "LETHBRIDGE", "province": "AB", "country": "CA", "postalCode": "T1J4V1", "twitter": "None", "instagram": "None", "facebook": "None", "youtube": "None", "website": "None", "summary": "None", "logo": "None", "latitude": 49.696839530439966, "longitude": -112.78914308381903}, "140672106RR0001": {"name": "BLUENOSE COASTAL ACTION FOUNDATION", "designationCode": "C", "categoryCode": "59", "address": "37 TANNERY ROAD               PO BOX 730", "city": "LUNENBURG", "province": "NS", "country": "CA", "postalCode": "B0J2C0", "twitter": "None", "instagram": "None", "facebook": "None", "youtube": "None", "website": "None", "summary": "None", "logo": "None", "latitude": 44.37503790397595, "longitude": -64.31911702969016}, "118811934RR0001": {"name": "BLUESKY MENNONITE CHURCH", "designationCode": "C", "categoryCode": "34", "address": "BOX 36", "city": "BLUESKY", "province": "AB", "country": "CA", "postalCode": "T0H0J0", "twitter": "None", "instagram": "None", "facebook": "None", "youtube": "None", "website": "None", "summary": "None", "logo": "None", "latitude": 56.07245000000006, "longitude": -118.23576999999995}, "118811959RR0001": {"name": "BLUEVALE UNITED CHURCH", "designationCode": "C", "categoryCode": "44", "address": "BOX 992", "city": "WINGHAM", "province": "ON", "country": "CA", "postalCode": "N0G2W0", "twitter": "None", "instagram": "None", "facebook": "None", "youtube": "None", "website": "None", "summary": "None", "logo": "None", "latitude": 43.88924000000003, "longitude": -81.31057999999996}, "896745239RR0001": {"name": "BLUEWATER ANGLERS", "designationCode": "C", "categoryCode": "54", "address": "BOX 174", "city": "SARNIA", "province": "ON", "country": "CA", "postalCode": "N7T7H9", "twitter": "None", "instagram": "None", "facebook": "None", "youtube": "None", "website": "None", "summary": "None", "logo": "None", "latitude": 42.97877700000005, "longitude": -82.40368399999993}, "118811967RR0001": {"name": "BLUEWATER BAPTIST CHURCH", "designationCode": "C", "categoryCode": "31", "address": "1256 WELLINGTON STREET", "city": "SARNIA", "province": "ON", "country": "CA", "postalCode": "N7S5R5", "twitter": "None", "instagram": "None", "facebook": "None", "youtube": "None", "website": "None", "summary": "None", "logo": "None", "latitude": 42.96881023157951, "longitude": -82.36220256613676}, "888660594RR0001": {"name": "BLUEWATER CENTRE FOR RAPTOR REHABILITATION (BCRR)", "designationCode": "C", "categoryCode": "54", "address": "5295 EGREMONT RR2", "city": "WYOMING", "province": "ON", "country": "CA", "postalCode": "N0N1T0", "twitter": "None", "instagram": "None", "facebook": "None", "youtube": "None", "website": "None", "summary": "None", "logo": "None", "latitude": 43.016391946939, "longitude": -82.06063585218435}, "863889846RR0001": {"name": "BLUEWATER COMMUNITY DEVELOPMENT FOUNDATION", "designationCode": "C", "categoryCode": "53", "address": "19 GOSHEN ST N", "city": "ZURICH", "province": "ON", "country": "CA", "postalCode": "N0M2T0", "twitter": "None", "instagram": "None", "facebook": "None", "youtube": "None", "website": "None", "summary": "None", "logo": "None", "latitude": 43.42194495409307, "longitude": -81.62499736606449}, "889803227RR0001": {"name": "BLUEWATER DISTRICT SCHOOL BOARD", "designationCode": "C", "categoryCode": "20", "address": "351 1ST AVENUE NORTH          PO BOX 190", "city": "CHESLEY", "province": "ON", "country": "CA", "postalCode": "N0G1L0", "twitter": "None", "instagram": "None", "facebook": "None", "youtube": "None", "website": "None", "summary": "None", "logo": "None", "latitude": 44.308721217171566, "longitude": -81.09825055908085}, "107954927RR0001": {"name": "BLUEWATER HEALTH", "designationCode": "C", "categoryCode": "10", "address": "89 NORMAN STREET", "city": "SARNIA", "province": "ON", "country": "CA", "postalCode": "N7T6S3", "twitter": "None", "instagram": "None", "facebook": "None", "youtube": "None", "website": "None", "summary": "None", "logo": "None", "latitude": 42.97767656202642, "longitude": -82.38898657167474}, "869394163RR0001": {"name": "BLUEWATER HEALTH FOUNDATION", "designationCode": "A", "categoryCode": "13", "address": "89 NORMAN STREET", "city": "SARNIA", "province": "ON", "country": "CA", "postalCode": "N7T6S3", "twitter": "None", "instagram": "None", "facebook": "None", "youtube": "None", "website": "None", "summary": "None", "logo": "None", "latitude": 42.97767656202642, "longitude": -82.38898657167474}, "886640796RR0001": {"name": "BLUEWATER PERFORMING ARTS FESTIVAL", "designationCode": "C", "categoryCode": "22", "address": "115 MITTON STREET SOUTH", "city": "SARNIA", "province": "ON", "country": "CA", "postalCode": "N7T3C5", "twitter": "None", "instagram": "None", "facebook": "None", "youtube": "None", "website": "None", "summary": "None", "logo": "None", "latitude": 42.970100954883456, "longitude": -82.39844926220114}, "137868485RR0001": {"name": "BLUEWATER SUMMER PLAYHOUSE", "designationCode": "C", "categoryCode": "22", "address": "707A QUEEN ST", "city": "KINCARDINE", "province": "ON", "country": "CA", "postalCode": "N2Z1Z9", "twitter": "None", "instagram": "None", "facebook": "None", "youtube": "None", "website": "None", "summary": "None", "logo": "None", "latitude": 44.17510018102947, "longitude": -81.63667013406057}, "891317596RR0001": {"name": "BLUFTON CEMETARY (ST MARY'S CATHOLIC CEMETARY)", "designationCode": "C", "categoryCode": "59", "address": "BOX 1166", "city": "RIMBEY", "province": "AB", "country": "CA", "postalCode": "T0C2J0", "twitter": "None", "instagram": "None", "facebook": "None", "youtube": "None", "website": "None", "summary": "None", "logo": "None", "latitude": 52.63970000000006, "longitude": -114.23827999999997}, "892576042RR0001": {"name": "BLUMENFELD AND DISTRICT HERITAGE SITE", "designationCode": "C", "categoryCode": "50", "address": "BOX 104", "city": "LEADER", "province": "SK", "country": "CA", "postalCode": "S0N1H0", "twitter": "None", "instagram": "None", "facebook": "None", "youtube": "None", "website": "None", "summary": "None", "logo": "None", "latitude": 50.883410000000026, "longitude": -109.55153999999999}, "874853807RR0001": {"name": "BLUMENGART COLONY OF HUTTERIAN BETHREN", "designationCode": "B", "categoryCode": "39", "address": "2500 - 201 PORTAGE AVE", "city": "WINNIPEG", "province": "MB", "country": "CA", "postalCode": "R3B3K6", "twitter": "None", "instagram": "None", "facebook": "None", "youtube": "None", "website": "None", "summary": "None", "logo": "None", "latitude": 49.895359615067065, "longitude": -97.13919299627776}, "820908747RR0001": {"name": "BLUMENORT ADVISORY COUNCIL FOR SCHOOL LEADERSHIP", "designationCode": "C", "categoryCode": "21", "address": "10 PARK ST                    SS 10", "city": "BLUMENORT", "province": "MB", "country": "CA", "postalCode": "R0A0C1", "twitter": "None", "instagram": "None", "facebook": "None", "youtube": "None", "website": "None", "summary": "None", "logo": "None", "latitude": 49.603027485140586, "longitude": -96.70012297446478}, "106799109RR0001": {"name": "BLUMENORT MENNONITE CHURCH", "designationCode": "C", "categoryCode": "34", "address": "BOX 457", "city": "GRETNA", "province": "MB", "country": "CA", "postalCode": "R0G0V0", "twitter": "None", "instagram": "None", "facebook": "None", "youtube": "None", "website": "None", "summary": "None", "logo": "None", "latitude": 49.007930000000044, "longitude": -97.56099999999998}, "118812031RR0001": {"name": "BLUMENORT SENIOR CITIZENS HOUSING INC.", "designationCode": "C", "categoryCode": "01", "address": "15 CEDAR BAY", "city": "BLUMENORT", "province": "MB", "country": "CA", "postalCode": "R0A0C1", "twitter": "None", "instagram": "None", "facebook": "None", "youtube": "None", "website": "None", "summary": "None", "logo": "None", "latitude": 49.60279152168355, "longitude": -96.70219362447746}, "890758626RR0001": {"name": "BLUTEAU/DEVENNEY CHARITABLE TRUST", "designationCode": "B", "categoryCode": "25", "address": "5670 SPRING GARDEN ROAD       SUITE 901", "city": "HALIFAX", "province": "NS", "country": "CA", "postalCode": "B3J1H6", "twitter": "None", "instagram": "None", "facebook": "None", "youtube": "None", "website": "None", "summary": "None", "logo": "None", "latitude": 44.642583904755355, "longitude": -63.578757478215685}, "118812056RR0001": {"name": "BLYTH CENTRE FOR THE ARTS", "designationCode": "C", "categoryCode": "22", "address": "P.O. BOX 10", "city": "BLYTH", "province": "ON", "country": "CA", "postalCode": "N0M1H0", "twitter": "None", "instagram": "None", "facebook": "None", "youtube": "None", "website": "None", "summary": "None", "logo": "None", "latitude": 43.77531219522119, "longitude": -81.5424072516016}, "119223311RR0001": {"name": "BLYTH COMMUNITY CHURCH OF GOD", "designationCode": "C", "categoryCode": "39", "address": "BOX 428", "city": "BLYTH", "province": "ON", "country": "CA", "postalCode": "N0M1H0", "twitter": "None", "instagram": "None", "facebook": "None", "youtube": "None", "website": "None", "summary": "None", "logo": "None", "latitude": 43.77531219522119, "longitude": -81.5424072516016}, "125749994RR0001": {"name": "BLYTH UNITED CHURCH PASTORAL CHARGE", "designationCode": "C", "categoryCode": "44", "address": "430 MILL STREET               PO BOX 400", "city": "BLYTH", "province": "ON", "country": "CA", "postalCode": "N0M1H0", "twitter": "None", "instagram": "None", "facebook": "None", "youtube": "None", "website": "None", "summary": "None", "logo": "None", "latitude": 43.73610666804208, "longitude": -81.42734835411758}, "816218978RR0001": {"name": "BLYTHWOOD PARENT-SCHOOL ASSOCIATION", "designationCode": "C", "categoryCode": "21", "address": "2 STRATHGOWAN CRESCENT", "city": "TORONTO", "province": "ON", "country": "CA", "postalCode": "M4N2Z5", "twitter": "None", "instagram": "None", "facebook": "None", "youtube": "None", "website": "None", "summary": "None", "logo": "None", "latitude": 43.71998716457965, "longitude": -79.38913613422564}, "106799224RR0001": {"name": "BLYTHWOOD ROAD BAPTIST CHURCH", "designationCode": "C", "categoryCode": "31", "address": "80 BLYTHWOOD RD", "city": "TORONTO", "province": "ON", "country": "CA", "postalCode": "M4N1A4", "twitter": "None", "instagram": "None", "facebook": "None", "youtube": "None", "website": "None", "summary": "None", "logo": "None", "latitude": 43.71712918405533, "longitude": -79.39784629130347}, "106799349RR0001": {"name": "BMMF/INTERNATIONAL SERVICE FELLOWSHIP", "designationCode": "C", "categoryCode": "47", "address": "10 HUNTINGDALE BOULEVARD", "city": "SCARBOROUGH", "province": "ON", "country": "CA", "postalCode": "M1W2S5", "twitter": "None", "instagram": "None", "facebook": "None", "youtube": "None", "website": "None", "summary": "None", "logo": "None", "latitude": 43.79647517626506, "longitude": -79.32661950611684}, "119306009RR0001": {"name": "BNEI AKIVA SCHOOLS", "designationCode": "C", "categoryCode": "20", "address": "159 ALMORE AVE", "city": "TORONTO", "province": "ON", "country": "CA", "postalCode": "M3H2H9", "twitter": "None", "instagram": "None", "facebook": "None", "youtube": "None", "website": "None", "summary": "None", "logo": "None", "latitude": 43.74582284537501, "longitude": -79.44847552663174}, "888597705RR0001": {"name": "BNEI BARUCH (TORONTO) INC.", "designationCode": "C", "categoryCode": "47", "address": "3701 CHESSWOOD DRIVE, SUITE216", "city": "TORONTO", "province": "ON", "country": "CA", "postalCode": "M3J2P6", "twitter": "None", "instagram": "None", "facebook": "None", "youtube": "None", "website": "None", "summary": "None", "logo": "None", "latitude": 43.75604851736958, "longitude": -79.47429778960137}, "860543768RR0001": {"name": "BNEI CHESED FOUNDATION", "designationCode": "C", "categoryCode": "09", "address": "6830 PARK AVE #375", "city": "MONTREAL", "province": "QC", "country": "CA", "postalCode": "H3N1W7", "twitter": "None", "instagram": "None", "facebook": "None", "youtube": "None", "website": "None", "summary": "None", "logo": "None", "latitude": 45.52886965139367, "longitude": -73.61771531946442}, "804707107RR0001": {"name": "BNI Canada Foundation / Fondation BNI Canada", "designationCode": "A", "categoryCode": "03", "address": "2700, RUE DIAB", "city": "ST-LAURENT", "province": "QC", "country": "CA", "postalCode": "H4S1E8", "twitter": "None", "instagram": "None", "facebook": "None", "youtube": "None", "website": "None", "summary": "None", "logo": "None", "latitude": 45.49447789378243, "longitude": -73.74751034415473}, "889303921RR0001": {"name": "BNOS BAIS YAAKOV HIGH SCHOOL", "designationCode": "C", "categoryCode": "20", "address": "2949 BATHURST STREET", "city": "TORONTO", "province": "ON", "country": "CA", "postalCode": "M6B3B2", "twitter": "None", "instagram": "None", "facebook": "None", "youtube": "None", "website": "None", "summary": "None", "logo": "None", "latitude": 43.716486593398336, "longitude": -79.4290638950605}, "106799596RR0001": {"name": "BNOT J\u00c9RUSALEM GARDERIE ET \u00c9COLE POUR JEUNES FILLES / BNOT JERUSALEM KINDERGARTEN AND GIRLS' SCHOOL", "designationCode": "C", "categoryCode": "20", "address": "1495 DUCHARME", "city": "MONTREAL", "province": "QC", "country": "CA", "postalCode": "H2V1E8", "twitter": "None", "instagram": "None", "facebook": "None", "youtube": "None", "website": "None", "summary": "None", "logo": "None", "latitude": 45.520251756881464, "longitude": -73.61770506053416}, "892306564RR0001": {"name": "BO LI BUDDHIST ASSOCIATION OF TORONTO", "designationCode": "C", "categoryCode": "35", "address": "RAYMOND LAU                   3382 NIGHTHAWK TRAIL", "city": "MISSISSAUGA", "province": "ON", "country": "CA", "postalCode": "L5N6G5", "twitter": "None", "instagram": "None", "facebook": "None", "youtube": "None", "website": "None", "summary": "None", "logo": "None", "latitude": 43.565863001673456, "longitude": -79.76060950626106}, "107858359RR0001": {"name": "BOARD OF EDUCATION OF THE PRINCE ALBERT ROMAN CATHOLIC SEPARATE SCHOOL DIVISION NO. 6", "designationCode": "C", "categoryCode": "20", "address": "118 11TH STREET EAST", "city": "PRINCE ALBERT", "province": "SK", "country": "CA", "postalCode": "S6V1A1", "twitter": "None", "instagram": "None", "facebook": "None", "youtube": "None", "website": "None", "summary": "None", "logo": "None", "latitude": 53.20308350432784, "longitude": -105.75054072300767}, "107882524RR0001": {"name": "BOARD OF EDUCATION OF THE REGINA ROMAN CATHOLIC SEPARATE SCHOOL DIVISION NO. 81 OF SASKATCHEWAN", "designationCode": "C", "categoryCode": "20", "address": "2160 CAMERON STREET", "city": "REGINA", "province": "SK", "country": "CA", "postalCode": "S4T2V6", "twitter": "None", "instagram": "None", "facebook": "None", "youtube": "None", "website": "None", "summary": "None", "logo": "None", "latitude": 50.444478000000004, "longitude": -104.62546460361185}, "118812767RR0001": {"name": "BOARD OF EDUCATION OF THE REGINA SCHOOL DIVISION NO. 4 OF SASASKATCHEWAN", "designationCode": "C", "categoryCode": "20", "address": "1600 4TH AVENUE", "city": "REGINA", "province": "SK", "country": "CA", "postalCode": "S4R8C8", "twitter": "None", "instagram": "None", "facebook": "None", "youtube": "None", "website": "None", "summary": "None", "logo": "None", "latitude": 50.4630349802543, "longitude": -104.60212695710499}, "118812809RR0001": {"name": "BOARD OF ELDERS OF THE CANADIAN DISTRICT OF THE MORAVIAN CHURCH IN AMERICA", "designationCode": "C", "categoryCode": "39", "address": "600 ACADIA DR SE", "city": "CALGARY", "province": "AB", "country": "CA", "postalCode": "T2J0B8", "twitter": "None", "instagram": "None", "facebook": "None", "youtube": "None", "website": "None", "summary": "None", "logo": "None", "latitude": 50.963606999999996, "longitude": -114.04838735856099}, "118812833RR0001": {"name": "BOARD OF GOVERNORS OF THE CATHOLIC HIGH SCHOOLS OF THE CITY OF HAMILTON", "designationCode": "C", "categoryCode": "20", "address": "700 KING ST WEST", "city": "HAMILTON", "province": "ON", "country": "CA", "postalCode": "L8P1C7", "twitter": "None", "instagram": "None", "facebook": "None", "youtube": "None", "website": "None", "summary": "None", "logo": "None", "latitude": 43.26284446770546, "longitude": -79.89023923809737}, "125329490RR0001": {"name": "BOARD OF HEALTH FOR THE ALGOMA HEALTH UNIT", "designationCode": "C", "categoryCode": "11", "address": "294 WILLOW AVENUE", "city": "SAULT STE MARIE", "province": "ON", "country": "CA", "postalCode": "P6B0A9", "twitter": "None", "instagram": "None", "facebook": "None", "youtube": "None", "website": "None", "summary": "None", "logo": "None", "latitude": 46.53041614262704, "longitude": -84.31530526271067}, "107836694RR0001": {"name": "BOARD OF HEALTH OF THE PERTH DISTRICT HEALTH UNIT", "designationCode": "C", "categoryCode": "11", "address": "653 WEST GORE", "city": "STRATFORD", "province": "ON", "country": "CA", "postalCode": "N5A1L4", "twitter": "None", "instagram": "None", "facebook": "None", "youtube": "None", "website": "None", "summary": "None", "logo": "None", "latitude": 43.36818624718138, "longitude": -80.99934550679237}, "129603296RR0001": {"name": "BOARD OF MANAGEMENT FOR THE DISTRICT OF PARRY SOUND WEST HOME FOR THE AGED", "designationCode": "C", "categoryCode": "09", "address": "21 BELVEDERE AVENUE", "city": "PARRY SOUND", "province": "ON", "country": "CA", "postalCode": "P2A2A2", "twitter": "None", "instagram": "None", "facebook": "None", "youtube": "None", "website": "None", "summary": "None", "logo": "None", "latitude": 45.34306894670787, "longitude": -80.0391797247967}, "890644560RR0001": {"name": "BOARD OF MANAGEMENT OF CASSELLHOLME, HOME FOR THE AGED FOR THE DISTRICT OF EAST NIPISSING", "designationCode": "C", "categoryCode": "10", "address": "400 OLIVE STREET", "city": "NORTH BAY", "province": "ON", "country": "CA", "postalCode": "P1B6J4", "twitter": "None", "instagram": "None", "facebook": "None", "youtube": "None", "website": "None", "summary": "None", "logo": "None"}, "889965190RR0001": {"name": "BOARD OF TRUSTEES OF THE LEGISLATIVE AND PUBLIC LIBRARY AND THE ROBERT HARRIS MEMORIAL GALLERY", "designationCode": "C", "categoryCode": "50", "address": "P.O. BOX 7000", "city": "CHARLOTTETOWN", "province": "PE", "country": "CA", "postalCode": "C1A8G8", "twitter": "None", "instagram": "None", "facebook": "None", "youtube": "None", "website": "None", "summary": "None", "logo": "None", "latitude": 46.23659700000006, "longitude": -63.12815449999994}, "118813021RR0001": {"name": "BOARD OF TRUSTEES SPRINGHILL CEMETERY", "designationCode": "C", "categoryCode": "59", "address": "P.O.BOX 274", "city": "METCALFE", "province": "ON", "country": "CA", "postalCode": "K0A2P0", "twitter": "None", "instagram": "None", "facebook": "None", "youtube": "None", "website": "None", "summary": "None", "logo": "None", "latitude": 45.216193377378154, "longitude": -76.19296584601686}, "889960621RR0001": {"name": "BOARDING HOMES MINISTRY (CANADA)", "designationCode": "C", "categoryCode": "49", "address": "73 SIMCOE ST", "city": "TORONTO", "province": "ON", "country": "CA", "postalCode": "M5J1W9", "twitter": "None", "instagram": "None", "facebook": "None", "youtube": "None", "website": "None", "summary": "None", "logo": "None", "latitude": 43.64672158979165, "longitude": -79.38577946361607}, "867900698RR0001": {"name": "BOARDWALK CHARITABLE TRUST FUND", "designationCode": "B", "categoryCode": "55", "address": "908 RIVERDALE AVE SW", "city": "CALGARY", "province": "AB", "country": "CA", "postalCode": "T2S0Y6", "twitter": "None", "instagram": "None", "facebook": "None", "youtube": "None", "website": "None", "summary": "None", "logo": "None", "latitude": 51.01820729615091, "longitude": -114.08375651762937}, "888323664RR0001": {"name": "BOARS HEAD CULTURAL FOUNDATION", "designationCode": "B", "categoryCode": "25", "address": "P.O. BOX 537", "city": "DIGBY", "province": "NS", "country": "CA", "postalCode": "B0V1A0", "twitter": "None", "instagram": "None", "facebook": "None", "youtube": "None", "website": "None", "summary": "None", "logo": "None", "latitude": 44.39616000000005, "longitude": -66.20374249999993}, "888055423RR0001": {"name": "BOAT BASIN FOUNDATION", "designationCode": "C", "categoryCode": "52", "address": "208 - 700 CHILCO ST", "city": "VANCOUVER", "province": "BC", "country": "CA", "postalCode": "V6G2R1", "twitter": "None", "instagram": "None", "facebook": "None", "youtube": "None", "website": "None", "summary": "None", "logo": "None", "latitude": 49.29387147126212, "longitude": -123.13760487633459}, "848565065RR0001": {"name": "BOB GALE RECREATION FUND", "designationCode": "B", "categoryCode": "09", "address": "69 ONTARIO STREET             P.O. BOX 505", "city": "ST.CATHARINES", "province": "ON", "country": "CA", "postalCode": "L2R6V9", "twitter": "None", "instagram": "None", "facebook": "None", "youtube": "None", "website": "None", "summary": "None", "logo": "None", "latitude": 43.155956632494906, "longitude": -79.24778415670245}, "891258543RR0001": {"name": "BOB JENKINS MINISTRIES", "designationCode": "C", "categoryCode": "47", "address": "1802-49 AVE", "city": "LLOYDMINSTER", "province": "SK", "country": "CA", "postalCode": "S9V1T2", "twitter": "None", "instagram": "None", "facebook": "None", "youtube": "None", "website": "None", "summary": "None", "logo": "None", "latitude": 53.253720000000015, "longitude": -110.0036279411966}, "118813112RR0001": {"name": "BOB LARSON MINISTRIES SOCIETY", "designationCode": "C", "categoryCode": "47", "address": "P.O. BOX 69052                SKYVIEW", "city": "EDMONTON", "province": "AB", "country": "CA", "postalCode": "T5L5E3", "twitter": "None", "instagram": "None", "facebook": "None", "youtube": "None", "website": "None", "summary": "None", "logo": "None", "latitude": 53.59961400000006, "longitude": -113.54565499999993}, "863363099RR0001": {"name": "BOBCAYGEON HELPS", "designationCode": "C", "categoryCode": "09", "address": "43 SHERWOOD ST                P.O. BOX 133", "city": "BOBCAYGEON", "province": "ON", "country": "CA", "postalCode": "K0M1A0", "twitter": "None", "instagram": "None", "facebook": "None", "youtube": "None", "website": "None", "summary": "None", "logo": "None", "latitude": 44.53576167642174, "longitude": -78.54567337423613}, "118813062RR0001": {"name": "BOBCAYGEON MEALS ON WHEELS", "designationCode": "C", "categoryCode": "09", "address": "39 HUNTINGWOOD CRES", "city": "BOBCAYGEON", "province": "ON", "country": "CA", "postalCode": "K0M1A0", "twitter": "None", "instagram": "None", "facebook": "None", "youtube": "None", "website": "None", "summary": "None", "logo": "None", "latitude": 44.53956247141582, "longitude": -78.53779796264735}, "138368162RR0001": {"name": "BOBCAYGEON SENIOR CITIZENS CENTRE INC", "designationCode": "C", "categoryCode": "56", "address": "100 HEAD STREET               P.O. BOX 16", "city": "BOBCAYGEON", "province": "ON", "country": "CA", "postalCode": "K0M1A0", "twitter": "None", "instagram": "None", "facebook": "None", "youtube": "None", "website": "None", "summary": "None", "logo": "None", "latitude": 44.542273851780315, "longitude": -78.55128424011745}, "118813088RR0001": {"name": "BOBEVER YESHIVA BNEI ZION CHARITABLE FUND", "designationCode": "C", "categoryCode": "25", "address": "5575 DUROCHER AVE", "city": "OUTREMONT", "province": "QC", "country": "CA", "postalCode": "H2V3Y3", "twitter": "None", "instagram": "None", "facebook": "None", "youtube": "None", "website": "None", "summary": "None", "logo": "None", "latitude": 45.52111323203872, "longitude": -73.60385887800804}, "899497127RR0001": {"name": "BOCA DEL LUPO THEATRE SOCIETY", "designationCode": "C", "categoryCode": "22", "address": "1422 WILLIAM ST", "city": "VANCOUVER", "province": "BC", "country": "CA", "postalCode": "V5L2P7", "twitter": "None", "instagram": "None", "facebook": "None", "youtube": "None", "website": "None", "summary": "None", "logo": "None", "latitude": 49.27403754674262, "longitude": -123.07524163780367}, "118813146RR0001": {"name": "BOCABEC UNITED CHURCH", "designationCode": "C", "categoryCode": "44", "address": "4 - 286 VICTORIA TERRACE RD", "city": "ST ANDREWS", "province": "NB", "country": "CA", "postalCode": "E5B1R4", "twitter": "None", "instagram": "None", "facebook": "None", "youtube": "None", "website": "None", "summary": "None", "logo": "None", "latitude": 45.07743658563671, "longitude": -67.04577294503441}, "868980319RR0001": {"name": "BOCHASANWASI SHREE AKSHAR PURUSHOTTAM SWAMINARAYAN SANSTHA CHARITABLE PROPERTIES INC.", "designationCode": "C", "categoryCode": "49", "address": "61 CLAIREVILLE DRIVE", "city": "TORONTO", "province": "ON", "country": "CA", "postalCode": "M9W5Z7", "twitter": "None", "instagram": "None", "facebook": "None", "youtube": "None", "website": "None", "summary": "None", "logo": "None", "latitude": 43.73933154870453, "longitude": -79.62477022205539}, "868987710RR0001": {"name": "BOCHASANWASI SHREE AKSHAR PURUSHOTTAM SWAMINARAYAN SANSTHA FOUNDATION INC", "designationCode": "A", "categoryCode": "43", "address": "61 CLAIREVILLE DR", "city": "TORONTO", "province": "ON", "country": "CA", "postalCode": "M9W5Z7", "twitter": "None", "instagram": "None", "facebook": "None", "youtube": "None", "website": "None", "summary": "None", "logo": "None", "latitude": 43.73933154870453, "longitude": -79.62477022205539}, "885731018RR0002": {"name": "BOCHASANWASI SHREE AKSHAR PURUSHOTTAM SWAMINARAYAN SANSTHA INC.", "designationCode": "C", "categoryCode": "39", "address": "61 CLAIRVILLE DRIVE", "city": "TORONTO", "province": "ON", "country": "CA", "postalCode": "M9W5Z7", "twitter": "None", "instagram": "None", "facebook": "None", "youtube": "None", "website": "None", "summary": "None", "logo": "None", "latitude": 43.73933154870453, "longitude": -79.62477022205539}, "887437432RR0001": {"name": "BODDHISATTVA SAMANTABHADRA SUTRA ASSOCIATION", "designationCode": "C", "categoryCode": "35", "address": "1166 ALBERNI STREET           SUITE 1701", "city": "VANCOUVER", "province": "BC", "country": "CA", "postalCode": "V6E3Z3", "twitter": "None", "instagram": "None", "facebook": "None", "youtube": "None", "website": "None", "summary": "None", "logo": "None", "latitude": 49.286152466176894, "longitude": -123.12528575074712}, "889780771RR0001": {"name": "BODHI PUBLISHING", "designationCode": "C", "categoryCode": "49", "address": "PO BOX 144", "city": "KINMOUNT", "province": "ON", "country": "CA", "postalCode": "K0M2A0", "twitter": "None", "instagram": "None", "facebook": "None", "youtube": "None", "website": "None", "summary": "None", "logo": "None", "latitude": 44.783420000000035, "longitude": -78.64956999999998}, "859904906RR0001": {"name": "BODO ARCHAEOLOGICAL SOCIETY", "designationCode": "C", "categoryCode": "50", "address": "BOX 1781", "city": "PROVOST", "province": "AB", "country": "CA", "postalCode": "T0B3S0", "twitter": "None", "instagram": "None", "facebook": "None", "youtube": "None", "website": "None", "summary": "None", "logo": "None", "latitude": 52.82485171250891, "longitude": -110.88936481833932}, "118813161RR0001": {"name": "BODY OF CHRIST MINISTRIES", "designationCode": "C", "categoryCode": "39", "address": "206-2963 NELSON PLACE", "city": "ABBOTSFORD", "province": "BC", "country": "CA", "postalCode": "V2S7L6", "twitter": "None", "instagram": "None", "facebook": "None", "youtube": "None", "website": "None", "summary": "None", "logo": "None", "latitude": 49.055819991141874, "longitude": -122.31298404475113}, "106800584RR0001": {"name": "BOIESTOWN PASTORAL CHARGE", "designationCode": "C", "categoryCode": "44", "address": "6320 ROUTE 8", "city": "BOIESTOWN", "province": "NB", "country": "CA", "postalCode": "E6A1M1", "twitter": "None", "instagram": "None", "facebook": "None", "youtube": "None", "website": "None", "summary": "None", "logo": "None", "latitude": 46.46723768608153, "longitude": -66.3999773308717}, "140427840RR0001": {"name": "BOIS URBAIN - MEUBLES", "designationCode": "C", "categoryCode": "59", "address": "9015 RUE MEILLEUR", "city": "MONTREAL", "province": "QC", "country": "CA", "postalCode": "H2N2A3", "twitter": "None", "instagram": "None", "facebook": "None", "youtube": "None", "website": "None", "summary": "None", "logo": "None", "latitude": 45.53628091369946, "longitude": -73.65076525921872}, "119288918RR1282": {"name": "BOISBRIAND CONGREGATION OF JEHOVAH'S WITNESSES", "designationCode": "C", "categoryCode": "61", "address": "1 RUE DE LA PICARDIE", "city": "BLAINVILLE", "province": "QC", "country": "CA", "postalCode": "J7C0A9", "twitter": "None", "instagram": "None", "facebook": "None", "youtube": "None", "website": "None", "summary": "None", "logo": "None", "latitude": 45.684145109642714, "longitude": -73.89378398277465}, "144039567RR0001": {"name": "BOISE DES DOUZE", "designationCode": "C", "categoryCode": "52", "address": "1160, RUE D'AMOUR", "city": "SAINT-HYACINTHE", "province": "QC", "country": "CA", "postalCode": "J2T4H1", "twitter": "None", "instagram": "None", "facebook": "None", "youtube": "None", "website": "None", "summary": "None", "logo": "None", "latitude": 45.6208699236828, "longitude": -72.92042706010147}, "133832634RR0001": {"name": "BOISSEVAIN & MORTON ARTS COUNCIL INCORPORATED", "designationCode": "C", "categoryCode": "52", "address": "BOX 850", "city": "BOISSEVAIN", "province": "MB", "country": "CA", "postalCode": "R0K0E0", "twitter": "None", "instagram": "None", "facebook": "None", "youtube": "None", "website": "None", "summary": "None", "logo": "None", "latitude": 49.23156000000006, "longitude": -100.05945999999994}, "118813187RR0001": {"name": "BOISSEVAIN COMMUNITY CENTRE INC.", "designationCode": "C", "categoryCode": "56", "address": "BOX 1056", "city": "BOISSEVAIN", "province": "MB", "country": "CA", "postalCode": "R0K0E0", "twitter": "None", "instagram": "None", "facebook": "None", "youtube": "None", "website": "None", "summary": "None", "logo": "None", "latitude": 49.23156000000006, "longitude": -100.05945999999994}, "888653466RR0001": {"name": "BOISSEVAIN FESTIVAL OF THE ARTS", "designationCode": "C", "categoryCode": "22", "address": "BOX 1023", "city": "BOISSEVAIN", "province": "MB", "country": "CA", "postalCode": "R0K0E0", "twitter": "None", "instagram": "None", "facebook": "None", "youtube": "None", "website": "None", "summary": "None", "logo": "None", "latitude": 49.23156000000006, "longitude": -100.05945999999994}, "882173784RR0001": {"name": "BOISSEVAIN FOOD PANTRY", "designationCode": "C", "categoryCode": "09", "address": "BOX 912", "city": "BOISSEVAIN", "province": "MB", "country": "CA", "postalCode": "R0K0E0", "twitter": "None", "instagram": "None", "facebook": "None", "youtube": "None", "website": "None", "summary": "None", "logo": "None", "latitude": 49.23156000000006, "longitude": -100.05945999999994}, "892427444RR0001": {"name": "BOISSEVAIN HEALTH CENTRE AUXILIARY", "designationCode": "C", "categoryCode": "19", "address": "BOX 403", "city": "BOISSEVAIN", "province": "MB", "country": "CA", "postalCode": "R0K0E0", "twitter": "None", "instagram": "None", "facebook": "None", "youtube": "None", "website": "None", "summary": "None", "logo": "None", "latitude": 49.23156000000006, "longitude": -100.05945999999994}, "769202896RR0001": {"name": "BOISSEVAIN RESETTLEMENT COMMITTEE", "designationCode": "C", "categoryCode": "09", "address": "PO BOX 204", "city": "BOISSEVAIN", "province": "MB", "country": "CA", "postalCode": "R0K0E0", "twitter": "None", "instagram": "None", "facebook": "None", "youtube": "None", "website": "None", "summary": "None", "logo": "None", "latitude": 49.23156000000006, "longitude": -100.05945999999994}, "871107512RR0001": {"name": "BOISSEVAIN/MORTON DONOR'S CHOICE", "designationCode": "A", "categoryCode": "05", "address": "PO BOX 279", "city": "BOISSEVAIN", "province": "MB", "country": "CA", "postalCode": "R0K0E0", "twitter": "None", "instagram": "None", "facebook": "None", "youtube": "None", "website": "None", "summary": "None", "logo": "None", "latitude": 49.23156000000006, "longitude": -100.05945999999994}, "137405791RR0001": {"name": "BOITE A SCIENCE-CONSEIL DU LOISIR SCIENTIFIQUE DE QUEBEC", "designationCode": "C", "categoryCode": "21", "address": "1150, BOUL. RENE-LEVESQUE O", "city": "QUEBEC", "province": "QC", "country": "CA", "postalCode": "G1S1V7", "twitter": "None", "instagram": "None", "facebook": "None", "youtube": "None", "website": "None", "summary": "None", "logo": "None", "latitude": 46.79403917488201, "longitude": -71.24492263923915}, "118813245RR0001": {"name": "BOLAND FOUNDATION", "designationCode": "B", "categoryCode": "43", "address": "161 GLENROSE AVE", "city": "TORONTO", "province": "ON", "country": "CA", "postalCode": "M4T1K7", "twitter": "None", "instagram": "None", "facebook": "None", "youtube": "None", "website": "None", "summary": "None", "logo": "None", "latitude": 43.68982780930823, "longitude": -79.38093728919733}, "118813252RR0001": {"name": "BOLD LIVING SOCIETY", "designationCode": "C", "categoryCode": "47", "address": "12161 - 59TH AVENUE", "city": "SURREY", "province": "BC", "country": "CA", "postalCode": "V3X3L4", "twitter": "None", "instagram": "None", "facebook": "None", "youtube": "None", "website": "None", "summary": "None", "logo": "None", "latitude": 49.10962246378896, "longitude": -122.88566160935426}, "890605348RR0001": {"name": "BOLSAHAY CULTURAL ASSOCIATION TORONTO", "designationCode": "A", "categoryCode": "53", "address": "20 WERTHEIM COURT, UNIT #34", "city": "RICHMOND HILL", "province": "ON", "country": "CA", "postalCode": "L4B3A8", "twitter": "None", "instagram": "None", "facebook": "None", "youtube": "None", "website": "None", "summary": "None", "logo": "None", "latitude": 43.84550410687275, "longitude": -79.38516759714923}, "867910127RR0001": {"name": "BOLTON & DISTRICT HORTICULTURAL SOCIETY", "designationCode": "C", "categoryCode": "59", "address": "P.O. BOX 75017                SOUTH BOLTON P.O.", "city": "BOLTON", "province": "ON", "country": "CA", "postalCode": "L7E1H6", "twitter": "None", "instagram": "None", "facebook": "None", "youtube": "None", "website": "None", "summary": "None", "logo": "None", "latitude": 43.880838000000054, "longitude": -79.73942299999993}, "892431172RR0001": {"name": "BOLTON ALLIANCE CHURCH OF THE CHRISTIAN AND MISSIONARY ALLIANCE IN CANADA", "designationCode": "C", "categoryCode": "39", "address": "PO BOX 767", "city": "BOLTON", "province": "ON", "country": "CA", "postalCode": "L7E5T5", "twitter": "None", "instagram": "None", "facebook": "None", "youtube": "None", "website": "None", "summary": "None", "logo": "None", "latitude": 43.880838000000054, "longitude": -79.73942299999993}, "118813294RR0001": {"name": "BOLTON ASSEMBLY OF CHRISTIANS", "designationCode": "C", "categoryCode": "39", "address": "1714 #10 SIDEROAD", "city": "TOTTENHAM", "province": "ON", "country": "CA", "postalCode": "L0G1W0", "twitter": "None", "instagram": "None", "facebook": "None", "youtube": "None", "website": "None", "summary": "None", "logo": "None", "latitude": 44.025431015473416, "longitude": -79.76732700768429}, "119288918RR1393": {"name": "BOLTON CONGREGATION OF JEHOVAH'S WITNESSES, ONTARIO", "designationCode": "C", "categoryCode": "61", "address": "14 KING ARTHUR'S CRT.", "city": "BOLTON", "province": "ON", "country": "CA", "postalCode": "L7E1P1", "twitter": "None", "instagram": "None", "facebook": "None", "youtube": "None", "website": "None", "summary": "None", "logo": "None", "latitude": 43.8726527482831, "longitude": -79.72384486721664}, "118813302RR0001": {"name": "BOLTON PASTORAL CHARGE", "designationCode": "C", "categoryCode": "44", "address": "8 NANCY STREET", "city": "BOLTON", "province": "ON", "country": "CA", "postalCode": "L7E1C7", "twitter": "None", "instagram": "None", "facebook": "None", "youtube": "None", "website": "None", "summary": "None", "logo": "None", "latitude": 43.87846580792323, "longitude": -79.73887169859763}, "118813328RR0001": {"name": "BON ACCORD / GIBBONS FOOD BANK", "designationCode": "C", "categoryCode": "09", "address": "PO BOX 419", "city": "GIBBONS", "province": "AB", "country": "CA", "postalCode": "T0A1N0", "twitter": "None", "instagram": "None", "facebook": "None", "youtube": "None", "website": "None", "summary": "None", "logo": "None", "latitude": 53.82811000000004, "longitude": -113.32767999999999}, "890454440RR0001": {"name": "BON ACCORD UNITED CHURCH,", "designationCode": "C", "categoryCode": "44", "address": "BOX 455", "city": "BON ACCORD", "province": "AB", "country": "CA", "postalCode": "T0A0K0", "twitter": "None", "instagram": "None", "facebook": "None", "youtube": "None", "website": "None", "summary": "None", "logo": "None", "latitude": 53.837270000000046, "longitude": -113.41078999999996}, "107764573RR0004": {"name": "BONANZA GOSPEL CHAPEL", "designationCode": "C", "categoryCode": "39", "address": "BOX 149", "city": "BONANZA", "province": "AB", "country": "CA", "postalCode": "T0H0K0", "twitter": "None", "instagram": "None", "facebook": "None", "youtube": "None", "website": "None", "summary": "None", "logo": "None", "latitude": 55.927130000000034, "longitude": -119.81433999999996}}