{"892175449RR0001": {"name": "MORTLACH PASTORAL CHARGE", "designationCode": "C", "categoryCode": "44", "address": "PO BOX 157", "city": "MORTLACH", "province": "SK", "country": "CA", "postalCode": "S0H3E0", "twitter": "None", "instagram": "None", "facebook": "None", "youtube": "None", "website": "None", "summary": "None", "logo": "None", "latitude": 50.45562000000007, "longitude": -106.06705999999997}, "119046654RR0001": {"name": "MORTON UNITED CHURCH CEMETERY BOARD", "designationCode": "C", "categoryCode": "59", "address": "153 DAVIS LOCK ROAD", "city": "ELGIN", "province": "ON", "country": "CA", "postalCode": "K0G1E0", "twitter": "None", "instagram": "None", "facebook": "None", "youtube": "None", "website": "None", "summary": "None", "logo": "None", "latitude": 44.60150998826047, "longitude": -76.2304357052841}, "132504077RR0001": {"name": "MORTON YOUTH SERVICES", "designationCode": "C", "categoryCode": "09", "address": "46 TORONTO STREET", "city": "BARRIE", "province": "ON", "country": "CA", "postalCode": "L4N1T9", "twitter": "None", "instagram": "None", "facebook": "None", "youtube": "None", "website": "None", "summary": "None", "logo": "None", "latitude": 44.38743758950319, "longitude": -79.69310718042}, "119046670RR0001": {"name": "MORVEN UNITED CHURCH", "designationCode": "C", "categoryCode": "44", "address": "7037 COUNTY ROAD 2", "city": "NAPANEE", "province": "ON", "country": "CA", "postalCode": "K7R3K6", "twitter": "None", "instagram": "None", "facebook": "None", "youtube": "None", "website": "None", "summary": "None", "logo": "None", "latitude": 44.23952350766596, "longitude": -76.8508320871111}, "107725673RR0001": {"name": "MORWEENA EVANGELICAL MENNONITE CHURCH", "designationCode": "C", "categoryCode": "34", "address": "PO BOX 4082", "city": "ARBORG", "province": "MB", "country": "CA", "postalCode": "R0C0A0", "twitter": "None", "instagram": "None", "facebook": "None", "youtube": "None", "website": "None", "summary": "None", "logo": "None", "latitude": 50.91022850109325, "longitude": -97.2043884534773}, "828295766RR0001": {"name": "MOSAIC BAPTIST CHURCH", "designationCode": "C", "categoryCode": "31", "address": "503 ROURKE PLACE", "city": "NEWMARKET", "province": "ON", "country": "CA", "postalCode": "L3Y8S9", "twitter": "None", "instagram": "None", "facebook": "None", "youtube": "None", "website": "None", "summary": "None", "logo": "None", "latitude": 44.04240032226304, "longitude": -79.4486459188067}, "842829079RR0001": {"name": "MOSAIC CHURCH", "designationCode": "C", "categoryCode": "39", "address": "61 SWEETWOOD CIRCLE", "city": "BRAMPTON", "province": "ON", "country": "CA", "postalCode": "L7A2S1", "twitter": "None", "instagram": "None", "facebook": "None", "youtube": "None", "website": "None", "summary": "None", "logo": "None", "latitude": 43.69542952816095, "longitude": -79.82186772344036}, "837179720RR0001": {"name": "MOSAIC INTERFAITH OUT OF THE COLD", "designationCode": "C", "categoryCode": "01", "address": "78 SAMANTHA CIRCLE", "city": "RICHMOND HILL", "province": "ON", "country": "CA", "postalCode": "L4B2R6", "twitter": "None", "instagram": "None", "facebook": "None", "youtube": "None", "website": "None", "summary": "None", "logo": "None", "latitude": 43.84596986759202, "longitude": -79.39080748666979}, "141016139RR0001": {"name": "MOSAIC LODGE BENEVOLENT FUND", "designationCode": "C", "categoryCode": "09", "address": "1803 - 7 TOWNSGATE DR", "city": "THORNHILL", "province": "ON", "country": "CA", "postalCode": "L4J7Z9", "twitter": "None", "instagram": "None", "facebook": "None", "youtube": "None", "website": "None", "summary": "None", "logo": "None", "latitude": 43.79459598632401, "longitude": -79.44472511125883}, "106700172RR0001": {"name": "MOSAIC MINISTRIES ASSOCIATION", "designationCode": "C", "categoryCode": "39", "address": "12 HAVILAND STREET", "city": "LR. SACKVILLE", "province": "NS", "country": "CA", "postalCode": "B4C1Y9", "twitter": "None", "instagram": "None", "facebook": "None", "youtube": "None", "website": "None", "summary": "None", "logo": "None", "latitude": 44.762800086588996, "longitude": -63.65932390051349}, "130565963RR0015": {"name": "MOSAIC, CMA", "designationCode": "C", "categoryCode": "39", "address": "431 PRINCESS AVE", "city": "VANCOUVER", "province": "BC", "country": "CA", "postalCode": "V6A3C9", "twitter": "None", "instagram": "None", "facebook": "None", "youtube": "None", "website": "None", "summary": "None", "logo": "None", "latitude": 49.280490000000015, "longitude": -123.09149312158793}, "119046704RR0001": {"name": "MOSCOW UNITED CHURCH", "designationCode": "C", "categoryCode": "44", "address": "4245 COUNTY ROAD 6            RR 3", "city": "YARKER", "province": "ON", "country": "CA", "postalCode": "K0K3N0", "twitter": "None", "instagram": "None", "facebook": "None", "youtube": "None", "website": "None", "summary": "None", "logo": "None", "latitude": 44.371211377360844, "longitude": -76.769877449355}, "866552276RR0001": {"name": "MOSER RIVER & AREA HISTORICAL SOCIETY", "designationCode": "C", "categoryCode": "50", "address": "PO BOX 37", "city": "MOSER RIVER", "province": "NS", "country": "CA", "postalCode": "B0J2K0", "twitter": "None", "instagram": "None", "facebook": "None", "youtube": "None", "website": "None", "summary": "None", "logo": "None", "latitude": 44.27821983544388, "longitude": -64.2590807824063}, "107725699RR0001": {"name": "MOSER RIVER INDEPENDENT BAPTIST CHURCH", "designationCode": "C", "categoryCode": "31", "address": "28824 HIGHWAY 7", "city": "MOSER RIVER", "province": "NS", "country": "CA", "postalCode": "B0J2K0", "twitter": "None", "instagram": "None", "facebook": "None", "youtube": "None", "website": "None", "summary": "None", "logo": "None", "latitude": 44.969919898578816, "longitude": -62.25638691232258}, "119046720RR0001": {"name": "MOSES & TEMARA TOBE FOUNDATION INC.", "designationCode": "B", "categoryCode": "55", "address": "193 FOREST HILL RD", "city": "TORONTO", "province": "ON", "country": "CA", "postalCode": "M5P2N3", "twitter": "None", "instagram": "None", "facebook": "None", "youtube": "None", "website": "None", "summary": "None", "logo": "None", "latitude": 43.69823463448545, "longitude": -79.40824491531559}, "134665991RR0001": {"name": "MOSQU\u00c9E ASSUNA ANNABAWIYAH / ASSUNA ANNABAWIYAH MOSQUE", "designationCode": "C", "categoryCode": "60", "address": "7220 RUE HUTCHISON", "city": "MONTREAL", "province": "QC", "country": "CA", "postalCode": "H3N1Z1", "twitter": "None", "instagram": "None", "facebook": "None", "youtube": "None", "website": "None", "summary": "None", "logo": "None", "latitude": 45.52983005355194, "longitude": -73.62338057314321}, "875103616RR0001": {"name": "MOSQUEE DARUS SALAM", "designationCode": "C", "categoryCode": "60", "address": "17075 RUE OMER", "city": "PIERREFONDS", "province": "QC", "country": "CA", "postalCode": "H9J1B6", "twitter": "None", "instagram": "None", "facebook": "None", "youtube": "None", "website": "None", "summary": "None", "logo": "None"}, "107615825RR0001": {"name": "MOSQUEE DE MONTREAL", "designationCode": "C", "categoryCode": "60", "address": "7445, AVENUE CHESTER", "city": "MONTREAL", "province": "QC", "country": "CA", "postalCode": "H4V1M4", "twitter": "None", "instagram": "None", "facebook": "None", "youtube": "None", "website": "None", "summary": "None", "logo": "None", "latitude": 45.45944424675391, "longitude": -73.65438792815485}, "890088594RR0001": {"name": "MOSQUEE FATIMA INC", "designationCode": "C", "categoryCode": "60", "address": "2012 RUE SAINT-DOMINIQUE", "city": "MONTREAL", "province": "QC", "country": "CA", "postalCode": "H2X2X1", "twitter": "None", "instagram": "None", "facebook": "None", "youtube": "None", "website": "None", "summary": "None", "logo": "None", "latitude": 45.51193376796129, "longitude": -73.5668737640948}, "897040432RR0001": {"name": "MOSQUEE MAKKAH-AL-MUKKARAMAH", "designationCode": "C", "categoryCode": "60", "address": "11900 BOUL GOUIN O", "city": "PIERREFONDS", "province": "QC", "country": "CA", "postalCode": "H8Z1V6", "twitter": "None", "instagram": "None", "facebook": "None", "youtube": "None", "website": "None", "summary": "None", "logo": "None", "latitude": 45.507176100727264, "longitude": -73.8251221286284}, "107981060RR0001": {"name": "MOSQUITO CREEK FOUNDATION", "designationCode": "C", "categoryCode": "01", "address": "BOX 40", "city": "NANTON", "province": "AB", "country": "CA", "postalCode": "T0L1R0", "twitter": "None", "instagram": "None", "facebook": "None", "youtube": "None", "website": "None", "summary": "None", "logo": "None", "latitude": 50.448604499999995, "longitude": -113.84751825000001}, "896217288RR0001": {"name": "MOSSBANK & DISTRICT MUSEUM INC.", "designationCode": "C", "categoryCode": "50", "address": "BOX 172", "city": "MOSSBANK", "province": "SK", "country": "CA", "postalCode": "S0H3G0", "twitter": "None", "instagram": "None", "facebook": "None", "youtube": "None", "website": "None", "summary": "None", "logo": "None", "latitude": 49.93336000000005, "longitude": -105.96785999999997}, "119046746RR0001": {"name": "MOSSBANK ARTIFICIAL ICE FUND", "designationCode": "C", "categoryCode": "56", "address": "BOX 511", "city": "MOSSBANK", "province": "SK", "country": "CA", "postalCode": "S0H3G0", "twitter": "None", "instagram": "None", "facebook": "None", "youtube": "None", "website": "None", "summary": "None", "logo": "None", "latitude": 49.93336000000005, "longitude": -105.96785999999997}, "131789273RR0001": {"name": "MOSSBANK UNITED CHURCH", "designationCode": "C", "categoryCode": "44", "address": "BOX 475", "city": "MOSSBANK", "province": "SK", "country": "CA", "postalCode": "S0H3G0", "twitter": "None", "instagram": "None", "facebook": "None", "youtube": "None", "website": "None", "summary": "None", "logo": "None", "latitude": 49.93336000000005, "longitude": -105.96785999999997}, "857577001RR0001": {"name": "MOSSBANK YOUTH COMMUNITY BUILDERS INC.", "designationCode": "C", "categoryCode": "09", "address": "P.O. BOX 2", "city": "MOSSBANK", "province": "SK", "country": "CA", "postalCode": "S0H3G0", "twitter": "None", "instagram": "None", "facebook": "None", "youtube": "None", "website": "None", "summary": "None", "logo": "None", "latitude": 49.93336000000005, "longitude": -105.96785999999997}, "119046761RR0001": {"name": "MOSSBANK 50 PLUS CLUB", "designationCode": "C", "categoryCode": "56", "address": "PO BOX 51", "city": "MOSSBANK", "province": "SK", "country": "CA", "postalCode": "S0H3G0", "twitter": "None", "instagram": "None", "facebook": "None", "youtube": "None", "website": "None", "summary": "None", "logo": "None", "latitude": 49.93336000000005, "longitude": -105.96785999999997}, "826740144RR0001": {"name": "MOSSING SCHOOL OF MUSIC INC.", "designationCode": "C", "categoryCode": "22", "address": "2177 WASCANA ST", "city": "REGINA", "province": "SK", "country": "CA", "postalCode": "S4T4K1", "twitter": "None", "instagram": "None", "facebook": "None", "youtube": "None", "website": "None", "summary": "None", "logo": "None", "latitude": 50.444081748542914, "longitude": -104.63974684315332}, "119046787RR0001": {"name": "MOSSLEY POST HERITAGE AND CITIZENSHIP SOCIETY", "designationCode": "C", "categoryCode": "52", "address": "4581 ELAIN ROAD", "city": "MOSSLEY", "province": "ON", "country": "CA", "postalCode": "N0L1V0", "twitter": "None", "instagram": "None", "facebook": "None", "youtube": "None", "website": "None", "summary": "None", "logo": "None", "latitude": 42.93481292305145, "longitude": -81.00887203234709}, "870161445RR0001": {"name": "MOST HOLY CHURCH OF GOD IN CHRIST JESUS OF CANADA", "designationCode": "C", "categoryCode": "39", "address": "197 BRIDLEGLEN ROAD, S.W.", "city": "CALGARY", "province": "AB", "country": "CA", "postalCode": "T2Y3W9", "twitter": "None", "instagram": "None", "facebook": "None", "youtube": "None", "website": "None", "summary": "None", "logo": "None", "latitude": 50.9037544962491, "longitude": -114.10580253136361}, "119109817RR0137": {"name": "MOST PRECIOUS BLOOD CHURCH", "designationCode": "C", "categoryCode": "38", "address": "1947 MELDRUM RD", "city": "WINDSOR", "province": "ON", "country": "CA", "postalCode": "N8W4E3", "twitter": "None", "instagram": "None", "facebook": "None", "youtube": "None", "website": "None", "summary": "None", "logo": "None", "latitude": 42.305127098794, "longitude": -82.98397824816753}, "107020331RR0009": {"name": "MOST PURE HEART OF MARY PARISH", "designationCode": "C", "categoryCode": "38", "address": "801 NORTH BARNABY ROAD", "city": "BARNABY", "province": "NB", "country": "CA", "postalCode": "E1N6E9", "twitter": "None", "instagram": "None", "facebook": "None", "youtube": "None", "website": "None", "summary": "None", "logo": "None", "latitude": 46.88811048697117, "longitude": -65.51594692482846}, "107725863RR0001": {"name": "MOTHER GOOSE CO-OPERATIVE PRE-SCHOOL INC.", "designationCode": "C", "categoryCode": "20", "address": "407 CHARLTON AVE W", "city": "HAMILTON", "province": "ON", "country": "CA", "postalCode": "L8P2E6", "twitter": "None", "instagram": "None", "facebook": "None", "youtube": "None", "website": "None", "summary": "None", "logo": "None", "latitude": 43.254276853165294, "longitude": -79.89078962989781}, "107725954RR0001": {"name": "MOTHER GOOSE PRESCHOOL SOCIETY", "designationCode": "C", "categoryCode": "20", "address": "925 - 104TH AVENUE", "city": "DAWSON CREEK", "province": "BC", "country": "CA", "postalCode": "V1G2H8", "twitter": "None", "instagram": "None", "facebook": "None", "youtube": "None", "website": "None", "summary": "None", "logo": "None", "latitude": 55.75652078319608, "longitude": -120.22934017294685}, "897102554RR0001": {"name": "MOTHER MARY GREENE SCHOOL EDUCATIONAL SOCIETY", "designationCode": "C", "categoryCode": "21", "address": "115 EDENWOLD DRIVE NW", "city": "CALGARY", "province": "AB", "country": "CA", "postalCode": "T3A3S8", "twitter": "None", "instagram": "None", "facebook": "None", "youtube": "None", "website": "None", "summary": "None", "logo": "None", "latitude": 51.12438959033992, "longitude": -114.13840723065373}, "853829166RR0001": {"name": "MOTHER OF MERCY CENTER", "designationCode": "C", "categoryCode": "49", "address": "119 ASHBOURNE DRIVE", "city": "ETOBICOKE", "province": "ON", "country": "CA", "postalCode": "M9B4H9", "twitter": "None", "instagram": "None", "facebook": "None", "youtube": "None", "website": "None", "summary": "None", "logo": "None", "latitude": 43.6481167887933, "longitude": -79.54561146944445}, "121702336RR0001": {"name": "MOTHER OF SORROWS PIONEER SHRINE", "designationCode": "C", "categoryCode": "38", "address": "P.O. BOX 10", "city": "MABOU", "province": "NS", "country": "CA", "postalCode": "B0E1X0", "twitter": "None", "instagram": "None", "facebook": "None", "youtube": "None", "website": "None", "summary": "None", "logo": "None", "latitude": 45.93925886245837, "longitude": -61.44986645485256}, "119046878RR0001": {"name": "MOTHER ST. MARGARET KELLY EDUCATIONAL TRUST FUND", "designationCode": "C", "categoryCode": "25", "address": "71 COMAY RD", "city": "TORONTO", "province": "ON", "country": "CA", "postalCode": "M6M2K9", "twitter": "None", "instagram": "None", "facebook": "None", "youtube": "None", "website": "None", "summary": "None", "logo": "None", "latitude": 43.69661186037866, "longitude": -79.48211609602404}, "119046886RR0001": {"name": "MOTHERWELL AVONBANK PRESBYTERIAN CHURCH", "designationCode": "C", "categoryCode": "37", "address": "5143 LINE 16 RR#7", "city": "ST-MARYS", "province": "ON", "country": "CA", "postalCode": "N4X1C9", "twitter": "None", "instagram": "None", "facebook": "None", "youtube": "None", "website": "None", "summary": "None", "logo": "None", "latitude": 43.266633000000056, "longitude": -81.13828849999993}, "866194194RR0001": {"name": "MOTIVACTION JEUNESSE", "designationCode": "C", "categoryCode": "09", "address": "14 RUE SOUMANDE, PORTE 1-8", "city": "QUEBEC", "province": "QC", "country": "CA", "postalCode": "G1L0A4", "twitter": "None", "instagram": "None", "facebook": "None", "youtube": "None", "website": "None", "summary": "None", "logo": "None", "latitude": 46.83339988954924, "longitude": -71.24449592604871}, "121127674RR0001": {"name": "MOTIVATION-JEUNESSE 16/18 INC", "designationCode": "C", "categoryCode": "09", "address": "8200 BOUL SAINT-LAURENT", "city": "MONTREAL", "province": "QC", "country": "CA", "postalCode": "H2P2L8", "twitter": "None", "instagram": "None", "facebook": "None", "youtube": "None", "website": "None", "summary": "None", "logo": "None", "latitude": 45.5392437572305, "longitude": -73.6328768928771}, "119065035RR0001": {"name": "MOTIVE-ACTION TRAINING FOUNDATION", "designationCode": "C", "categoryCode": "59", "address": "UNIT A, 1201-42 AVE SE", "city": "CALGARY", "province": "AB", "country": "CA", "postalCode": "T2G1Z5", "twitter": "None", "instagram": "None", "facebook": "None", "youtube": "None", "website": "None", "summary": "None", "logo": "None", "latitude": 51.015995466818715, "longitude": -114.03651141268986}, "889378592RR0001": {"name": "MOTOROLA CANADA LIMITED EMPLOYEES CHARITABLE TRUST", "designationCode": "B", "categoryCode": "75", "address": "8133 WARDEN AVENUE", "city": "MARKHAM", "province": "ON", "country": "CA", "postalCode": "L6G1B3", "twitter": "None", "instagram": "None", "facebook": "None", "youtube": "None", "website": "None", "summary": "None", "logo": "None", "latitude": 43.848426859924196, "longitude": -79.33181966837228}, "890058795RR0001": {"name": "MOTUS O DANCE THEATRE", "designationCode": "C", "categoryCode": "22", "address": "251 SECOND ST", "city": "STOUFFVILLE", "province": "ON", "country": "CA", "postalCode": "L4A1B9", "twitter": "None", "instagram": "None", "facebook": "None", "youtube": "None", "website": "None", "summary": "None", "logo": "None", "latitude": 43.97035509244603, "longitude": -79.25468725757393}, "890519424RR0001": {"name": "MOULIN SEIGNEURIAL DE LA POINTE-DU-LAC INC", "designationCode": "C", "categoryCode": "52", "address": "11930, NOTRE-DAME-OUEST", "city": "TROIS-RIVIERES", "province": "QC", "country": "CA", "postalCode": "G9B6X1", "twitter": "None", "instagram": "None", "facebook": "None", "youtube": "None", "website": "None", "summary": "None", "logo": "None", "latitude": 46.28784643963873, "longitude": -72.68899140036928}, "107726788RR0001": {"name": "MOUNT ALBERT MISSIONARY CHURCH", "designationCode": "C", "categoryCode": "47", "address": "1 DON ROSE BLVD", "city": "MOUNT ALBERT", "province": "ON", "country": "CA", "postalCode": "L0G1M0", "twitter": "None", "instagram": "None", "facebook": "None", "youtube": "None", "website": "None", "summary": "None", "logo": "None", "latitude": 44.13012018959527, "longitude": -79.3139999082178}, "107726796RR0001": {"name": "MOUNT ALBERT PASTORAL CHARGE", "designationCode": "C", "categoryCode": "44", "address": "BOX 303                       41 ALICE STREET", "city": "MOUNT ALBERT", "province": "ON", "country": "CA", "postalCode": "L0G1M0", "twitter": "None", "instagram": "None", "facebook": "None", "youtube": "None", "website": "None", "summary": "None", "logo": "None", "latitude": 44.13567747683071, "longitude": -79.30697708863781}, "119047298RR0001": {"name": "MOUNT ALBERT UNITED CHURCH SENIOR CITIZENS FOUNDATION", "designationCode": "C", "categoryCode": "09", "address": "124-40 ROYAL OAK RD.", "city": "MOUNT ALBERT", "province": "ON", "country": "CA", "postalCode": "L0G1M0", "twitter": "None", "instagram": "None", "facebook": "None", "youtube": "None", "website": "None", "summary": "None", "logo": "None", "latitude": 44.13554810407415, "longitude": -79.30523971487068}, "107726820RR0001": {"name": "MOUNT ALLISON UNIVERSITY", "designationCode": "C", "categoryCode": "20", "address": "65 YORK STREET", "city": "SACKVILLE", "province": "NB", "country": "CA", "postalCode": "E4L1E4", "twitter": "None", "instagram": "None", "facebook": "None", "youtube": "None", "website": "None", "summary": "None", "logo": "None", "latitude": 45.89913971291266, "longitude": -64.37379634012312}, "118837988RR0002": {"name": "MOUNT ALVERNO RETREAT PROGRAMME", "designationCode": "C", "categoryCode": "46", "address": "2100 JANE ST.", "city": "TORONTO", "province": "ON", "country": "CA", "postalCode": "M3M1A1", "twitter": "None", "instagram": "None", "facebook": "None", "youtube": "None", "website": "None", "summary": "None", "logo": "None", "latitude": 43.719352827081806, "longitude": -79.50827734684597}, "119288918RR0154": {"name": "MOUNT ARROWSMITH CONGREGATION OF JEHOVAH'S WITNESSES, QUALICUM BEACH, BRITISH COLUMBIA", "designationCode": "C", "categoryCode": "61", "address": "423 FIRST AVE W", "city": "QUALICUM BEACH", "province": "BC", "country": "CA", "postalCode": "V9K1J8", "twitter": "None", "instagram": "None", "facebook": "None", "youtube": "None", "website": "None", "summary": "None", "logo": "None", "latitude": 49.34839347879261, "longitude": -124.45902072300768}, "119047330RR0001": {"name": "MOUNT ARROWSMITH PIPE BAND ASSOCIATION", "designationCode": "C", "categoryCode": "22", "address": "2412 CROSS RD", "city": "NANOOSE BAY", "province": "BC", "country": "CA", "postalCode": "V9P9E6", "twitter": "None", "instagram": "None", "facebook": "None", "youtube": "None", "website": "None", "summary": "None", "logo": "None", "latitude": 49.27735457363456, "longitude": -124.197017543499}, "119288918RR0199": {"name": "MOUNT BECHER CONGREGATION OF JEHOVAH'S WITNESSES", "designationCode": "C", "categoryCode": "61", "address": "2939 ELDERBERRY CRES", "city": "COURTENAY", "province": "BC", "country": "CA", "postalCode": "V9N9W8", "twitter": "None", "instagram": "None", "facebook": "None", "youtube": "None", "website": "None", "summary": "None", "logo": "None", "latitude": 49.71580880070988, "longitude": -124.96692124450354}, "130983646RR0001": {"name": "MOUNT BENSON SENIOR CITIZENS HOUSING SOCIETY", "designationCode": "C", "categoryCode": "01", "address": "106-619 COMOX RD", "city": "NANAIMO", "province": "BC", "country": "CA", "postalCode": "V9R5V8", "twitter": "None", "instagram": "None", "facebook": "None", "youtube": "None", "website": "None", "summary": "None", "logo": "None", "latitude": 49.17029652005357, "longitude": -123.94649279822836}, "119047355RR0001": {"name": "MOUNT BEULAH CHURCH AMHERSTBURG", "designationCode": "C", "categoryCode": "47", "address": "119 FRYER ST", "city": "AMHERSTBURG", "province": "ON", "country": "CA", "postalCode": "N9V2L5", "twitter": "None", "instagram": "None", "facebook": "None", "youtube": "None", "website": "None", "summary": "None", "logo": "None", "latitude": 42.106400769634725, "longitude": -83.09798555629324}, "107726861RR0001": {"name": "MOUNT BRUNO UNITED CHURCH", "designationCode": "C", "categoryCode": "44", "address": "25 LAKEVIEW AVE", "city": "ST BRUNO", "province": "QC", "country": "CA", "postalCode": "J3V2L4", "twitter": "None", "instagram": "None", "facebook": "None", "youtube": "None", "website": "None", "summary": "None", "logo": "None", "latitude": 45.52497659951518, "longitude": -73.336429569825}, "119047371RR0001": {"name": "MOUNT BRYDGES BAPTIST CHURCH", "designationCode": "C", "categoryCode": "31", "address": "7054 GLENDON DR", "city": "MELBOURNE", "province": "ON", "country": "CA", "postalCode": "N0L1T0", "twitter": "None", "instagram": "None", "facebook": "None", "youtube": "None", "website": "None", "summary": "None", "logo": "None", "latitude": 42.85818819152852, "longitude": -81.56660924135821}, "890610744RR0001": {"name": "MOUNT BRYDGES LIONS CHARITABLE FOUNDATION", "designationCode": "A", "categoryCode": "65", "address": "7599 CENTURY DRIVE, RR3", "city": "MOUNT BRYDGES", "province": "ON", "country": "CA", "postalCode": "N0L1W0", "twitter": "None", "instagram": "None", "facebook": "None", "youtube": "None", "website": "None", "summary": "None", "logo": "None", "latitude": 42.89107825623039, "longitude": -81.56876990656843}, "119047389RR0001": {"name": "MOUNT BRYDGES PASTORAL CHARGE", "designationCode": "C", "categoryCode": "44", "address": "RR3                           7461 FALCON BRIDGE DR", "city": "MELBOURNE", "province": "ON", "country": "CA", "postalCode": "N0L1T0", "twitter": "None", "instagram": "None", "facebook": "None", "youtube": "None", "website": "None", "summary": "None", "logo": "None", "latitude": 42.87961468079539, "longitude": -81.56052357559605}, "888800646RR0001": {"name": "MOUNT CALVARY APOSTOLIC CHURCH OF ONTARIO", "designationCode": "C", "categoryCode": "39", "address": "250 CHURCH ST", "city": "MISSISSAUGA", "province": "ON", "country": "CA", "postalCode": "L5M1N2", "twitter": "None", "instagram": "None", "facebook": "None", "youtube": "None", "website": "None", "summary": "None", "logo": "None", "latitude": 43.580777637515205, "longitude": -79.71074964253552}, "107726929RR0001": {"name": "MOUNT CALVARY LUTHERAN CHURCH", "designationCode": "C", "categoryCode": "32", "address": "BOX 687", "city": "MAPLE CREEK", "province": "SK", "country": "CA", "postalCode": "S0N1N0", "twitter": "None", "instagram": "None", "facebook": "None", "youtube": "None", "website": "None", "summary": "None", "logo": "None", "latitude": 49.91416000000004, "longitude": -109.46959999999996}, "107726945RR0001": {"name": "MOUNT CALVARY LUTHERAN CHURCH", "designationCode": "C", "categoryCode": "32", "address": "701-6TH STREET", "city": "NEW WESTMINSTER", "province": "BC", "country": "CA", "postalCode": "V3L3C6", "twitter": "None", "instagram": "None", "facebook": "None", "youtube": "None", "website": "None", "summary": "None", "logo": "None", "latitude": 49.21457553524408, "longitude": -122.92195538608344}, "107745341RR0001": {"name": "MOUNT CALVARY LUTHERAN CHURCH", "designationCode": "C", "categoryCode": "32", "address": "27 COLEWAY ST.", "city": "OTTAWA", "province": "ON", "country": "CA", "postalCode": "K2G0K8", "twitter": "None", "instagram": "None", "facebook": "None", "youtube": "None", "website": "None", "summary": "None", "logo": "None", "latitude": 45.32147479185173, "longitude": -75.74196169201944}, "130375496RR0001": {"name": "MOUNT CALVARY LUTHERAN CHURCH", "designationCode": "C", "categoryCode": "32", "address": "18 SELKIRK BLVD", "city": "RED DEER", "province": "AB", "country": "CA", "postalCode": "T4N0G2", "twitter": "None", "instagram": "None", "facebook": "None", "youtube": "None", "website": "None", "summary": "None", "logo": "None", "latitude": 52.25091442382702, "longitude": -113.80001608979164}, "131163990RR0001": {"name": "MOUNT CALVARY LUTHERAN CHURCH,", "designationCode": "C", "categoryCode": "32", "address": "101-3RD AVE. S. E.", "city": "SWIFT CURRENT", "province": "SK", "country": "CA", "postalCode": "S9H3K3", "twitter": "None", "instagram": "None", "facebook": "None", "youtube": "None", "website": "None", "summary": "None", "logo": "None", "latitude": 50.27846374854292, "longitude": -107.79646903632661}, "107726952RR0001": {"name": "MOUNT CARMEL BIBLE SCHOOL", "designationCode": "C", "categoryCode": "45", "address": "4725 106 AVE NW", "city": "EDMONTON", "province": "AB", "country": "CA", "postalCode": "T6A1E7", "twitter": "None", "instagram": "None", "facebook": "None", "youtube": "None", "website": "None", "summary": "None", "logo": "None", "latitude": 53.55133961945315, "longitude": -113.41606460090014}, "124911553RR0001": {"name": "MOUNT CARMEL CEMETERY", "designationCode": "C", "categoryCode": "59", "address": "7407 CALVERT DRIVE", "city": "STRATHROY", "province": "ON", "country": "CA", "postalCode": "N7G3H5", "twitter": "None", "instagram": "None", "facebook": "None", "youtube": "None", "website": "None", "summary": "None", "logo": "None", "latitude": 42.93033262308848, "longitude": -81.63379655453289}, "119047520RR0001": {"name": "MOUNT CARMEL CLINIC", "designationCode": "C", "categoryCode": "11", "address": "886 MAIN STREET", "city": "WINNIPEG", "province": "MB", "country": "CA", "postalCode": "R2W5L4", "twitter": "None", "instagram": "None", "facebook": "None", "youtube": "None", "website": "None", "summary": "None", "logo": "None", "latitude": 49.909940025486996, "longitude": -97.13330248744258}, "898126826RR0001": {"name": "MOUNT CARMEL CLINIC FOUNDATION INC.", "designationCode": "A", "categoryCode": "03", "address": "886 MAIN ST", "city": "WINNIPEG", "province": "MB", "country": "CA", "postalCode": "R2W5L4", "twitter": "None", "instagram": "None", "facebook": "None", "youtube": "None", "website": "None", "summary": "None", "logo": "None", "latitude": 49.909940025486996, "longitude": -97.13330248744258}, "132256389RR0001": {"name": "MOUNT CARMEL LUTHERAN CHURCH", "designationCode": "C", "categoryCode": "32", "address": "BOX 1491", "city": "GRANDE CACHE", "province": "AB", "country": "CA", "postalCode": "T0E0Y0", "twitter": "None", "instagram": "None", "facebook": "None", "youtube": "None", "website": "None", "summary": "None", "logo": "None", "latitude": 53.888100000000065, "longitude": -119.11633999999998}, "119047546RR0001": {"name": "MOUNT CARMEL PARISH FLAT LAKE", "designationCode": "C", "categoryCode": "38", "address": "4609 50 AVE", "city": "ST PAUL", "province": "AB", "country": "CA", "postalCode": "T0A3A3", "twitter": "None", "instagram": "None", "facebook": "None", "youtube": "None", "website": "None", "summary": "None", "logo": "None", "latitude": 53.99135148730496, "longitude": -111.28695202553523}, "107833394RR0037": {"name": "MOUNT CARMEL PENTECOSTAL CHURCH", "designationCode": "C", "categoryCode": "36", "address": "P.O. BOX 33", "city": "HOWLEY", "province": "NL", "country": "CA", "postalCode": "A0K3E0", "twitter": "None", "instagram": "None", "facebook": "None", "youtube": "None", "website": "None", "summary": "None", "logo": "None", "latitude": 49.16918000000004, "longitude": -57.11406999999997}, "119047561RR0001": {"name": "MOUNT CARMEL UNITED CHURCH", "designationCode": "C", "categoryCode": "44", "address": "21 VICTOR BLVD PO BOX 267", "city": "ST. GEORGE", "province": "ON", "country": "CA", "postalCode": "N0E1N0", "twitter": "None", "instagram": "None", "facebook": "None", "youtube": "None", "website": "None", "summary": "None", "logo": "None", "latitude": 43.23995575823778, "longitude": -80.24839640536092}, "889266441RR0001": {"name": "MOUNT CARMEL ZION UNITED CHURCH OF CANADA", "designationCode": "C", "categoryCode": "44", "address": "4155 CONCESSION 11            RR 1", "city": "MOFFAT", "province": "ON", "country": "CA", "postalCode": "L0P1J0", "twitter": "None", "instagram": "None", "facebook": "None", "youtube": "None", "website": "None", "summary": "None", "logo": "None", "latitude": 43.48030754997291, "longitude": -80.05460082291013}, "121833685RR0001": {"name": "MOUNT CHEAM CHRISTIAN SCHOOL SOCIETY", "designationCode": "C", "categoryCode": "20", "address": "48988 YALE RD", "city": "CHILLIWACK", "province": "BC", "country": "CA", "postalCode": "V4Z0B2", "twitter": "None", "instagram": "None", "facebook": "None", "youtube": "None", "website": "None", "summary": "None", "logo": "None", "latitude": 49.17677924918237, "longitude": -121.86967168499575}, "107727075RR0001": {"name": "MOUNT DENNIS BAPTIST CHURCH", "designationCode": "C", "categoryCode": "31", "address": "1272 WESTON RD", "city": "TORONTO", "province": "ON", "country": "CA", "postalCode": "M6M4R1", "twitter": "None", "instagram": "None", "facebook": "None", "youtube": "None", "website": "None", "summary": "None", "logo": "None", "latitude": 43.68874522119001, "longitude": -79.49457013004205}, "119288918RR0215": {"name": "MOUNT DENNIS CONGREGATION OF JEHOVAH'S WITNESSES, TORONTO, ONTARIO", "designationCode": "C", "categoryCode": "61", "address": "86 SPEARS STREET", "city": "TORONTO", "province": "ON", "country": "CA", "postalCode": "M6N3X7", "twitter": "None", "instagram": "None", "facebook": "None", "youtube": "None", "website": "None", "summary": "None", "logo": "None", "latitude": 43.67609959172487, "longitude": -79.48029551653285}, "107727109RR0001": {"name": "MOUNT DENSON UNITED BAPTIST CHURCH", "designationCode": "C", "categoryCode": "31", "address": "PO BOX 280", "city": "HANTSPORT", "province": "NS", "country": "CA", "postalCode": "B0P1P0", "twitter": "None", "instagram": "None", "facebook": "None", "youtube": "None", "website": "None", "summary": "None", "logo": "None", "latitude": 45.054843212991415, "longitude": -64.17704290496583}, "834619546RR0001": {"name": "MOUNT DOUGLAS SECONDARY ALUMNI ASSOCIATION", "designationCode": "C", "categoryCode": "21", "address": "3970 GORDON HEAD RD           MOUNT DOULAS SECONDARY SCHOOL", "city": "VICTORIA", "province": "BC", "country": "CA", "postalCode": "V8N3X3", "twitter": "None", "instagram": "None", "facebook": "None", "youtube": "None", "website": "None", "summary": "None", "logo": "None", "latitude": 48.470920000000035, "longitude": -123.31720999999999}, "119047629RR0001": {"name": "MOUNT ELGIN UNITED CHURCH", "designationCode": "C", "categoryCode": "44", "address": "324105 MT. ELGIN RD RR#1", "city": "MT ELGIN", "province": "ON", "country": "CA", "postalCode": "N0J1N0", "twitter": "None", "instagram": "None", "facebook": "None", "youtube": "None", "website": "None", "summary": "None", "logo": "None", "latitude": 42.95826934390314, "longitude": -80.79388820206009}, "868683145RR0001": {"name": "MOUNT EPHRAIM ZION HILL TABERNACLE CORP", "designationCode": "C", "categoryCode": "39", "address": "66 MILVAN DR                  UNIT 5", "city": "TORONTO", "province": "ON", "country": "CA", "postalCode": "M9L1Z5", "twitter": "None", "instagram": "None", "facebook": "None", "youtube": "None", "website": "None", "summary": "None", "logo": "None", "latitude": 43.75460424534026, "longitude": -79.55692487497828}, "119288918RR0965": {"name": "MOUNT FISHER CONGREGATION OF JEHOVAH'S WITNESSES", "designationCode": "C", "categoryCode": "61", "address": "8 - 2025 KOKANEE DR N", "city": "CRANBROOK", "province": "BC", "country": "CA", "postalCode": "V1C6J2", "twitter": "None", "instagram": "None", "facebook": "None", "youtube": "None", "website": "None", "summary": "None", "logo": "None", "latitude": 49.52897477002243, "longitude": -115.74379497357269}, "881696561RR0001": {"name": "MOUNT FOREST CEMETERY COMPANY", "designationCode": "C", "categoryCode": "59", "address": "202 BOIVIN STREET", "city": "COATICOOK", "province": "QC", "country": "CA", "postalCode": "J1A1C8", "twitter": "None", "instagram": "None", "facebook": "None", "youtube": "None", "website": "None", "summary": "None", "logo": "None", "latitude": 45.139585863696894, "longitude": -71.80939685899368}, "864068101RR0001": {"name": "MOUNT FOREST HERITAGE SOCIETY", "designationCode": "C", "categoryCode": "50", "address": "102 MAIN STREET SOUTH         P.O. BOX 34", "city": "MOUNT FOREST", "province": "ON", "country": "CA", "postalCode": "N0G2L0", "twitter": "None", "instagram": "None", "facebook": "None", "youtube": "None", "website": "None", "summary": "None", "logo": "None", "latitude": 43.98167248294756, "longitude": -80.73537265609687}, "119288918RR0530": {"name": "MOUNT FOREST ONTARIO CONGREGATION OF JEHOVAH'S WITNESSES", "designationCode": "C", "categoryCode": "61", "address": "133 RUBY'S CRES.", "city": "MOUNT FOREST", "province": "ON", "country": "CA", "postalCode": "N0G2L2", "twitter": "None", "instagram": "None", "facebook": "None", "youtube": "None", "website": "None", "summary": "None", "logo": "None", "latitude": 44.031723000000056, "longitude": -81.09871549999994}, "107727166RR0001": {"name": "MOUNT FOREST PENTECOSTAL CHURCH", "designationCode": "C", "categoryCode": "36", "address": "259 FERGUS ST S", "city": "MOUNT FOREST", "province": "ON", "country": "CA", "postalCode": "N0G2L2", "twitter": "None", "instagram": "None", "facebook": "None", "youtube": "None", "website": "None", "summary": "None", "logo": "None", "latitude": 43.98041253447746, "longitude": -80.73079665011763}, "119047660RR0001": {"name": "MOUNT FOREST UNITED CHURCH", "designationCode": "C", "categoryCode": "44", "address": "165 QUEEN ST. E.", "city": "MOUNT FOREST", "province": "ON", "country": "CA", "postalCode": "N0G2L2", "twitter": "None", "instagram": "None", "facebook": "None", "youtube": "None", "website": "None", "summary": "None", "logo": "None", "latitude": 43.97959038054686, "longitude": -80.73055699875925}, "856242003RR0001": {"name": "MOUNT FOREST VICTORY CHURCH", "designationCode": "C", "categoryCode": "39", "address": "320 KING ST E", "city": "MOUNT FOREST", "province": "ON", "country": "CA", "postalCode": "N0G2L2", "twitter": "None", "instagram": "None", "facebook": "None", "youtube": "None", "website": "None", "summary": "None", "logo": "None", "latitude": 43.98277738248583, "longitude": -80.7306993255437}, "107727216RR0001": {"name": "MOUNT HAMILTON CHRISTIAN REFORMED CHURCH", "designationCode": "C", "categoryCode": "39", "address": "1411 UPPER WELLINGTON STREET", "city": "HAMILTON", "province": "ON", "country": "CA", "postalCode": "L9A3S8", "twitter": "None", "instagram": "None", "facebook": "None", "youtube": "None", "website": "None", "summary": "None", "logo": "None", "latitude": 43.210128520947606, "longitude": -79.87867996554931}, "889041190RR0001": {"name": "MOUNT HAMILTON HORTICULTURAL SOCIETY", "designationCode": "C", "categoryCode": "52", "address": "7 SAN MARINO CR", "city": "HAMILTON", "province": "ON", "country": "CA", "postalCode": "L9C2B6", "twitter": "None", "instagram": "None", "facebook": "None", "youtube": "None", "website": "None", "summary": "None", "logo": "None", "latitude": 43.243307656096874, "longitude": -79.91964827240469}, "813655149RR0001": {"name": "MOUNT HANLEY AND DISTRICT SCHOOLHOUSE MUSEUM SOCIETY", "designationCode": "C", "categoryCode": "50", "address": "PO BOX 1023", "city": "MIDDLETON", "province": "NS", "country": "CA", "postalCode": "B0S1P0", "twitter": "None", "instagram": "None", "facebook": "None", "youtube": "None", "website": "None", "summary": "None", "logo": "None", "latitude": 45.01449600000005, "longitude": -65.06449099999993}, "890275191RR0001": {"name": "MOUNT HERBERT MEMORIAL CEMETERY", "designationCode": "C", "categoryCode": "59", "address": "2240 BETHEL ROAD", "city": "MT. HERBERT", "province": "PE", "country": "CA", "postalCode": "C1B3L8", "twitter": "None", "instagram": "None", "facebook": "None", "youtube": "None", "website": "None", "summary": "None", "logo": "None", "latitude": 46.23389227782904, "longitude": -63.015687156818025}, "119047710RR0001": {"name": "MOUNT HERMON CEMETERY ASSOCIATION", "designationCode": "C", "categoryCode": "59", "address": "1801 CH ST-LOUIS", "city": "SILLERY", "province": "QC", "country": "CA", "postalCode": "G1S1H6", "twitter": "None", "instagram": "None", "facebook": "None", "youtube": "None", "website": "None", "summary": "None", "logo": "None", "latitude": 46.78033788175894, "longitude": -71.24799273215427}, "119288918RR1172": {"name": "MOUNT HERMON CONGREGATION OF JEHOVAH'S WITNESSES", "designationCode": "C", "categoryCode": "61", "address": "606 NEW LISKEARD", "city": "OTTAWA", "province": "ON", "country": "CA", "postalCode": "K2J0N4", "twitter": "None", "instagram": "None", "facebook": "None", "youtube": "None", "website": "None", "summary": "None", "logo": "None", "latitude": 45.267279432425376, "longitude": -75.72389209784173}, "864162789RR0001": {"name": "MOUNT HOPE CAPSTONE MINISTRIES", "designationCode": "C", "categoryCode": "39", "address": "455 SENTINEL ROAD             SUITE 1308", "city": "NORTH YORK", "province": "ON", "country": "CA", "postalCode": "M3J1V5", "twitter": "None", "instagram": "None", "facebook": "None", "youtube": "None", "website": "None", "summary": "None", "logo": "None", "latitude": 43.76285418457495, "longitude": -79.5005762722318}, "119047744RR0001": {"name": "MOUNT HOPE SENIOR CITIZENS HOUSING SOCIETY", "designationCode": "C", "categoryCode": "01", "address": "BOX 881", "city": "HOPE", "province": "BC", "country": "CA", "postalCode": "V0X1L0", "twitter": "None", "instagram": "None", "facebook": "None", "youtube": "None", "website": "None", "summary": "None", "logo": "None", "latitude": 49.37911800000006, "longitude": -121.44296149999994}, "119288918RR0489": {"name": "MOUNT IDA CONGREGATION OF JEHOVAH'S WITNESSES", "designationCode": "C", "categoryCode": "61", "address": "721 2ND ST SE", "city": "SALMON ARM", "province": "BC", "country": "CA", "postalCode": "V1E4H3", "twitter": "None", "instagram": "None", "facebook": "None", "youtube": "None", "website": "None", "summary": "None", "logo": "None", "latitude": 50.69469591618096, "longitude": -119.28256333617016}, "107727257RR0001": {"name": "MOUNT JOY UNITED CHURCH", "designationCode": "C", "categoryCode": "44", "address": "202 MOUNTJOY STREET SOUTH", "city": "TIMMINS", "province": "ON", "country": "CA", "postalCode": "P4N1T4", "twitter": "None", "instagram": "None", "facebook": "None", "youtube": "None", "website": "None", "summary": "None", "logo": "None", "latitude": 48.472043706574176, "longitude": -81.33567420657417}, "132526765RR0001": {"name": "MOUNT LEHMAN PASTORAL CHARGE", "designationCode": "C", "categoryCode": "44", "address": "6256 MT LEHMAN RD", "city": "ABBOTSFORD", "province": "BC", "country": "CA", "postalCode": "V4X2G5", "twitter": "None", "instagram": "None", "facebook": "None", "youtube": "None", "website": "None", "summary": "None", "logo": "None", "latitude": 49.11583461226846, "longitude": -122.3821404982979}, "118793074RR0041": {"name": "MOUNT MORIAH SEVENTH-DAY ADVENTIST CHURCH", "designationCode": "C", "categoryCode": "41", "address": "1030 90TH AVENUE", "city": "LASALLE", "province": "QC", "country": "CA", "postalCode": "H8R3A1", "twitter": "None", "instagram": "None", "facebook": "None", "youtube": "None", "website": "None", "summary": "None", "logo": "None", "latitude": 45.42734414960468, "longitude": -73.63955615393249}, "107727281RR0001": {"name": "MOUNT NEWTON CENTRE SOCIETY", "designationCode": "C", "categoryCode": "01", "address": "2158 MOUNT NEWTON X ROAD", "city": "SAANICHTON", "province": "BC", "country": "CA", "postalCode": "V8M2B2", "twitter": "None", "instagram": "None", "facebook": "None", "youtube": "None", "website": "None", "summary": "None", "logo": "None", "latitude": 48.59420579982997, "longitude": -123.41116583607496}}