{"840315667RR0001": {"name": "Fondation de l'Ensemble DA CAPO", "designationCode": "A", "categoryCode": "23", "address": "12464 AV DU FIEF CARION", "city": "MONTREAL", "province": "QC", "country": "CA", "postalCode": "H1C0B1", "twitter": "None", "instagram": "None", "facebook": "None", "youtube": "None", "website": "None", "summary": "None", "logo": "None", "latitude": 45.67300957562473, "longitude": -73.53723782128209}, "119000529RR0001": {"name": "Fondation de l'H\u00f4pital de Memphr\u00e9magog/Memphremagog HospitalFoundation", "designationCode": "A", "categoryCode": "13", "address": "50 RUE SAINT-PATRICE EST", "city": "MAGOG", "province": "QC", "country": "CA", "postalCode": "J1X3X3", "twitter": "None", "instagram": "None", "facebook": "None", "youtube": "None", "website": "None", "summary": "None", "logo": "None", "latitude": 45.26561684537503, "longitude": -72.14488021761198}, "895300663RR0001": {"name": "Fondation de l'H\u00f4pital G\u00e9n\u00e9ral de Nipissing Ouest/West Nipissing General Hospital Foundation", "designationCode": "A", "categoryCode": "13", "address": "725 COURSOL ROAD", "city": "STURGEON FALLS", "province": "ON", "country": "CA", "postalCode": "P2B2Y6", "twitter": "None", "instagram": "None", "facebook": "None", "youtube": "None", "website": "None", "summary": "None", "logo": "None", "latitude": 46.37338509587523, "longitude": -79.91439445888594}, "128135878RR0001": {"name": "Fondation de l'ITA, campus de La Pocati\u00e8re", "designationCode": "A", "categoryCode": "21", "address": "401 RUE POIRE", "city": "LA POCATIERE", "province": "QC", "country": "CA", "postalCode": "G0R1Z0", "twitter": "None", "instagram": "None", "facebook": "None", "youtube": "None", "website": "None", "summary": "None", "logo": "None", "latitude": 47.36021100000005, "longitude": -70.05913099999994}, "890987340RR0001": {"name": "Fondation de l'Ordre de Saint-Jean conseil du Qu\u00e9bec / The Order of Saint-John Qu\u00e9bec Council Foundation", "designationCode": "A", "categoryCode": "13", "address": "400 - 1900 CITY PARK DR", "city": "GLOUCESTER", "province": "ON", "country": "CA", "postalCode": "K1J1A3", "twitter": "None", "instagram": "None", "facebook": "None", "youtube": "None", "website": "None", "summary": "None", "logo": "None", "latitude": 45.429072614173045, "longitude": -75.61430238034531}, "123672735RR0001": {"name": "Fondation de l'Ordre des infirmi\u00e8res et infirmiers du Qu\u00e9bec", "designationCode": "A", "categoryCode": "13", "address": "4200, RUE MOLSON", "city": "MONTREAL", "province": "QC", "country": "CA", "postalCode": "H1Y4V4", "twitter": "None", "instagram": "None", "facebook": "None", "youtube": "None", "website": "None", "summary": "None", "logo": "None", "latitude": 45.54143892001614, "longitude": -73.56539107253276}, "810871665RR0001": {"name": "Fondation de l'Ordre des Ing\u00e9nieurs du Qu\u00e9bec / Ordre des Ing\u00e9nieurs du Qu\u00e9bec Foundation", "designationCode": "C", "categoryCode": "21", "address": "350-1100 RUE DE LA GAUCHETI\u00c8REOUEST", "city": "MONTR\u00c9AL", "province": "QC", "country": "CA", "postalCode": "H3B2S2", "twitter": "None", "instagram": "None", "facebook": "None", "youtube": "None", "website": "None", "summary": "None", "logo": "None", "latitude": 45.49751700000006, "longitude": -73.56880699999994}, "816709299RR0001": {"name": "Fondation de la chambre de commerce et d'industrie Canada Liban / Foundation of the Canadian Lebanese Chamber of Commerce and Industry", "designationCode": "C", "categoryCode": "21", "address": "1400 RUE SAUVE OUEST          BUREAU 204", "city": "MONTR\u00c9AL", "province": "QC", "country": "CA", "postalCode": "H4N1C5", "twitter": "None", "instagram": "None", "facebook": "None", "youtube": "None", "website": "None", "summary": "None", "logo": "None", "latitude": 45.53376658422306, "longitude": -73.66593420015644}, "803498245RR0001": {"name": "Fondation de la communaut\u00e9 \u00c9lan", "designationCode": "C", "categoryCode": "21", "address": "3450 AVENUE DELORIMIER", "city": "MONTREAL", "province": "QC", "country": "CA", "postalCode": "H2K3X6", "twitter": "None", "instagram": "None", "facebook": "None", "youtube": "None", "website": "None", "summary": "None", "logo": "None", "latitude": 45.53089800000005, "longitude": -73.56350599999993}, "101836252RR0001": {"name": "Fondation de la d\u00e9ficience intellectuelle et des troubles duspectre de l'autisme de Montr\u00e9al (Fondation DI-TSA de Montr\u00e9al)", "designationCode": "C", "categoryCode": "01", "address": "110-75 RUE DE PORT-ROYAL E", "city": "MONTREAL", "province": "QC", "country": "CA", "postalCode": "H3L3T1", "twitter": "None", "instagram": "None", "facebook": "None", "youtube": "None", "website": "None", "summary": "None", "logo": "None", "latitude": 45.547073999999995, "longitude": -73.65670424999999}, "848371225RR0001": {"name": "Fondation de la famille Hochstadter / The Hochstadter Family Foundation", "designationCode": "B", "categoryCode": "03", "address": "6100, DEACON ROAD APT. 1A", "city": "MONTREAL", "province": "QC", "country": "CA", "postalCode": "H3S2V6", "twitter": "None", "instagram": "None", "facebook": "None", "youtube": "None", "website": "None", "summary": "None", "logo": "None", "latitude": 45.5119578040281, "longitude": -73.61964283738226}, "833160963RR0001": {"name": "Fondation de la rivi\u00e8re Sainte-Anne", "designationCode": "C", "categoryCode": "54", "address": "170 RTE DU PARC", "city": "SAINTE-ANNE-DES-MONTS", "province": "QC", "country": "CA", "postalCode": "G4V2C2", "twitter": "None", "instagram": "None", "facebook": "None", "youtube": "None", "website": "None", "summary": "None", "logo": "None", "latitude": 49.12525516042469, "longitude": -66.48375489549318}, "119000842RR0001": {"name": "Fondation de la sant\u00e9 et des services sociaux de l'\u00c9nergie", "designationCode": "A", "categoryCode": "13", "address": "80, 118E RUE, PORTE 8", "city": "SHAWINIGAN", "province": "QC", "country": "CA", "postalCode": "G9P3E4", "twitter": "None", "instagram": "None", "facebook": "None", "youtube": "None", "website": "None", "summary": "None", "logo": "None", "latitude": 46.5241508987245, "longitude": -72.7441395419525}, "732372925RR0001": {"name": "Fondation de la Basilique Notre-Dame de Montr\u00e9al", "designationCode": "A", "categoryCode": "03", "address": "477 RUE SAINT-FRANCOIS-XAVIER APP 206", "city": "MONTREAL", "province": "QC", "country": "CA", "postalCode": "H2Y2T2", "twitter": "None", "instagram": "None", "facebook": "None", "youtube": "None", "website": "None", "summary": "None", "logo": "None", "latitude": 45.50374177629984, "longitude": -73.55703620982172}, "817512775RR0001": {"name": "Fondation de la Cath\u00e9drale de Notre-dame-de-L'assomption de Moncton Inc.", "designationCode": "C", "categoryCode": "52", "address": "45 RUE YORK", "city": "MONCTON", "province": "NB", "country": "CA", "postalCode": "E1C2V5", "twitter": "None", "instagram": "None", "facebook": "None", "youtube": "None", "website": "None", "summary": "None", "logo": "None", "latitude": 46.09482921233187, "longitude": -64.79487868526743}, "814960886RR0001": {"name": "Fondation de la Commanderie de l'\u00c9rable", "designationCode": "C", "categoryCode": "21", "address": "2505 RUE SAINT-ANTOINE", "city": "LACHINE", "province": "QC", "country": "CA", "postalCode": "H8S1W1", "twitter": "None", "instagram": "None", "facebook": "None", "youtube": "None", "website": "None", "summary": "None", "logo": "None", "latitude": 45.43981049235396, "longitude": -73.686654}, "845085034RR0001": {"name": "Fondation de la Commission scolaire de la Seigneurie-des-Mille-\u00celes", "designationCode": "B", "categoryCode": "23", "address": "430, BOULEVARD ARTHUR-SAUV\u00c9", "city": "ST-EUSTACHE", "province": "QC", "country": "CA", "postalCode": "J7R6V6", "twitter": "None", "instagram": "None", "facebook": "None", "youtube": "None", "website": "None", "summary": "None", "logo": "None", "latitude": 45.5655864559987, "longitude": -73.90610450793451}, "758345326RR0001": {"name": "Fondation de la Corporation Mobilis", "designationCode": "C", "categoryCode": "11", "address": "225 - 5600 BOUL DES GALERIES", "city": "QUEBEC", "province": "QC", "country": "CA", "postalCode": "G2K2H6", "twitter": "None", "instagram": "None", "facebook": "None", "youtube": "None", "website": "None", "summary": "None", "logo": "None", "latitude": 46.83355085570413, "longitude": -71.2973495958225}, "820568681RR0001": {"name": "Fondation de la F\u00e9d\u00e9ration des m\u00e9decins sp\u00e9cialistes du Qu\u00e9bec", "designationCode": "A", "categoryCode": "13", "address": "3000-2 COMPLEXE DESJARDINS    C.P. 216", "city": "MONTR\u00c9AL", "province": "QC", "country": "CA", "postalCode": "H5B1G8", "twitter": "None", "instagram": "None", "facebook": "None", "youtube": "None", "website": "None", "summary": "None", "logo": "None", "latitude": 45.50788999163284, "longitude": -73.5654699427267}, "807147558RR0001": {"name": "Fondation de la F\u00eate du Lac des Nations pour l'enfance inc.", "designationCode": "C", "categoryCode": "09", "address": "91 RUE PEEL, BUREAU 200", "city": "SHERBROOKE", "province": "QC", "country": "CA", "postalCode": "J1H4J9", "twitter": "None", "instagram": "None", "facebook": "None", "youtube": "None", "website": "None", "summary": "None", "logo": "None", "latitude": 45.401030550089494, "longitude": -71.89442167917925}, "784637084RR0001": {"name": "Fondation de la Famille Arakelian", "designationCode": "B", "categoryCode": "03", "address": "4101 RUE SHERBROOKE WEST", "city": "WESTMOUNT", "province": "QC", "country": "CA", "postalCode": "H3Z1A7", "twitter": "None", "instagram": "None", "facebook": "None", "youtube": "None", "website": "None", "summary": "None", "logo": "None", "latitude": 45.48899013656291, "longitude": -73.59054169943435}, "818146763RR0001": {"name": "Fondation de la Famille Baazov Baazov Family Foundation", "designationCode": "B", "categoryCode": "03", "address": "805 - 987 RUE WHITE", "city": "SAINT-LAURENT", "province": "QC", "country": "CA", "postalCode": "H4M2Y1", "twitter": "None", "instagram": "None", "facebook": "None", "youtube": "None", "website": "None", "summary": "None", "logo": "None", "latitude": 45.50058883071717, "longitude": -73.69771148713114}, "808494777RR0001": {"name": "Fondation de la Famille Fischman / Fischman Family Foundation", "designationCode": "B", "categoryCode": "03", "address": "497 AVENUE OUTREMONT", "city": "MONTREAL", "province": "QC", "country": "CA", "postalCode": "H2V3M4", "twitter": "None", "instagram": "None", "facebook": "None", "youtube": "None", "website": "None", "summary": "None", "logo": "None", "latitude": 45.518463250360576, "longitude": -73.6076823852214}, "775428527RR0001": {"name": "Fondation de la Famille Frankforter / Frankforter Family Foundation", "designationCode": "B", "categoryCode": "03", "address": "208 - 4810 RUE JEAN-TALON O", "city": "MONTREAL", "province": "QC", "country": "CA", "postalCode": "H4P2N5", "twitter": "None", "instagram": "None", "facebook": "None", "youtube": "None", "website": "None", "summary": "None", "logo": "None", "latitude": 45.49150882554147, "longitude": -73.65961640396671}, "822257580RR0001": {"name": "Fondation de la Famille Nataf Nataf Family Foundation", "designationCode": "B", "categoryCode": "03", "address": "2390 SAINT-LOUIS STREET", "city": "MONTREAL", "province": "QC", "country": "CA", "postalCode": "H4M1P5", "twitter": "None", "instagram": "None", "facebook": "None", "youtube": "None", "website": "None", "summary": "None", "logo": "None", "latitude": 45.497975972791345, "longitude": -73.6852319070057}, "808849996RR0001": {"name": "Fondation de la Famille Shoop Shoop Family Foundation", "designationCode": "B", "categoryCode": "03", "address": "400 - 150 CH BATES", "city": "MONT-ROYAL", "province": "QC", "country": "CA", "postalCode": "H3S1A3", "twitter": "None", "instagram": "None", "facebook": "None", "youtube": "None", "website": "None", "summary": "None", "logo": "None", "latitude": 45.51629433637266, "longitude": -73.62788982679335}, "800513145RR0001": {"name": "Fondation de la Maison de soins palliatifs de Sudbury Hospice Foundation", "designationCode": "A", "categoryCode": "13", "address": "1028 SOUTH BAY ROAD,", "city": "SUDBURY", "province": "ON", "country": "CA", "postalCode": "P3E6J7", "twitter": "None", "instagram": "None", "facebook": "None", "youtube": "None", "website": "None", "summary": "None", "logo": "None", "latitude": 46.469186633360266, "longitude": -80.96833062536844}, "849361407RR0001": {"name": "Fondation de la Maison l'Ang\u00e9lique de Charlevoix", "designationCode": "A", "categoryCode": "03", "address": "124, RUE DU JARDIN", "city": "LA MALBAIE", "province": "QC", "country": "CA", "postalCode": "G5A1H6", "twitter": "None", "instagram": "None", "facebook": "None", "youtube": "None", "website": "None", "summary": "None", "logo": "None", "latitude": 47.64834693533954, "longitude": -70.15099288398065}, "845556208RR0001": {"name": "Fondation de la Massoth\u00e9rapie", "designationCode": "C", "categoryCode": "11", "address": "4428 BOUL. ST-LAURENT #400", "city": "MONTREAL", "province": "QC", "country": "CA", "postalCode": "H2W1Z5", "twitter": "None", "instagram": "None", "facebook": "None", "youtube": "None", "website": "None", "summary": "None", "logo": "None", "latitude": 45.51971783677667, "longitude": -73.58559494673652}, "850876905RR0001": {"name": "Fondation de la MFR du KRTB", "designationCode": "C", "categoryCode": "21", "address": "1, RUE PRINCIPALE EST", "city": "SAINT-CL\u00c9MENT", "province": "QC", "country": "CA", "postalCode": "G0L2N0", "twitter": "None", "instagram": "None", "facebook": "None", "youtube": "None", "website": "None", "summary": "None", "logo": "None", "latitude": 47.92303228893755, "longitude": -69.09514537460291}, "892067778RR0001": {"name": "Fondation de la Pointe-de-l'\u00cele", "designationCode": "A", "categoryCode": "23", "address": "550-53IEME AVENUE", "city": "MONTREAL", "province": "QC", "country": "CA", "postalCode": "H1A2T7", "twitter": "None", "instagram": "None", "facebook": "None", "youtube": "None", "website": "None", "summary": "None", "logo": "None", "latitude": 45.670557786514294, "longitude": -73.4947467258063}, "893763664RR0001": {"name": "Fondation de la R\u00e9sidence Espace de Vie", "designationCode": "C", "categoryCode": "09", "address": "252 - 500 BOUL DES LAURENTIDES", "city": "SAINT-JEROME", "province": "QC", "country": "CA", "postalCode": "J7Z4M2", "twitter": "None", "instagram": "None", "facebook": "None", "youtube": "None", "website": "None", "summary": "None", "logo": "None"}, "739536720RR0001": {"name": "Fondation de la R\u00e9sidence R\u00e9gionale de Lachute / Lachute Regional Residence Foundation", "designationCode": "A", "categoryCode": "03", "address": "1 RUE DU SOMMET", "city": "SAINT-ANDRE-D'ARGENTEUIL", "province": "QC", "country": "CA", "postalCode": "J0V1X0", "twitter": "None", "instagram": "None", "facebook": "None", "youtube": "None", "website": "None", "summary": "None", "logo": "None", "latitude": 45.55283370199153, "longitude": -74.33454340950902}, "808431324RR0001": {"name": "Fondation de la R\u00e9ussite du Fjord", "designationCode": "C", "categoryCode": "23", "address": "36 RUE JACQUES-CARTIER E", "city": "CHICOUTIMI", "province": "QC", "country": "CA", "postalCode": "G7H1W2", "twitter": "None", "instagram": "None", "facebook": "None", "youtube": "None", "website": "None", "summary": "None", "logo": "None", "latitude": 48.42660855785111, "longitude": -71.06746375298631}, "800149270RR0001": {"name": "Fondation de la Radio Communautaire du Canada / Community Radio Foundation of Canada", "designationCode": "C", "categoryCode": "21", "address": "606-130 RUE ALBERT", "city": "OTTAWA", "province": "ON", "country": "CA", "postalCode": "K1P5G4", "twitter": "None", "instagram": "None", "facebook": "None", "youtube": "None", "website": "None", "summary": "None", "logo": "None", "latitude": 45.4211987129957, "longitude": -75.69730054175095}, "812927515RR0001": {"name": "Fondation de la Schizophr\u00e9nie \u00c9mile-Nelligan", "designationCode": "C", "categoryCode": "09", "address": "2510 STE-H\u00c9L\u00c8NE", "city": "LONGUEUIL", "province": "QC", "country": "CA", "postalCode": "J4K3V2", "twitter": "None", "instagram": "None", "facebook": "None", "youtube": "None", "website": "None", "summary": "None", "logo": "None", "latitude": 45.511097239511884, "longitude": -73.4781408887125}, "118922236RR0001": {"name": "Fondation de la Soci\u00e9t\u00e9 de soins palliatifs \u00e0 domicile/ Palliative Home-Care Society Foundation", "designationCode": "A", "categoryCode": "13", "address": "301-1110 RUE JEAN-TALON EST", "city": "MONTREAL", "province": "QC", "country": "CA", "postalCode": "H2R1V9", "twitter": "None", "instagram": "None", "facebook": "None", "youtube": "None", "website": "None", "summary": "None", "logo": "None", "latitude": 45.53942886668646, "longitude": -73.61376352638189}, "812729754RR0001": {"name": "Fondation de la Villa Sormany Inc.", "designationCode": "A", "categoryCode": "03", "address": "1289 CHEMIN ROBERTVILLE", "city": "ROBERTVILLE", "province": "NB", "country": "CA", "postalCode": "E8K2V9", "twitter": "None", "instagram": "None", "facebook": "None", "youtube": "None", "website": "None", "summary": "None", "logo": "None", "latitude": 47.69729276198962, "longitude": -65.76889770364754}, "140335126RR0001": {"name": "Fondation de lutte au d\u00e9crochage scolaire de Montr\u00e9al", "designationCode": "C", "categoryCode": "21", "address": "1100 5E AV", "city": "VERDUN", "province": "QC", "country": "CA", "postalCode": "H4G2Z6", "twitter": "None", "instagram": "None", "facebook": "None", "youtube": "None", "website": "None", "summary": "None", "logo": "None", "latitude": 45.456514535634135, "longitude": -73.57841182552394}, "130121932RR0001": {"name": "Fondation de sant\u00e9 et de services sociaux L\u00e9vis-Lotbini\u00e8re", "designationCode": "A", "categoryCode": "03", "address": "975, DE LA CONCORDE", "city": "ST-ROMUALD", "province": "QC", "country": "CA", "postalCode": "G6W8A7", "twitter": "None", "instagram": "None", "facebook": "None", "youtube": "None", "website": "None", "summary": "None", "logo": "None", "latitude": 46.730560000000025, "longitude": -71.26124999999996}, "755571494RR0001": {"name": "Fondation de Claire et Jean-Pierre L\u00e9ger", "designationCode": "B", "categoryCode": "03", "address": "800 - 2120 RUE SHERBROOKE E", "city": "MONTREAL", "province": "QC", "country": "CA", "postalCode": "H2K1C3", "twitter": "None", "instagram": "None", "facebook": "None", "youtube": "None", "website": "None", "summary": "None", "logo": "None", "latitude": 45.53400108533833, "longitude": -73.56199564861863}, "118921279RR0001": {"name": "Fondation de G\u00e9rontologie Courville/Courville Gerontology Foundation", "designationCode": "C", "categoryCode": "09", "address": "3 ST HILLCREST", "city": "WATERLOO", "province": "QC", "country": "CA", "postalCode": "J0E2N0", "twitter": "None", "instagram": "None", "facebook": "None", "youtube": "None", "website": "None", "summary": "None", "logo": "None", "latitude": 45.34080807132555, "longitude": -72.50727346194263}, "880578679RR0001": {"name": "Fondation de L'\u00e9cole Saint-L\u00e9on- de- Westmount", "designationCode": "C", "categoryCode": "21", "address": "360, AVENUE CLARKE", "city": "WESTMOUNT", "province": "QC", "country": "CA", "postalCode": "H3Z2E6", "twitter": "None", "instagram": "None", "facebook": "None", "youtube": "None", "website": "None", "summary": "None", "logo": "None", "latitude": 45.486021669138616, "longitude": -73.59261180893284}, "843907494RR0001": {"name": "Fondation de L'Arche L'\u00c9toile", "designationCode": "A", "categoryCode": "03", "address": "218 RUE ST-SAUVEUR", "city": "QU\u00c9BEC", "province": "QC", "country": "CA", "postalCode": "G1N4S1", "twitter": "None", "instagram": "None", "facebook": "None", "youtube": "None", "website": "None", "summary": "None", "logo": "None", "latitude": 46.80993394725612, "longitude": -71.24337103041131}, "851268755RR0001": {"name": "Fondation de La Fontaine", "designationCode": "B", "categoryCode": "23", "address": "4115, RUE BRODEUR", "city": "SHERBROOKE", "province": "QC", "country": "CA", "postalCode": "J1L1K4", "twitter": "None", "instagram": "None", "facebook": "None", "youtube": "None", "website": "None", "summary": "None", "logo": "None", "latitude": 45.391536530439986, "longitude": -71.96553072300767}, "811187863RR0001": {"name": "Fondation des \u00e9coles catholiques du Centre-Est de l'Ontario", "designationCode": "C", "categoryCode": "09", "address": "4000 RUE LABELLE", "city": "OTTAWA", "province": "ON", "country": "CA", "postalCode": "K1J1A1", "twitter": "None", "instagram": "None", "facebook": "None", "youtube": "None", "website": "None", "summary": "None", "logo": "None", "latitude": 45.42189952063049, "longitude": -75.63337897293557}, "890776545RR0001": {"name": "Fondation des \u00e9v\u00eaques catholiques du Qu\u00e9bec", "designationCode": "A", "categoryCode": "21", "address": "3331, RUE SHERBROOKE EST", "city": "MONTREAL", "province": "QC", "country": "CA", "postalCode": "H1W1C5", "twitter": "None", "instagram": "None", "facebook": "None", "youtube": "None", "website": "None", "summary": "None", "logo": "None", "latitude": 45.545764703589306, "longitude": -73.55617477869441}, "891993545RR0001": {"name": "Fondation des \u00c9toiles / Foundation of Stars", "designationCode": "A", "categoryCode": "03", "address": "370, RUE GUY, SUITE 205", "city": "MONTREAL", "province": "QC", "country": "CA", "postalCode": "H3J1S6", "twitter": "None", "instagram": "None", "facebook": "None", "youtube": "None", "website": "None", "summary": "None", "logo": "None", "latitude": 45.490737877315546, "longitude": -73.56856546018228}, "850179631RR0001": {"name": "Fondation des amis d'AIDI", "designationCode": "A", "categoryCode": "03", "address": "6180, RUE AGATHE", "city": "BROSSARD", "province": "QC", "country": "CA", "postalCode": "J4Z1E1", "twitter": "None", "instagram": "None", "facebook": "None", "youtube": "None", "website": "None", "summary": "None", "logo": "None", "latitude": 45.47809091646943, "longitude": -73.46267872052617}, "873698070RR0001": {"name": "Fondation des amis de l'\u00e9cole du Soleil-Levant", "designationCode": "C", "categoryCode": "21", "address": "830, RUE BUCK", "city": "SHERBROOKE", "province": "QC", "country": "CA", "postalCode": "J1J3L5", "twitter": "None", "instagram": "None", "facebook": "None", "youtube": "None", "website": "None", "summary": "None", "logo": "None", "latitude": 45.41091659339832, "longitude": -71.91220283426652}, "891568545RR0001": {"name": "Fondation des amis de la sant\u00e9 inc./Friends of Healthcare Foundation Inc.", "designationCode": "A", "categoryCode": "13", "address": "189 CHEMIN LILY LAKE BOX 880", "city": "CAMPBELLTON", "province": "NB", "country": "CA", "postalCode": "E3N3H3", "twitter": "None", "instagram": "None", "facebook": "None", "youtube": "None", "website": "None", "summary": "None", "logo": "None", "latitude": 47.995162554629424, "longitude": -66.6609981193833}, "120292875RR0001": {"name": "Fondation des artistes du Qu\u00e9bec/Quebec's Artists Foundation", "designationCode": "C", "categoryCode": "22", "address": "1005 - 5445 AV DE GASPE", "city": "MONTREAL", "province": "QC", "country": "CA", "postalCode": "H2T3B2", "twitter": "None", "instagram": "None", "facebook": "None", "youtube": "None", "website": "None", "summary": "None", "logo": "None", "latitude": 45.52683526146908, "longitude": -73.59551934136431}, "118922046RR0001": {"name": "Fondation des b\u00e9n\u00e9ficiaires des CHSLD Pierre-De-Saurel", "designationCode": "A", "categoryCode": "09", "address": "151, RUE GEORGE", "city": "SOREL-TRACY", "province": "QC", "country": "CA", "postalCode": "J3P1C8", "twitter": "None", "instagram": "None", "facebook": "None", "youtube": "None", "website": "None", "summary": "None", "logo": "None", "latitude": 46.04581916962863, "longitude": -73.10859836790914}, "836775353RR0001": {"name": "Fondation des biblioth\u00e8ques publiques de Montr\u00e9al", "designationCode": "A", "categoryCode": "53", "address": "801, RUE BRENNAN              \u00c9DIFICE PRINCE, 5E \u00c9TAGE", "city": "MONTR\u00c9AL", "province": "QC", "country": "CA", "postalCode": "H3C0G4", "twitter": "None", "instagram": "None", "facebook": "None", "youtube": "None", "website": "None", "summary": "None", "logo": "None", "latitude": 45.49577905886074, "longitude": -73.55332827275046}, "857783252RR0001": {"name": "Fondation des bourses de la rel\u00e8ve Vall\u00e9e de la Gatineau", "designationCode": "C", "categoryCode": "21", "address": "331 RUE DU COUVENT", "city": "MANIWAKI", "province": "QC", "country": "CA", "postalCode": "J9E1H5", "twitter": "None", "instagram": "None", "facebook": "None", "youtube": "None", "website": "None", "summary": "None", "logo": "None", "latitude": 46.37980509236006, "longitude": -75.9705658356515}, "118922897RR0001": {"name": "Fondation des cadets de Trois-Rivi\u00e8res Inc.", "designationCode": "C", "categoryCode": "29", "address": "574 SAINT-FRANCOIS XAVIER", "city": "TROIS-RIVIERES", "province": "QC", "country": "CA", "postalCode": "G9A1R6", "twitter": "None", "instagram": "None", "facebook": "None", "youtube": "None", "website": "None", "summary": "None", "logo": "None", "latitude": 46.347729735789635, "longitude": -72.54194037174696}, "867446718RR0001": {"name": "Fondation des comptables professionnels agr\u00e9\u00e9s du Qu\u00e9bec / Foundation of Qu\u00e9bec Chartered Professional Accountants", "designationCode": "C", "categoryCode": "21", "address": "800 - 5 PLACE VILLE-MARIE", "city": "MONTREAL", "province": "QC", "country": "CA", "postalCode": "H3B2G2", "twitter": "None", "instagram": "None", "facebook": "None", "youtube": "None", "website": "None", "summary": "None", "logo": "None", "latitude": 45.500518842373914, "longitude": -73.5697879279533}, "859919987RR0001": {"name": "Fondation des enfants de Tsfat", "designationCode": "C", "categoryCode": "09", "address": "228 HARROW CRES", "city": "HAMPSTEAD", "province": "QC", "country": "CA", "postalCode": "H3X3X6", "twitter": "None", "instagram": "None", "facebook": "None", "youtube": "None", "website": "None", "summary": "None", "logo": "None", "latitude": 45.481049696087496, "longitude": -73.65540180096967}, "841068760RR0001": {"name": "Fondation des enfants B\u00f6n / The Bon Children's Foundation", "designationCode": "C", "categoryCode": "09", "address": "900 BOULEVARD GRIGNON         C.P. 35054", "city": "SAINT-J\u00c9R\u00d4ME", "province": "QC", "country": "CA", "postalCode": "J7Y3S7", "twitter": "None", "instagram": "None", "facebook": "None", "youtube": "None", "website": "None", "summary": "None", "logo": "None", "latitude": 45.79473500336444, "longitude": -74.01550560853522}, "889089827RR0001": {"name": "Fondation des francophones de la Colombie-Britannique", "designationCode": "C", "categoryCode": "21", "address": "1575 7TH AVE W", "city": "VANCOUVER", "province": "BC", "country": "CA", "postalCode": "V6J1S1", "twitter": "None", "instagram": "None", "facebook": "None", "youtube": "None", "website": "None", "summary": "None", "logo": "None", "latitude": 49.26547233253252, "longitude": -123.14040228634174}, "134410109RR0001": {"name": "Fondation des maladies de l'oeil - Eye Disease Foundation", "designationCode": "C", "categoryCode": "11", "address": "1100 RUE BOUVIER              BUREAU 010", "city": "QU\u00c9BEC", "province": "QC", "country": "CA", "postalCode": "G2K1L9", "twitter": "None", "instagram": "None", "facebook": "None", "youtube": "None", "website": "None", "summary": "None", "logo": "None", "latitude": 46.82904824430104, "longitude": -71.28620286017618}, "101836641RR0001": {"name": "Fondation des maladies mentales / Mental Illness Foundation", "designationCode": "C", "categoryCode": "11", "address": "804 - 55 AV DU MONT-ROYAL O", "city": "MONTREAL", "province": "QC", "country": "CA", "postalCode": "H2T2S6", "twitter": "None", "instagram": "None", "facebook": "None", "youtube": "None", "website": "None", "summary": "None", "logo": "None", "latitude": 45.51880900855456, "longitude": -73.58749603266486}, "826861163RR0001": {"name": "Fondation des offices jeunesse internationaux du Qu\u00e9bec", "designationCode": "A", "categoryCode": "23", "address": "934 RUE ST CATHERINE EST", "city": "MONTREAL", "province": "QC", "country": "CA", "postalCode": "H2L2E9", "twitter": "None", "instagram": "None", "facebook": "None", "youtube": "None", "website": "None", "summary": "None", "logo": "None", "latitude": 45.51686137800803, "longitude": -73.55755829014963}, "812469260RR0001": {"name": "Fondation des petits Pas", "designationCode": "C", "categoryCode": "59", "address": "12 RUE DE LA MONTAGNE", "city": "FOSSAMBAULT-SUR-LE-LAC", "province": "QC", "country": "CA", "postalCode": "G3N0N2", "twitter": "None", "instagram": "None", "facebook": "None", "youtube": "None", "website": "None", "summary": "None", "logo": "None", "latitude": 46.863803290091376, "longitude": -71.61530466890747}, "810703959RR0001": {"name": "Fondation des transporteurs par autobus", "designationCode": "C", "categoryCode": "09", "address": "5300 BOUL. DES GALERIES       BUREAU 300", "city": "QU\u00c9BEC", "province": "QC", "country": "CA", "postalCode": "G2K2A2", "twitter": "None", "instagram": "None", "facebook": "None", "youtube": "None", "website": "None", "summary": "None", "logo": "None"}, "828291369RR0001": {"name": "Fondation des Amis de l'Aviation royale du Canada", "designationCode": "A", "categoryCode": "53", "address": "2323 BOUL DU VERSANT-NORD     UNITE 100", "city": "QUEBEC", "province": "QC", "country": "CA", "postalCode": "G1N4P4", "twitter": "None", "instagram": "None", "facebook": "None", "youtube": "None", "website": "None", "summary": "None", "logo": "None", "latitude": 46.791949184517634, "longitude": -71.28746370933169}, "833371024RR0001": {"name": "Fondation des Amis des Grands Domaines de Sillery", "designationCode": "C", "categoryCode": "52", "address": "2010, RUE TREGGETT", "city": "QU\u00c9BEC", "province": "QC", "country": "CA", "postalCode": "G1T1T7", "twitter": "None", "instagram": "None", "facebook": "None", "youtube": "None", "website": "None", "summary": "None", "logo": "None", "latitude": 46.77592028449414, "longitude": -71.24605927629983}, "811253160RR0001": {"name": "Fondation des Amis D'Ulysse", "designationCode": "C", "categoryCode": "21", "address": "3600 RUE DES LIBELLULES", "city": "TERREBONNE", "province": "QC", "country": "CA", "postalCode": "J7M1J6", "twitter": "None", "instagram": "None", "facebook": "None", "youtube": "None", "website": "None", "summary": "None", "logo": "None", "latitude": 45.78074648932418, "longitude": -73.72069144188907}, "118924844RR0001": {"name": "Fondation des Camps Odyss\u00e9e Inc.", "designationCode": "A", "categoryCode": "23", "address": "4500 BOUL. HENRI-BOURASSA     BUREAU 220", "city": "QUEBEC", "province": "QC", "country": "CA", "postalCode": "G1H3A5", "twitter": "None", "instagram": "None", "facebook": "None", "youtube": "None", "website": "None", "summary": "None", "logo": "None", "latitude": 46.848488299497795, "longitude": -71.24026583579573}, "119105419RR0001": {"name": "Fondation des Centres Fran\u00e7ois-Michelle", "designationCode": "A", "categoryCode": "19", "address": "5210, AV. DUROCHER", "city": "OUTREMONT", "province": "QC", "country": "CA", "postalCode": "H2V3Y1", "twitter": "None", "instagram": "None", "facebook": "None", "youtube": "None", "website": "None", "summary": "None", "logo": "None", "latitude": 45.51892185509854, "longitude": -73.5991340377689}, "865222764RR0002": {"name": "Fondation des Grands Fr\u00e8res et des Grandes Soeurs de Montr\u00e9al", "designationCode": "A", "categoryCode": "03", "address": "A200 - 10871 AV SALK", "city": "MONTREAL-NORD", "province": "QC", "country": "CA", "postalCode": "H1G6M7", "twitter": "None", "instagram": "None", "facebook": "None", "youtube": "None", "website": "None", "summary": "None", "logo": "None", "latitude": 45.59851682488878, "longitude": -73.62041103825985}, "898255591RR0001": {"name": "Fondation des Instituts Juifs Orthodoxes", "designationCode": "A", "categoryCode": "43", "address": "5850 AV. VICTORIA", "city": "MONTREAL", "province": "QC", "country": "CA", "postalCode": "H3W2R5", "twitter": "None", "instagram": "None", "facebook": "None", "youtube": "None", "website": "None", "summary": "None", "logo": "None", "latitude": 45.4932578151366, "longitude": -73.63524241009279}, "775836323RR0001": {"name": "Fondation des Petits Coeurs Rieurs", "designationCode": "C", "categoryCode": "21", "address": "962 RUE SUMMIT", "city": "SHAWINIGAN", "province": "QC", "country": "CA", "postalCode": "G9N4P7", "twitter": "None", "instagram": "None", "facebook": "None", "youtube": "None", "website": "None", "summary": "None", "logo": "None", "latitude": 46.55029706301568, "longitude": -72.74822517401469}, "889920732RR0001": {"name": "Fondation des Sports Adapt\u00e9s / Adaptive Sports Foundation", "designationCode": "C", "categoryCode": "56", "address": "549 CH DE KNOWLTON", "city": "KNOWLTON", "province": "QC", "country": "CA", "postalCode": "J0E1V0", "twitter": "None", "instagram": "None", "facebook": "None", "youtube": "None", "website": "None", "summary": "None", "logo": "None", "latitude": 45.21299877987785, "longitude": -72.53567863890018}, "119001790RR0001": {"name": "Fondation des YMCA du Qu\u00e9bec / YMCAS of Qu\u00e9bec Foundation", "designationCode": "A", "categoryCode": "43", "address": "1435 RUE DRUMMOND", "city": "MONTREAL", "province": "QC", "country": "CA", "postalCode": "H3G1W3", "twitter": "None", "instagram": "None", "facebook": "None", "youtube": "None", "website": "None", "summary": "None", "logo": "None", "latitude": 45.49910007940431, "longitude": -73.5751696086331}, "829919810RR0001": {"name": "Fondation diab\u00e8te Brome-Missisquoi", "designationCode": "A", "categoryCode": "03", "address": "1676, RUE MICHEL", "city": "CLARENCEVILLE", "province": "QC", "country": "CA", "postalCode": "J0J1B0", "twitter": "None", "instagram": "None", "facebook": "None", "youtube": "None", "website": "None", "summary": "None", "logo": "None", "latitude": 45.05370740022504, "longitude": -73.17303539644546}, "718021892RR0001": {"name": "Fondation du b\u00e9n\u00e9volat Maskoutain", "designationCode": "A", "categoryCode": "03", "address": "1015 RUE DESSAULLES", "city": "SAINT-HYACINTHE", "province": "QC", "country": "CA", "postalCode": "J2S2Y8", "twitter": "None", "instagram": "None", "facebook": "None", "youtube": "None", "website": "None", "summary": "None", "logo": "None", "latitude": 45.628019613364955, "longitude": -72.94504523714595}, "141199836RR0001": {"name": "Fondation du c\u00e9gep \u00c9douard-Montpetit", "designationCode": "A", "categoryCode": "23", "address": "945 CHEMIN DE CHAMBLY", "city": "LONGUEUIL", "province": "QC", "country": "CA", "postalCode": "J4H3M6", "twitter": "None", "instagram": "None", "facebook": "None", "youtube": "None", "website": "None", "summary": "None", "logo": "None", "latitude": 45.534942428913126, "longitude": -73.49479200807572}, "840765663RR0001": {"name": "Fondation du camp musical d'Asbestos Inc.", "designationCode": "C", "categoryCode": "22", "address": "100, RUE DES M\u00c9SANGES", "city": "ASBESTOS", "province": "QC", "country": "CA", "postalCode": "J1T3M7", "twitter": "None", "instagram": "None", "facebook": "None", "youtube": "None", "website": "None", "summary": "None", "logo": "None", "latitude": 45.80074270544288, "longitude": -71.91070618366348}, "813232295RR0001": {"name": "Fondation du carrefour jeunesse-emploi de la capitale nationale", "designationCode": "C", "categoryCode": "09", "address": "265-A BOUL. DE LA COURONNE", "city": "QU\u00c9BEC", "province": "QC", "country": "CA", "postalCode": "G1K6E1", "twitter": "None", "instagram": "None", "facebook": "None", "youtube": "None", "website": "None", "summary": "None", "logo": "None", "latitude": 46.816192791015006, "longitude": -71.22619424574428}, "888396827RR0001": {"name": "Fondation du centre de protection et de r\u00e9adaptation de la C\u00f4te-Nord", "designationCode": "C", "categoryCode": "09", "address": "835 BOULEVARD JOLIET", "city": "BAIE-COMEAU", "province": "QC", "country": "CA", "postalCode": "G5C1P5", "twitter": "None", "instagram": "None", "facebook": "None", "youtube": "None", "website": "None", "summary": "None", "logo": "None", "latitude": 49.190848554532906, "longitude": -68.25567917998731}, "888856465RR0001": {"name": "Fondation du centre de r\u00e9adaptation en d\u00e9pendance de Qu\u00e9bec", "designationCode": "C", "categoryCode": "57", "address": "2525, CHEMIN DE LA CANARDIERE", "city": "QUEBEC", "province": "QC", "country": "CA", "postalCode": "G1J2G3", "twitter": "None", "instagram": "None", "facebook": "None", "youtube": "None", "website": "None", "summary": "None", "logo": "None", "latitude": 46.844855674995664, "longitude": -71.21834621163937}, "890999592RR0001": {"name": "Fondation du centre de r\u00e9adaptation en d\u00e9pendance Foster / Foster Addiction Rehabilitation Centre Foundation", "designationCode": "A", "categoryCode": "57", "address": "6, FOUCREAULT", "city": "ST-PHILIPPE-DE-LAPRAIRIE", "province": "QC", "country": "CA", "postalCode": "J0L2K0", "twitter": "None", "instagram": "None", "facebook": "None", "youtube": "None", "website": "None", "summary": "None", "logo": "None", "latitude": 45.354018496566226, "longitude": -73.47733675330342}, "890882244RR0001": {"name": "Fondation du centre de sant\u00e9 et de services sociaux Lucille-Teasdale", "designationCode": "A", "categoryCode": "13", "address": "2909, RUE RACHEL EST", "city": "MONTR\u00c9AL", "province": "QC", "country": "CA", "postalCode": "H1W0A9", "twitter": "None", "instagram": "None", "facebook": "None", "youtube": "None", "website": "None", "summary": "None", "logo": "None", "latitude": 45.542979, "longitude": -73.5617931951352}, "818219099RR0001": {"name": "Fondation du centre de sant\u00e9 et des services sociaux de l'H\u00e9matite", "designationCode": "C", "categoryCode": "19", "address": "1, RUE AQUILON", "city": "FERMONT", "province": "QC", "country": "CA", "postalCode": "G0G1J0", "twitter": "None", "instagram": "None", "facebook": "None", "youtube": "None", "website": "None", "summary": "None", "logo": "None"}, "133233361RR0001": {"name": "Fondation du coeur Beauce-Etchemin", "designationCode": "C", "categoryCode": "11", "address": "2640 BOULEVARD DIONNE", "city": "SAINT-GEORGES", "province": "QC", "country": "CA", "postalCode": "G5Y3X8", "twitter": "None", "instagram": "None", "facebook": "None", "youtube": "None", "website": "None", "summary": "None", "logo": "None", "latitude": 46.11151055311927, "longitude": -70.67174053335417}, "838832434RR0001": {"name": "Fondation du coll\u00e8ge Charlemagne", "designationCode": "A", "categoryCode": "23", "address": "5000, RUE PILON", "city": "PIERREFONDS", "province": "QC", "country": "CA", "postalCode": "H9K1G4", "twitter": "None", "instagram": "None", "facebook": "None", "youtube": "None", "website": "None", "summary": "None", "logo": "None", "latitude": 45.460733806249806, "longitude": -73.91786012343427}, "846864627RR0001": {"name": "Fondation du coll\u00e8ge G\u00e9rald-Godin", "designationCode": "C", "categoryCode": "23", "address": "15615, BOULEVARD GOUIN OUEST", "city": "STE-GENEVI\u00c8VE", "province": "QC", "country": "CA", "postalCode": "H9H5K8", "twitter": "None", "instagram": "None", "facebook": "None", "youtube": "None", "website": "None", "summary": "None", "logo": "None", "latitude": 45.48286749324799, "longitude": -73.86803863067628}, "890484165RR0001": {"name": "Fondation du coll\u00e8ge Lionel-Groulx", "designationCode": "C", "categoryCode": "21", "address": "100 RUE DUQUET", "city": "SAINTE-THERESE", "province": "QC", "country": "CA", "postalCode": "J7E3G6", "twitter": "None", "instagram": "None", "facebook": "None", "youtube": "None", "website": "None", "summary": "None", "logo": "None"}, "828644351RR0001": {"name": "Fondation du coll\u00e8ge Reine-Marie", "designationCode": "A", "categoryCode": "23", "address": "9300, BOUL. ST-MICHEL", "city": "MONTR\u00c9AL", "province": "QC", "country": "CA", "postalCode": "H1Z3H1", "twitter": "None", "instagram": "None", "facebook": "None", "youtube": "None", "website": "None", "summary": "None", "logo": "None", "latitude": 45.573638661348355, "longitude": -73.63216137500693}, "118923382RR0001": {"name": "Fondation du coll\u00e8ge Saint-Maurice", "designationCode": "C", "categoryCode": "21", "address": "630 RUE GIROUARD OUEST", "city": "ST HYACINTHE", "province": "QC", "country": "CA", "postalCode": "J2S2Y3", "twitter": "None", "instagram": "None", "facebook": "None", "youtube": "None", "website": "None", "summary": "None", "logo": "None", "latitude": 45.63069739170677, "longitude": -72.94320123878154}, "867694820RR0001": {"name": "Fondation du complexe de sant\u00e9 reine \u00c9lizabeth / Queen Elizabeth Health Complex Foundation", "designationCode": "C", "categoryCode": "11", "address": "331-2100 AV. MARLOWE", "city": "MONTREAL", "province": "QC", "country": "CA", "postalCode": "H4A3L5", "twitter": "None", "instagram": "None", "facebook": "None", "youtube": "None", "website": "None", "summary": "None", "logo": "None", "latitude": 45.47475877127951, "longitude": -73.60659329352518}, "843227315RR0001": {"name": "Fondation du comptoir St-Vincent de Paul de Hull", "designationCode": "B", "categoryCode": "03", "address": "102 RUE EDDY", "city": "GATINEAU", "province": "QC", "country": "CA", "postalCode": "J8X2W4", "twitter": "None", "instagram": "None", "facebook": "None", "youtube": "None", "website": "None", "summary": "None", "logo": "None", "latitude": 45.428167875382314, "longitude": -75.72000103468183}, "835186891RR0001": {"name": "Fondation du cosmod\u00f4me", "designationCode": "C", "categoryCode": "21", "address": "2150,AUTOROUTE DES LAURENTIDES", "city": "LAVAL", "province": "QC", "country": "CA", "postalCode": "H7T2T8", "twitter": "None", "instagram": "None", "facebook": "None", "youtube": "None", "website": "None", "summary": "None", "logo": "None", "latitude": 45.5668876054355, "longitude": -73.74236921556414}, "828684290RR0001": {"name": "Fondation du grand d\u00e9fi Pierre Lavoie", "designationCode": "A", "categoryCode": "13", "address": "540 RUE D'AVAUGOUR,           BUREAU 1300", "city": "BOUCHERVILLE", "province": "QC", "country": "CA", "postalCode": "J4B0G6", "twitter": "None", "instagram": "None", "facebook": "None", "youtube": "None", "website": "None", "summary": "None", "logo": "None", "latitude": 45.588184232269846, "longitude": -73.42950642861713}, "852542984RR0001": {"name": "Fondation du lac Heney / Heney Lake Foundation", "designationCode": "C", "categoryCode": "52", "address": "8-65 WHITEMARL DRIVE", "city": "OTTAWA", "province": "ON", "country": "CA", "postalCode": "K1L8J9", "twitter": "None", "instagram": "None", "facebook": "None", "youtube": "None", "website": "None", "summary": "None", "logo": "None", "latitude": 45.45071130391253, "longitude": -75.66477315243193}, "844847509RR0001": {"name": "Fondation du mus\u00e9e de l'aviation civile", "designationCode": "C", "categoryCode": "50", "address": "2200-600 BL DE MAISONNEUVE O", "city": "MONTR\u00c9AL", "province": "QC", "country": "CA", "postalCode": "H3A3J2", "twitter": "None", "instagram": "None", "facebook": "None", "youtube": "None", "website": "None", "summary": "None", "logo": "None", "latitude": 45.50285076742921, "longitude": -73.57279059303691}, "143535169RR0001": {"name": "Fondation du mus\u00e9e des pompiers du Qu\u00e9bec (FMPQ) / Qu\u00e9bec Fire Fighters Museum Foundation (QFMF)", "designationCode": "C", "categoryCode": "53", "address": "2549,AVENUE PARKVILLE", "city": "MONTR\u00c9AL", "province": "QC", "country": "CA", "postalCode": "H1N3A9", "twitter": "None", "instagram": "None", "facebook": "None", "youtube": "None", "website": "None", "summary": "None", "logo": "None", "latitude": 45.58050181155858, "longitude": -73.53269308575227}, "846636694RR0001": {"name": "Fondation du patrimoine de Saint-Louis-de-Gonzague", "designationCode": "C", "categoryCode": "52", "address": "129, SAINTE-MARIE", "city": "SAINT-LOUIS-DE-GONZAGUE", "province": "QC", "country": "CA", "postalCode": "J0S1T0", "twitter": "None", "instagram": "None", "facebook": "None", "youtube": "None", "website": "None", "summary": "None", "logo": "None", "latitude": 45.21724692861714, "longitude": -74.00376350150054}, "708353693RR0001": {"name": "Fondation du patrimoine religieux du Saint-Nicholas-de-L\u00e9vis", "designationCode": "A", "categoryCode": "43", "address": "4105 RTE DES RIVIERES", "city": "LEVIS", "province": "QC", "country": "CA", "postalCode": "G6J1J3", "twitter": "None", "instagram": "None", "facebook": "None", "youtube": "None", "website": "None", "summary": "None", "logo": "None", "latitude": 46.65172745226694, "longitude": -71.30132751866735}}