{"851423632RR0001": {"name": "SUDBURY FIRST NATIONS CHURCH", "designationCode": "C", "categoryCode": "39", "address": "73 THIRD AVE", "city": "SUDBURY", "province": "ON", "country": "CA", "postalCode": "P3B3P7", "twitter": "None", "instagram": "None", "facebook": "None", "youtube": "None", "website": "None", "summary": "None", "logo": "None", "latitude": 46.49232625145709, "longitude": -80.9302419500834}, "119205029RR0001": {"name": "SUDBURY HORTICULTURAL SOCIETY", "designationCode": "C", "categoryCode": "56", "address": "166 OLD SOO RD", "city": "LIVELY", "province": "ON", "country": "CA", "postalCode": "P3Y1J9", "twitter": "None", "instagram": "None", "facebook": "None", "youtube": "None", "website": "None", "summary": "None", "logo": "None", "latitude": 46.41539676931761, "longitude": -81.1541142441864}, "132474016RR0001": {"name": "SUDBURY JUBILEE HERITAGE DAYCARE", "designationCode": "C", "categoryCode": "20", "address": "189 APPLEGROVE ST.", "city": "SUDBURY", "province": "ON", "country": "CA", "postalCode": "P3C1N4", "twitter": "None", "instagram": "None", "facebook": "None", "youtube": "None", "website": "None", "summary": "None", "logo": "None", "latitude": 46.49179339175586, "longitude": -81.00273385583004}, "108048935RR0001": {"name": "SUDBURY MEMORIAL HOSPITAL", "designationCode": "C", "categoryCode": "10", "address": "41 RAMSAY LAKE ROAD", "city": "SUDBURY", "province": "ON", "country": "CA", "postalCode": "P3E5J1", "twitter": "None", "instagram": "None", "facebook": "None", "youtube": "None", "website": "None", "summary": "None", "logo": "None", "latitude": 46.469380295947126, "longitude": -80.99612071267406}, "128780525RR0001": {"name": "SUDBURY MULTICULTURAL-FOLK ARTS ASSOCIATION", "designationCode": "C", "categoryCode": "22", "address": "196 VAN HORNE STREET", "city": "SUDBURY", "province": "ON", "country": "CA", "postalCode": "P3E1E5", "twitter": "None", "instagram": "None", "facebook": "None", "youtube": "None", "website": "None", "summary": "None", "logo": "None", "latitude": 46.4879629777181, "longitude": -80.9896564777181}, "119205078RR0001": {"name": "SUDBURY PRARTHANA SAMAJ", "designationCode": "C", "categoryCode": "39", "address": "65 THORNCLIFFE CRT", "city": "SUDBURY", "province": "ON", "country": "CA", "postalCode": "P3A4Z5", "twitter": "None", "instagram": "None", "facebook": "None", "youtube": "None", "website": "None", "summary": "None", "logo": "None", "latitude": 46.527581629569575, "longitude": -80.96061035700733}, "141049346RR0001": {"name": "SUDBURY RAINBOW CRIME STOPPERS INC.", "designationCode": "C", "categoryCode": "59", "address": "190 BRADY STREET", "city": "SUDBURY", "province": "ON", "country": "CA", "postalCode": "P3E1C7", "twitter": "None", "instagram": "None", "facebook": "None", "youtube": "None", "website": "None", "summary": "None", "logo": "None", "latitude": 46.48961251211811, "longitude": -80.99112149999999}, "868765579RR0001": {"name": "SUDBURY REGION POLICE MUSEUM", "designationCode": "C", "categoryCode": "50", "address": "190 BRADY STREET", "city": "SUDBURY", "province": "ON", "country": "CA", "postalCode": "P3E1C7", "twitter": "None", "instagram": "None", "facebook": "None", "youtube": "None", "website": "None", "summary": "None", "logo": "None", "latitude": 46.48961251211811, "longitude": -80.99112149999999}, "119205128RR0001": {"name": "SUDBURY RIGHT TO LIFE", "designationCode": "C", "categoryCode": "09", "address": "P.O. BOX 985                  STATION B", "city": "SUDBURY", "province": "ON", "country": "CA", "postalCode": "P3E4S4", "twitter": "None", "instagram": "None", "facebook": "None", "youtube": "None", "website": "None", "summary": "None", "logo": "None", "latitude": 46.48958700000006, "longitude": -80.99011249999994}, "107797383RR0112": {"name": "SUDBURY SEVENTH-DAY ADVENTIST CHURCH", "designationCode": "C", "categoryCode": "41", "address": "835 CHURCHILL AVENUE", "city": "SUDBURY", "province": "ON", "country": "CA", "postalCode": "P3A4A2", "twitter": "None", "instagram": "None", "facebook": "None", "youtube": "None", "website": "None", "summary": "None", "logo": "None", "latitude": 46.51495216763806, "longitude": -80.93429294618824}, "870798147RR0001": {"name": "SUDBURY SIKH SANGAT", "designationCode": "C", "categoryCode": "62", "address": "240 WALFORD RD", "city": "SUDBURY", "province": "ON", "country": "CA", "postalCode": "P3A2G9", "twitter": "None", "instagram": "None", "facebook": "None", "youtube": "None", "website": "None", "summary": "None", "logo": "None", "latitude": 46.46404946436588, "longitude": -80.99189438926076}, "119205144RR0001": {"name": "SUDBURY SYMPHONY ORCHESTRA ASSOCIATION INCORPORATED", "designationCode": "C", "categoryCode": "22", "address": "1 - 83 CEDAR ST", "city": "SUDBURY", "province": "ON", "country": "CA", "postalCode": "P3E1A7", "twitter": "None", "instagram": "None", "facebook": "None", "youtube": "None", "website": "None", "summary": "None", "logo": "None", "latitude": 46.49215301565731, "longitude": -80.99393022048253}, "119205151RR0001": {"name": "SUDBURY THEATRE CENTRE", "designationCode": "C", "categoryCode": "22", "address": "PO BOX 641 STATION B", "city": "SUDBURY", "province": "ON", "country": "CA", "postalCode": "P3E4P8", "twitter": "None", "instagram": "None", "facebook": "None", "youtube": "None", "website": "None", "summary": "None", "logo": "None", "latitude": 46.48958700000006, "longitude": -80.99011249999994}, "889692562RR0001": {"name": "SUDBURY THERAPEUTIC RIDING PROGRAM INC.", "designationCode": "C", "categoryCode": "56", "address": "1000-2 MAIN STREET", "city": "VAL CARON", "province": "ON", "country": "CA", "postalCode": "P3N1L4", "twitter": "None", "instagram": "None", "facebook": "None", "youtube": "None", "website": "None", "summary": "None", "logo": "None", "latitude": 46.61000545758242, "longitude": -80.98537198929553}, "119288918RR0398": {"name": "SUDBURY WEST ONTARIO CONGREGATION OF JEHOVAH'S WITNESSES", "designationCode": "C", "categoryCode": "61", "address": "690 ROBINSON DRIVE", "city": "SUDBURY", "province": "ON", "country": "CA", "postalCode": "P3E2H9", "twitter": "None", "instagram": "None", "facebook": "None", "youtube": "None", "website": "None", "summary": "None", "logo": "None", "latitude": 46.46296680434522, "longitude": -81.0187914908534}, "821577004RR0001": {"name": "SUDBURY WOMEN'S CENTRE", "designationCode": "C", "categoryCode": "59", "address": "324-F ELM ST. W.", "city": "SUDBURY", "province": "ON", "country": "CA", "postalCode": "P3C1V8", "twitter": "None", "instagram": "None", "facebook": "None", "youtube": "None", "website": "None", "summary": "None", "logo": "None", "latitude": 46.49315000000007, "longitude": -80.99250999999998}, "891114142RR0001": {"name": "SUDBURY Y W C A BROOKWOOD APARTMENTS", "designationCode": "C", "categoryCode": "09", "address": "370 ST. RAPHAEL ST", "city": "SUDBURY", "province": "ON", "country": "CA", "postalCode": "P3B4K7", "twitter": "None", "instagram": "None", "facebook": "None", "youtube": "None", "website": "None", "summary": "None", "logo": "None", "latitude": 46.490937546826395, "longitude": -80.98307017578516}, "121901318RR0001": {"name": "SUDBURY Y.W.C.A. GENEVRA HOUSE", "designationCode": "C", "categoryCode": "49", "address": "370 ST RAPHAEL STREET", "city": "SUDBURY", "province": "ON", "country": "CA", "postalCode": "P3B4K7", "twitter": "None", "instagram": "None", "facebook": "None", "youtube": "None", "website": "None", "summary": "None", "logo": "None", "latitude": 46.490937546826395, "longitude": -80.98307017578516}, "108227570RR0001": {"name": "SUDBURY YOUNG MEN'S CHRISTIAN ASSOCIATION", "designationCode": "C", "categoryCode": "49", "address": "140 DURHAM STREET", "city": "SUDBURY", "province": "ON", "country": "CA", "postalCode": "P3E3M7", "twitter": "None", "instagram": "None", "facebook": "None", "youtube": "None", "website": "None", "summary": "None", "logo": "None", "latitude": 46.49054589244167, "longitude": -80.99497838465304}, "119205185RR0001": {"name": "SUDBURY YOUNG WOMEN'S CHRISTIAN ASSOCIATION,", "designationCode": "C", "categoryCode": "49", "address": "370 ST. RAPHAEL ST", "city": "SUDBURY", "province": "ON", "country": "CA", "postalCode": "P3B4K7", "twitter": "None", "instagram": "None", "facebook": "None", "youtube": "None", "website": "None", "summary": "None", "logo": "None", "latitude": 46.490937546826395, "longitude": -80.98307017578516}, "119205193RR0001": {"name": "SUDBURY YOUTH ORCHESTRA, INC.", "designationCode": "C", "categoryCode": "22", "address": "PO BOX 2241 STN A", "city": "SUDBURY", "province": "ON", "country": "CA", "postalCode": "P3A4S1", "twitter": "None", "instagram": "None", "facebook": "None", "youtube": "None", "website": "None", "summary": "None", "logo": "None", "latitude": 46.48958700000006, "longitude": -80.99011249999994}, "119205037RR0001": {"name": "SUDBURY-MANITOULIN CHILDREN'S FOUNDATION", "designationCode": "A", "categoryCode": "03", "address": "P.O. BOX 1264 STN B", "city": "SUDBURY", "province": "ON", "country": "CA", "postalCode": "P3E4S7", "twitter": "None", "instagram": "None", "facebook": "None", "youtube": "None", "website": "None", "summary": "None", "logo": "None", "latitude": 46.48958700000006, "longitude": -80.99011249999994}, "865065098RR0001": {"name": "SUDDEN IMPACT EDUCATIONAL MINISTRIES SOCIETY", "designationCode": "C", "categoryCode": "49", "address": "50 HARVEST OAK GATE NE", "city": "CALGARY", "province": "AB", "country": "CA", "postalCode": "T3K4G8", "twitter": "None", "instagram": "None", "facebook": "None", "youtube": "None", "website": "None", "summary": "None", "logo": "None", "latitude": 51.14687046768411, "longitude": -114.06320819302906}, "895839710RR0001": {"name": "SUDDENLY LISTEN MUSIC SOCIETY", "designationCode": "C", "categoryCode": "22", "address": "2504 POPLAR STREET", "city": "HALIFAX", "province": "NS", "country": "CA", "postalCode": "B3L2Y8", "twitter": "None", "instagram": "None", "facebook": "None", "youtube": "None", "website": "None", "summary": "None", "logo": "None", "latitude": 44.64582972661436, "longitude": -63.605344168763246}, "822860052RR0001": {"name": "SUDEP AWARE", "designationCode": "C", "categoryCode": "11", "address": "283 DANFORTH AVENUE           SUITE  350", "city": "TORONTO", "province": "ON", "country": "CA", "postalCode": "M4K1N2", "twitter": "None", "instagram": "None", "facebook": "None", "youtube": "None", "website": "None", "summary": "None", "logo": "None", "latitude": 43.677047725489174, "longitude": -79.35440498528482}, "836035964RR0001": {"name": "SUFFICIENCY OF SCRIPTURE MINISTRIES (CANADA)", "designationCode": "C", "categoryCode": "47", "address": "17107-122 STREET NW", "city": "EDMONTON", "province": "AB", "country": "CA", "postalCode": "T5X0H9", "twitter": "None", "instagram": "None", "facebook": "None", "youtube": "None", "website": "None", "summary": "None", "logo": "None", "latitude": 53.633656714472906, "longitude": -113.53338725794487}, "843384520RR0001": {"name": "SUGAR BIRD CHARITABLE FOUNDATION", "designationCode": "B", "categoryCode": "03", "address": "356-4TH STREET WEST", "city": "DRUMHELLER", "province": "AB", "country": "CA", "postalCode": "T0J0Y3", "twitter": "None", "instagram": "None", "facebook": "None", "youtube": "None", "website": "None", "summary": "None", "logo": "None", "latitude": 51.463298497320984, "longitude": -112.71338280293449}, "119205227RR0001": {"name": "SUGAR-N-SPICE KIDDIE HAVEN INC", "designationCode": "C", "categoryCode": "01", "address": "101 RIDGECREST AVE", "city": "WINNIPEG", "province": "MB", "country": "CA", "postalCode": "R2V4T6", "twitter": "None", "instagram": "None", "facebook": "None", "youtube": "None", "website": "None", "summary": "None", "logo": "None", "latitude": 49.95372436086868, "longitude": -97.09415948661247}, "871836268RR0001": {"name": "SUGARLOAF SENIOR HIGH SCHOOL/FINANCE COMMITTEE", "designationCode": "C", "categoryCode": "21", "address": "201 DOVER STREET", "city": "CAMPBELLTON", "province": "NB", "country": "CA", "postalCode": "E3N1R3", "twitter": "None", "instagram": "None", "facebook": "None", "youtube": "None", "website": "None", "summary": "None", "logo": "None", "latitude": 47.99770377812962, "longitude": -66.67640150582656}, "886471838RR0001": {"name": "SUICIDE D\u00c9TOUR", "designationCode": "C", "categoryCode": "09", "address": "181, RUE NOTRE-DAME", "city": "MANIWAKI", "province": "QC", "country": "CA", "postalCode": "J9E2J6", "twitter": "None", "instagram": "None", "facebook": "None", "youtube": "None", "website": "None", "summary": "None", "logo": "None", "latitude": 46.37533416235793, "longitude": -75.97873245418101}, "835521550RR0001": {"name": "SUICIDE PREVENTION COMMUNITY COUNCIL OF HAMILTON", "designationCode": "C", "categoryCode": "59", "address": "131 JOHN ST S", "city": "HAMILTON", "province": "ON", "country": "CA", "postalCode": "L8N2C3", "twitter": "None", "instagram": "None", "facebook": "None", "youtube": "None", "website": "None", "summary": "None", "logo": "None", "latitude": 43.25236157118132, "longitude": -79.86799918353667}, "132291576RR0001": {"name": "SUICIDE PREVENTION SOCIETY OF RED DEER", "designationCode": "C", "categoryCode": "59", "address": "4101 54TH AVENUE", "city": "RED DEER", "province": "AB", "country": "CA", "postalCode": "T4N7G3", "twitter": "None", "instagram": "None", "facebook": "None", "youtube": "None", "website": "None", "summary": "None", "logo": "None", "latitude": 52.26097083931551, "longitude": -113.82350492584716}, "108049313RR0001": {"name": "SUICIDE-ACTION MONTREAL INC.", "designationCode": "C", "categoryCode": "09", "address": "2345 RUE BELANGER", "city": "MONTREAL", "province": "QC", "country": "CA", "postalCode": "H2G1C9", "twitter": "None", "instagram": "None", "facebook": "None", "youtube": "None", "website": "None", "summary": "None", "logo": "None", "latitude": 45.55077364891216, "longitude": -73.59971644451481}, "877368811RR0001": {"name": "SUIT YOURSELF - WARDROBE FOR WOMEN ASSOCIATION", "designationCode": "C", "categoryCode": "09", "address": "9003-111 AVENUE", "city": "EDMONTON", "province": "AB", "country": "CA", "postalCode": "T5B0C3", "twitter": "None", "instagram": "None", "facebook": "None", "youtube": "None", "website": "None", "summary": "None", "logo": "None", "latitude": 53.56096053218884, "longitude": -113.47981553336528}, "890760325RR0001": {"name": "SUIVI COMMUNAUTAIRE LE FIL", "designationCode": "C", "categoryCode": "11", "address": "755 MONT-ROYALE", "city": "MONTREAL", "province": "QC", "country": "CA", "postalCode": "H2J1W8", "twitter": "None", "instagram": "None", "facebook": "None", "youtube": "None", "website": "None", "summary": "None", "logo": "None", "latitude": 45.52561770581099, "longitude": -73.58144812603133}, "122100324RR0001": {"name": "SUKANEN SHIP PIONEER VILLAGE AND MUSEUM INC.", "designationCode": "C", "categoryCode": "50", "address": "P.O. BOX 2071 STN MAIN", "city": "MOOSE JAW", "province": "SK", "country": "CA", "postalCode": "S6H7T2", "twitter": "None", "instagram": "None", "facebook": "None", "youtube": "None", "website": "None", "summary": "None", "logo": "None", "latitude": 50.37724922856035, "longitude": -105.53464629643145}, "108049461RR0001": {"name": "SULLIVAN LAKE WEST AGRICULTURAL SOCIETY", "designationCode": "C", "categoryCode": "56", "address": "BOX 58", "city": "BYEMOOR", "province": "AB", "country": "CA", "postalCode": "T0J0L0", "twitter": "None", "instagram": "None", "facebook": "None", "youtube": "None", "website": "None", "summary": "None", "logo": "None", "latitude": 51.98075000000006, "longitude": -112.28824999999995}, "119288918RR0102": {"name": "SUMAS CONGREGATION OF JEHOVAH'S WITNESSES, ABBOTSFORD, BRITISH COLUMBIA", "designationCode": "C", "categoryCode": "61", "address": "2695 ST MORITZ WAY", "city": "ABBOTSFORD", "province": "BC", "country": "CA", "postalCode": "V3G1C3", "twitter": "None", "instagram": "None", "facebook": "None", "youtube": "None", "website": "None", "summary": "None", "logo": "None", "latitude": 49.05231448600597, "longitude": -122.25359152553523}, "868117219RR0001": {"name": "SUMMER CONCERTS TRUST", "designationCode": "B", "categoryCode": "25", "address": "1 PLACE VILLE MARIE, 5TH FLOORP.O. BOX 1810, STATION B", "city": "MONTREAL", "province": "QC", "country": "CA", "postalCode": "H3C3A7", "twitter": "None", "instagram": "None", "facebook": "None", "youtube": "None", "website": "None", "summary": "None", "logo": "None", "latitude": 45.49833600000005, "longitude": -73.55148649999994}, "888553864RR0001": {"name": "SUMMER MUSIC", "designationCode": "C", "categoryCode": "22", "address": "BOX 477", "city": "SOUTHAMPTON", "province": "ON", "country": "CA", "postalCode": "N0H2L0", "twitter": "None", "instagram": "None", "facebook": "None", "youtube": "None", "website": "None", "summary": "None", "logo": "None", "latitude": 44.61797936532495, "longitude": -81.26737132168188}, "891098642RR0001": {"name": "SUMMER OPERA LYRIC THEATRE AND RESEARCH CENTRE", "designationCode": "C", "categoryCode": "22", "address": "947 QUEEN ST E", "city": "TORONTO", "province": "ON", "country": "CA", "postalCode": "M4M1J9", "twitter": "None", "instagram": "None", "facebook": "None", "youtube": "None", "website": "None", "summary": "None", "logo": "None", "latitude": 43.66114277655962, "longitude": -79.33955634748115}, "889895371RR0001": {"name": "SUMMER POPS YOUTH ORCHESTRA SOCIETY", "designationCode": "C", "categoryCode": "22", "address": "1610 SUNSHINE COAST HWY", "city": "GIBSON", "province": "BC", "country": "CA", "postalCode": "V0N1V2", "twitter": "None", "instagram": "None", "facebook": "None", "youtube": "None", "website": "None", "summary": "None", "logo": "None", "latitude": 49.406032107565395, "longitude": -123.55639249465165}, "891540643RR0001": {"name": "SUMMER PROGRAM FOR SPECIAL CHILDREN", "designationCode": "C", "categoryCode": "09", "address": "BOX 31003", "city": "REGINA", "province": "SK", "country": "CA", "postalCode": "S4R8R6", "twitter": "None", "instagram": "None", "facebook": "None", "youtube": "None", "website": "None", "summary": "None", "logo": "None", "latitude": 50.448246000000054, "longitude": -104.59517299999993}, "890801848RR0001": {"name": "SUMMER STREET INDUSTRIES FOUNDATION", "designationCode": "C", "categoryCode": "03", "address": "72 PARK ST", "city": "NEW GLASGOW", "province": "NS", "country": "CA", "postalCode": "B2H5B8", "twitter": "None", "instagram": "None", "facebook": "None", "youtube": "None", "website": "None", "summary": "None", "logo": "None", "latitude": 45.57055191704635, "longitude": -62.64031590989124}, "108050287RR0002": {"name": "SUMMER STREET INDUSTRIES SOCIETY", "designationCode": "C", "categoryCode": "09", "address": "72 PARK ST", "city": "NEW GLASGOW", "province": "NS", "country": "CA", "postalCode": "B2H5B8", "twitter": "None", "instagram": "None", "facebook": "None", "youtube": "None", "website": "None", "summary": "None", "logo": "None", "latitude": 45.57055191704635, "longitude": -62.64031590989124}, "860337641RR0001": {"name": "SUMMERFIELD CEMETERY INC.", "designationCode": "C", "categoryCode": "59", "address": "910 BACK GREENFIELD RD", "city": "SUMMERFIELD", "province": "NB", "country": "CA", "postalCode": "E7K2L4", "twitter": "None", "instagram": "None", "facebook": "None", "youtube": "None", "website": "None", "summary": "None", "logo": "None", "latitude": 46.517204577298166, "longitude": -67.70776113001338}, "119205276RR0001": {"name": "SUMMERFORD MORETONS HARBOUR PASTORAL CHARGE", "designationCode": "C", "categoryCode": "44", "address": "PO BOX 225", "city": "SUMMERFORD", "province": "NL", "country": "CA", "postalCode": "A0G4E0", "twitter": "None", "instagram": "None", "facebook": "None", "youtube": "None", "website": "None", "summary": "None", "logo": "None", "latitude": 49.48966000000007, "longitude": -54.806419999999946}, "119205292RR0001": {"name": "SUMMERLAND BAPTIST CHURCH", "designationCode": "C", "categoryCode": "31", "address": "BOX 454                       10318 ELLIOTT STREET", "city": "SUMMERLAND", "province": "BC", "country": "CA", "postalCode": "V0H1Z0", "twitter": "None", "instagram": "None", "facebook": "None", "youtube": "None", "website": "None", "summary": "None", "logo": "None", "latitude": 49.60017771588821, "longitude": -119.6828355568772}, "108049891RR0001": {"name": "SUMMERLAND CHRISTIAN AND MISSIONARY ALLIANCE CHURCH", "designationCode": "C", "categoryCode": "39", "address": "14820 VICTORIA ROAD NORTH", "city": "SUMMERLAND", "province": "BC", "country": "CA", "postalCode": "V0H1Z5", "twitter": "None", "instagram": "None", "facebook": "None", "youtube": "None", "website": "None", "summary": "None", "logo": "None", "latitude": 49.60909034110452, "longitude": -119.68315332918795}, "121442396RR0001": {"name": "SUMMERLAND COMMUNITY ARTS COUNCIL", "designationCode": "C", "categoryCode": "22", "address": "BOX 1217", "city": "SUMMERLAND", "province": "BC", "country": "CA", "postalCode": "V0H1Z0", "twitter": "None", "instagram": "None", "facebook": "None", "youtube": "None", "website": "None", "summary": "None", "logo": "None", "latitude": 49.60131900000006, "longitude": -119.67899299999993}, "888266798RR0001": {"name": "SUMMERLAND FOOD BANK", "designationCode": "C", "categoryCode": "09", "address": "PO BOX 20051", "city": "SUMMERLAND", "province": "BC", "country": "CA", "postalCode": "V0H1Z0", "twitter": "None", "instagram": "None", "facebook": "None", "youtube": "None", "website": "None", "summary": "None", "logo": "None", "latitude": 49.60131900000006, "longitude": -119.67899299999993}, "887175636RR0001": {"name": "SUMMERLAND KINSMEN FOUNDATION", "designationCode": "C", "categoryCode": "65", "address": "P.O. BOX 686", "city": "SUMMERLAND", "province": "BC", "country": "CA", "postalCode": "V0H1Z0", "twitter": "None", "instagram": "None", "facebook": "None", "youtube": "None", "website": "None", "summary": "None", "logo": "None", "latitude": 49.60131900000006, "longitude": -119.67899299999993}, "131909939RR0001": {"name": "SUMMERLAND PASTORAL CHARGE,", "designationCode": "C", "categoryCode": "44", "address": "BOX 155", "city": "SUMMERLAND", "province": "BC", "country": "CA", "postalCode": "V0H1Z0", "twitter": "None", "instagram": "None", "facebook": "None", "youtube": "None", "website": "None", "summary": "None", "logo": "None", "latitude": 49.60131900000006, "longitude": -119.67899299999993}, "119205367RR0001": {"name": "SUMMERLAND ROTARY CHARITABLE TRUST FUND", "designationCode": "C", "categoryCode": "65", "address": "PO BOX 232", "city": "SUMMERLAND", "province": "BC", "country": "CA", "postalCode": "V0H1Z0", "twitter": "None", "instagram": "None", "facebook": "None", "youtube": "None", "website": "None", "summary": "None", "logo": "None", "latitude": 49.60131900000006, "longitude": -119.67899299999993}, "119205375RR0001": {"name": "SUMMERLAND SENIOR CITIZENS DROP-IN ASSOCIATION", "designationCode": "C", "categoryCode": "09", "address": "BOX 676", "city": "SUMMERLAND", "province": "BC", "country": "CA", "postalCode": "V0H1Z0", "twitter": "None", "instagram": "None", "facebook": "None", "youtube": "None", "website": "None", "summary": "None", "logo": "None", "latitude": 49.60131900000006, "longitude": -119.67899299999993}, "119288918RR0166": {"name": "SUMMERLAND, BRITISH COLUMBIA, CONGREGATION OF JEHOVAH'S WITNESSES", "designationCode": "C", "categoryCode": "61", "address": "14806 BIAGIONI AVE", "city": "SUMMERLAND", "province": "BC", "country": "CA", "postalCode": "V0H1Z6", "twitter": "None", "instagram": "None", "facebook": "None", "youtube": "None", "website": "None", "summary": "None", "logo": "None", "latitude": 49.60860982070517, "longitude": -119.67578475590051}, "119205383RR0001": {"name": "SUMMERLEA UNITED CHURCH,", "designationCode": "C", "categoryCode": "44", "address": "225 50TH AVE", "city": "LACHINE", "province": "QC", "country": "CA", "postalCode": "H8T2T7", "twitter": "None", "instagram": "None", "facebook": "None", "youtube": "None", "website": "None", "summary": "None", "logo": "None", "latitude": 45.43944863696695, "longitude": -73.7115720949562}, "868678715RR0001": {"name": "SUMMERSET MANOR MEMORIAL EQUIPMENT FUND", "designationCode": "C", "categoryCode": "01", "address": "15 FRANK MELLISH ST", "city": "SUMMERSIDE", "province": "PE", "country": "CA", "postalCode": "C1N0H3", "twitter": "None", "instagram": "None", "facebook": "None", "youtube": "None", "website": "None", "summary": "None", "logo": "None", "latitude": 46.41992812529787, "longitude": -63.77424923408378}, "119205417RR0001": {"name": "SUMMERSIDE BIBLE CHAPEL,", "designationCode": "C", "categoryCode": "39", "address": "PO BOX 127", "city": "SUMMERSIDE", "province": "PE", "country": "CA", "postalCode": "C1N4P6", "twitter": "None", "instagram": "None", "facebook": "None", "youtube": "None", "website": "None", "summary": "None", "logo": "None", "latitude": 46.39407900000006, "longitude": -63.791980999999936}, "875299406RR0001": {"name": "SUMMERSIDE CHRISTIAN OUTREACH CENTRE", "designationCode": "C", "categoryCode": "39", "address": "96 EVERGREEN VILLAGE", "city": "SUMMERSIDE", "province": "PE", "country": "CA", "postalCode": "C1N4B8", "twitter": "None", "instagram": "None", "facebook": "None", "youtube": "None", "website": "None", "summary": "None", "logo": "None", "latitude": 46.410585685527224, "longitude": -63.81367492798195}, "889274445RR0001": {"name": "SUMMERSIDE COMMUNITY CHURCH FELLOWSHIP BAPTIST", "designationCode": "C", "categoryCode": "31", "address": "1447 COMMISSIONERS ROAD E.", "city": "LONDON", "province": "ON", "country": "CA", "postalCode": "N6M1C6", "twitter": "None", "instagram": "None", "facebook": "None", "youtube": "None", "website": "None", "summary": "None", "logo": "None", "latitude": 42.96384156448757, "longitude": -81.18257961642338}, "871169637RR0001": {"name": "SUMMERSIDE COMMUNITY CHURCH INC.", "designationCode": "C", "categoryCode": "39", "address": "150 INDUSTRIAL CRES", "city": "SUMMERSIDE", "province": "PE", "country": "CA", "postalCode": "C1N5N6", "twitter": "None", "instagram": "None", "facebook": "None", "youtube": "None", "website": "None", "summary": "None", "logo": "None", "latitude": 46.41063084179701, "longitude": -63.805283513041736}, "119205433RR0001": {"name": "SUMMERSIDE MEALS ON WHEELS INCORPORATED", "designationCode": "C", "categoryCode": "09", "address": "15 FRANK MELLISH ST", "city": "SUMMERSIDE", "province": "PE", "country": "CA", "postalCode": "C1N0H3", "twitter": "None", "instagram": "None", "facebook": "None", "youtube": "None", "website": "None", "summary": "None", "logo": "None", "latitude": 46.41992812529787, "longitude": -63.77424923408378}, "108050204RR0001": {"name": "SUMMERSIDE PRESBYTERIAN CHURCH", "designationCode": "C", "categoryCode": "37", "address": "130 VICTORIA RD", "city": "SUMMERSIDE", "province": "PE", "country": "CA", "postalCode": "C1N2G5", "twitter": "None", "instagram": "None", "facebook": "None", "youtube": "None", "website": "None", "summary": "None", "logo": "None", "latitude": 46.40202683152521, "longitude": -63.77904377185642}, "108050634RR0001": {"name": "SUMMERVILLE AND DISTRICT VOLUNTEER FIRE DEPARTMENT SOCIETY", "designationCode": "C", "categoryCode": "59", "address": "HANTS COUNTY", "city": "SUMMERVILLE", "province": "NS", "country": "CA", "postalCode": "B0N2K0", "twitter": "None", "instagram": "None", "facebook": "None", "youtube": "None", "website": "None", "summary": "None", "logo": "None", "latitude": 45.09850000000006, "longitude": -64.16442999999998}, "119205490RR0001": {"name": "SUMMERVILLE CHRISTIAN CHURCH,", "designationCode": "C", "categoryCode": "39", "address": "120 BROAD RIVER RD            RR 1", "city": "PORT MOUTON", "province": "NS", "country": "CA", "postalCode": "B0T1T0", "twitter": "None", "instagram": "None", "facebook": "None", "youtube": "None", "website": "None", "summary": "None", "logo": "None", "latitude": 43.955607769663395, "longitude": -64.8315975772695}, "891127573RR0001": {"name": "SUMMERVILLE PASTORAL CHARGE,", "designationCode": "C", "categoryCode": "44", "address": "PO BOX 74", "city": "LETHBRIDGE", "province": "NL", "country": "CA", "postalCode": "A0C1V0", "twitter": "None", "instagram": "None", "facebook": "None", "youtube": "None", "website": "None", "summary": "None", "logo": "None", "latitude": 48.369740000000036, "longitude": -53.85920999999996}, "888532231RR0001": {"name": "SUMMERWORKS THEATRE FESTIVAL", "designationCode": "C", "categoryCode": "22", "address": "423-401 RICHMOND ST WEST", "city": "TORONTO", "province": "ON", "country": "CA", "postalCode": "M5V3A8", "twitter": "None", "instagram": "None", "facebook": "None", "youtube": "None", "website": "None", "summary": "None", "logo": "None", "latitude": 43.64803297305114, "longitude": -79.39483379779568}, "846089589RR0002": {"name": "SUMMIT COMMUNITY CHURCH", "designationCode": "C", "categoryCode": "39", "address": "1750 STOUFFVILLE ROAD", "city": "RICHMOND HILL", "province": "ON", "country": "CA", "postalCode": "L4E0K3", "twitter": "None", "instagram": "None", "facebook": "None", "youtube": "None", "website": "None", "summary": "None", "logo": "None", "latitude": 43.9397843873266, "longitude": -79.39406571942966}, "118851799RR0001": {"name": "SUMMIT COMMUNITY SERVICES SOCIETY", "designationCode": "C", "categoryCode": "01", "address": "BOX 325", "city": "CRANBROOK", "province": "BC", "country": "CA", "postalCode": "V1C4H8", "twitter": "None", "instagram": "None", "facebook": "None", "youtube": "None", "website": "None", "summary": "None", "logo": "None", "latitude": 49.513515000000055, "longitude": -115.76875399999994}, "108050758RR0001": {"name": "SUMMIT DRIVE BAPTIST CHURCH", "designationCode": "C", "categoryCode": "31", "address": "1975 SUMMIT DRIVE", "city": "KAMLOOPS", "province": "BC", "country": "CA", "postalCode": "V2E2K7", "twitter": "None", "instagram": "None", "facebook": "None", "youtube": "None", "website": "None", "summary": "None", "logo": "None", "latitude": 50.647511641670164, "longitude": -120.34413810476663}, "108050766RR0001": {"name": "SUMMIT HOUSING & OUTREACH PROGRAMS", "designationCode": "C", "categoryCode": "01", "address": "7 - 871 EQUESTRIAN CRT", "city": "OAKVILLE", "province": "ON", "country": "CA", "postalCode": "L6L6L7", "twitter": "None", "instagram": "None", "facebook": "None", "youtube": "None", "website": "None", "summary": "None", "logo": "None", "latitude": 43.43635214239129, "longitude": -79.70839505508116}, "818414948RR0001": {"name": "SUMMIT MINISTRIES SOCIETY OF CANADA", "designationCode": "C", "categoryCode": "49", "address": "PO BOX 21061 RPO SOUTHGATE", "city": "CHILLIWACK", "province": "BC", "country": "CA", "postalCode": "V2P8A9", "twitter": "None", "instagram": "None", "facebook": "None", "youtube": "None", "website": "None", "summary": "None", "logo": "None", "latitude": 49.15747500000006, "longitude": -121.95172249999993}, "108200338RR0001": {"name": "SUMMIT PACIFIC COLLEGE", "designationCode": "C", "categoryCode": "20", "address": "PO BOX 1700", "city": "ABBOTSFORD", "province": "BC", "country": "CA", "postalCode": "V2S7E7", "twitter": "None", "instagram": "None", "facebook": "None", "youtube": "None", "website": "None", "summary": "None", "logo": "None", "latitude": 49.03851300000005, "longitude": -122.29441549999993}, "894468594RR0003": {"name": "SUMMIT SCHOOL FOUNDATION/FONDATION \u00c9COLE LE SOMMET", "designationCode": "A", "categoryCode": "23", "address": "1750 DEGUIRE ST", "city": "SAINT-LAURENT", "province": "QC", "country": "CA", "postalCode": "H4L1M7", "twitter": "None", "instagram": "None", "facebook": "None", "youtube": "None", "website": "None", "summary": "None", "logo": "None", "latitude": 45.51652563636138, "longitude": -73.6941927690005}, "892944760RR0001": {"name": "SUN AND FUN CHARITABLE SOCIETY", "designationCode": "C", "categoryCode": "09", "address": "770 CHABAD GATE", "city": "THORNHILL", "province": "ON", "country": "CA", "postalCode": "L4J3V9", "twitter": "None", "instagram": "None", "facebook": "None", "youtube": "None", "website": "None", "summary": "None", "logo": "None", "latitude": 43.79962254227055, "longitude": -79.44553197584976}, "119205789RR0001": {"name": "SUN ERGOS A COMPANY OF THEATRE AND DANCE", "designationCode": "C", "categoryCode": "22", "address": "130 SUNSET WAY", "city": "PRIDDIS GREENS", "province": "AB", "country": "CA", "postalCode": "T0L1W3", "twitter": "None", "instagram": "None", "facebook": "None", "youtube": "None", "website": "None", "summary": "None", "logo": "None", "latitude": 50.89869832944774, "longitude": -114.41591840963144}, "888352622RR0001": {"name": "SUN LIGHT FOUNDATION", "designationCode": "B", "categoryCode": "03", "address": "2617 OLD VICTORIA ROAD", "city": "LONDON", "province": "ON", "country": "CA", "postalCode": "N6M1B8", "twitter": "None", "instagram": "None", "facebook": "None", "youtube": "None", "website": "None", "summary": "None", "logo": "None", "latitude": 42.9580994931289, "longitude": -81.13835773666148}, "126312610RR0001": {"name": "SUN PARLOR HOME AUXILIARY", "designationCode": "A", "categoryCode": "19", "address": "175 TALBOT ST EAST", "city": "LEAMINGTON", "province": "ON", "country": "CA", "postalCode": "N8H1L9", "twitter": "None", "instagram": "None", "facebook": "None", "youtube": "None", "website": "None", "summary": "None", "logo": "None", "latitude": 42.05544624342695, "longitude": -82.59037533030103}, "886320886RR0001": {"name": "SUN PARLOUR RETIREES AMATEUR RADIO CLUB", "designationCode": "C", "categoryCode": "56", "address": "30 TUSCARORA ST", "city": "WINDSOR", "province": "ON", "country": "CA", "postalCode": "N9A6Y6", "twitter": "None", "instagram": "None", "facebook": "None", "youtube": "None", "website": "None", "summary": "None", "logo": "None", "latitude": 42.31317148075451, "longitude": -83.03526203000727}, "876758525RR0001": {"name": "SUN PEAKS HEALTH ASSOCIATION", "designationCode": "C", "categoryCode": "59", "address": "PO BOX 1030", "city": "SUN PEAKS", "province": "BC", "country": "CA", "postalCode": "V0E5N0", "twitter": "None", "instagram": "None", "facebook": "None", "youtube": "None", "website": "None", "summary": "None", "logo": "None"}, "879019826RR0001": {"name": "SUN PEAKS VOLUNTEER FIRE DEPARTMENT SOCIETY", "designationCode": "C", "categoryCode": "59", "address": "2305 SUNBURST PLACE", "city": "SUN PEAKS", "province": "BC", "country": "CA", "postalCode": "V0E5N0", "twitter": "None", "instagram": "None", "facebook": "None", "youtube": "None", "website": "None", "summary": "None", "logo": "None", "latitude": 50.884481766028046, "longitude": -119.8950200216974}, "811099076RR0001": {"name": "SUN WEST SCHOOL DIVISION NO. 207", "designationCode": "C", "categoryCode": "20", "address": "BOX 700", "city": "ROSETOWN", "province": "SK", "country": "CA", "postalCode": "S0L2V0", "twitter": "None", "instagram": "None", "facebook": "None", "youtube": "None", "website": "None", "summary": "None", "logo": "None", "latitude": 51.16386860615565, "longitude": -106.82425899521579}, "119206282RR0001": {"name": "SUN-TIMES - CFOS CHRISTMAS FUND", "designationCode": "C", "categoryCode": "75", "address": "PO BOX 200", "city": "OWEN SOUND", "province": "ON", "country": "CA", "postalCode": "N4K5P2", "twitter": "None", "instagram": "None", "facebook": "None", "youtube": "None", "website": "None", "summary": "None", "logo": "None", "latitude": 44.56423500000005, "longitude": -80.94243049999993}, "105065445RR0001": {"name": "SUNALTA SCHOOL PARENTS SOCIETY", "designationCode": "C", "categoryCode": "21", "address": "536 SONORA AVE. SW", "city": "CALGARY", "province": "AB", "country": "CA", "postalCode": "T2C2J9", "twitter": "None", "instagram": "None", "facebook": "None", "youtube": "None", "website": "None", "summary": "None", "logo": "None", "latitude": 51.04090237275656, "longitude": -114.11070935778159}, "119205557RR0001": {"name": "SUNBEAM DROP-IN-CENTRE OF DAYSLAND", "designationCode": "C", "categoryCode": "56", "address": "BOX 525", "city": "DAYSLAND", "province": "AB", "country": "CA", "postalCode": "T0B1A0", "twitter": "None", "instagram": "None", "facebook": "None", "youtube": "None", "website": "None", "summary": "None", "logo": "None", "latitude": 52.86684000000008, "longitude": -112.25183999999996}, "108050923RR0001": {"name": "SUNBURST CHILDREN'S CENTRE INC.", "designationCode": "C", "categoryCode": "01", "address": "4905 DUFFERIN STREET", "city": "DOWNSVIEW", "province": "ON", "country": "CA", "postalCode": "M3H5T4", "twitter": "None", "instagram": "None", "facebook": "None", "youtube": "None", "website": "None", "summary": "None", "logo": "None", "latitude": 43.7810953713716, "longitude": -79.46982571011111}, "108050964RR0001": {"name": "SUNBURY SHORES ARTS AND NATURE CENTRE, INC.", "designationCode": "C", "categoryCode": "22", "address": "139 WATER STREET", "city": "ST ANDREWS", "province": "NB", "country": "CA", "postalCode": "E5B1A7", "twitter": "None", "instagram": "None", "facebook": "None", "youtube": "None", "website": "None", "summary": "None", "logo": "None", "latitude": 45.07472287342041, "longitude": -67.05519301944705}, "863231676RR0001": {"name": "SUNBURY WEST HEADSTART INC.", "designationCode": "C", "categoryCode": "20", "address": "5 PRIDES LANDING RD", "city": "FREDERICTON JUNCTION", "province": "NB", "country": "CA", "postalCode": "E5L1Y1", "twitter": "None", "instagram": "None", "facebook": "None", "youtube": "None", "website": "None", "summary": "None", "logo": "None", "latitude": 45.658092982514695, "longitude": -66.6067991652093}, "856275276RR0001": {"name": "SUNCHILD E-LEARNING COMMUNITY", "designationCode": "C", "categoryCode": "20", "address": "B102-5212-48TH STREET", "city": "RED DEER", "province": "AB", "country": "CA", "postalCode": "T4N7C3", "twitter": "None", "instagram": "None", "facebook": "None", "youtube": "None", "website": "None", "summary": "None", "logo": "None", "latitude": 52.26715747489748, "longitude": -113.81868}, "890381882RR0001": {"name": "SUNCOR ENERGY FOUNDATION/FONDATION SUNCOR ENERGIE", "designationCode": "B", "categoryCode": "03", "address": "PO BOX 2844                   150 6 AVE SW", "city": "CALGARY", "province": "AB", "country": "CA", "postalCode": "T2P3E3", "twitter": "None", "instagram": "None", "facebook": "None", "youtube": "None", "website": "None", "summary": "None", "logo": "None", "latitude": 51.0475627525377, "longitude": -114.06436615681285}, "139139323RR0001": {"name": "SUNCREST CHARITABLE TRUST", "designationCode": "B", "categoryCode": "39", "address": "2500 - 201 PORTAGE AVENUE", "city": "WINNIPEG", "province": "MB", "country": "CA", "postalCode": "R3B3K6", "twitter": "None", "instagram": "None", "facebook": "None", "youtube": "None", "website": "None", "summary": "None", "logo": "None", "latitude": 49.895359615067065, "longitude": -97.13919299627776}, "141049957RR0001": {"name": "SUNCREST CHARITABLE TRUST", "designationCode": "B", "categoryCode": "39", "address": "3425 2 AVE S", "city": "LETHBRIDGE", "province": "AB", "country": "CA", "postalCode": "T1J4V1", "twitter": "None", "instagram": "None", "facebook": "None", "youtube": "None", "website": "None", "summary": "None", "logo": "None", "latitude": 49.696839530439966, "longitude": -112.78914308381903}, "108051111RR0001": {"name": "SUNDAY LINE COMMUNICATIONS SOCIETY", "designationCode": "C", "categoryCode": "47", "address": "BOX 71588 HILLCREST RPO", "city": "WHITE ROCK", "province": "BC", "country": "CA", "postalCode": "V4B5J5", "twitter": "None", "instagram": "None", "facebook": "None", "youtube": "None", "website": "None", "summary": "None", "logo": "None", "latitude": 49.02391500000006, "longitude": -122.79679099999993}, "891599391RR0001": {"name": "SUNDERLAND AND DISTRICT HISTORICAL SOCIETY", "designationCode": "C", "categoryCode": "50", "address": "14 CHURCH STREET NORTH        P O BOX 340", "city": "SUNDERLAND", "province": "ON", "country": "CA", "postalCode": "L0C1H0", "twitter": "None", "instagram": "None", "facebook": "None", "youtube": "None", "website": "None", "summary": "None", "logo": "None"}, "119258358RR0001": {"name": "SUNDERLAND CEMETERY COMPANY", "designationCode": "C", "categoryCode": "59", "address": "P.O. BOX 2", "city": "SUNDERLAND", "province": "ON", "country": "CA", "postalCode": "L0C1H0", "twitter": "None", "instagram": "None", "facebook": "None", "youtube": "None", "website": "None", "summary": "None", "logo": "None", "latitude": 44.19987900000005, "longitude": -79.03574449999994}, "119205664RR0001": {"name": "SUNDERLAND PASTORAL CHARGE,", "designationCode": "C", "categoryCode": "44", "address": "BOX 158                       10 CHURCH STREET", "city": "SUNDERLAND", "province": "ON", "country": "CA", "postalCode": "L0C1H0", "twitter": "None", "instagram": "None", "facebook": "None", "youtube": "None", "website": "None", "summary": "None", "logo": "None", "latitude": 44.26312554509784, "longitude": -79.06830647711917}, "119205672RR0001": {"name": "SUNDOWNERS DAY CARE & RESOURCE CENTRE", "designationCode": "C", "categoryCode": "01", "address": "P O BOX 925", "city": "WINDSOR", "province": "ON", "country": "CA", "postalCode": "N9A6P2", "twitter": "None", "instagram": "None", "facebook": "None", "youtube": "None", "website": "None", "summary": "None", "logo": "None", "latitude": 42.31784400000005, "longitude": -83.03387299999993}, "889351573RR0001": {"name": "SUNDRE & DISTRICT ALLIED ARTS SOCIETY", "designationCode": "C", "categoryCode": "56", "address": "BOX 1506", "city": "SUNDRE", "province": "AB", "country": "CA", "postalCode": "T0M1X0", "twitter": "None", "instagram": "None", "facebook": "None", "youtube": "None", "website": "None", "summary": "None", "logo": "None", "latitude": 51.797180000000026, "longitude": -114.64119999999997}, "896996881RR0001": {"name": "SUNDRE & DISTRICT HISTORICAL SOCIETY", "designationCode": "C", "categoryCode": "50", "address": "BOX 314", "city": "SUNDRE", "province": "AB", "country": "CA", "postalCode": "T0M1X0", "twitter": "None", "instagram": "None", "facebook": "None", "youtube": "None", "website": "None", "summary": "None", "logo": "None", "latitude": 51.797180000000026, "longitude": -114.64119999999997}}