{"861340990RR0001": {"name": "WINKLER & DISTRICT HEALTH CARE BOARD INC.", "designationCode": "C", "categoryCode": "19", "address": "P.O. BOX 580", "city": "WINKLER", "province": "MB", "country": "CA", "postalCode": "R6W4A7", "twitter": "None", "instagram": "None", "facebook": "None", "youtube": "None", "website": "None", "summary": "None", "logo": "None", "latitude": 49.17773400000006, "longitude": -97.93841299999994}, "108216367RR0001": {"name": "WINKLER AND DISTRICT MULTI PURPOSE SENIOR CENTRE INC.", "designationCode": "C", "categoryCode": "56", "address": "102 - 650 SOUTH RAILWAY AVE", "city": "WINKLER", "province": "MB", "country": "CA", "postalCode": "R6W0L6", "twitter": "None", "instagram": "None", "facebook": "None", "youtube": "None", "website": "None", "summary": "None", "logo": "None", "latitude": 49.18332532876387, "longitude": -97.93908281457882}, "119300572RR0001": {"name": "WINKLER AND DISTRICT UNITED WAY INCORPORATED", "designationCode": "C", "categoryCode": "03", "address": "P.O. BOX 1528", "city": "WINKLER", "province": "MB", "country": "CA", "postalCode": "R6W4B4", "twitter": "None", "instagram": "None", "facebook": "None", "youtube": "None", "website": "None", "summary": "None", "logo": "None", "latitude": 49.17773400000006, "longitude": -97.93841299999994}, "119300580RR0001": {"name": "WINKLER BERGTHALER MENNONITE CHURCH", "designationCode": "C", "categoryCode": "34", "address": "BOX 1207", "city": "WINKLER", "province": "MB", "country": "CA", "postalCode": "R6W4B2", "twitter": "None", "instagram": "None", "facebook": "None", "youtube": "None", "website": "None", "summary": "None", "logo": "None", "latitude": 49.17773400000006, "longitude": -97.93841299999994}, "119300598RR0002": {"name": "WINKLER BIBLE CAMP ASSOCIATION INC.", "designationCode": "C", "categoryCode": "56", "address": "PO BOX 2340", "city": "WINKLER", "province": "MB", "country": "CA", "postalCode": "R6W4C1", "twitter": "None", "instagram": "None", "facebook": "None", "youtube": "None", "website": "None", "summary": "None", "logo": "None", "latitude": 49.17773400000006, "longitude": -97.93841299999994}, "119300606RR0001": {"name": "WINKLER DAY CARE CENTRE INC", "designationCode": "C", "categoryCode": "01", "address": "851 PEMBINA AVE", "city": "WINKLER", "province": "MB", "country": "CA", "postalCode": "R6W2N5", "twitter": "None", "instagram": "None", "facebook": "None", "youtube": "None", "website": "None", "summary": "None", "logo": "None", "latitude": 49.17772948326468, "longitude": -97.94435047446477}, "119300671RR0001": {"name": "WINKLER EMERGENCY SERVICES INC", "designationCode": "C", "categoryCode": "59", "address": "290 PEMBINA AVE", "city": "WINKLER", "province": "MB", "country": "CA", "postalCode": "R6W2T6", "twitter": "None", "instagram": "None", "facebook": "None", "youtube": "None", "website": "None", "summary": "None", "logo": "None", "latitude": 49.177706546165695, "longitude": -97.93558994892955}, "119300622RR0001": {"name": "WINKLER FESTIVAL OF ARTS", "designationCode": "C", "categoryCode": "22", "address": "BOX 1091", "city": "WINKLER", "province": "MB", "country": "CA", "postalCode": "R6W4B2", "twitter": "None", "instagram": "None", "facebook": "None", "youtube": "None", "website": "None", "summary": "None", "logo": "None", "latitude": 49.17773400000006, "longitude": -97.93841299999994}, "864940770RR0001": {"name": "WINKLER HERITAGE SOCIETY", "designationCode": "C", "categoryCode": "52", "address": "185 MAIN ST", "city": "WINKLER", "province": "MB", "country": "CA", "postalCode": "R6W1B4", "twitter": "None", "instagram": "None", "facebook": "None", "youtube": "None", "website": "None", "summary": "None", "logo": "None", "latitude": 49.179780586733216, "longitude": -97.93908149772098}, "119035350RR0001": {"name": "WINKLER MCC COMMUNITY ASSISTANCE CENTRE INC.", "designationCode": "A", "categoryCode": "09", "address": "PO BOX 1774 STN MAIN", "city": "WINKLER", "province": "MB", "country": "CA", "postalCode": "R6W4B6", "twitter": "None", "instagram": "None", "facebook": "None", "youtube": "None", "website": "None", "summary": "None", "logo": "None", "latitude": 49.18426565617661, "longitude": -97.93929615472052}, "119300655RR0001": {"name": "WINKLER MENNONITE CHURCH INC", "designationCode": "C", "categoryCode": "34", "address": "31 WILLOWDALE CRES", "city": "WINKLER", "province": "MB", "country": "CA", "postalCode": "R6W1G7", "twitter": "None", "instagram": "None", "facebook": "None", "youtube": "None", "website": "None", "summary": "None", "logo": "None", "latitude": 49.16890023449201, "longitude": -97.93257917298061}, "888645975RR0001": {"name": "WINNER'S WAY EVANGELISM INC.", "designationCode": "C", "categoryCode": "47", "address": "637 UNIVERSITY DRIVE", "city": "SASKATOON", "province": "SK", "country": "CA", "postalCode": "S7N0H8", "twitter": "None", "instagram": "None", "facebook": "None", "youtube": "None", "website": "None", "summary": "None", "logo": "None", "latitude": 52.12079593340631, "longitude": -106.65517589872448}, "891377343RR0001": {"name": "WINNIFRED CHARITABLE TRUST", "designationCode": "B", "categoryCode": "39", "address": "3425 2 AVE S", "city": "LETHBRIDGE", "province": "AB", "country": "CA", "postalCode": "T1J4V1", "twitter": "None", "instagram": "None", "facebook": "None", "youtube": "None", "website": "None", "summary": "None", "logo": "None", "latitude": 49.696839530439966, "longitude": -112.78914308381903}, "890550742RR0001": {"name": "WINNIFRED GRANT OPPORTUNITY SHOP SOCIETY", "designationCode": "C", "categoryCode": "09", "address": "PO BOX 1720", "city": "PICTOU", "province": "NS", "country": "CA", "postalCode": "B0K1H0", "twitter": "None", "instagram": "None", "facebook": "None", "youtube": "None", "website": "None", "summary": "None", "logo": "None", "latitude": 45.67583400000005, "longitude": -62.70865099999993}, "107282030RR0001": {"name": "WINNIFRED STEWART ASSOCIATION FOR MENTALLY HANDICAPPED", "designationCode": "C", "categoryCode": "11", "address": "11130 - 131 STREET", "city": "EDMONTON", "province": "AB", "country": "CA", "postalCode": "T5M1C1", "twitter": "None", "instagram": "None", "facebook": "None", "youtube": "None", "website": "None", "summary": "None", "logo": "None", "latitude": 53.56002541326677, "longitude": -113.54795925151441}, "887385433RR0001": {"name": "WINNIPEG \"POPS\" ORCHESTRA INC.", "designationCode": "C", "categoryCode": "22", "address": "270 AUSTIN ST N", "city": "WINNIPEG", "province": "MB", "country": "CA", "postalCode": "R2W3M9", "twitter": "None", "instagram": "None", "facebook": "None", "youtube": "None", "website": "None", "summary": "None", "logo": "None", "latitude": 49.91050404968546, "longitude": -97.13112257193113}, "885056408RR0001": {"name": "WINNIPEG ABORIGINAL SPORT AND RECREATION ASSOCIATION INC.", "designationCode": "C", "categoryCode": "56", "address": "100 SINCLAIR STREET", "city": "WINNIPEG", "province": "MB", "country": "CA", "postalCode": "R2X1X1", "twitter": "None", "instagram": "None", "facebook": "None", "youtube": "None", "website": "None", "summary": "None", "logo": "None", "latitude": 49.91908784929883, "longitude": -97.15983834681731}, "887090280RR0001": {"name": "WINNIPEG ARCHITECTURE FOUNDATION INC.", "designationCode": "C", "categoryCode": "29", "address": "259 GARFIELD STREET S", "city": "WINNIPEG", "province": "MB", "country": "CA", "postalCode": "R3G2M1", "twitter": "None", "instagram": "None", "facebook": "None", "youtube": "None", "website": "None", "summary": "None", "logo": "None", "latitude": 49.88350469969416, "longitude": -97.17712888562542}, "119288918RR0386": {"name": "WINNIPEG BEACH MANITOBA CONGREGATION OF JEHOVAH'S WITNESSES", "designationCode": "C", "categoryCode": "61", "address": "PO BOX 447", "city": "SANDY HOOK", "province": "MB", "country": "CA", "postalCode": "R0C2W0", "twitter": "None", "instagram": "None", "facebook": "None", "youtube": "None", "website": "None", "summary": "None", "logo": "None", "latitude": 50.522620000000074, "longitude": -96.97530999999998}, "105712715RR0001": {"name": "WINNIPEG BOARD OF JEWISH EDUCATION INC.", "designationCode": "C", "categoryCode": "20", "address": "SUITE A200 - 123 DONCASTER ST.", "city": "WINNIPEG", "province": "MB", "country": "CA", "postalCode": "R3N2B4", "twitter": "None", "instagram": "None", "facebook": "None", "youtube": "None", "website": "None", "summary": "None", "logo": "None", "latitude": 49.872266622540245, "longitude": -97.20828227653004}, "137327516RR0001": {"name": "WINNIPEG BOYS' CHOIR", "designationCode": "C", "categoryCode": "22", "address": "871 DORCHESTER AVE", "city": "WINNIPEG", "province": "MB", "country": "CA", "postalCode": "R3M0P7", "twitter": "None", "instagram": "None", "facebook": "None", "youtube": "None", "website": "None", "summary": "None", "logo": "None", "latitude": 49.87032284098893, "longitude": -97.16074252749712}, "119718179RR0001": {"name": "WINNIPEG CENTENNIAL FOLK FESTIVAL INC", "designationCode": "C", "categoryCode": "22", "address": "203-211 BANNATYNE AVE", "city": "WINNIPEG", "province": "MB", "country": "CA", "postalCode": "R3B3P2", "twitter": "None", "instagram": "None", "facebook": "None", "youtube": "None", "website": "None", "summary": "None", "logo": "None", "latitude": 49.89792147157924, "longitude": -97.13992811212421}, "893080150RR0001": {"name": "WINNIPEG CHAMBER MUSIC SOCIETY INC", "designationCode": "C", "categoryCode": "22", "address": "2500-360 MAIN ST", "city": "WINNIPEG", "province": "MB", "country": "CA", "postalCode": "R3C4H6", "twitter": "None", "instagram": "None", "facebook": "None", "youtube": "None", "website": "None", "summary": "None", "logo": "None", "latitude": 49.89459781320337, "longitude": -97.1381563866637}, "119300846RR0001": {"name": "WINNIPEG CHINATOWN NON-PROFIT HOUSING CORPORATION", "designationCode": "C", "categoryCode": "01", "address": "100-201 PRINCESS ST", "city": "WINNIPEG", "province": "MB", "country": "CA", "postalCode": "R3B3E9", "twitter": "None", "instagram": "None", "facebook": "None", "youtube": "None", "website": "None", "summary": "None", "logo": "None", "latitude": 49.90110746417162, "longitude": -97.14029355460137}, "108216755RR0001": {"name": "WINNIPEG CHINESE ALLIANCE CHURCH", "designationCode": "C", "categoryCode": "39", "address": "261 COLONY STREET", "city": "WINNIPEG", "province": "MB", "country": "CA", "postalCode": "R3C1W4", "twitter": "None", "instagram": "None", "facebook": "None", "youtube": "None", "website": "None", "summary": "None", "logo": "None", "latitude": 49.88804879877663, "longitude": -97.15110879652627}, "119300861RR0001": {"name": "WINNIPEG CHINESE CULTURAL AND COMMUNITY CENTRE CORPORATION", "designationCode": "C", "categoryCode": "22", "address": "2ND FL                        180 KING ST", "city": "WINNIPEG", "province": "MB", "country": "CA", "postalCode": "R3B3G8", "twitter": "None", "instagram": "None", "facebook": "None", "youtube": "None", "website": "None", "summary": "None", "logo": "None", "latitude": 49.90097665335557, "longitude": -97.13893672095887}, "893967570RR0001": {"name": "WINNIPEG CHINESE LUTHERAN CHURCH", "designationCode": "C", "categoryCode": "32", "address": "200 DALHOUSIE DRIVE", "city": "WINNIPEG", "province": "MB", "country": "CA", "postalCode": "R3T2Z1", "twitter": "None", "instagram": "None", "facebook": "None", "youtube": "None", "website": "None", "summary": "None", "logo": "None", "latitude": 49.7975551734378, "longitude": -97.14838171345704}, "108216771RR0001": {"name": "WINNIPEG CHINESE MENNONITE BRETHREN CHURCH", "designationCode": "C", "categoryCode": "34", "address": "159 MARYGROVE CRES", "city": "WINNIPEG", "province": "MB", "country": "CA", "postalCode": "R3Y1M3", "twitter": "None", "instagram": "None", "facebook": "None", "youtube": "None", "website": "None", "summary": "None", "logo": "None", "latitude": 49.8179782845228, "longitude": -97.20266165540532}, "889112645RR0001": {"name": "WINNIPEG CHINESE MENNONITE CHURCH", "designationCode": "C", "categoryCode": "39", "address": "1010 RIVERWOOD AVE", "city": "WINNIPEG", "province": "MB", "country": "CA", "postalCode": "R3T1L3", "twitter": "None", "instagram": "None", "facebook": "None", "youtube": "None", "website": "None", "summary": "None", "logo": "None", "latitude": 49.841928221190024, "longitude": -97.15527195516195}, "108216797RR0001": {"name": "WINNIPEG CHRISTIAN CENTRE INC.", "designationCode": "C", "categoryCode": "47", "address": "230 PROVENCHER BLVD", "city": "WINNIPEG", "province": "MB", "country": "CA", "postalCode": "R2H0G5", "twitter": "None", "instagram": "None", "facebook": "None", "youtube": "None", "website": "None", "summary": "None", "logo": "None", "latitude": 49.892658874805385, "longitude": -97.1195344114491}, "894310028RR0001": {"name": "WINNIPEG CHURCH OF CHRIST INC.", "designationCode": "C", "categoryCode": "39", "address": "PO BOX 34037 RPO FORT RICHMOND", "city": "WINNIPEG", "province": "MB", "country": "CA", "postalCode": "R3T5T5", "twitter": "None", "instagram": "None", "facebook": "None", "youtube": "None", "website": "None", "summary": "None", "logo": "None", "latitude": 49.79192000000006, "longitude": -97.13961999999998}, "135838076RR0001": {"name": "WINNIPEG CHURCH OF GOD (7TH DAY)", "designationCode": "C", "categoryCode": "39", "address": "42 GATESIDE WAY", "city": "WINNIPEG", "province": "MB", "country": "CA", "postalCode": "R2V4W9", "twitter": "None", "instagram": "None", "facebook": "None", "youtube": "None", "website": "None", "summary": "None", "logo": "None", "latitude": 49.95876928838929, "longitude": -97.1066572099946}, "108216805RR0001": {"name": "WINNIPEG CHURCH OF THE DEAF", "designationCode": "C", "categoryCode": "38", "address": "285 PEMBINA HWY.", "city": "WINNIPEG", "province": "MB", "country": "CA", "postalCode": "R3L2E1", "twitter": "None", "instagram": "None", "facebook": "None", "youtube": "None", "website": "None", "summary": "None", "logo": "None", "latitude": 49.87233709270585, "longitude": -97.1438271883545}, "118864321RR0001": {"name": "WINNIPEG CITIZEN ADVOCACY INC.", "designationCode": "C", "categoryCode": "59", "address": "88 WEAVER BAY", "city": "WINNIPEG", "province": "MB", "country": "CA", "postalCode": "R2M2G8", "twitter": "None", "instagram": "None", "facebook": "None", "youtube": "None", "website": "None", "summary": "None", "logo": "None"}, "119300911RR0001": {"name": "WINNIPEG CLASSICAL GUITAR SOCIETY", "designationCode": "C", "categoryCode": "22", "address": "106 AVRIL LANE", "city": "WINNIPEG", "province": "MB", "country": "CA", "postalCode": "R3R3C6", "twitter": "None", "instagram": "None", "facebook": "None", "youtube": "None", "website": "None", "summary": "None", "logo": "None", "latitude": 49.85593651485942, "longitude": -97.26460163240891}, "831189279RR0001": {"name": "WINNIPEG COSMOPOLITAN FOUNDATION", "designationCode": "A", "categoryCode": "05", "address": "142 DUBOIS PL", "city": "WINNIPEG", "province": "MB", "country": "CA", "postalCode": "R3V1N1", "twitter": "None", "instagram": "None", "facebook": "None", "youtube": "None", "website": "None", "summary": "None", "logo": "None", "latitude": 49.77304624176222, "longitude": -97.16491668916257}, "119300101RR0001": {"name": "WINNIPEG EVANGELICAL FREE CHURCH INC.", "designationCode": "C", "categoryCode": "39", "address": "500 LAGIMODIERE BLVD", "city": "WINNIPEG", "province": "MB", "country": "CA", "postalCode": "R2J4J1", "twitter": "None", "instagram": "None", "facebook": "None", "youtube": "None", "website": "None", "summary": "None", "logo": "None", "latitude": 49.84974015346653, "longitude": -97.04985627968473}, "105712996RR0001": {"name": "WINNIPEG FILM GROUP INC.", "designationCode": "C", "categoryCode": "22", "address": "304-100 ARTHUR STREET", "city": "WINNIPEG", "province": "MB", "country": "CA", "postalCode": "R3B1H3", "twitter": "None", "instagram": "None", "facebook": "None", "youtube": "None", "website": "None", "summary": "None", "logo": "None", "latitude": 49.897593000000015, "longitude": -97.1406225}, "119300978RR0001": {"name": "WINNIPEG FULL GOSPEL CHURCH INC", "designationCode": "C", "categoryCode": "39", "address": "204 - 35 LEVEQUE ST", "city": "WINNIPEG", "province": "MB", "country": "CA", "postalCode": "R2J0W7", "twitter": "None", "instagram": "None", "facebook": "None", "youtube": "None", "website": "None", "summary": "None", "logo": "None", "latitude": 49.857263999999994, "longitude": -97.05066975}, "890598964RR0001": {"name": "WINNIPEG GENERAL HOSPITAL-HEALTH SCIENCES CENTRE NURSES' ALUMNAE JUBILEE MEMORIAL FUND", "designationCode": "C", "categoryCode": "21", "address": "NA 138                        700 MCDERMOT AVENUE", "city": "WINNIPEG", "province": "MB", "country": "CA", "postalCode": "R3E0T2", "twitter": "None", "instagram": "None", "facebook": "None", "youtube": "None", "website": "None", "summary": "None", "logo": "None", "latitude": 49.90297100969487, "longitude": -97.15896931308778}, "899899660RR0001": {"name": "WINNIPEG GOLDEYES FIELD OF DREAMS FOUNDATION INC.", "designationCode": "A", "categoryCode": "03", "address": "#1 PORTAGE AVENUE EAST", "city": "WINNIPEG", "province": "MB", "country": "CA", "postalCode": "R3B3N3", "twitter": "None", "instagram": "None", "facebook": "None", "youtube": "None", "website": "None", "summary": "None", "logo": "None", "latitude": 49.89470111877827, "longitude": -97.13532400613241}, "119301034RR0001": {"name": "WINNIPEG HABITAT FOR HUMANITY INC.", "designationCode": "C", "categoryCode": "09", "address": "60 ARCHIBALD STREET", "city": "WINNIPEG", "province": "MB", "country": "CA", "postalCode": "R2J0V8", "twitter": "None", "instagram": "None", "facebook": "None", "youtube": "None", "website": "None", "summary": "None", "logo": "None", "latitude": 49.90052313460102, "longitude": -97.10700814925889}, "131792616RR0001": {"name": "WINNIPEG HARVEST INC", "designationCode": "C", "categoryCode": "09", "address": "1085 WINNIPEG AVENUE", "city": "WINNIPEG", "province": "MB", "country": "CA", "postalCode": "R3E0S2", "twitter": "None", "instagram": "None", "facebook": "None", "youtube": "None", "website": "None", "summary": "None", "logo": "None", "latitude": 49.906962920912825, "longitude": -97.17395378613892}, "105713093RR0001": {"name": "WINNIPEG HOUSING REHABILITATION CORPORATION", "designationCode": "C", "categoryCode": "09", "address": "104-60 FRANCES STREET", "city": "WINNIPEG", "province": "MB", "country": "CA", "postalCode": "R3A1B5", "twitter": "None", "instagram": "None", "facebook": "None", "youtube": "None", "website": "None", "summary": "None", "logo": "None", "latitude": 49.898754, "longitude": -97.1482275}, "862942554RR0001": {"name": "WINNIPEG INNER CITY MISSIONS OF THE PRESBYTERIAN CHURCH IN CANADA INC.", "designationCode": "C", "categoryCode": "09", "address": "BOX 2444 STN MAIN", "city": "WINNIPEG", "province": "MB", "country": "CA", "postalCode": "R3C4A7", "twitter": "None", "instagram": "None", "facebook": "None", "youtube": "None", "website": "None", "summary": "None", "logo": "None", "latitude": 49.886161958421624, "longitude": -97.13345310241456}, "105713119RR0001": {"name": "WINNIPEG INNER CITY YOUTH FUTURES FUND INC.", "designationCode": "C", "categoryCode": "21", "address": "1555 WALL STREET", "city": "WINNIPEG", "province": "MB", "country": "CA", "postalCode": "R3E2S2", "twitter": "None", "instagram": "None", "facebook": "None", "youtube": "None", "website": "None", "summary": "None", "logo": "None", "latitude": 49.90604413627446, "longitude": -97.18117788877075}, "119301091RR0001": {"name": "WINNIPEG INTERNATIONAL CHILDREN'S FESTIVAL INC", "designationCode": "C", "categoryCode": "22", "address": "201-1 FORKS MARKET ROAD", "city": "WINNIPEG", "province": "MB", "country": "CA", "postalCode": "R3C4L9", "twitter": "None", "instagram": "None", "facebook": "None", "youtube": "None", "website": "None", "summary": "None", "logo": "None", "latitude": 49.88785107207466, "longitude": -97.13050188889684}, "878070390RR0001": {"name": "WINNIPEG INTERNATIONAL WRITERS' FESTIVAL INC", "designationCode": "C", "categoryCode": "22", "address": "624-100 ARTHUR ST", "city": "WINNIPEG", "province": "MB", "country": "CA", "postalCode": "R3B1H3", "twitter": "None", "instagram": "None", "facebook": "None", "youtube": "None", "website": "None", "summary": "None", "logo": "None", "latitude": 49.897593000000015, "longitude": -97.1406225}, "892605213RR0001": {"name": "WINNIPEG JAZZ ORCHESTRA INC.", "designationCode": "C", "categoryCode": "22", "address": "PO BOX 68114                  RPO OSBORNE VILLAGE", "city": "WINNIPEG", "province": "MB", "country": "CA", "postalCode": "R3L2V9", "twitter": "None", "instagram": "None", "facebook": "None", "youtube": "None", "website": "None", "summary": "None", "logo": "None", "latitude": 49.86055516311027, "longitude": -97.1307242548598}, "119301125RR0001": {"name": "WINNIPEG JEWISH THEATRE INC", "designationCode": "C", "categoryCode": "22", "address": "C148 - 123 DONCASTER ST.", "city": "WINNIPEG", "province": "MB", "country": "CA", "postalCode": "R3N2B2", "twitter": "None", "instagram": "None", "facebook": "None", "youtube": "None", "website": "None", "summary": "None", "logo": "None", "latitude": 49.86779026460563, "longitude": -97.20862592209049}, "119030666RR0043": {"name": "WINNIPEG KOREAN SEVENTH-DAY ADVENTIST CHURCH", "designationCode": "C", "categoryCode": "39", "address": "1004 VICTORIA AVE", "city": "SASKATOON", "province": "SK", "country": "CA", "postalCode": "S7N0Z8", "twitter": "None", "instagram": "None", "facebook": "None", "youtube": "None", "website": "None", "summary": "None", "logo": "None", "latitude": 52.115409, "longitude": -106.66240826773014}, "891310781RR0001": {"name": "WINNIPEG LIBRARY FOUNDATION, INC./ LA FONDATION DE LA BIBLIOTHEQUE DE WINNIPEG, INC.", "designationCode": "A", "categoryCode": "53", "address": "PO BOX 2503", "city": "WINNIPEG", "province": "MB", "country": "CA", "postalCode": "R3C4A7", "twitter": "None", "instagram": "None", "facebook": "None", "youtube": "None", "website": "None", "summary": "None", "logo": "None", "latitude": 49.899525000000054, "longitude": -97.14112999999993}, "119301158RR0001": {"name": "WINNIPEG MALE CHORUS INC", "designationCode": "C", "categoryCode": "22", "address": "346 GREENWOOD AVE", "city": "WINNIPEG", "province": "MB", "country": "CA", "postalCode": "R2M4J6", "twitter": "None", "instagram": "None", "facebook": "None", "youtube": "None", "website": "None", "summary": "None", "logo": "None", "latitude": 49.8288791956548, "longitude": -97.09672245516195}, "108217043RR0001": {"name": "WINNIPEG MENNONITE ELEMENTARY SCHOOLS INC.", "designationCode": "C", "categoryCode": "21", "address": "250 BEDSON STREET", "city": "WINNIPEG", "province": "MB", "country": "CA", "postalCode": "R3K1R7", "twitter": "None", "instagram": "None", "facebook": "None", "youtube": "None", "website": "None", "summary": "None", "logo": "None", "latitude": 49.87199779600669, "longitude": -97.30835300617416}, "131905762RR0001": {"name": "WINNIPEG MENNONITE SENIORS CARE INC.", "designationCode": "C", "categoryCode": "10", "address": "100 475 LINDENWOOD DR E", "city": "WINNIPEG", "province": "MB", "country": "CA", "postalCode": "R3P2P3", "twitter": "None", "instagram": "None", "facebook": "None", "youtube": "None", "website": "None", "summary": "None", "logo": "None", "latitude": 49.827080457729444, "longitude": -97.19913323855958}, "119301281RR0001": {"name": "WINNIPEG MENNONITE THEATRE SOCIETY", "designationCode": "C", "categoryCode": "22", "address": "2802-ONE EVERGREEN PLACE", "city": "WINNIPEG", "province": "MB", "country": "CA", "postalCode": "R3L0E9", "twitter": "None", "instagram": "None", "facebook": "None", "youtube": "None", "website": "None", "summary": "None", "logo": "None", "latitude": 49.88038517951556, "longitude": -97.1493727004907}, "133105536RR0001": {"name": "WINNIPEG MILITARY FAMILY RESOURCE CENTRE INC/CENTRE DE RESSOURCE DES FAMILLE DE WINNIPEG INC", "designationCode": "C", "categoryCode": "09", "address": "102 COMET STREET              PO BOX 17000 STN FORCES", "city": "WINNIPEG", "province": "MB", "country": "CA", "postalCode": "R3J3Y5", "twitter": "None", "instagram": "None", "facebook": "None", "youtube": "None", "website": "None", "summary": "None", "logo": "None", "latitude": 49.89389696502971, "longitude": -97.2534622198337}, "119301323RR0001": {"name": "WINNIPEG MUSIC FESTIVAL INC", "designationCode": "C", "categoryCode": "22", "address": "UNIT 2 88 ST ANNE'S ROAD", "city": "WINNIPEG", "province": "MB", "country": "CA", "postalCode": "R2M2Y7", "twitter": "None", "instagram": "None", "facebook": "None", "youtube": "None", "website": "None", "summary": "None", "logo": "None"}, "119301398RR0001": {"name": "WINNIPEG OSTOMY ASSOCIATION INC", "designationCode": "C", "categoryCode": "11", "address": "204-825 SHERBROOK ST.", "city": "WINNIPEG", "province": "MB", "country": "CA", "postalCode": "R3A1M5", "twitter": "None", "instagram": "None", "facebook": "None", "youtube": "None", "website": "None", "summary": "None", "logo": "None", "latitude": 49.905053935370574, "longitude": -97.15499593846792}, "119301406RR0001": {"name": "WINNIPEG PHILHARMONIC CHOIR INC", "designationCode": "C", "categoryCode": "22", "address": "PO BOX 1616                   STN MAIN", "city": "WINNIPEG", "province": "MB", "country": "CA", "postalCode": "R3C2Z6", "twitter": "None", "instagram": "None", "facebook": "None", "youtube": "None", "website": "None", "summary": "None", "logo": "None", "latitude": 49.886161958421624, "longitude": -97.13345310241456}, "108217217RR0001": {"name": "WINNIPEG PRESBYTERY (UNITED CHURCH OF CANADA) CHURCH DEVELOPMENT INC.", "designationCode": "C", "categoryCode": "44", "address": "1622B ST.MARY'S ROAD", "city": "WINNPEG", "province": "MB", "country": "CA", "postalCode": "R2M3W7", "twitter": "None", "instagram": "None", "facebook": "None", "youtube": "None", "website": "None", "summary": "None", "logo": "None", "latitude": 49.82033517580041, "longitude": -97.113455788679}, "887093995RR0001": {"name": "WINNIPEG PRESBYTERY - THE UNITED CHURCH OF CANADA", "designationCode": "C", "categoryCode": "44", "address": "1622B ST MARY'S RD", "city": "WINNIPEG", "province": "MB", "country": "CA", "postalCode": "R2M3W7", "twitter": "None", "instagram": "None", "facebook": "None", "youtube": "None", "website": "None", "summary": "None", "logo": "None", "latitude": 49.82033517580041, "longitude": -97.113455788679}, "107472532RR0001": {"name": "WINNIPEG REGIONAL HEALTH AUTHORITY", "designationCode": "C", "categoryCode": "11", "address": "791 NOTRE DAME AVENUE", "city": "WINNIPEG", "province": "MB", "country": "CA", "postalCode": "R3E0M1", "twitter": "None", "instagram": "None", "facebook": "None", "youtube": "None", "website": "None", "summary": "None", "logo": "None", "latitude": 49.90300194644805, "longitude": -97.16394128613892}, "131809527RR0001": {"name": "WINNIPEG RH INSTITUTE FOUNDATION INC", "designationCode": "A", "categoryCode": "13", "address": "297 MAPLEWOOD AVE", "city": "WINNIPEG", "province": "MB", "country": "CA", "postalCode": "R3L1A6", "twitter": "None", "instagram": "None", "facebook": "None", "youtube": "None", "website": "None", "summary": "None", "logo": "None", "latitude": 49.864960957556555, "longitude": -97.12895269943435}, "897417184RR0001": {"name": "WINNIPEG RIVER SENIOR SERVICES INC.", "designationCode": "C", "categoryCode": "09", "address": "BOX 1109", "city": "PINE FALLS", "province": "MB", "country": "CA", "postalCode": "R0E1M0", "twitter": "None", "instagram": "None", "facebook": "None", "youtube": "None", "website": "None", "summary": "None", "logo": "None", "latitude": 50.56733000000003, "longitude": -96.21714999999995}, "132452046RR0001": {"name": "WINNIPEG SENIOR CITIZENS RADIO CLUB VE4WSC INC.", "designationCode": "C", "categoryCode": "59", "address": "598 ST MARY'S ROAD", "city": "WINNIPEG", "province": "MB", "country": "CA", "postalCode": "R2M3L5", "twitter": "None", "instagram": "None", "facebook": "None", "youtube": "None", "website": "None", "summary": "None", "logo": "None", "latitude": 49.86341592423105, "longitude": -97.11135279061098}, "846088722RR0001": {"name": "WINNIPEG STUDIO THEATRE INC.", "designationCode": "C", "categoryCode": "22", "address": "20 BARD PLACE", "city": "WINNIPEG", "province": "MB", "country": "CA", "postalCode": "R3P2N4", "twitter": "None", "instagram": "None", "facebook": "None", "youtube": "None", "website": "None", "summary": "None", "logo": "None", "latitude": 49.85407748845881, "longitude": -97.22762455689883}, "129706370RR0001": {"name": "WINNIPEG TRANSITION CENTRE INC", "designationCode": "C", "categoryCode": "20", "address": "200 - 686 PORTAGE AVE", "city": "WINNIPEG", "province": "MB", "country": "CA", "postalCode": "R3G0M6", "twitter": "None", "instagram": "None", "facebook": "None", "youtube": "None", "website": "None", "summary": "None", "logo": "None", "latitude": 49.887776914767336, "longitude": -97.16097405785112}, "888916046RR0001": {"name": "WINNIPEG WOMEN'S GROUP,", "designationCode": "C", "categoryCode": "57", "address": "477 KING EDWARD ST", "city": "WINNIPEG", "province": "MB", "country": "CA", "postalCode": "R3J1L9", "twitter": "None", "instagram": "None", "facebook": "None", "youtube": "None", "website": "None", "summary": "None", "logo": "None", "latitude": 49.889463757977985, "longitude": -97.20818180901975}, "892311168RR0001": {"name": "WINNIPEG YOUTH CHORUS Incorporated", "designationCode": "C", "categoryCode": "22", "address": "312 HELMSDALE AVE", "city": "WINNIPEG", "province": "MB", "country": "CA", "postalCode": "R2K0W2", "twitter": "None", "instagram": "None", "facebook": "None", "youtube": "None", "website": "None", "summary": "None", "logo": "None", "latitude": 49.92668812626248, "longitude": -97.09818089260764}, "120261789RR0001": {"name": "WINNIPEG YOUTH ORCHESTRAS INC", "designationCode": "C", "categoryCode": "22", "address": "PO BOX 273", "city": "WINNIPEG", "province": "MB", "country": "CA", "postalCode": "R3C2G9", "twitter": "None", "instagram": "None", "facebook": "None", "youtube": "None", "website": "None", "summary": "None", "logo": "None", "latitude": 49.899525000000054, "longitude": -97.14112999999993}, "139093884RR0001": {"name": "WINNIPEGOSIS AND DISTRICT RESIDENTIAL SERVICES INC", "designationCode": "C", "categoryCode": "01", "address": "PO BOX 278", "city": "WINNIPEGOSIS", "province": "MB", "country": "CA", "postalCode": "R0L2G0", "twitter": "None", "instagram": "None", "facebook": "None", "youtube": "None", "website": "None", "summary": "None", "logo": "None", "latitude": 51.65289899999999, "longitude": -99.9405918859683}, "108217134RR0001": {"name": "WINNIPEGOSIS GENERAL HOSPITAL", "designationCode": "C", "categoryCode": "10", "address": "BOX 280", "city": "WINNIPEGOSIS", "province": "MB", "country": "CA", "postalCode": "R0L2G0", "twitter": "None", "instagram": "None", "facebook": "None", "youtube": "None", "website": "None", "summary": "None", "logo": "None", "latitude": 51.65289899999999, "longitude": -99.9405918859683}, "119301364RR0001": {"name": "WINNIPEGOSIS HANDI VAN SERVICES INC", "designationCode": "C", "categoryCode": "09", "address": "BOX 370", "city": "WINNIPEGOSIS", "province": "MB", "country": "CA", "postalCode": "R0L2G0", "twitter": "None", "instagram": "None", "facebook": "None", "youtube": "None", "website": "None", "summary": "None", "logo": "None", "latitude": 51.65289899999999, "longitude": -99.9405918859683}, "119030666RR0023": {"name": "WINNIPEGOSIS SEVENTH-DAY ADVENTIST CHURCH", "designationCode": "C", "categoryCode": "41", "address": "1004 VICTORIA AVE", "city": "SASKATOON", "province": "SK", "country": "CA", "postalCode": "S7N0Z8", "twitter": "None", "instagram": "None", "facebook": "None", "youtube": "None", "website": "None", "summary": "None", "logo": "None", "latitude": 52.115409, "longitude": -106.66240826773014}, "878346428RR0001": {"name": "WINNSERV FOUNDATION INC", "designationCode": "A", "categoryCode": "03", "address": "101-960 PORTAGE AVE.", "city": "WINNIPEG", "province": "MB", "country": "CA", "postalCode": "R3G0R4", "twitter": "None", "instagram": "None", "facebook": "None", "youtube": "None", "website": "None", "summary": "None", "logo": "None", "latitude": 49.88464157227784, "longitude": -97.17407013613023}, "132003567RR0001": {"name": "WINNSERV INC.", "designationCode": "C", "categoryCode": "01", "address": "101 - 960 PORTAGE AVE", "city": "WINNIPEG", "province": "MB", "country": "CA", "postalCode": "R3G0R4", "twitter": "None", "instagram": "None", "facebook": "None", "youtube": "None", "website": "None", "summary": "None", "logo": "None", "latitude": 49.88464157227784, "longitude": -97.17407013613023}, "849487350RR0001": {"name": "WINONA GOSPEL CHURCH", "designationCode": "C", "categoryCode": "39", "address": "218 GLOVER ROAD", "city": "STONEY CREEK", "province": "ON", "country": "CA", "postalCode": "L8E5H6", "twitter": "None", "instagram": "None", "facebook": "None", "youtube": "None", "website": "None", "summary": "None", "logo": "None", "latitude": 43.21218322424843, "longitude": -79.68171087492095}, "119301596RR0001": {"name": "WINSLOE PASTORAL CHARGE", "designationCode": "C", "categoryCode": "44", "address": "121 WINSLOE ROAD              RTE 223", "city": "WINSLOE", "province": "PE", "country": "CA", "postalCode": "C1E2Y2", "twitter": "None", "instagram": "None", "facebook": "None", "youtube": "None", "website": "None", "summary": "None", "logo": "None", "latitude": 46.294660766015554, "longitude": -63.173802252975875}, "869804070RR0001": {"name": "WINTER WARMTH", "designationCode": "C", "categoryCode": "09", "address": "PO BOX 111 STN MAIN", "city": "KINGSTON", "province": "ON", "country": "CA", "postalCode": "K7L4V6", "twitter": "None", "instagram": "None", "facebook": "None", "youtube": "None", "website": "None", "summary": "None", "logo": "None", "latitude": 44.23153200000006, "longitude": -76.47933049999993}, "119301620RR0001": {"name": "WINTERBURN PASTORAL CHARGE,", "designationCode": "C", "categoryCode": "44", "address": "43 GATEWOOD AVE", "city": "ST ALBERT", "province": "AB", "country": "CA", "postalCode": "T8N1A1", "twitter": "None", "instagram": "None", "facebook": "None", "youtube": "None", "website": "None", "summary": "None", "logo": "None", "latitude": 53.62117853952926, "longitude": -113.6354625}, "890767775RR0001": {"name": "WINTERGREEN FUND FOR CONSERVATION", "designationCode": "A", "categoryCode": "53", "address": "100 LAKESHORE ROAD", "city": "TIMMINS", "province": "ON", "country": "CA", "postalCode": "P4N8R5", "twitter": "None", "instagram": "None", "facebook": "None", "youtube": "None", "website": "None", "summary": "None", "logo": "None", "latitude": 48.478104255598794, "longitude": -81.32226314947081}, "891475311RR0001": {"name": "WINTERING HILLS CHARITABLE TRUST", "designationCode": "B", "categoryCode": "39", "address": "3425-2 AVENUE SOUTH", "city": "LETHBRIDGE", "province": "AB", "country": "CA", "postalCode": "T1J4V1", "twitter": "None", "instagram": "None", "facebook": "None", "youtube": "None", "website": "None", "summary": "None", "logo": "None", "latitude": 49.696839530439966, "longitude": -112.78914308381903}, "849261771RR0001": {"name": "WINTERTIDE MUSIC FESTIVAL INC", "designationCode": "C", "categoryCode": "22", "address": "4 ELSWICK RD", "city": "CORNER BROOK", "province": "NL", "country": "CA", "postalCode": "A2H2W5", "twitter": "None", "instagram": "None", "facebook": "None", "youtube": "None", "website": "None", "summary": "None", "logo": "None", "latitude": 48.946985991373, "longitude": -57.93367816807074}, "119301687RR0001": {"name": "WIRRAL UNITED BAPTIST CHURCH,", "designationCode": "C", "categoryCode": "31", "address": "11 KIRKPATRICK FARM RD", "city": "WIRRAL", "province": "NB", "country": "CA", "postalCode": "E5L2T9", "twitter": "None", "instagram": "None", "facebook": "None", "youtube": "None", "website": "None", "summary": "None", "logo": "None", "latitude": 45.52131185931079, "longitude": -66.50102986415823}, "858143449RR0001": {"name": "WIRTANEN ELECTRIC TRAINING FOUNDATION", "designationCode": "B", "categoryCode": "23", "address": "BOX 4401", "city": "EDMONTON", "province": "AB", "country": "CA", "postalCode": "T6E4T5", "twitter": "None", "instagram": "None", "facebook": "None", "youtube": "None", "website": "None", "summary": "None", "logo": "None", "latitude": 53.499354000000054, "longitude": -113.46577549999994}, "888764743RR0001": {"name": "WISCONSIN EVANGELICAL LUTHERAN SYNOD - CANADA/L'EGLISE EVANGELIQUE LUTHERIENNE SYNODE DU WISCONSIN - CANADA", "designationCode": "C", "categoryCode": "32", "address": "PO BOX 537", "city": "PICTURE BUTTE", "province": "AB", "country": "CA", "postalCode": "T0K1V0", "twitter": "None", "instagram": "None", "facebook": "None", "youtube": "None", "website": "None", "summary": "None", "logo": "None", "latitude": 49.87851001832194, "longitude": -112.77815001110848}, "886717859RR0001": {"name": "WISE GUYS CHARITY FUND", "designationCode": "A", "categoryCode": "03", "address": "344 LAKE STREET               PO BOX 1600", "city": "ST. CATHARINES", "province": "ON", "country": "CA", "postalCode": "L2R4H4", "twitter": "None", "instagram": "None", "facebook": "None", "youtube": "None", "website": "None", "summary": "None", "logo": "None", "latitude": 43.17528087665488, "longitude": -79.25115445988791}, "119301695RR0001": {"name": "WISE OWL DAY CARE CENTRE", "designationCode": "C", "categoryCode": "01", "address": "151 ISABELLA ST", "city": "PEMBROKE", "province": "ON", "country": "CA", "postalCode": "K8A5S8", "twitter": "None", "instagram": "None", "facebook": "None", "youtube": "None", "website": "None", "summary": "None", "logo": "None", "latitude": 45.82371195556203, "longitude": -77.11545861563212}, "871309472RR0001": {"name": "WISETON PENTECOSTAL CHURCH", "designationCode": "C", "categoryCode": "36", "address": "BOX 113", "city": "WISETON", "province": "SK", "country": "CA", "postalCode": "S0L3M0", "twitter": "None", "instagram": "None", "facebook": "None", "youtube": "None", "website": "None", "summary": "None", "logo": "None", "latitude": 51.316790000000026, "longitude": -107.65132999999997}, "119301729RR0001": {"name": "WISETON UNITED CHURCH,", "designationCode": "C", "categoryCode": "44", "address": "BOX 22", "city": "WISETON", "province": "SK", "country": "CA", "postalCode": "S0L3M0", "twitter": "None", "instagram": "None", "facebook": "None", "youtube": "None", "website": "None", "summary": "None", "logo": "None", "latitude": 51.316790000000026, "longitude": -107.65132999999997}, "870475563RR0001": {"name": "WISH DROP-IN CENTRE SOCIETY", "designationCode": "C", "categoryCode": "01", "address": "334 ALEXANDER ST", "city": "VANCOUVER", "province": "BC", "country": "CA", "postalCode": "V6A1C3", "twitter": "None", "instagram": "None", "facebook": "None", "youtube": "None", "website": "None", "summary": "None", "logo": "None", "latitude": 49.28404749567216, "longitude": -123.09662097016562}, "119301760RR0001": {"name": "WISTARIA COMMUNITY CHURCH", "designationCode": "C", "categoryCode": "39", "address": "36162 OOTSA-NADINA RD", "city": "BURNS LAKE", "province": "BC", "country": "CA", "postalCode": "V0J1E4", "twitter": "None", "instagram": "None", "facebook": "None", "youtube": "None", "website": "None", "summary": "None", "logo": "None", "latitude": 53.86506567540883, "longitude": -126.32611821804765}, "889459392RR0001": {"name": "WITH HANDS OF JOY", "designationCode": "C", "categoryCode": "21", "address": "591 MANCHESTER ROAD", "city": "KITCHENER", "province": "ON", "country": "CA", "postalCode": "N2B1B2", "twitter": "None", "instagram": "None", "facebook": "None", "youtube": "None", "website": "None", "summary": "None", "logo": "None", "latitude": 43.46235379294826, "longitude": -80.45381731124145}, "875202905RR0001": {"name": "WITHOUT-WALLS CHURCH INC.", "designationCode": "C", "categoryCode": "39", "address": "302-11530 40 AVENUE", "city": "EDMONTON", "province": "AB", "country": "CA", "postalCode": "T6J0R6", "twitter": "None", "instagram": "None", "facebook": "None", "youtube": "None", "website": "None", "summary": "None", "logo": "None", "latitude": 53.4764005010096, "longitude": -113.5320008366611}, "119301786RR0001": {"name": "WITHROW GOSPEL MISSION,", "designationCode": "C", "categoryCode": "39", "address": "RR1", "city": "LESLIEVILLE", "province": "AB", "country": "CA", "postalCode": "T0M1H0", "twitter": "None", "instagram": "None", "facebook": "None", "youtube": "None", "website": "None", "summary": "None", "logo": "None", "latitude": 52.38491815713226, "longitude": -114.55493836738984}, "855999470RR0001": {"name": "WITNESS TO ALL NATIONS INC.", "designationCode": "C", "categoryCode": "47", "address": "686 PASQUA ST", "city": "REGINA", "province": "SK", "country": "CA", "postalCode": "S4T4K4", "twitter": "None", "instagram": "None", "facebook": "None", "youtube": "None", "website": "None", "summary": "None", "logo": "None", "latitude": 50.46804900000001, "longitude": -104.64103417185032}, "891382228RR0001": {"name": "WITS Programs Foundation", "designationCode": "C", "categoryCode": "23", "address": "398 FRASER ST", "city": "VICTORIA", "province": "BC", "country": "CA", "postalCode": "V9A6G5", "twitter": "None", "instagram": "None", "facebook": "None", "youtube": "None", "website": "None", "summary": "None", "logo": "None", "latitude": 48.4243550774424, "longitude": -123.41571542801061}, "119301802RR0001": {"name": "WITT MEMORIAL SCHOLARSHIP FUND", "designationCode": "C", "categoryCode": "25", "address": "333 - 3RD AVENUE NORTH", "city": "SASKATOON", "province": "SK", "country": "CA", "postalCode": "S7K2M2", "twitter": "None", "instagram": "None", "facebook": "None", "youtube": "None", "website": "None", "summary": "None", "logo": "None", "latitude": 52.13288527061568, "longitude": -106.66002880437387}, "108217977RR0001": {"name": "WITTENBURG BAPTIST CHURCH", "designationCode": "C", "categoryCode": "31", "address": "777 WITTENBURG RD             RR 1", "city": "WITTENBURG", "province": "NS", "country": "CA", "postalCode": "B0N2J0", "twitter": "None", "instagram": "None", "facebook": "None", "youtube": "None", "website": "None", "summary": "None", "logo": "None", "latitude": 45.11114401529212, "longitude": -63.24460577459773}}