{"118937846RR0001": {"name": "Gerontological Nursing Association Ontario", "designationCode": "C", "categoryCode": "11", "address": "P.O. BOX 368 POSTAL           STATION K", "city": "TORONTO", "province": "ON", "country": "CA", "postalCode": "M4P2G7", "twitter": "None", "instagram": "None", "facebook": "None", "youtube": "None", "website": "None", "summary": "None", "logo": "None", "latitude": 43.713015000000055, "longitude": -79.38856699999994}, "850420183RR0001": {"name": "Gesher Educational Forum Canada", "designationCode": "C", "categoryCode": "39", "address": "2 BEAUPORT DRIVE", "city": "KANATA", "province": "ON", "country": "CA", "postalCode": "K2L1Z4", "twitter": "None", "instagram": "None", "facebook": "None", "youtube": "None", "website": "None", "summary": "None", "logo": "None", "latitude": 45.314476722719235, "longitude": -75.8909394049569}, "128877412RR0001": {"name": "Gestion Jeunesse inc.", "designationCode": "C", "categoryCode": "59", "address": "265, RUE DE LA COURONNE       BUREAU 269", "city": "QUEBEC", "province": "QC", "country": "CA", "postalCode": "G1K6E1", "twitter": "None", "instagram": "None", "facebook": "None", "youtube": "None", "website": "None", "summary": "None", "logo": "None", "latitude": 46.816192791015006, "longitude": -71.22619424574428}, "744098526RR0001": {"name": "Get In The Ark Ministries Spruce Grove", "designationCode": "B", "categoryCode": "39", "address": "3343 18 ST NW", "city": "EDMONTON", "province": "AB", "country": "CA", "postalCode": "T6T0H4", "twitter": "None", "instagram": "None", "facebook": "None", "youtube": "None", "website": "None", "summary": "None", "logo": "None", "latitude": 53.44763200417662, "longitude": -113.39200588036243}, "812317477RR0001": {"name": "Get Real - The Challenge Ltd.", "designationCode": "C", "categoryCode": "59", "address": "36 STRATHAVEN MEWS S.W.", "city": "CALGARY", "province": "AB", "country": "CA", "postalCode": "T3H2G2", "twitter": "None", "instagram": "None", "facebook": "None", "youtube": "None", "website": "None", "summary": "None", "logo": "None", "latitude": 51.04694295504641, "longitude": -114.18374443187709}, "803563931RR0001": {"name": "Gethsemane International Assembly Wood Buffalo", "designationCode": "C", "categoryCode": "49", "address": "156 CROWN CREEK LANE", "city": "FORT MCMURRAY", "province": "AB", "country": "CA", "postalCode": "T9K2V1", "twitter": "None", "instagram": "None", "facebook": "None", "youtube": "None", "website": "None", "summary": "None", "logo": "None", "latitude": 56.76128033054426, "longitude": -111.46249007588452}, "828255547RR0001": {"name": "Gethsemane Ministries", "designationCode": "C", "categoryCode": "39", "address": "84008 WELLANDPORT RD", "city": "WELLANDPORT", "province": "ON", "country": "CA", "postalCode": "L0R2J0", "twitter": "None", "instagram": "None", "facebook": "None", "youtube": "None", "website": "None", "summary": "None", "logo": "None", "latitude": 42.99899992339437, "longitude": -79.48041006895866}, "817123284RR0001": {"name": "Ggumnamu Mission", "designationCode": "C", "categoryCode": "56", "address": "25 HUTTON DRIVE", "city": "BELLEVILLE", "province": "ON", "country": "CA", "postalCode": "K8P1E9", "twitter": "None", "instagram": "None", "facebook": "None", "youtube": "None", "website": "None", "summary": "None", "logo": "None", "latitude": 44.15343616622443, "longitude": -77.398664161377}, "764648093RR0001": {"name": "Ghadir Cultural and Educational Centre", "designationCode": "C", "categoryCode": "60", "address": "351 LYNN AVE", "city": "NORTH VANCOUVER", "province": "BC", "country": "CA", "postalCode": "V7J2C4", "twitter": "None", "instagram": "None", "facebook": "None", "youtube": "None", "website": "None", "summary": "None", "logo": "None", "latitude": 49.308002270286174, "longitude": -123.03691038757731}, "828724138RR0001": {"name": "Ghana Medical Help", "designationCode": "C", "categoryCode": "19", "address": "205 - 276 CARLAW AVE", "city": "TORONTO", "province": "ON", "country": "CA", "postalCode": "M4M3L1", "twitter": "None", "instagram": "None", "facebook": "None", "youtube": "None", "website": "None", "summary": "None", "logo": "None", "latitude": 43.66339335192457, "longitude": -79.34107399252683}, "832892806RR0001": {"name": "Ghana Methodist Church of Ottawa", "designationCode": "C", "categoryCode": "39", "address": "225 MCCLELLAN ROAD", "city": "NEPEAN", "province": "ON", "country": "CA", "postalCode": "K2H8N5", "twitter": "None", "instagram": "None", "facebook": "None", "youtube": "None", "website": "None", "summary": "None", "logo": "None", "latitude": 45.325196158520114, "longitude": -75.7852169317042}, "814741773RR0001": {"name": "Ghanaian Ministerial Fellowship of Toronto", "designationCode": "C", "categoryCode": "39", "address": "9-4 RACINE ROAD", "city": "ETOBICOKE", "province": "ON", "country": "CA", "postalCode": "M9W1N7", "twitter": "None", "instagram": "None", "facebook": "None", "youtube": "None", "website": "None", "summary": "None", "logo": "None", "latitude": 43.71552000588571, "longitude": -79.57028091038124}, "823334578RR0001": {"name": "Ghanaian Presbyterian Church in Calgary Fellowship", "designationCode": "C", "categoryCode": "37", "address": "147 TARALAKE PK NE", "city": "CALGARY", "province": "AB", "country": "CA", "postalCode": "T3J0B8", "twitter": "None", "instagram": "None", "facebook": "None", "youtube": "None", "website": "None", "summary": "None", "logo": "None", "latitude": 51.11974720399332, "longitude": -113.92921133042869}, "875012700RR0001": {"name": "Ghausia International Foundation of Canada", "designationCode": "C", "categoryCode": "60", "address": "10362 168 STREET", "city": "SURREY", "province": "BC", "country": "CA", "postalCode": "V4N1Z4", "twitter": "None", "instagram": "None", "facebook": "None", "youtube": "None", "website": "None", "summary": "None", "logo": "None", "latitude": 49.190987462115544, "longitude": -122.75640126865378}, "821519261RR0001": {"name": "Ghetto Shul", "designationCode": "C", "categoryCode": "42", "address": "487 OAKVILLE STREET", "city": "DOLLARD-DES-ORMAUX", "province": "QC", "country": "CA", "postalCode": "H9G1M1", "twitter": "None", "instagram": "None", "facebook": "None", "youtube": "None", "website": "None", "summary": "None", "logo": "None", "latitude": 45.46746869718399, "longitude": -73.84028873714594}, "869566745RR0001": {"name": "Ghost River Theatre Society", "designationCode": "C", "categoryCode": "22", "address": "2007 10 AVE SW", "city": "CALGARY", "province": "AB", "country": "CA", "postalCode": "T3C0K4", "twitter": "None", "instagram": "None", "facebook": "None", "youtube": "None", "website": "None", "summary": "None", "logo": "None", "latitude": 51.044414042772615, "longitude": -114.10718541636719}, "828288647RR0001": {"name": "Giancarlo and Odette Tognetti Legacy Trust Foundation", "designationCode": "B", "categoryCode": "05", "address": "1950 HOSMER ST", "city": "VANCOUVER", "province": "BC", "country": "CA", "postalCode": "V6J2S8", "twitter": "None", "instagram": "None", "facebook": "None", "youtube": "None", "website": "None", "summary": "None", "logo": "None", "latitude": 49.25241196904677, "longitude": -123.14967580477929}, "107431330RR0001": {"name": "Gibbons Preschool Association", "designationCode": "C", "categoryCode": "20", "address": "POST OFFICE BOX 826", "city": "GIBBONS", "province": "AB", "country": "CA", "postalCode": "T0A1N0", "twitter": "None", "instagram": "None", "facebook": "None", "youtube": "None", "website": "None", "summary": "None", "logo": "None", "latitude": 53.82811000000004, "longitude": -113.32767999999999}, "810337311RR0001": {"name": "Gibsons Marine Rescue Society", "designationCode": "C", "categoryCode": "59", "address": "PO BOX 1326                   1192 MARINE DRIVE", "city": "GIBSONS", "province": "BC", "country": "CA", "postalCode": "V0N1V0", "twitter": "None", "instagram": "None", "facebook": "None", "youtube": "None", "website": "None", "summary": "None", "logo": "None", "latitude": 49.42612651958833, "longitude": -123.48229299908152}, "891161622RR0001": {"name": "Gideon 300 Worship Centre", "designationCode": "C", "categoryCode": "39", "address": "UNIT 47-50 WEYBRIGHT COURT", "city": "SCARBOROUGH", "province": "ON", "country": "CA", "postalCode": "M1S5A8", "twitter": "None", "instagram": "None", "facebook": "None", "youtube": "None", "website": "None", "summary": "None", "logo": "None", "latitude": 43.78187856448758, "longitude": -79.2790045767499}, "814078374RR0001": {"name": "Gift of Hope", "designationCode": "C", "categoryCode": "09", "address": "42 JIM BROWNELL BLVD", "city": "LONG SAULT", "province": "ON", "country": "CA", "postalCode": "K0C1P0", "twitter": "None", "instagram": "None", "facebook": "None", "youtube": "None", "website": "None", "summary": "None", "logo": "None", "latitude": 45.035372782627284, "longitude": -74.88439544938464}, "847904018RR0001": {"name": "Gift of Music Ministries", "designationCode": "C", "categoryCode": "47", "address": "1500 WEST GEORGIA STREET      SUITE 1250 BOX 62", "city": "VANCOUVER", "province": "BC", "country": "CA", "postalCode": "V6G2Z6", "twitter": "None", "instagram": "None", "facebook": "None", "youtube": "None", "website": "None", "summary": "None", "logo": "None", "latitude": 49.2900638104334, "longitude": -123.12989899362336}, "765619325RR0001": {"name": "Gift Organization", "designationCode": "C", "categoryCode": "09", "address": "28 WOODRIVER STREET", "city": "RICHMOND HILL", "province": "ON", "country": "CA", "postalCode": "L4S1B4", "twitter": "None", "instagram": "None", "facebook": "None", "youtube": "None", "website": "None", "summary": "None", "logo": "None", "latitude": 43.90120225812219, "longitude": -79.42680955831246}, "839545803RR0001": {"name": "GiftPact Foundation Inc.", "designationCode": "A", "categoryCode": "03", "address": "720 ONE LOMBARD PLACE         THE RICHARDSON BUILDING", "city": "WINNIPEG", "province": "MB", "country": "CA", "postalCode": "R3B0X3", "twitter": "None", "instagram": "None", "facebook": "None", "youtube": "None", "website": "None", "summary": "None", "logo": "None"}, "847400702RR0001": {"name": "Gigspace Performance Studio", "designationCode": "C", "categoryCode": "22", "address": "953 GLADSTONE AVENUE", "city": "OTTAWA", "province": "ON", "country": "CA", "postalCode": "K1Y3E5", "twitter": "None", "instagram": "None", "facebook": "None", "youtube": "None", "website": "None", "summary": "None", "logo": "None", "latitude": 45.40359177549177, "longitude": -75.7151205019619}, "830827879RR0001": {"name": "Gil-But Church", "designationCode": "C", "categoryCode": "39", "address": "20162 DITTON ST", "city": "MAPLE RIDGE", "province": "BC", "country": "CA", "postalCode": "V2X3N1", "twitter": "None", "instagram": "None", "facebook": "None", "youtube": "None", "website": "None", "summary": "None", "logo": "None", "latitude": 49.20346069856897, "longitude": -122.66126892226914}, "873664205RR0001": {"name": "Gilda's Club Simcoe Muskoka", "designationCode": "C", "categoryCode": "11", "address": "10 QUARRY RIDGE RD", "city": "BARRIE", "province": "ON", "country": "CA", "postalCode": "L4M7G1", "twitter": "None", "instagram": "None", "facebook": "None", "youtube": "None", "website": "None", "summary": "None", "logo": "None", "latitude": 44.41570064215898, "longitude": -79.65879683128979}, "839733847RR0001": {"name": "Gilgal Christian Community", "designationCode": "C", "categoryCode": "39", "address": "2386 HAINES ROAD              UNIT 217", "city": "MISSISSAUGA", "province": "ON", "country": "CA", "postalCode": "L4Y1Y6", "twitter": "None", "instagram": "None", "facebook": "None", "youtube": "None", "website": "None", "summary": "None", "logo": "None", "latitude": 43.59307566521481, "longitude": -79.59055108987761}, "847842283RR0001": {"name": "Gill Family Charitable Trust", "designationCode": "B", "categoryCode": "03", "address": "PO BOX 100", "city": "CALEDON EAST", "province": "ON", "country": "CA", "postalCode": "L7C3L8", "twitter": "None", "instagram": "None", "facebook": "None", "youtube": "None", "website": "None", "summary": "None", "logo": "None", "latitude": 43.869777000000056, "longitude": -79.86667399999993}, "102091493RR0001": {"name": "Gillam Pre-School and Child Centre Cooperative Inc.", "designationCode": "C", "categoryCode": "01", "address": "500 MATTONNABEE AVENUE        POST OFFICE BOX 670", "city": "GILLAM", "province": "MB", "country": "CA", "postalCode": "R0B0L0", "twitter": "None", "instagram": "None", "facebook": "None", "youtube": "None", "website": "None", "summary": "None", "logo": "None", "latitude": 56.348275020345675, "longitude": -94.70199036655323}, "891271843RR0001": {"name": "Gillard Pass Fisheries Association", "designationCode": "C", "categoryCode": "54", "address": "12831 HORSESHOE PLACE", "city": "RICHMOND", "province": "BC", "country": "CA", "postalCode": "V7A4X5", "twitter": "None", "instagram": "None", "facebook": "None", "youtube": "None", "website": "None", "summary": "None", "logo": "None", "latitude": 49.12166357369147, "longitude": -123.10000101930282}, "833629652RR0001": {"name": "Gilles Boudreau & Friends Cancer Help Fund Association", "designationCode": "C", "categoryCode": "11", "address": "1355 HIGHWAY 1", "city": "WELLINGTON", "province": "NS", "country": "CA", "postalCode": "B5A5A5", "twitter": "None", "instagram": "None", "facebook": "None", "youtube": "None", "website": "None", "summary": "None", "logo": "None", "latitude": 43.91002576579918, "longitude": -66.10336098837625}, "107764573RR0026": {"name": "Gimli Bible Camp", "designationCode": "C", "categoryCode": "56", "address": "BOX 1579", "city": "GIMLI", "province": "MB", "country": "CA", "postalCode": "R0C1B0", "twitter": "None", "instagram": "None", "facebook": "None", "youtube": "None", "website": "None", "summary": "None", "logo": "None", "latitude": 50.30677349294383, "longitude": -96.92898988377391}, "869847921RR0001": {"name": "Gimli District Health Auxiliary to the Gimli Community Health Centre", "designationCode": "C", "categoryCode": "19", "address": "P.O. BOX 1398", "city": "GIMLI", "province": "MB", "country": "CA", "postalCode": "R0C1B0", "twitter": "None", "instagram": "None", "facebook": "None", "youtube": "None", "website": "None", "summary": "None", "logo": "None", "latitude": 50.30677349294383, "longitude": -96.92898988377391}, "863795050RR0001": {"name": "Gimli Film Festival Inc.", "designationCode": "C", "categoryCode": "22", "address": "P.O. BOX 1225", "city": "GIMLI", "province": "MB", "country": "CA", "postalCode": "R0C1B0", "twitter": "None", "instagram": "None", "facebook": "None", "youtube": "None", "website": "None", "summary": "None", "logo": "None", "latitude": 50.30677349294383, "longitude": -96.92898988377391}, "838743011RR0001": {"name": "Gimli Icelandic Canadian Society Inc.", "designationCode": "C", "categoryCode": "22", "address": "BOX 1979", "city": "GIMLI", "province": "MB", "country": "CA", "postalCode": "R0C1B0", "twitter": "None", "instagram": "None", "facebook": "None", "youtube": "None", "website": "None", "summary": "None", "logo": "None", "latitude": 50.30677349294383, "longitude": -96.92898988377391}, "805407087RR0001": {"name": "Gimli Seniors' Residence Inc.", "designationCode": "C", "categoryCode": "09", "address": "PO BOX 238", "city": "GIMLI", "province": "MB", "country": "CA", "postalCode": "R0C1B0", "twitter": "None", "instagram": "None", "facebook": "None", "youtube": "None", "website": "None", "summary": "None", "logo": "None", "latitude": 50.30677349294383, "longitude": -96.92898988377391}, "814812798RR0001": {"name": "Ginger's Legacy - Animal Welfare Society", "designationCode": "C", "categoryCode": "54", "address": "905 18A N AVE", "city": "CRANBROOK", "province": "BC", "country": "CA", "postalCode": "V1C3Y1", "twitter": "None", "instagram": "None", "facebook": "None", "youtube": "None", "website": "None", "summary": "None", "logo": "None", "latitude": 49.51273392385229, "longitude": -115.76751775358787}, "118938554RR0024": {"name": "Girl Guides of Canada-Guides du Canada, Bridging Rivers Area", "designationCode": "C", "categoryCode": "29", "address": "801 PRESTON AVENUE S.", "city": "SASKATOON", "province": "SK", "country": "CA", "postalCode": "S7H2V1", "twitter": "None", "instagram": "None", "facebook": "None", "youtube": "None", "website": "None", "summary": "None", "logo": "None", "latitude": 52.117317000000014, "longitude": -106.62258873226985}, "118938554RR0025": {"name": "Girl Guides of Canada-Guides du Canada, Southern Horizons Area", "designationCode": "C", "categoryCode": "29", "address": "1530 BROADWAY AVE", "city": "REGINA", "province": "SK", "country": "CA", "postalCode": "S4P1E2", "twitter": "None", "instagram": "None", "facebook": "None", "youtube": "None", "website": "None", "summary": "None", "logo": "None", "latitude": 50.437733508222976, "longitude": -104.60426319317328}, "837034131RR0001": {"name": "Girls E-Mentorship Innovation", "designationCode": "C", "categoryCode": "21", "address": "95 CRESCENT ROAD", "city": "TORONTO", "province": "ON", "country": "CA", "postalCode": "M4W1T7", "twitter": "None", "instagram": "None", "facebook": "None", "youtube": "None", "website": "None", "summary": "None", "logo": "None", "latitude": 43.677999137370996, "longitude": -79.38354247501303}, "815167846RR0001": {"name": "Girls Need Camps", "designationCode": "A", "categoryCode": "03", "address": "5060 FORREST DRIVE", "city": "YELLOWKNIFE", "province": "NT", "country": "CA", "postalCode": "X1A2B2", "twitter": "None", "instagram": "None", "facebook": "None", "youtube": "None", "website": "None", "summary": "None", "logo": "None", "latitude": 62.446101463788956, "longitude": -114.37967052539099}, "804989101RR0001": {"name": "GirlKind Foundation", "designationCode": "C", "categoryCode": "59", "address": "35645 ZANATTA PLACE", "city": "ABBOTSFORD", "province": "BC", "country": "CA", "postalCode": "V3G0B4", "twitter": "None", "instagram": "None", "facebook": "None", "youtube": "None", "website": "None", "summary": "None", "logo": "None", "latitude": 49.03925590217157, "longitude": -122.23786790957979}, "849554837RR0001": {"name": "Giselle Foundation", "designationCode": "B", "categoryCode": "03", "address": "316-40 WYNDFORD DRIVE", "city": "TORONTO", "province": "ON", "country": "CA", "postalCode": "M3C1J5", "twitter": "None", "instagram": "None", "facebook": "None", "youtube": "None", "website": "None", "summary": "None", "logo": "None", "latitude": 43.72936000000004, "longitude": -79.33074999999997}, "822079083RR0001": {"name": "Gishen Debre Kerbe Mariam Ethiopian Orthodox Tewahedo Church", "designationCode": "C", "categoryCode": "39", "address": "370 EAST BROADWAY             P.O. BOX 95049 KINGSGATE", "city": "VANCOUVER", "province": "BC", "country": "CA", "postalCode": "V5T4T8", "twitter": "None", "instagram": "None", "facebook": "None", "youtube": "None", "website": "None", "summary": "None", "logo": "None", "latitude": 49.26278449899039, "longitude": -123.09755258534824}, "848607024RR0001": {"name": "Gist Sarcoma Life Raft Group, Canada", "designationCode": "C", "categoryCode": "11", "address": "330 KING ST W", "city": "COBOURG", "province": "ON", "country": "CA", "postalCode": "K9A2N5", "twitter": "None", "instagram": "None", "facebook": "None", "youtube": "None", "website": "None", "summary": "None", "logo": "None", "latitude": 43.95892942829909, "longitude": -78.17909666056893}, "806665014RR0001": {"name": "Give a Better Life Foundation", "designationCode": "C", "categoryCode": "03", "address": "411 - 55 WATER ST", "city": "VANCOUVER", "province": "BC", "country": "CA", "postalCode": "V6B1A1", "twitter": "None", "instagram": "None", "facebook": "None", "youtube": "None", "website": "None", "summary": "None", "logo": "None", "latitude": 49.283750292832686, "longitude": -123.10552838314393}, "821530086RR0001": {"name": "Give a Little Foundation", "designationCode": "A", "categoryCode": "03", "address": "SUITE 1250 - 1500 W GEORGIA STBOX 62", "city": "VANCOUVER", "province": "BC", "country": "CA", "postalCode": "V6G2Z6", "twitter": "None", "instagram": "None", "facebook": "None", "youtube": "None", "website": "None", "summary": "None", "logo": "None", "latitude": 49.29013479542975, "longitude": -123.1300069287031}, "827366105RR0001": {"name": "Give a Little Society", "designationCode": "C", "categoryCode": "09", "address": "1250-1500 GEORGIA W ST        BOX 62", "city": "VANCOUVER", "province": "BC", "country": "CA", "postalCode": "V6G2Z6", "twitter": "None", "instagram": "None", "facebook": "None", "youtube": "None", "website": "None", "summary": "None", "logo": "None", "latitude": 49.290187500000016, "longitude": -123.130035}, "811611995RR0001": {"name": "Give a Shirt Society", "designationCode": "C", "categoryCode": "09", "address": "18 - 12504 15 AVE SW", "city": "EDMONTON", "province": "AB", "country": "CA", "postalCode": "T6W1V2", "twitter": "None", "instagram": "None", "facebook": "None", "youtube": "None", "website": "None", "summary": "None", "logo": "None", "latitude": 53.419170581921364, "longitude": -113.53864870060673}, "817594161RR0001": {"name": "Give Across Borders", "designationCode": "C", "categoryCode": "21", "address": "2797 JOHN ST", "city": "MARKHAM", "province": "ON", "country": "CA", "postalCode": "L3R2Y8", "twitter": "None", "instagram": "None", "facebook": "None", "youtube": "None", "website": "None", "summary": "None", "logo": "None", "latitude": 43.82534731539781, "longitude": -79.35544710308041}, "838598449RR0001": {"name": "Give Hope School Development Project Society", "designationCode": "C", "categoryCode": "01", "address": "2 OAK AVE", "city": "WOLFVILLE", "province": "NS", "country": "CA", "postalCode": "B4P2J5", "twitter": "None", "instagram": "None", "facebook": "None", "youtube": "None", "website": "None", "summary": "None", "logo": "None", "latitude": 45.0924618506838, "longitude": -64.34974416192524}, "804118677RR0001": {"name": "Give Kids a Chance Charity Inc.", "designationCode": "B", "categoryCode": "03", "address": "1870 LORNE ST", "city": "REGINA", "province": "SK", "country": "CA", "postalCode": "S4P2L7", "twitter": "None", "instagram": "None", "facebook": "None", "youtube": "None", "website": "None", "summary": "None", "logo": "None", "latitude": 50.4490327543713, "longitude": -104.61373314963332}, "820268688RR0001": {"name": "Giving Back Support Recovery Society", "designationCode": "C", "categoryCode": "57", "address": "1425-71 AVENUE WEST           UNIT 308", "city": "VANCOUVER", "province": "BC", "country": "CA", "postalCode": "V6P3B6", "twitter": "None", "instagram": "None", "facebook": "None", "youtube": "None", "website": "None", "summary": "None", "logo": "None", "latitude": 49.20711048542904, "longitude": -123.13799049708581}, "763041928RR0001": {"name": "Giving BH Well Charitable Trust Fiducie du Puits d'espoir BH", "designationCode": "A", "categoryCode": "03", "address": "6 RUE RENAUD", "city": "BOISBRIAND", "province": "QC", "country": "CA", "postalCode": "J7E4H4", "twitter": "None", "instagram": "None", "facebook": "None", "youtube": "None", "website": "None", "summary": "None", "logo": "None", "latitude": 45.61139678100304, "longitude": -73.86462820748444}, "839860244RR0001": {"name": "Giving Hope to Children Society", "designationCode": "C", "categoryCode": "01", "address": "2041 36 AVE SW", "city": "CALGARY", "province": "AB", "country": "CA", "postalCode": "T2T2G8", "twitter": "None", "instagram": "None", "facebook": "None", "youtube": "None", "website": "None", "summary": "None", "logo": "None", "latitude": 51.02145548124545, "longitude": -114.10875394463038}, "820455939RR0001": {"name": "Giving Refugees Hope in Uganda", "designationCode": "C", "categoryCode": "09", "address": "118 MONTEREY DRIVE", "city": "OTTAWA", "province": "ON", "country": "CA", "postalCode": "K2H7A8", "twitter": "None", "instagram": "None", "facebook": "None", "youtube": "None", "website": "None", "summary": "None", "logo": "None", "latitude": 45.33722926836532, "longitude": -75.79378332318667}, "834390015RR0001": {"name": "Gladeside Cemetery Inc.", "designationCode": "B", "categoryCode": "59", "address": "2935 ROUTE 490", "city": "MCQUADE", "province": "NB", "country": "CA", "postalCode": "E1G3J8", "twitter": "None", "instagram": "None", "facebook": "None", "youtube": "None", "website": "None", "summary": "None", "logo": "None", "latitude": 46.238975387537685, "longitude": -64.8367862102082}, "107434425RR0001": {"name": "Gladstone United Church", "designationCode": "C", "categoryCode": "44", "address": "BOX 82", "city": "GLADSTONE", "province": "MB", "country": "CA", "postalCode": "R0J0T0", "twitter": "None", "instagram": "None", "facebook": "None", "youtube": "None", "website": "None", "summary": "None", "logo": "None", "latitude": 50.22542000000004, "longitude": -98.95074999999997}, "808086722RR0001": {"name": "Glancaster Canadian Reformed School Society", "designationCode": "C", "categoryCode": "20", "address": "7170 CHIPPEWA ROAD", "city": "MOUNT HOPE", "province": "ON", "country": "CA", "postalCode": "L0R1W0", "twitter": "None", "instagram": "None", "facebook": "None", "youtube": "None", "website": "None", "summary": "None", "logo": "None", "latitude": 43.1269620635926, "longitude": -79.89741611474994}, "808390595RR0001": {"name": "Gleam of Hope International Children's Association", "designationCode": "C", "categoryCode": "09", "address": "23697 HIGHWAY 7", "city": "SHEET HARBOUR", "province": "NS", "country": "CA", "postalCode": "B0J3B0", "twitter": "None", "instagram": "None", "facebook": "None", "youtube": "None", "website": "None", "summary": "None", "logo": "None", "latitude": 44.905955362224994, "longitude": -62.478269303768286}, "808929111RR0001": {"name": "Gleichen Community Church", "designationCode": "C", "categoryCode": "39", "address": "POST OFFICE BOX 93", "city": "GLEICHEN", "province": "AB", "country": "CA", "postalCode": "T0J1N0", "twitter": "None", "instagram": "None", "facebook": "None", "youtube": "None", "website": "None", "summary": "None", "logo": "None", "latitude": 50.86703498834985, "longitude": -113.05614014000167}, "121569032RR0001": {"name": "Glen Sandfield United Church", "designationCode": "C", "categoryCode": "44", "address": "22255 GLEN SANDFIELD RD", "city": "DALKEITH", "province": "ON", "country": "CA", "postalCode": "K0B1E0", "twitter": "None", "instagram": "None", "facebook": "None", "youtube": "None", "website": "None", "summary": "None", "logo": "None", "latitude": 45.41082775599457, "longitude": -74.51860983251676}, "819486325RR0001": {"name": "Glenaladale Heritage Trust Inc.", "designationCode": "C", "categoryCode": "52", "address": "1035 MT. STEWART ROAD", "city": "MAPLE HILL", "province": "PE", "country": "CA", "postalCode": "C0A1T0", "twitter": "None", "instagram": "None", "facebook": "None", "youtube": "None", "website": "None", "summary": "None", "logo": "None", "latitude": 46.35140861004675, "longitude": -62.860172443649425}, "836853754RR0001": {"name": "Glenbow Ranch Park Foundation", "designationCode": "A", "categoryCode": "53", "address": "255001 GLENBOW RD", "city": "COCHRANE", "province": "AB", "country": "CA", "postalCode": "T4C0B7", "twitter": "None", "instagram": "None", "facebook": "None", "youtube": "None", "website": "None", "summary": "None", "logo": "None", "latitude": 51.16871068509549, "longitude": -114.39249463090742}, "874003197RR0001": {"name": "Glencairn Child Care Co-operative", "designationCode": "C", "categoryCode": "01", "address": "88B CAVENDISH STREET", "city": "REGINA", "province": "SK", "country": "CA", "postalCode": "S4N5G7", "twitter": "None", "instagram": "None", "facebook": "None", "youtube": "None", "website": "None", "summary": "None", "logo": "None", "latitude": 50.45355358461568, "longitude": -104.5579394620793}, "119288918RR0454": {"name": "Glendale Congregation of Jehovah's Witnesses, Halifax, Nova Scotia", "designationCode": "C", "categoryCode": "61", "address": "18 SUNNYVALE CRESCENT", "city": "LOWER SACKVILLE", "province": "NS", "country": "CA", "postalCode": "B4E2G5", "twitter": "None", "instagram": "None", "facebook": "None", "youtube": "None", "website": "None", "summary": "None", "logo": "None", "latitude": 44.78449460254492, "longitude": -63.69301696445279}, "835052846RR0001": {"name": "Glendon Playground and Park Society", "designationCode": "C", "categoryCode": "56", "address": "P.O. BOX 538", "city": "GLENDON", "province": "AB", "country": "CA", "postalCode": "T0A1P0", "twitter": "None", "instagram": "None", "facebook": "None", "youtube": "None", "website": "None", "summary": "None", "logo": "None", "latitude": 54.247190000000046, "longitude": -111.15382999999997}, "119288918RR0418": {"name": "Glenelm Congregation of Jehovah's Witnesses, Regina, Saskatchewan", "designationCode": "C", "categoryCode": "61", "address": "31 COLE CRES", "city": "REGINA", "province": "SK", "country": "CA", "postalCode": "S4N6V3", "twitter": "None", "instagram": "None", "facebook": "None", "youtube": "None", "website": "None", "summary": "None", "logo": "None", "latitude": 50.45969578544642, "longitude": -104.56199934704846}, "825610439RR0001": {"name": "Glengarry County Archives", "designationCode": "C", "categoryCode": "50", "address": "212 MAIN ST NORTH,", "city": "ALEXANDRIA", "province": "ON", "country": "CA", "postalCode": "K0C1A0", "twitter": "None", "instagram": "None", "facebook": "None", "youtube": "None", "website": "None", "summary": "None", "logo": "None", "latitude": 45.315036040735336, "longitude": -74.63992878672474}, "815494265RR0001": {"name": "Glengarry Fencibles Trust", "designationCode": "C", "categoryCode": "52", "address": "4739 FROG HOLLOW ROAD", "city": "GREEN VALLEY", "province": "ON", "country": "CA", "postalCode": "K0C1L0", "twitter": "None", "instagram": "None", "facebook": "None", "youtube": "None", "website": "None", "summary": "None", "logo": "None", "latitude": 45.215345137410644, "longitude": -74.59953334101543}, "811844380RR0001": {"name": "Glengarry, Nor'Westers & Loyalist Museum", "designationCode": "C", "categoryCode": "50", "address": "19651 JOHN STREET             COUNTY ROAD 17", "city": "WILLIAMSTOWN", "province": "ON", "country": "CA", "postalCode": "K0C2J0", "twitter": "None", "instagram": "None", "facebook": "None", "youtube": "None", "website": "None", "summary": "None", "logo": "None", "latitude": 45.14724930062296, "longitude": -74.58344998000469}, "805260247RR0001": {"name": "Glentel Foundation", "designationCode": "A", "categoryCode": "03", "address": "1250-1500 WEST GEORGIA STREET PO BOX 62", "city": "VANCOUVER", "province": "BC", "country": "CA", "postalCode": "V6G2Z6", "twitter": "None", "instagram": "None", "facebook": "None", "youtube": "None", "website": "None", "summary": "None", "logo": "None", "latitude": 49.290187500000016, "longitude": -123.130035}, "849268396RR0001": {"name": "Glenview Senior Public School Council", "designationCode": "C", "categoryCode": "21", "address": "401 ROSEWELL AVE", "city": "TORONTO", "province": "ON", "country": "CA", "postalCode": "M4R2B5", "twitter": "None", "instagram": "None", "facebook": "None", "youtube": "None", "website": "None", "summary": "None", "logo": "None", "latitude": 43.71965581712716, "longitude": -79.4102190929083}, "119288918RR1443": {"name": "Glenwood Park Congregation of Jehovah's Witnesses, Aylmer, Qu\u00e9bec", "designationCode": "C", "categoryCode": "61", "address": "2 RUE GERALD-DUBOIS", "city": "GATINEAU", "province": "QC", "country": "CA", "postalCode": "J9H7B1", "twitter": "None", "instagram": "None", "facebook": "None", "youtube": "None", "website": "None", "summary": "None", "logo": "None", "latitude": 45.38575587480539, "longitude": -75.81387367929482}, "809428055RR0001": {"name": "Global Activators Society", "designationCode": "C", "categoryCode": "29", "address": "957 ESSEX RD", "city": "NORTH VANCOUVER", "province": "BC", "country": "CA", "postalCode": "V7R1W1", "twitter": "None", "instagram": "None", "facebook": "None", "youtube": "None", "website": "None", "summary": "None", "logo": "None", "latitude": 49.348946474032104, "longitude": -123.09365202844941}, "850680380RR0001": {"name": "Global Agents for Change Foundation", "designationCode": "A", "categoryCode": "03", "address": "PO BOX 2947", "city": "VANCOUVER MAIN", "province": "BC", "country": "CA", "postalCode": "V6B3X4", "twitter": "None", "instagram": "None", "facebook": "None", "youtube": "None", "website": "None", "summary": "None", "logo": "None", "latitude": 49.28024400000005, "longitude": -123.11294749999993}, "847123817RR0001": {"name": "Global Angel Charitable Organization", "designationCode": "C", "categoryCode": "11", "address": "LL5 - 311 GEORGE ST N", "city": "PETERBOROUGH", "province": "ON", "country": "CA", "postalCode": "K9J3H3", "twitter": "None", "instagram": "None", "facebook": "None", "youtube": "None", "website": "None", "summary": "None", "logo": "None", "latitude": 44.302729554735016, "longitude": -78.3198389759388}, "801450594RR0001": {"name": "Global Apostolic Ministries International", "designationCode": "C", "categoryCode": "39", "address": "1232 BIRCHMOUNT RD", "city": "TORONTO", "province": "ON", "country": "CA", "postalCode": "M1P2C3", "twitter": "None", "instagram": "None", "facebook": "None", "youtube": "None", "website": "None", "summary": "None", "logo": "None", "latitude": 43.746245759911204, "longitude": -79.28434732506167}, "832594139RR0001": {"name": "Global Brigades Health and Development", "designationCode": "C", "categoryCode": "09", "address": "1120 FINCH AVENUE WEST        UNIT 701-208", "city": "TORONTO", "province": "ON", "country": "CA", "postalCode": "M3J3H7", "twitter": "None", "instagram": "None", "facebook": "None", "youtube": "None", "website": "None", "summary": "None", "logo": "None", "latitude": 43.76703416515657, "longitude": -79.47522690397595}, "804904464RR0001": {"name": "Global Care International Corp.", "designationCode": "C", "categoryCode": "01", "address": "PO BOX 1447 4711-47 STREET", "city": "ONOWAY", "province": "AB", "country": "CA", "postalCode": "T0E1V0", "twitter": "None", "instagram": "None", "facebook": "None", "youtube": "None", "website": "None", "summary": "None", "logo": "None", "latitude": 53.70200992919404, "longitude": -114.18585880296023}, "854372919RR0001": {"name": "Global Centre for Human Values Foundation", "designationCode": "B", "categoryCode": "23", "address": "401 - 322 11 AVE SW", "city": "CALGARY", "province": "AB", "country": "CA", "postalCode": "T2R0C5", "twitter": "None", "instagram": "None", "facebook": "None", "youtube": "None", "website": "None", "summary": "None", "logo": "None", "latitude": 51.042551467684106, "longitude": -114.0685795269202}, "832957898RR0001": {"name": "Global Change for Children Society", "designationCode": "A", "categoryCode": "03", "address": "BOUGHTON LAW CORPERATION      700-595 BURRARD STREET", "city": "VANCOUVER", "province": "BC", "country": "CA", "postalCode": "V7X1S8", "twitter": "None", "instagram": "None", "facebook": "None", "youtube": "None", "website": "None", "summary": "None", "logo": "None", "latitude": 49.285749245109116, "longitude": -123.11912667060957}, "829362805RR0001": {"name": "Global Children of Hope", "designationCode": "C", "categoryCode": "09", "address": "913-8501 BAYVIEW AVENUE", "city": "RICHMOND HILL", "province": "ON", "country": "CA", "postalCode": "L4B3J7", "twitter": "None", "instagram": "None", "facebook": "None", "youtube": "None", "website": "None", "summary": "None", "logo": "None", "latitude": 43.84093704192386, "longitude": -79.40676698652649}, "806582896RR0001": {"name": "Global Citizens Care for Underprivileged and Refugee Empowerment Inc.", "designationCode": "C", "categoryCode": "21", "address": "103 - 162 KING WILLIAM ST", "city": "HAMILTON", "province": "ON", "country": "CA", "postalCode": "L8R3N9", "twitter": "None", "instagram": "None", "facebook": "None", "youtube": "None", "website": "None", "summary": "None", "logo": "None", "latitude": 43.25562693698433, "longitude": -79.86227732598529}, "867068108RR0001": {"name": "Global Civic Policy Society", "designationCode": "A", "categoryCode": "03", "address": "1604 1055 HOMER ST", "city": "VANCOUVER", "province": "BC", "country": "CA", "postalCode": "V6B1G3", "twitter": "None", "instagram": "None", "facebook": "None", "youtube": "None", "website": "None", "summary": "None", "logo": "None"}, "742278922RR0001": {"name": "Global Cultural Mission Centre", "designationCode": "C", "categoryCode": "39", "address": "29 MOORE PARK AVE", "city": "NORTH YORK", "province": "ON", "country": "CA", "postalCode": "M2M1M8", "twitter": "None", "instagram": "None", "facebook": "None", "youtube": "None", "website": "None", "summary": "None", "logo": "None", "latitude": 43.79323681320337, "longitude": -79.42138478198399}, "821043999RR0001": {"name": "Global Deaf Muslim Canada", "designationCode": "C", "categoryCode": "20", "address": "1486 SOUTHDOWN RD", "city": "MISSISSAUGA", "province": "ON", "country": "CA", "postalCode": "L5J2Z4", "twitter": "None", "instagram": "None", "facebook": "None", "youtube": "None", "website": "None", "summary": "None", "logo": "None", "latitude": 43.52046768469053, "longitude": -79.64276880685537}, "834588451RR0001": {"name": "Global Deliverance Ministries Inc.", "designationCode": "C", "categoryCode": "39", "address": "54 SLED DOG ROAD,", "city": "BRAMPTON", "province": "ON", "country": "CA", "postalCode": "L6R0J7", "twitter": "None", "instagram": "None", "facebook": "None", "youtube": "None", "website": "None", "summary": "None", "logo": "None", "latitude": 43.77483373131757, "longitude": -79.75464056007281}, "818534307RR0001": {"name": "Global Disability Network Society", "designationCode": "A", "categoryCode": "03", "address": "1250-1500 GEORGIA W ST        PO BOX 62", "city": "VANCOUVER", "province": "BC", "country": "CA", "postalCode": "V6G2Z6", "twitter": "None", "instagram": "None", "facebook": "None", "youtube": "None", "website": "None", "summary": "None", "logo": "None", "latitude": 49.29013479542975, "longitude": -123.1300069287031}, "801145905RR0001": {"name": "Global Disciples Canada", "designationCode": "C", "categoryCode": "47", "address": "38853 OLD YALE RD", "city": "ABBOTSFORD", "province": "BC", "country": "CA", "postalCode": "V3G1X6", "twitter": "None", "instagram": "None", "facebook": "None", "youtube": "None", "website": "None", "summary": "None", "logo": "None", "latitude": 49.007688640602304, "longitude": -122.14902289006884}, "843269093RR0001": {"name": "Global Expeditions Missionary Society", "designationCode": "C", "categoryCode": "47", "address": "207 - 2772 CLEARBROOK ROAD", "city": "ABBOTSFORD", "province": "BC", "country": "CA", "postalCode": "V2T6N6", "twitter": "None", "instagram": "None", "facebook": "None", "youtube": "None", "website": "None", "summary": "None", "logo": "None", "latitude": 49.05238858312654, "longitude": -122.33778896416433}, "807731880RR0001": {"name": "Global Faith Healing Ministries Inc.", "designationCode": "C", "categoryCode": "39", "address": "3954 ROBIN PLACE", "city": "REGINA", "province": "SK", "country": "CA", "postalCode": "S4N7P9", "twitter": "None", "instagram": "None", "facebook": "None", "youtube": "None", "website": "None", "summary": "None", "logo": "None", "latitude": 50.462484539529264, "longitude": -104.52774124854291}, "841197726RR0001": {"name": "Global Faith Mission Ministries Calgary", "designationCode": "C", "categoryCode": "39", "address": "66-7 STREET NE", "city": "CALGARY", "province": "AB", "country": "CA", "postalCode": "T2E4B7", "twitter": "None", "instagram": "None", "facebook": "None", "youtube": "None", "website": "None", "summary": "None", "logo": "None", "latitude": 51.05192459353343, "longitude": -114.04562543052441}, "872922612RR0001": {"name": "Global Family Care Network (GFCN) Inc. / Reseau Global de Soins Familiaux (GFCN) Inc.", "designationCode": "C", "categoryCode": "47", "address": "4360 LASALLE BLVD", "city": "VERDUN", "province": "QC", "country": "CA", "postalCode": "H4G2A8", "twitter": "None", "instagram": "None", "facebook": "None", "youtube": "None", "website": "None", "summary": "None", "logo": "None", "latitude": 45.46020317124476, "longitude": -73.5631053765944}, "852083682RR0001": {"name": "Global Familymed Foundation", "designationCode": "C", "categoryCode": "11", "address": "314 10A STREET NW", "city": "CALGARY", "province": "AB", "country": "CA", "postalCode": "T2N1W6", "twitter": "None", "instagram": "None", "facebook": "None", "youtube": "None", "website": "None", "summary": "None", "logo": "None", "latitude": 51.05448983819031, "longitude": -114.08733985524277}, "810887133RR0001": {"name": "Global Fellowship of Holiness in Jesus Christ", "designationCode": "C", "categoryCode": "39", "address": "3 RANDALL DR", "city": "AJAX", "province": "ON", "country": "CA", "postalCode": "L1S6E5", "twitter": "None", "instagram": "None", "facebook": "None", "youtube": "None", "website": "None", "summary": "None", "logo": "None", "latitude": 43.85258503523009, "longitude": -79.0553557621329}, "833086424RR0001": {"name": "Global Fijian Assemblies of God, Church", "designationCode": "C", "categoryCode": "36", "address": "9706 131A ST", "city": "SURREY", "province": "BC", "country": "CA", "postalCode": "V3T3R3", "twitter": "None", "instagram": "None", "facebook": "None", "youtube": "None", "website": "None", "summary": "None", "logo": "None", "latitude": 49.1790129045242, "longitude": -122.85809060822908}, "817656754RR0001": {"name": "Global Flow Foundation", "designationCode": "B", "categoryCode": "03", "address": "3324 114 AVE SE", "city": "CALGARY", "province": "AB", "country": "CA", "postalCode": "T2Z3V6", "twitter": "None", "instagram": "None", "facebook": "None", "youtube": "None", "website": "None", "summary": "None", "logo": "None", "latitude": 50.94959284965008, "longitude": -113.9897742727207}, "885433391RR0001": {"name": "Global Forest Society", "designationCode": "C", "categoryCode": "21", "address": "2149 35TH AVE W", "city": "VANCOUVER", "province": "BC", "country": "CA", "postalCode": "V6M1J2", "twitter": "None", "instagram": "None", "facebook": "None", "youtube": "None", "website": "None", "summary": "None", "logo": "None", "latitude": 49.24028946047074, "longitude": -123.15668358090484}}