{"884295817RR0001": {"name": "SHEDIAC BAY WATERSHED ASSOCIATION INC. / L'ASSOCIATION DU BASSIN VERSANT DE LA BAIE DE SHEDIAC INC.", "designationCode": "C", "categoryCode": "52", "address": "612 D MAIN ST", "city": "SHEDIAC", "province": "NB", "country": "CA", "postalCode": "E4P2H3", "twitter": "None", "instagram": "None", "facebook": "None", "youtube": "None", "website": "None", "summary": "None", "logo": "None", "latitude": 46.22489523902094, "longitude": -64.51137580241198}, "887375020RR0001": {"name": "SHEDIAC PUBLIC LIBRARY BOARD/COMMISSION DE LA BIBLIOTHEQUE PUBLIQUE DE SHEDIAC", "designationCode": "C", "categoryCode": "50", "address": "100-290 MAIN STREET", "city": "SHEDIAC", "province": "NB", "country": "CA", "postalCode": "E4P2E3", "twitter": "None", "instagram": "None", "facebook": "None", "youtube": "None", "website": "None", "summary": "None", "logo": "None", "latitude": 46.219212468261034, "longitude": -64.54955249999999}, "119288918RR0733": {"name": "SHEDIAC, N B CONGREGATION OF JEHOVAH'S WITNESSES", "designationCode": "C", "categoryCode": "61", "address": "17 MACARTHUR LANE", "city": "BOUDREAU-OUEST SHEDIAC", "province": "NB", "country": "CA", "postalCode": "E4P6N2", "twitter": "None", "instagram": "None", "facebook": "None", "youtube": "None", "website": "None", "summary": "None", "logo": "None", "latitude": 46.22597563059154, "longitude": -64.48620104558906}, "119148021RR0001": {"name": "SHEEP CREEK ARTS COUNCIL", "designationCode": "C", "categoryCode": "22", "address": "BOX 277", "city": "TURNER VALLEY", "province": "AB", "country": "CA", "postalCode": "T0L2A0", "twitter": "None", "instagram": "None", "facebook": "None", "youtube": "None", "website": "None", "summary": "None", "logo": "None", "latitude": 50.663565, "longitude": -114.28559999999999}, "865088280RR0001": {"name": "SHEEP FLOCK PRESBYTERIAN CHURCH", "designationCode": "C", "categoryCode": "49", "address": "62 LA ROSE AVENUE", "city": "TORONTO", "province": "ON", "country": "CA", "postalCode": "M9P1B1", "twitter": "None", "instagram": "None", "facebook": "None", "youtube": "None", "website": "None", "summary": "None", "logo": "None", "latitude": 43.68629213630312, "longitude": -79.51793849890348}, "895336824RR0001": {"name": "SHEEP PRODUCERS OF NORTH CENTRAL ALBERTA EDUCATIONAL FOUNDATION", "designationCode": "C", "categoryCode": "23", "address": "8216-93 AVE", "city": "EDMONTON", "province": "AB", "country": "CA", "postalCode": "T6C1T4", "twitter": "None", "instagram": "None", "facebook": "None", "youtube": "None", "website": "None", "summary": "None", "logo": "None", "latitude": 53.52775446047074, "longitude": -113.45460227699232}, "140663758RR0001": {"name": "SHEEP RIVER HEALTH TRUST", "designationCode": "A", "categoryCode": "25", "address": "11 CIMARRON COMMOM", "city": "OKOTOKS", "province": "AB", "country": "CA", "postalCode": "T1S2E9", "twitter": "None", "instagram": "None", "facebook": "None", "youtube": "None", "website": "None", "summary": "None", "logo": "None", "latitude": 50.71593768665243, "longitude": -113.96817854625168}, "132962580RR0001": {"name": "SHEEP RIVER LIBRARY", "designationCode": "C", "categoryCode": "50", "address": "BAG 10", "city": "TURNER VALLEY", "province": "AB", "country": "CA", "postalCode": "T0L0H0", "twitter": "None", "instagram": "None", "facebook": "None", "youtube": "None", "website": "None", "summary": "None", "logo": "None", "latitude": 50.663565, "longitude": -114.28559999999999}, "132259490RR0001": {"name": "SHEEPFOLD MINISTRIES", "designationCode": "C", "categoryCode": "47", "address": "BOX 1486", "city": "NIAGARA-ON-THE-LAKE", "province": "ON", "country": "CA", "postalCode": "L0S1J0", "twitter": "None", "instagram": "None", "facebook": "None", "youtube": "None", "website": "None", "summary": "None", "logo": "None", "latitude": 43.23448500000005, "longitude": -79.16177149999993}, "896139300RR0001": {"name": "SHEEPTOWN PLAYERS DRAMA SOCIETY", "designationCode": "C", "categoryCode": "22", "address": "51 ROCQUE DRIVE", "city": "FORT SASKATCHEWAN", "province": "AB", "country": "CA", "postalCode": "T8L2N5", "twitter": "None", "instagram": "None", "facebook": "None", "youtube": "None", "website": "None", "summary": "None", "logo": "None", "latitude": 53.70929192091284, "longitude": -113.20673001208945}, "119288918RR0479": {"name": "SHEET HARBOUR CONGREGATION OF JEHOVAH'S WITNESSES", "designationCode": "C", "categoryCode": "61", "address": "1673 PASSAGE ROAD             RR #2 SHEET HARBOUR", "city": "HRM", "province": "NS", "country": "CA", "postalCode": "B0J3B0", "twitter": "None", "instagram": "None", "facebook": "None", "youtube": "None", "website": "None", "summary": "None", "logo": "None", "latitude": 44.86093192480797, "longitude": -62.444628952276425}, "119148054RR0001": {"name": "SHEET HARBOUR PASTORAL CHARGE", "designationCode": "C", "categoryCode": "44", "address": "PO BOX 325", "city": "SHEET HARBOUR", "province": "NS", "country": "CA", "postalCode": "B0J3B0", "twitter": "None", "instagram": "None", "facebook": "None", "youtube": "None", "website": "None", "summary": "None", "logo": "None", "latitude": 44.91685000000007, "longitude": -62.53191999999996}, "119148062RR0001": {"name": "SHEFFIELD BAPTIST CHURCH, HALIFAX", "designationCode": "C", "categoryCode": "31", "address": "80 LINCOLN CROSS DRIVE", "city": "HALIFAX", "province": "NS", "country": "CA", "postalCode": "B3M4M3", "twitter": "None", "instagram": "None", "facebook": "None", "youtube": "None", "website": "None", "summary": "None", "logo": "None", "latitude": 44.66507812932091, "longitude": -63.655531122424655}, "861646792RR0001": {"name": "SHEFFIELD PARK BLACK HISTORY AND CULTURAL MUSEUM", "designationCode": "C", "categoryCode": "50", "address": "241 CLARK STREET", "city": "CLARKSBURG", "province": "ON", "country": "CA", "postalCode": "N0H1J0", "twitter": "None", "instagram": "None", "facebook": "None", "youtube": "None", "website": "None", "summary": "None", "logo": "None", "latitude": 44.54785618679666, "longitude": -80.45237757591318}, "107975070RR0001": {"name": "SHEFFIELD PASTORAL CHARGE", "designationCode": "C", "categoryCode": "44", "address": "792 OLD HIGHWAY 8", "city": "ROCKTON", "province": "ON", "country": "CA", "postalCode": "L0R1X0", "twitter": "None", "instagram": "None", "facebook": "None", "youtube": "None", "website": "None", "summary": "None", "logo": "None", "latitude": 43.30079518587414, "longitude": -80.12655414152844}, "108153719RR0001": {"name": "SHEFFIELD PASTORAL CHARGE", "designationCode": "C", "categoryCode": "44", "address": "287 SAND POINT RD", "city": "LAKEVILLE CORNER", "province": "NB", "country": "CA", "postalCode": "E4B4C8", "twitter": "None", "instagram": "None", "facebook": "None", "youtube": "None", "website": "None", "summary": "None", "logo": "None", "latitude": 45.92658161498108, "longitude": -66.29161775411148}, "119148088RR0001": {"name": "SHEGUIANDAH UNITED CHURCH", "designationCode": "C", "categoryCode": "44", "address": "BOX 106", "city": "SHEGUIANDAH", "province": "ON", "country": "CA", "postalCode": "P0P1W0", "twitter": "None", "instagram": "None", "facebook": "None", "youtube": "None", "website": "None", "summary": "None", "logo": "None", "latitude": 45.88444000000004, "longitude": -81.91707999999994}, "891762049RR0001": {"name": "SHEILA HUGH MACKAY FOUNDATION INC", "designationCode": "B", "categoryCode": "23", "address": "2640 BOULEVARD LAURIER        BUREAU 1700 TOUR COMINAR", "city": "SAINTE-FOY", "province": "QC", "country": "CA", "postalCode": "G1V5C2", "twitter": "None", "instagram": "None", "facebook": "None", "youtube": "None", "website": "None", "summary": "None", "logo": "None", "latitude": 46.77047587215123, "longitude": -71.28238051072985}, "899487615RR0001": {"name": "SHEKINAH FIRE MINISTRIES", "designationCode": "C", "categoryCode": "39", "address": "5964 NOTRE DAME DE GRACE", "city": "MONTREAL", "province": "QC", "country": "CA", "postalCode": "H4A1N1", "twitter": "None", "instagram": "None", "facebook": "None", "youtube": "None", "website": "None", "summary": "None", "logo": "None", "latitude": 45.469622410756614, "longitude": -73.62215713693828}, "867363566RR0001": {"name": "SHEKINAH FOUNDATION OF HOPE", "designationCode": "A", "categoryCode": "03", "address": "3114 IRMA STREET", "city": "VICTORIA", "province": "BC", "country": "CA", "postalCode": "V9A1S8", "twitter": "None", "instagram": "None", "facebook": "None", "youtube": "None", "website": "None", "summary": "None", "logo": "None", "latitude": 48.44712036193655, "longitude": -123.38498755721595}, "889142048RR0001": {"name": "SHEKINAH HOMES SOCIETY", "designationCode": "C", "categoryCode": "01", "address": "3114 IRMA STREET", "city": "VICTORIA", "province": "BC", "country": "CA", "postalCode": "V9A1S8", "twitter": "None", "instagram": "None", "facebook": "None", "youtube": "None", "website": "None", "summary": "None", "logo": "None", "latitude": 48.44712036193655, "longitude": -123.38498755721595}, "868088170RR0001": {"name": "SHEKINAH RESTORATION CENTRE", "designationCode": "C", "categoryCode": "47", "address": "PO BOX 172", "city": "FERGUS", "province": "ON", "country": "CA", "postalCode": "N1M2W8", "twitter": "None", "instagram": "None", "facebook": "None", "youtube": "None", "website": "None", "summary": "None", "logo": "None", "latitude": 43.705428000000055, "longitude": -80.37816199999993}, "106967102RR0004": {"name": "SHEKINAH RETREAT CENTRE", "designationCode": "C", "categoryCode": "47", "address": "BOX 490", "city": "WALDHEIM", "province": "SK", "country": "CA", "postalCode": "S0K4R0", "twitter": "None", "instagram": "None", "facebook": "None", "youtube": "None", "website": "None", "summary": "None", "logo": "None", "latitude": 52.620700000000056, "longitude": -106.65605}, "848353363RR0001": {"name": "SHEKINAH TABERNACLE", "designationCode": "C", "categoryCode": "36", "address": "99 MINT LEAF BLVD", "city": "BRAMPTON", "province": "ON", "country": "CA", "postalCode": "L6R2Y9", "twitter": "None", "instagram": "None", "facebook": "None", "youtube": "None", "website": "None", "summary": "None", "logo": "None", "latitude": 43.75860384791384, "longitude": -79.75179357634586}, "711307728RR0001": {"name": "SHEKINAH WORD MINISTRIES", "designationCode": "C", "categoryCode": "39", "address": "909 HAZEL STREET,", "city": "BURLINGTON", "province": "ON", "country": "CA", "postalCode": "L7R3X1", "twitter": "None", "instagram": "None", "facebook": "None", "youtube": "None", "website": "None", "summary": "None", "logo": "None", "latitude": 43.34608771608279, "longitude": -79.80412397986046}, "849345582RR0001": {"name": "SHELBOURNE STREET CHURCH OF CHRIST SOCIETY", "designationCode": "C", "categoryCode": "39", "address": "3460 SHELBOURNE ST", "city": "VICTORIA", "province": "BC", "country": "CA", "postalCode": "V8P4G5", "twitter": "None", "instagram": "None", "facebook": "None", "youtube": "None", "website": "None", "summary": "None", "logo": "None", "latitude": 48.45564992200934, "longitude": -123.33309487832516}, "891723173RR0001": {"name": "SHELBURNE AND AREA CHAPLAINCY NETWORK", "designationCode": "C", "categoryCode": "47", "address": "340 LONGBOW STREET", "city": "SHELBURNE", "province": "ON", "country": "CA", "postalCode": "L9V3B5", "twitter": "None", "instagram": "None", "facebook": "None", "youtube": "None", "website": "None", "summary": "None", "logo": "None", "latitude": 44.07791718347844, "longitude": -80.19272792659699}, "119439784RR0001": {"name": "SHELBURNE ASSOCIATION SUPPORTING INCLUSION", "designationCode": "C", "categoryCode": "59", "address": "PO BOX 59", "city": "SHELBURNE", "province": "NS", "country": "CA", "postalCode": "B0T1W0", "twitter": "None", "instagram": "None", "facebook": "None", "youtube": "None", "website": "None", "summary": "None", "logo": "None", "latitude": 43.57026600000006, "longitude": -65.35813399999994}, "832470181RR0001": {"name": "SHELBURNE BAPTIST CHURCH", "designationCode": "C", "categoryCode": "31", "address": "PO BOX 938                    MOWATT ST", "city": "SHELBURNE", "province": "NS", "country": "CA", "postalCode": "B0T1W0", "twitter": "None", "instagram": "None", "facebook": "None", "youtube": "None", "website": "None", "summary": "None", "logo": "None", "latitude": 43.7650556500138, "longitude": -65.32328418726594}, "119148153RR0001": {"name": "SHELBURNE CHRISTADELPHIAN ECCLESIA", "designationCode": "C", "categoryCode": "39", "address": "477285 3RD LINE", "city": "MELANCTHON", "province": "ON", "country": "CA", "postalCode": "L9V1T5", "twitter": "None", "instagram": "None", "facebook": "None", "youtube": "None", "website": "None", "summary": "None", "logo": "None", "latitude": 44.15835526915218, "longitude": -80.22311731169093}, "129394011RR0001": {"name": "SHELBURNE COUNTY ARCHIVES & GENEALOGICAL SOCIETY", "designationCode": "C", "categoryCode": "21", "address": "PO BOX 248", "city": "SHELBURNE", "province": "NS", "country": "CA", "postalCode": "B0T1W0", "twitter": "None", "instagram": "None", "facebook": "None", "youtube": "None", "website": "None", "summary": "None", "logo": "None", "latitude": 43.57026600000006, "longitude": -65.35813399999994}, "894274828RR0001": {"name": "SHELBURNE COUNTY ARTS COUNCIL", "designationCode": "C", "categoryCode": "22", "address": "BOX 365", "city": "SHELBURNE", "province": "NS", "country": "CA", "postalCode": "B0T1W0", "twitter": "None", "instagram": "None", "facebook": "None", "youtube": "None", "website": "None", "summary": "None", "logo": "None", "latitude": 43.57026600000006, "longitude": -65.35813399999994}, "888167392RR0001": {"name": "SHELBURNE COUNTY LEARNING NETWORK SOCIETY", "designationCode": "C", "categoryCode": "21", "address": "BOX 1 COMP 10                 WESLEY SITE", "city": "BARRINGTON", "province": "NS", "country": "CA", "postalCode": "B0W1E0", "twitter": "None", "instagram": "None", "facebook": "None", "youtube": "None", "website": "None", "summary": "None", "logo": "None", "latitude": 43.59527700000005, "longitude": -65.64361849999993}, "887691228RR0001": {"name": "SHELBURNE COUNTY YOUTH HEALTH & SUPPORT ASSOCIATION", "designationCode": "C", "categoryCode": "11", "address": "PO BOX 776                    54 KING STREET", "city": "SHELBURNE", "province": "NS", "country": "CA", "postalCode": "B0T1W0", "twitter": "None", "instagram": "None", "facebook": "None", "youtube": "None", "website": "None", "summary": "None", "logo": "None", "latitude": 43.76473889205939, "longitude": -65.31885014544972}, "119148203RR0001": {"name": "SHELBURNE HISTORICAL SOCIETY", "designationCode": "C", "categoryCode": "50", "address": "P.O. BOX 39", "city": "SHELBURNE", "province": "NS", "country": "CA", "postalCode": "B0T1W0", "twitter": "None", "instagram": "None", "facebook": "None", "youtube": "None", "website": "None", "summary": "None", "logo": "None", "latitude": 43.57026600000006, "longitude": -65.35813399999994}, "119148211RR0001": {"name": "SHELBURNE LIBRARY BUILDING ASSOCIATION", "designationCode": "C", "categoryCode": "50", "address": "BOX 850", "city": "SHELBURNE", "province": "NS", "country": "CA", "postalCode": "B0T1W0", "twitter": "None", "instagram": "None", "facebook": "None", "youtube": "None", "website": "None", "summary": "None", "logo": "None", "latitude": 43.57026600000006, "longitude": -65.35813399999994}, "803346543RR0001": {"name": "SHELBURNE LOYALIST FOOD BANK", "designationCode": "C", "categoryCode": "09", "address": "BOX 1403", "city": "SHELBURNE", "province": "NS", "country": "CA", "postalCode": "B0T1W0", "twitter": "None", "instagram": "None", "facebook": "None", "youtube": "None", "website": "None", "summary": "None", "logo": "None", "latitude": 43.57026600000006, "longitude": -65.35813399999994}, "108141516RR0001": {"name": "SHELBURNE PASTORAL CHARGE", "designationCode": "C", "categoryCode": "44", "address": "200 OWEN SOUND ST             PO BOX 471", "city": "SHELBURNE", "province": "ON", "country": "CA", "postalCode": "L9V3L4", "twitter": "None", "instagram": "None", "facebook": "None", "youtube": "None", "website": "None", "summary": "None", "logo": "None", "latitude": 44.07936152856203, "longitude": -80.20500959651443}, "119148245RR0001": {"name": "SHELBURNE PASTORAL CHARGE", "designationCode": "C", "categoryCode": "44", "address": "P.O. BOX 195", "city": "SHELBURNE", "province": "NS", "country": "CA", "postalCode": "B0T1W0", "twitter": "None", "instagram": "None", "facebook": "None", "youtube": "None", "website": "None", "summary": "None", "logo": "None", "latitude": 43.57026600000006, "longitude": -65.35813399999994}, "119148294RR0001": {"name": "SHELBURNE VOLUNTEER FIRE DEPARTMENT", "designationCode": "C", "categoryCode": "59", "address": "P. O. BOX 880", "city": "SHELBURNE", "province": "NS", "country": "CA", "postalCode": "B0T1W0", "twitter": "None", "instagram": "None", "facebook": "None", "youtube": "None", "website": "None", "summary": "None", "logo": "None", "latitude": 43.57026600000006, "longitude": -65.35813399999994}, "119288918RR0086": {"name": "SHELBURNE, ONTARIO, CONGREGATION OF JEHOVAH'S WITNESSES", "designationCode": "C", "categoryCode": "61", "address": "595050 BLIND LINE", "city": "MONO", "province": "ON", "country": "CA", "postalCode": "L9W5N4", "twitter": "None", "instagram": "None", "facebook": "None", "youtube": "None", "website": "None", "summary": "None", "logo": "None", "latitude": 44.02889697412289, "longitude": -80.14195406350795}, "135120715RR0001": {"name": "SHELDON M CHUMIR FOUNDATION FOR ETHICS IN LEADERSHIP", "designationCode": "B", "categoryCode": "03", "address": "970-105 12 AVE SE", "city": "CALGARY", "province": "AB", "country": "CA", "postalCode": "T2G1A1", "twitter": "None", "instagram": "None", "facebook": "None", "youtube": "None", "website": "None", "summary": "None", "logo": "None", "latitude": 51.04136053621104, "longitude": -114.06274186372553}, "888319241RR0001": {"name": "SHELDON-WILLIAMS AREA MUSIC PARENTS ASSOCIATION INC", "designationCode": "C", "categoryCode": "22", "address": "2726 ROBINSON ST", "city": "REGINA", "province": "SK", "country": "CA", "postalCode": "S4T2R6", "twitter": "None", "instagram": "None", "facebook": "None", "youtube": "None", "website": "None", "summary": "None", "logo": "None", "latitude": 50.43607124562871, "longitude": -104.62398609856287}, "890613243RR0001": {"name": "SHELLBROOK AND DISTRICT ARTS COUNCIL INC", "designationCode": "C", "categoryCode": "22", "address": "BOX 536", "city": "SHELLBROOK", "province": "SK", "country": "CA", "postalCode": "S0J2E0", "twitter": "None", "instagram": "None", "facebook": "None", "youtube": "None", "website": "None", "summary": "None", "logo": "None"}, "877140921RR0001": {"name": "SHELLBROOK AND DISTRICTS HEALTH SERVICES PROJECT", "designationCode": "A", "categoryCode": "13", "address": "BOX 233", "city": "LEASK", "province": "SK", "country": "CA", "postalCode": "S0J1M0", "twitter": "None", "instagram": "None", "facebook": "None", "youtube": "None", "website": "None", "summary": "None", "logo": "None", "latitude": 53.01679000000007, "longitude": -106.75113999999996}, "119030666RR0022": {"name": "SHELLBROOK SEVENTH-DAY ADVENTIST CHURCH", "designationCode": "C", "categoryCode": "39", "address": "1004 VICTORIA AVE", "city": "SASKATOON", "province": "SK", "country": "CA", "postalCode": "S7N0Z8", "twitter": "None", "instagram": "None", "facebook": "None", "youtube": "None", "website": "None", "summary": "None", "logo": "None", "latitude": 52.115409, "longitude": -106.66240826773014}, "898346614RR0001": {"name": "SHELLMOUTH UNITED CHURCH HERITAGE CORPORATION", "designationCode": "C", "categoryCode": "39", "address": "381 NIGHTINGALE RD", "city": "WINNIPEG", "province": "MB", "country": "CA", "postalCode": "R3J3G7", "twitter": "None", "instagram": "None", "facebook": "None", "youtube": "None", "website": "None", "summary": "None", "logo": "None", "latitude": 49.883749679987325, "longitude": -97.26795914469992}, "875297012RR0001": {"name": "SHELTER NET BC SOCIETY", "designationCode": "C", "categoryCode": "09", "address": "2 - 701 JACKSON AVE", "city": "VANCOUVER", "province": "BC", "country": "CA", "postalCode": "V6A3B8", "twitter": "None", "instagram": "None", "facebook": "None", "youtube": "None", "website": "None", "summary": "None", "logo": "None", "latitude": 49.27836493534168, "longitude": -123.09361296983099}, "888228665RR0001": {"name": "SHENKMAN FAMILY FOUNDATION", "designationCode": "B", "categoryCode": "13", "address": "4899 UPLANDS DR", "city": "OTTAWA", "province": "ON", "country": "CA", "postalCode": "K1V2N6", "twitter": "None", "instagram": "None", "facebook": "None", "youtube": "None", "website": "None", "summary": "None", "logo": "None", "latitude": 45.330943145426744, "longitude": -75.65752165407346}, "107976144RR0001": {"name": "SHENSTONE MEMORIAL BAPTIST", "designationCode": "C", "categoryCode": "31", "address": "25 ST. GEORGE ST.", "city": "BRANTFORD", "province": "ON", "country": "CA", "postalCode": "N3R1T9", "twitter": "None", "instagram": "None", "facebook": "None", "youtube": "None", "website": "None", "summary": "None", "logo": "None", "latitude": 43.15341154567476, "longitude": -80.26789106160203}, "132171299RR0001": {"name": "SHEPHERD KING LUTHERAN CHURCH, (CALGARY)", "designationCode": "C", "categoryCode": "32", "address": "804 75 AVE SW", "city": "CALGARY", "province": "AB", "country": "CA", "postalCode": "T2V0S5", "twitter": "None", "instagram": "None", "facebook": "None", "youtube": "None", "website": "None", "summary": "None", "logo": "None", "latitude": 50.986019482110834, "longitude": -114.081903}, "119148476RR0001": {"name": "SHEPHERD OF THE HILLS LUTHERAN CHURCH", "designationCode": "C", "categoryCode": "32", "address": "8007 BOWNESS ROAD N.W.", "city": "CALGARY", "province": "AB", "country": "CA", "postalCode": "T3B0H5", "twitter": "None", "instagram": "None", "facebook": "None", "youtube": "None", "website": "None", "summary": "None", "logo": "None", "latitude": 51.08891749177704, "longitude": -114.20256010644006}, "891309767RR0001": {"name": "SHEPHERD OF THE VALLEY EVANGELICAL LUTHERAN CHURCH IN CANADA", "designationCode": "C", "categoryCode": "32", "address": "1320 MALLARD DRIVE", "city": "COURTENAY", "province": "BC", "country": "CA", "postalCode": "V9N8J8", "twitter": "None", "instagram": "None", "facebook": "None", "youtube": "None", "website": "None", "summary": "None", "logo": "None", "latitude": 49.702254231230654, "longitude": -124.96407731805078}, "107976185RR0001": {"name": "SHEPHERD OF THE VALLEY LUTHERAN CHURCH", "designationCode": "C", "categoryCode": "32", "address": "BOX 126", "city": "LUMSDEN", "province": "SK", "country": "CA", "postalCode": "S0G3C0", "twitter": "None", "instagram": "None", "facebook": "None", "youtube": "None", "website": "None", "summary": "None", "logo": "None", "latitude": 50.64512000000008, "longitude": -104.86806999999999}, "107976201RR0001": {"name": "SHEPHERD OF THE VALLEY LUTHERAN CHURCH", "designationCode": "C", "categoryCode": "32", "address": "20097 72 AVENUE", "city": "LANGLEY", "province": "BC", "country": "CA", "postalCode": "V2Y1S7", "twitter": "None", "instagram": "None", "facebook": "None", "youtube": "None", "website": "None", "summary": "None", "logo": "None", "latitude": 49.13355549653757, "longitude": -122.66724133236193}, "131909681RR0001": {"name": "SHEPHERD OF THE VALLEY LUTHERAN CHURCH", "designationCode": "C", "categoryCode": "32", "address": "1205 1ST AVE.", "city": "CANMORE", "province": "AB", "country": "CA", "postalCode": "T1W1M5", "twitter": "None", "instagram": "None", "facebook": "None", "youtube": "None", "website": "None", "summary": "None", "logo": "None", "latitude": 51.093772114894186, "longitude": -115.35176278631181}, "860307685RR0001": {"name": "SHEPHERD OF THE VALLEY LUTHERAN CHURCH-SALMON ARM", "designationCode": "C", "categoryCode": "32", "address": "PO BOX 316 STN MAIN", "city": "SALMON ARM", "province": "BC", "country": "CA", "postalCode": "V1E4N5", "twitter": "None", "instagram": "None", "facebook": "None", "youtube": "None", "website": "None", "summary": "None", "logo": "None", "latitude": 50.70318000000006, "longitude": -119.26884049999992}, "105240485RR0001": {"name": "SHEPHERD VILLAGE INC.", "designationCode": "C", "categoryCode": "01", "address": "3760 SHEPPARD AVE E", "city": "TORONTO", "province": "ON", "country": "CA", "postalCode": "M1T3K9", "twitter": "None", "instagram": "None", "facebook": "None", "youtube": "None", "website": "None", "summary": "None", "logo": "None", "latitude": 43.78211710687275, "longitude": -79.29349818096827}, "119148492RR0001": {"name": "SHEPHERD'S CARE FOUNDATION", "designationCode": "C", "categoryCode": "09", "address": "6620 28 AVE NW", "city": "EDMONTON", "province": "AB", "country": "CA", "postalCode": "T6K2R1", "twitter": "None", "instagram": "None", "facebook": "None", "youtube": "None", "website": "None", "summary": "None", "logo": "None", "latitude": 53.45843552380352, "longitude": -113.43651019747246}, "129030466RR0001": {"name": "SHEPHERD'S VILLA INC", "designationCode": "C", "categoryCode": "01", "address": "BOX 10", "city": "HEPBURN", "province": "SK", "country": "CA", "postalCode": "S0K1Z0", "twitter": "None", "instagram": "None", "facebook": "None", "youtube": "None", "website": "None", "summary": "None", "logo": "None", "latitude": 52.51681000000008, "longitude": -106.73447999999996}, "889958559RR0001": {"name": "SHEPHERD'S VOICE CANADA", "designationCode": "C", "categoryCode": "09", "address": "7301 ZINNIA PLACE", "city": "MISSISSAUGA", "province": "ON", "country": "CA", "postalCode": "L5W1K6", "twitter": "None", "instagram": "None", "facebook": "None", "youtube": "None", "website": "None", "summary": "None", "logo": "None", "latitude": 43.63776810825774, "longitude": -79.73104821758332}, "875889511RR0001": {"name": "SHEPHERDS FELLOWSHIP: A MISSION TO MEXICO", "designationCode": "B", "categoryCode": "43", "address": "445 HAWKSIDE MEWS NW", "city": "CALGARY", "province": "AB", "country": "CA", "postalCode": "T3G3S1", "twitter": "None", "instagram": "None", "facebook": "None", "youtube": "None", "website": "None", "summary": "None", "logo": "None", "latitude": 51.125385510675805, "longitude": -114.18521361226844}, "130724255RR0001": {"name": "SHEPHERDS OF GOOD HOPE", "designationCode": "C", "categoryCode": "01", "address": "233 MURRAY ST", "city": "OTTAWA", "province": "ON", "country": "CA", "postalCode": "K1N5M9", "twitter": "None", "instagram": "None", "facebook": "None", "youtube": "None", "website": "None", "summary": "None", "logo": "None", "latitude": 45.431703082722514, "longitude": -75.68893431086609}, "876017609RR0001": {"name": "SHEPHERDS OF GOOD HOPE FOUNDATION", "designationCode": "A", "categoryCode": "03", "address": "233 MURRAY STREET", "city": "OTTAWA", "province": "ON", "country": "CA", "postalCode": "K1N5M9", "twitter": "None", "instagram": "None", "facebook": "None", "youtube": "None", "website": "None", "summary": "None", "logo": "None", "latitude": 45.431703082722514, "longitude": -75.68893431086609}, "852388594RR0001": {"name": "SHEPODY FOOD BANK INC.", "designationCode": "C", "categoryCode": "09", "address": "8 FORESTDALE ROAD", "city": "RIVERSIDE ALBERT", "province": "NB", "country": "CA", "postalCode": "E4H3Y7", "twitter": "None", "instagram": "None", "facebook": "None", "youtube": "None", "website": "None", "summary": "None", "logo": "None", "latitude": 45.74891401278196, "longitude": -64.74314661316342}, "873295737RR0001": {"name": "SHEPPARD FAMILY PARK SOCIETY", "designationCode": "C", "categoryCode": "52", "address": "1201 5 ST SE", "city": "HIGH RIVER", "province": "AB", "country": "CA", "postalCode": "T1V1J2", "twitter": "None", "instagram": "None", "facebook": "None", "youtube": "None", "website": "None", "summary": "None", "logo": "None", "latitude": 50.572237240340606, "longitude": -113.85988695383898}, "107976243RR0001": {"name": "SHEPPARD MINISTRIES SOCIETY", "designationCode": "C", "categoryCode": "47", "address": "8422 170 ST", "city": "SURREY", "province": "BC", "country": "CA", "postalCode": "V4N5C7", "twitter": "None", "instagram": "None", "facebook": "None", "youtube": "None", "website": "None", "summary": "None", "logo": "None", "latitude": 49.15587771801602, "longitude": -122.75136549151723}, "120659032RR0001": {"name": "SHERARD MUSICAL THEATRE ASSOCIATION", "designationCode": "C", "categoryCode": "22", "address": "POST OFFICE BOX 3631", "city": "SHERWOOD PARK", "province": "AB", "country": "CA", "postalCode": "T8H2T4", "twitter": "None", "instagram": "None", "facebook": "None", "youtube": "None", "website": "None", "summary": "None", "logo": "None", "latitude": 53.52731700000005, "longitude": -113.29574299999993}, "865776827RR0001": {"name": "SHERBOURNE HEALTH CENTRE CORPORATION", "designationCode": "C", "categoryCode": "10", "address": "333 SHERBOURNE ST", "city": "TORONTO", "province": "ON", "country": "CA", "postalCode": "M5A2S5", "twitter": "None", "instagram": "None", "facebook": "None", "youtube": "None", "website": "None", "summary": "None", "logo": "None", "latitude": 43.662333414940214, "longitude": -79.37266783204481}, "888627460RR0001": {"name": "SHERBROOKE & AREA VOLUNTEER FIRE DEPARTMENT", "designationCode": "C", "categoryCode": "59", "address": "PO BOX 2", "city": "SHERBROOKE", "province": "NS", "country": "CA", "postalCode": "B0J3C0", "twitter": "None", "instagram": "None", "facebook": "None", "youtube": "None", "website": "None", "summary": "None", "logo": "None", "latitude": 44.62486683013651, "longitude": -64.54661386209058}, "107976300RR0001": {"name": "SHERBROOKE BAPTIST CHURCH", "designationCode": "C", "categoryCode": "31", "address": "141 JARRETT PLACE", "city": "DUNNVILLE", "province": "ON", "country": "CA", "postalCode": "N1A3E3", "twitter": "None", "instagram": "None", "facebook": "None", "youtube": "None", "website": "None", "summary": "None", "logo": "None", "latitude": 42.91642661506708, "longitude": -79.61857148791054}, "107976334RR0001": {"name": "SHERBROOKE COMMUNITY SOCIETY INC.", "designationCode": "C", "categoryCode": "19", "address": "401 ACADIA DRIVE", "city": "SASKATOON", "province": "SK", "country": "CA", "postalCode": "S7H2E7", "twitter": "None", "instagram": "None", "facebook": "None", "youtube": "None", "website": "None", "summary": "None", "logo": "None", "latitude": 52.12305085928214, "longitude": -106.598877827631}, "104832407RR0001": {"name": "SHERBROOKE FOUNDATION INC.", "designationCode": "A", "categoryCode": "13", "address": "401 ACADIA DR", "city": "SASKATOON", "province": "SK", "country": "CA", "postalCode": "S7H2E7", "twitter": "None", "instagram": "None", "facebook": "None", "youtube": "None", "website": "None", "summary": "None", "logo": "None", "latitude": 52.12305085928214, "longitude": -106.598877827631}, "894945633RR0046": {"name": "SHERBROOKE HEIGHTS ALLIANCE CHURCH OF THE CHRISTIAN AND MISSIONARY ALLIANCE IN CANADA", "designationCode": "C", "categoryCode": "39", "address": "1600 SHERBROOKE ST W", "city": "PETERBOROUGH", "province": "ON", "country": "CA", "postalCode": "K9K0E8", "twitter": "None", "instagram": "None", "facebook": "None", "youtube": "None", "website": "None", "summary": "None", "logo": "None", "latitude": 44.28979589509247, "longitude": -78.37114177798246}, "119148609RR0001": {"name": "SHERBROOKE MENNONITE CHURCH", "designationCode": "C", "categoryCode": "39", "address": "7155 SHERBROOKE ST", "city": "VANCOUVER", "province": "BC", "country": "CA", "postalCode": "V5X4E3", "twitter": "None", "instagram": "None", "facebook": "None", "youtube": "None", "website": "None", "summary": "None", "logo": "None", "latitude": 49.219227754371275, "longitude": -123.08159405277253}, "829020809RR0001": {"name": "SHERBROOKE OPPORTUNITIES SOCIETY", "designationCode": "C", "categoryCode": "59", "address": "9825 HWY 7, RR 2", "city": "ASPEN", "province": "NS", "country": "CA", "postalCode": "B0H1E0", "twitter": "None", "instagram": "None", "facebook": "None", "youtube": "None", "website": "None", "summary": "None", "logo": "None", "latitude": 45.2060683899756, "longitude": -62.003757694256215}, "132665944RR0001": {"name": "SHERBROOKE, VILLE EN SANTE", "designationCode": "C", "categoryCode": "59", "address": "600 RUE THIBAULT CP 610", "city": "SHERBROOKE", "province": "QC", "country": "CA", "postalCode": "J1H5H9", "twitter": "None", "instagram": "None", "facebook": "None", "youtube": "None", "website": "None", "summary": "None", "logo": "None", "latitude": 45.37519652842077, "longitude": -71.89333322023772}, "889761193RR0001": {"name": "SHERBURNE COMMUNITY SOCIETY", "designationCode": "C", "categoryCode": "56", "address": "BOX 18", "city": "PURPLE SPRINGS", "province": "AB", "country": "CA", "postalCode": "T0K1X0", "twitter": "None", "instagram": "None", "facebook": "None", "youtube": "None", "website": "None", "summary": "None", "logo": "None", "latitude": 49.800267802797116, "longitude": -111.87851522401732}, "876773227RR0001": {"name": "SHERIDAN COLLEGE FOUNDATION", "designationCode": "A", "categoryCode": "23", "address": "1430 TRAFALGAR RD", "city": "OAKVILLE", "province": "ON", "country": "CA", "postalCode": "L6H2L1", "twitter": "None", "instagram": "None", "facebook": "None", "youtube": "None", "website": "None", "summary": "None", "logo": "None", "latitude": 43.472126852827735, "longitude": -79.69787885506648}, "119288918RR1034": {"name": "SHERIDAN CONGREGATION OF JEHOVAH'S WITNESSES", "designationCode": "C", "categoryCode": "61", "address": "13893 HWY #7", "city": "GEORGETOWN", "province": "ON", "country": "CA", "postalCode": "L7G4S4", "twitter": "None", "instagram": "None", "facebook": "None", "youtube": "None", "website": "None", "summary": "None", "logo": "None", "latitude": 43.654575971005, "longitude": -79.94094796964086}, "107976672RR0001": {"name": "SHERIDAN PARK ALLIANCE CHURCH", "designationCode": "C", "categoryCode": "39", "address": "2440 FIFTH LINE WEST", "city": "MISSISSAUGA", "province": "ON", "country": "CA", "postalCode": "L5K1W1", "twitter": "None", "instagram": "None", "facebook": "None", "youtube": "None", "website": "None", "summary": "None", "logo": "None", "latitude": 43.531199477090496, "longitude": -79.66140027451081}, "119288918RR0804": {"name": "SHERIDAN PARK CONGREGATION OF JEHOVAH'S WITNESSES", "designationCode": "C", "categoryCode": "61", "address": "3952 QUIET CREEK DR", "city": "MISSISSAUGA", "province": "ON", "country": "CA", "postalCode": "L5M8B4", "twitter": "None", "instagram": "None", "facebook": "None", "youtube": "None", "website": "None", "summary": "None", "logo": "None", "latitude": 43.53824628726411, "longitude": -79.73653328088746}, "107976706RR0001": {"name": "SHERIDAN UNITED CHURCH", "designationCode": "C", "categoryCode": "44", "address": "2501 TRUSCOTT DR", "city": "MISSISSAUGA", "province": "ON", "country": "CA", "postalCode": "L5J2B3", "twitter": "None", "instagram": "None", "facebook": "None", "youtube": "None", "website": "None", "summary": "None", "logo": "None", "latitude": 43.50993042160533, "longitude": -79.64959480907707}, "858885940RR0001": {"name": "SHERINGHAM POINT LIGHTHOUSE PRESERVATION SOCIETY", "designationCode": "C", "categoryCode": "50", "address": "PO BOX 1002", "city": "SOOKE", "province": "BC", "country": "CA", "postalCode": "V9Z1J1", "twitter": "None", "instagram": "None", "facebook": "None", "youtube": "None", "website": "None", "summary": "None", "logo": "None", "latitude": 48.381873000000056, "longitude": -123.73120249999994}, "881516322RR0001": {"name": "SHERMAN FOUNDATION", "designationCode": "B", "categoryCode": "03", "address": "2700-700 GEORGIA ST W", "city": "VANCOUVER", "province": "BC", "country": "CA", "postalCode": "V7Y1B8", "twitter": "None", "instagram": "None", "facebook": "None", "youtube": "None", "website": "None", "summary": "None", "logo": "None", "latitude": 49.28278674158102, "longitude": -123.11863379447699}, "896545910RR0001": {"name": "SHERRI HOEFLICKER FOUNDATION", "designationCode": "C", "categoryCode": "23", "address": "340 MCMASTER CRT", "city": "PORT MOODY", "province": "BC", "country": "CA", "postalCode": "V3H1T6", "twitter": "None", "instagram": "None", "facebook": "None", "youtube": "None", "website": "None", "summary": "None", "logo": "None", "latitude": 49.28441151788917, "longitude": -122.87544314250687}, "119148716RR0001": {"name": "SHERRIDON HEIGHTS CONGREGATION OF JEHOVAH'S WITNESSES", "designationCode": "C", "categoryCode": "61", "address": "BOX 20041 STN. CROSSING", "city": "FORT SASKATCHEWAN", "province": "AB", "country": "CA", "postalCode": "T8L4C8", "twitter": "None", "instagram": "None", "facebook": "None", "youtube": "None", "website": "None", "summary": "None", "logo": "None", "latitude": 53.71287900000006, "longitude": -113.21417149999994}, "886257393RR0001": {"name": "SHERWOOD CHURCH", "designationCode": "C", "categoryCode": "31", "address": "4287 HIGHWAY 1                RR 2", "city": "WINDSOR", "province": "NS", "country": "CA", "postalCode": "B0N2T0", "twitter": "None", "instagram": "None", "facebook": "None", "youtube": "None", "website": "None", "summary": "None", "logo": "None", "latitude": 44.97049632102484, "longitude": -64.10664691452514}, "119148740RR0001": {"name": "SHERWOOD CHURCH OF CHRIST", "designationCode": "C", "categoryCode": "39", "address": "9 LILAC AVENUE", "city": "SHERWOOD", "province": "PE", "country": "CA", "postalCode": "C1A6L1", "twitter": "None", "instagram": "None", "facebook": "None", "youtube": "None", "website": "None", "summary": "None", "logo": "None", "latitude": 46.27064223313523, "longitude": -63.12917108425171}, "107976920RR0001": {"name": "SHERWOOD CHURCH OF THE NAZARENE INC.", "designationCode": "C", "categoryCode": "39", "address": "40 WOODLAWN DR", "city": "CHARLOTTETOWN", "province": "PE", "country": "CA", "postalCode": "C1A6K9", "twitter": "None", "instagram": "None", "facebook": "None", "youtube": "None", "website": "None", "summary": "None", "logo": "None", "latitude": 46.262468483755605, "longitude": -63.129831485977306}, "834184160RR0001": {"name": "SHERWOOD PARK ALLIANCE CHURCH PROPERTY COMPANY", "designationCode": "C", "categoryCode": "49", "address": "1011 CLOVERBAR ROAD", "city": "SHERWOOD PARK", "province": "AB", "country": "CA", "postalCode": "T8A4V7", "twitter": "None", "instagram": "None", "facebook": "None", "youtube": "None", "website": "None", "summary": "None", "logo": "None", "latitude": 53.51348400000006, "longitude": -113.27037199999992}, "832171128RR0001": {"name": "SHERWOOD PARK ALLIANCE CHURCH SOCIETY", "designationCode": "C", "categoryCode": "39", "address": "1011 CLOVER BAR RD", "city": "SHERWOOD PARK", "province": "AB", "country": "CA", "postalCode": "T8A4V7", "twitter": "None", "instagram": "None", "facebook": "None", "youtube": "None", "website": "None", "summary": "None", "logo": "None", "latitude": 53.513613167638056, "longitude": -113.27037381066452}, "107977233RR0001": {"name": "SHERWOOD PARK CARE CENTRE LTD.", "designationCode": "C", "categoryCode": "10", "address": "2020 BRENTWOOD BLVD N", "city": "SHERWOOD PARK", "province": "AB", "country": "CA", "postalCode": "T8H0X1", "twitter": "None", "instagram": "None", "facebook": "None", "youtube": "None", "website": "None", "summary": "None", "logo": "None", "latitude": 53.52848195337296, "longitude": -113.29965710667027}, "107977142RR0001": {"name": "SHERWOOD PARK CHURCH OF THE NAZARENE", "designationCode": "C", "categoryCode": "39", "address": "1380 SHERWOOD DR", "city": "SHERWOOD PARK", "province": "AB", "country": "CA", "postalCode": "T8A4W3", "twitter": "None", "instagram": "None", "facebook": "None", "youtube": "None", "website": "None", "summary": "None", "logo": "None", "latitude": 53.52273954674263, "longitude": -113.3117318351319}, "119288918RR0177": {"name": "SHERWOOD PARK CONGREGATION OF JEHOVAH'S WITNESSES TORONTO", "designationCode": "C", "categoryCode": "61", "address": "256 EGLINTON AVENUE W.", "city": "TORONTO", "province": "ON", "country": "CA", "postalCode": "M4R1B2", "twitter": "None", "instagram": "None", "facebook": "None", "youtube": "None", "website": "None", "summary": "None", "logo": "None", "latitude": 43.70501719790516, "longitude": -79.40674573633788}, "107977183RR0001": {"name": "SHERWOOD PARK LUTHERAN CHURCH", "designationCode": "C", "categoryCode": "32", "address": "7 TUDOR CRESCENT", "city": "WINNIPEG", "province": "MB", "country": "CA", "postalCode": "R2K2A5", "twitter": "None", "instagram": "None", "facebook": "None", "youtube": "None", "website": "None", "summary": "None", "logo": "None", "latitude": 49.91011988816424, "longitude": -97.0823546257142}, "119148856RR0001": {"name": "SHERWOOD PARK MANOR", "designationCode": "C", "categoryCode": "10", "address": "1814 COUNTY RD#2", "city": "BROCKVILLE", "province": "ON", "country": "CA", "postalCode": "K6V5T1", "twitter": "None", "instagram": "None", "facebook": "None", "youtube": "None", "website": "None", "summary": "None", "logo": "None", "latitude": 44.60453776411596, "longitude": -75.66213421204846}, "118933647RR0001": {"name": "SHERWOOD PARK MANOR FOUNDATION", "designationCode": "C", "categoryCode": "01", "address": "SHERWOOD PARK MANOR           1814 COUNTY ROAD #2", "city": "BROCKVILLE", "province": "ON", "country": "CA", "postalCode": "K6V5T1", "twitter": "None", "instagram": "None", "facebook": "None", "youtube": "None", "website": "None", "summary": "None", "logo": "None", "latitude": 44.60453776411596, "longitude": -75.66213421204846}, "119148831RR0001": {"name": "SHERWOOD PARK MUSIC FESTIVAL ASSOCIATION", "designationCode": "C", "categoryCode": "22", "address": "PO BOX 3041 STN MAIN", "city": "SHERWOOD PARK", "province": "AB", "country": "CA", "postalCode": "T8H2T1", "twitter": "None", "instagram": "None", "facebook": "None", "youtube": "None", "website": "None", "summary": "None", "logo": "None", "latitude": 53.52731700000005, "longitude": -113.29574299999993}, "891204117RR0001": {"name": "SHERWOOD PARK PRESBYTERIAN CHURCH", "designationCode": "C", "categoryCode": "37", "address": "265 FIR STREET", "city": "SHERWOOD PARK", "province": "AB", "country": "CA", "postalCode": "T8A2G7", "twitter": "None", "instagram": "None", "facebook": "None", "youtube": "None", "website": "None", "summary": "None", "logo": "None", "latitude": 53.518845353309544, "longitude": -113.30361301070447}}