{"815225602RR0001": {"name": "The Rise of Mercy Ministries in Canada", "designationCode": "C", "categoryCode": "47", "address": "1321 WATT DR SW", "city": "EDMONTON", "province": "AB", "country": "CA", "postalCode": "T6X1T8", "twitter": "None", "instagram": "None", "facebook": "None", "youtube": "None", "website": "None", "summary": "None", "logo": "None", "latitude": 53.41554810163559, "longitude": -113.42778217467645}, "823408695RR0001": {"name": "The Rising Light Foundation", "designationCode": "B", "categoryCode": "03", "address": "PO BOX 8                      NE 14 20 4 W5", "city": "MILLARVILLE", "province": "AB", "country": "CA", "postalCode": "T0L1K0", "twitter": "None", "instagram": "None", "facebook": "None", "youtube": "None", "website": "None", "summary": "None", "logo": "None", "latitude": 50.75641123619168, "longitude": -114.32131746209967}, "856050257RR0001": {"name": "The River Fellowship", "designationCode": "C", "categoryCode": "39", "address": "20530 88 AVE", "city": "LANGLEY", "province": "BC", "country": "CA", "postalCode": "V1M2Y6", "twitter": "None", "instagram": "None", "facebook": "None", "youtube": "None", "website": "None", "summary": "None", "logo": "None", "latitude": 49.16265564597055, "longitude": -122.65393288199017}, "847508611RR0001": {"name": "The River Foundation", "designationCode": "B", "categoryCode": "03", "address": "1800 - 510 GEORGIA ST W", "city": "VANCOUVER", "province": "BC", "country": "CA", "postalCode": "V6B0M3", "twitter": "None", "instagram": "None", "facebook": "None", "youtube": "None", "website": "None", "summary": "None", "logo": "None", "latitude": 49.281267759207665, "longitude": -123.11633309804196}, "835251331RR0001": {"name": "The River Gospel Outreach", "designationCode": "C", "categoryCode": "47", "address": "P.O. BOX 2438", "city": "SWAN RIVER", "province": "MB", "country": "CA", "postalCode": "R0L1Z0", "twitter": "None", "instagram": "None", "facebook": "None", "youtube": "None", "website": "None", "summary": "None", "logo": "None", "latitude": 52.11672730414978, "longitude": -101.25989472758229}, "108221268RR0001": {"name": "The River International Church", "designationCode": "C", "categoryCode": "36", "address": "1221 WILSON ST E", "city": "HAMILTON", "province": "ON", "country": "CA", "postalCode": "L8S4K6", "twitter": "None", "instagram": "None", "facebook": "None", "youtube": "None", "website": "None", "summary": "None", "logo": "None", "latitude": 43.24544621348572, "longitude": -79.94699683945971}, "803309186RR0001": {"name": "The River Prayer and Worship Centre Inc.", "designationCode": "C", "categoryCode": "39", "address": "32 SALO ROAD,", "city": "NEEBING", "province": "ON", "country": "CA", "postalCode": "P7L0G2", "twitter": "None", "instagram": "None", "facebook": "None", "youtube": "None", "website": "None", "summary": "None", "logo": "None", "latitude": 48.1986, "longitude": -89.62544230648093}, "837002195RR0001": {"name": "The River Realty Foundation", "designationCode": "B", "categoryCode": "03", "address": "6265 MORRISON STREET,", "city": "NIAGARA FALLS", "province": "ON", "country": "CA", "postalCode": "L2E7H1", "twitter": "None", "instagram": "None", "facebook": "None", "youtube": "None", "website": "None", "summary": "None", "logo": "None", "latitude": 43.10441458385012, "longitude": -79.09300895439982}, "890464308RR0001": {"name": "The River Valley Alliance", "designationCode": "C", "categoryCode": "56", "address": "9825 103 ST NW", "city": "EDMONTON", "province": "AB", "country": "CA", "postalCode": "T5K2M3", "twitter": "None", "instagram": "None", "facebook": "None", "youtube": "None", "website": "None", "summary": "None", "logo": "None", "latitude": 53.53619245989384, "longitude": -113.49735395666251}, "130565963RR0021": {"name": "The River, of Squamish, B.C.", "designationCode": "C", "categoryCode": "39", "address": "201 EAST 23RD STREET", "city": "NORTH VANCOUVER", "province": "BC", "country": "CA", "postalCode": "V7L3E4", "twitter": "None", "instagram": "None", "facebook": "None", "youtube": "None", "website": "None", "summary": "None", "logo": "None", "latitude": 49.330181495672186, "longitude": -123.0684734701656}, "824507461RR0001": {"name": "The Riverline Charitable Foundation", "designationCode": "B", "categoryCode": "03", "address": "113 VIEWMOUNT AVENUE", "city": "NORTH YORK", "province": "ON", "country": "CA", "postalCode": "M6B1T5", "twitter": "None", "instagram": "None", "facebook": "None", "youtube": "None", "website": "None", "summary": "None", "logo": "None", "latitude": 43.70913880209486, "longitude": -79.43380673091353}, "812777506RR0001": {"name": "The Riverport Cemetery Company Association", "designationCode": "C", "categoryCode": "59", "address": "155 SCOTIA STREET", "city": "BRIDGEWATER", "province": "NS", "country": "CA", "postalCode": "B4V1G3", "twitter": "None", "instagram": "None", "facebook": "None", "youtube": "None", "website": "None", "summary": "None", "logo": "None", "latitude": 44.37023514100633, "longitude": -64.50967893337764}, "815346713RR0001": {"name": "The Rivers of Life Worship Center", "designationCode": "C", "categoryCode": "39", "address": "3-1179 FINCH AVE W", "city": "NORTH YORK", "province": "ON", "country": "CA", "postalCode": "M3J2G1", "twitter": "None", "instagram": "None", "facebook": "None", "youtube": "None", "website": "None", "summary": "None", "logo": "None", "latitude": 43.764423902088836, "longitude": -79.48682251720832}, "809607856RR0001": {"name": "The Riverside Apostolic Presbyterian Church", "designationCode": "C", "categoryCode": "39", "address": "149 BALSAMWOOD ROAD", "city": "THORNHILL", "province": "ON", "country": "CA", "postalCode": "L4J0G2", "twitter": "None", "instagram": "None", "facebook": "None", "youtube": "None", "website": "None", "summary": "None", "logo": "None", "latitude": 43.841539499567304, "longitude": -79.47490444463038}, "849164611RR0001": {"name": "The Road Foundation Ltd.", "designationCode": "B", "categoryCode": "11", "address": "532 NORFOLK WAY NW", "city": "CALGARY", "province": "AB", "country": "CA", "postalCode": "T2K5L9", "twitter": "None", "instagram": "None", "facebook": "None", "youtube": "None", "website": "None", "summary": "None", "logo": "None", "latitude": 51.10587059755327, "longitude": -114.08284080642268}, "806473807RR0001": {"name": "The Road Home Rescue and Safekeeping Society", "designationCode": "C", "categoryCode": "54", "address": "185 WHITEVALE RD              RR 7", "city": "LUMBY", "province": "BC", "country": "CA", "postalCode": "V0E2G7", "twitter": "None", "instagram": "None", "facebook": "None", "youtube": "None", "website": "None", "summary": "None", "logo": "None", "latitude": 50.230549714099645, "longitude": -118.96637683713573}, "726383896RR0001": {"name": "The Rob Stovel Foundation", "designationCode": "B", "categoryCode": "05", "address": "24 WHITEHALL RD", "city": "TORONTO", "province": "ON", "country": "CA", "postalCode": "M4W2C6", "twitter": "None", "instagram": "None", "facebook": "None", "youtube": "None", "website": "None", "summary": "None", "logo": "None", "latitude": 43.684334223440366, "longitude": -79.38180648488078}, "828790303RR0001": {"name": "The Robb Nash Project Inc.", "designationCode": "C", "categoryCode": "09", "address": "35 NEWCOMBE CRES", "city": "WINNIPEG", "province": "MB", "country": "CA", "postalCode": "R2J4B8", "twitter": "None", "instagram": "None", "facebook": "None", "youtube": "None", "website": "None", "summary": "None", "logo": "None", "latitude": 49.84704117346644, "longitude": -97.05904989713795}, "810930750RR0001": {"name": "The Robbie Foundation", "designationCode": "B", "categoryCode": "53", "address": "25 EDILCAN DRIVE              UNIT 5", "city": "CONCORD", "province": "ON", "country": "CA", "postalCode": "L4K3S4", "twitter": "None", "instagram": "None", "facebook": "None", "youtube": "None", "website": "None", "summary": "None", "logo": "None", "latitude": 43.815370863696884, "longitude": -79.52751802663174}, "847481900RR0001": {"name": "The Robert and Tatiana Ritchie Foundation", "designationCode": "B", "categoryCode": "03", "address": "406 - 36TH AVENUE SW", "city": "CALGARY", "province": "AB", "country": "CA", "postalCode": "T2S1V9", "twitter": "None", "instagram": "None", "facebook": "None", "youtube": "None", "website": "None", "summary": "None", "logo": "None", "latitude": 51.02170003264473, "longitude": -114.07006819632477}, "802793034RR0001": {"name": "The Robert S. Green Charitable Foundation", "designationCode": "B", "categoryCode": "03", "address": "2851 JOHN STREET              SUITE 1", "city": "MARKHAM", "province": "ON", "country": "CA", "postalCode": "L3R5R7", "twitter": "None", "instagram": "None", "facebook": "None", "youtube": "None", "website": "None", "summary": "None", "logo": "None", "latitude": 43.82506670327219, "longitude": -79.3526156673496}, "740406897RR0001": {"name": "The Robert Steele Foundation", "designationCode": "B", "categoryCode": "05", "address": "8 BASINVIEW DR", "city": "DARTMOUTH", "province": "NS", "country": "CA", "postalCode": "B3B1G4", "twitter": "None", "instagram": "None", "facebook": "None", "youtube": "None", "website": "None", "summary": "None", "logo": "None", "latitude": 44.70250437217965, "longitude": -63.61156584199855}, "807438759RR0001": {"name": "The Roberta Bondar Foundation", "designationCode": "C", "categoryCode": "22", "address": "660 EGLINTON AVENUE EAST      P.O. BOX 50224", "city": "TORONTO", "province": "ON", "country": "CA", "postalCode": "M4G0B5", "twitter": "None", "instagram": "None", "facebook": "None", "youtube": "None", "website": "None", "summary": "None", "logo": "None", "latitude": 43.711424180160215, "longitude": -79.3755454244326}, "827157652RR0001": {"name": "The Roblin Charitable Foundation", "designationCode": "B", "categoryCode": "03", "address": "410 BROOK PLACE", "city": "OAKVILLE", "province": "ON", "country": "CA", "postalCode": "L6J5K1", "twitter": "None", "instagram": "None", "facebook": "None", "youtube": "None", "website": "None", "summary": "None", "logo": "None", "latitude": 43.47956230613423, "longitude": -79.65024852013953}, "814101507RR0001": {"name": "The Rock and Roll Society of Edmonton", "designationCode": "C", "categoryCode": "22", "address": "4256 91A ST NW", "city": "EDMONTON", "province": "AB", "country": "CA", "postalCode": "T6E5V2", "twitter": "None", "instagram": "None", "facebook": "None", "youtube": "None", "website": "None", "summary": "None", "logo": "None", "latitude": 53.478979900629064, "longitude": -113.46829148941016}, "851392555RR0001": {"name": "The Rock of Salvation Ministry", "designationCode": "C", "categoryCode": "39", "address": "2970 JANE STREET              APT. 703", "city": "TORONTO", "province": "ON", "country": "CA", "postalCode": "M3N2B5", "twitter": "None", "instagram": "None", "facebook": "None", "youtube": "None", "website": "None", "summary": "None", "logo": "None", "latitude": 43.75545322064175, "longitude": -79.5172375328059}, "805713609RR0001": {"name": "The Rock Church Pentecostal of Calgary", "designationCode": "C", "categoryCode": "39", "address": "279 FALWOOD WAY", "city": "CALGARY", "province": "AB", "country": "CA", "postalCode": "T3J1A9", "twitter": "None", "instagram": "None", "facebook": "None", "youtube": "None", "website": "None", "summary": "None", "logo": "None", "latitude": 51.099121110739254, "longitude": -113.93800946961736}, "106785363RR0001": {"name": "The Rock Community Church", "designationCode": "C", "categoryCode": "39", "address": "1140 NELLIS STREET", "city": "WOODSTOCK", "province": "ON", "country": "CA", "postalCode": "N4T1N4", "twitter": "None", "instagram": "None", "facebook": "None", "youtube": "None", "website": "None", "summary": "None", "logo": "None", "latitude": 43.13949546211552, "longitude": -80.72422462003007}, "809052889RR0001": {"name": "The Rock Family Church of Sarnia-Lambton", "designationCode": "C", "categoryCode": "39", "address": "426 GEORGE ST.", "city": "SARNIA", "province": "ON", "country": "CA", "postalCode": "N7T4P7", "twitter": "None", "instagram": "None", "facebook": "None", "youtube": "None", "website": "None", "summary": "None", "logo": "None", "latitude": 42.97430545074847, "longitude": -82.39362444842992}, "807984844RR0001": {"name": "The Rockcliffe Hosers' Corporation", "designationCode": "C", "categoryCode": "56", "address": "450 MINTO PL", "city": "ROCKCLIFFE", "province": "ON", "country": "CA", "postalCode": "K1M0A8", "twitter": "None", "instagram": "None", "facebook": "None", "youtube": "None", "website": "None", "summary": "None", "logo": "None", "latitude": 45.45141538856827, "longitude": -75.6834218939353}, "816892368RR0001": {"name": "The Rockies Institute Ltd.", "designationCode": "C", "categoryCode": "21", "address": "1 - 5 BLACK ROCK CRES", "city": "CANMORE", "province": "AB", "country": "CA", "postalCode": "T1W1A2", "twitter": "None", "instagram": "None", "facebook": "None", "youtube": "None", "website": "None", "summary": "None", "logo": "None", "latitude": 51.087808341652774, "longitude": -115.33649915733761}, "853813269RR0001": {"name": "The Rocky Mountain House Library Board", "designationCode": "C", "categoryCode": "50", "address": "PO BOX 1497", "city": "ROCKY MOUNTAIN HOUSE", "province": "AB", "country": "CA", "postalCode": "T4T1B1", "twitter": "None", "instagram": "None", "facebook": "None", "youtube": "None", "website": "None", "summary": "None", "logo": "None", "latitude": 52.37758500000005, "longitude": -114.93030049999993}, "807622337RR0001": {"name": "The Roderick J. White Foundation for Science and Reason in Society, Inc.", "designationCode": "B", "categoryCode": "21", "address": "58 VILLANOVA ROAD", "city": "CONCEPTION BAY SOUTH", "province": "NL", "country": "CA", "postalCode": "A1W3G3", "twitter": "None", "instagram": "None", "facebook": "None", "youtube": "None", "website": "None", "summary": "None", "logo": "None", "latitude": 47.52037500000006, "longitude": -52.95852799999993}, "804956894RR0001": {"name": "The Roel C. Buck Family Foundation Canada Inc. / La Fondation Familiale Roel C. Buck Canada Inc.", "designationCode": "B", "categoryCode": "03", "address": "3431 DRUMMOND STREET", "city": "MONTR\u00c9AL", "province": "QC", "country": "CA", "postalCode": "H3G1X6", "twitter": "None", "instagram": "None", "facebook": "None", "youtube": "None", "website": "None", "summary": "None", "logo": "None", "latitude": 45.501003166541544, "longitude": -73.57900885677198}, "844847285RR0001": {"name": "The Roger and Edith Davis Foundation", "designationCode": "B", "categoryCode": "03", "address": "12 ST. CHARLES STREET         RURAL ROUTE 2", "city": "BURFORD", "province": "ON", "country": "CA", "postalCode": "N0E1A0", "twitter": "None", "instagram": "None", "facebook": "None", "youtube": "None", "website": "None", "summary": "None", "logo": "None", "latitude": 43.1038118422593, "longitude": -80.41019750259707}, "805907177RR0001": {"name": "The Rogers Foundation", "designationCode": "B", "categoryCode": "03", "address": "25 CAVAN ST", "city": "NANAIMO", "province": "BC", "country": "CA", "postalCode": "V9R2T9", "twitter": "None", "instagram": "None", "facebook": "None", "youtube": "None", "website": "None", "summary": "None", "logo": "None", "latitude": 49.16305703854831, "longitude": -123.93695801445537}, "848623575RR0001": {"name": "The Roman Catholic Episcopal Corporation for the Diocese of Peterborough, in Ontario, Canada", "designationCode": "C", "categoryCode": "38", "address": "350 HUNTER ST W", "city": "PETERBOROUGH", "province": "ON", "country": "CA", "postalCode": "K9H2M4", "twitter": "None", "instagram": "None", "facebook": "None", "youtube": "None", "website": "None", "summary": "None", "logo": "None", "latitude": 44.30553552264969, "longitude": -78.3287134730798}, "131106098RR0013": {"name": "The Roman Catholic Episcopal Corporation of Labrador / La Corporation Episcopale Catholique Romaine du Labrador", "designationCode": "C", "categoryCode": "38", "address": "469 CURLING ST", "city": "CORNER BROOK", "province": "NL", "country": "CA", "postalCode": "A2H3K8", "twitter": "None", "instagram": "None", "facebook": "None", "youtube": "None", "website": "None", "summary": "None", "logo": "None", "latitude": 48.960868531162056, "longitude": -58.00861137774823}, "119110385RR0025": {"name": "The Roman Catholic Episcopal Corporation of Pembroke Our Lady of the Lake Mission", "designationCode": "C", "categoryCode": "38", "address": "CP 940", "city": "TEMISCAMING", "province": "QC", "country": "CA", "postalCode": "J0Z3R0", "twitter": "None", "instagram": "None", "facebook": "None", "youtube": "None", "website": "None", "summary": "None", "logo": "None", "latitude": 48.04791124565728, "longitude": -79.1510072976788}, "812370419RR0001": {"name": "The Roman Catholic Parish of Christ The Redeemer", "designationCode": "C", "categoryCode": "38", "address": "600 CIRCLE DRIVE", "city": "SWIFT CURRENT", "province": "SK", "country": "CA", "postalCode": "S9H4E1", "twitter": "None", "instagram": "None", "facebook": "None", "youtube": "None", "website": "None", "summary": "None", "logo": "None", "latitude": 50.30928956314241, "longitude": -107.78913418041839}, "848269247RR0001": {"name": "The Ron Brown Scholarship Fund", "designationCode": "C", "categoryCode": "21", "address": "405 THE WEST MALL             SUITE 910", "city": "MISSISSAUGA", "province": "ON", "country": "CA", "postalCode": "M9C5J1", "twitter": "None", "instagram": "None", "facebook": "None", "youtube": "None", "website": "None", "summary": "None", "logo": "None", "latitude": 43.646042210658436, "longitude": -79.56772229528552}, "837316462RR0001": {"name": "The Rooms Foundation of Newfoundland and Labrador Corporation", "designationCode": "A", "categoryCode": "53", "address": "9 BONAVENTURE AVENUE          P.O. BOX 1800, STATION C", "city": "ST JOHN'S", "province": "NL", "country": "CA", "postalCode": "A1C5P9", "twitter": "None", "instagram": "None", "facebook": "None", "youtube": "None", "website": "None", "summary": "None", "logo": "None", "latitude": 47.56676058944588, "longitude": -52.71139370872518}, "814812830RR0001": {"name": "The Rosalie Hall Foundation", "designationCode": "A", "categoryCode": "23", "address": "3020 LAWRENCE AVENUE EAST", "city": "TORONTO", "province": "ON", "country": "CA", "postalCode": "M1P2T7", "twitter": "None", "instagram": "None", "facebook": "None", "youtube": "None", "website": "None", "summary": "None", "logo": "None", "latitude": 43.755005206272365, "longitude": -79.24823866752249}, "836010421RR0001": {"name": "The Rosalin Nickerson \"Care\" Fund Society", "designationCode": "C", "categoryCode": "11", "address": "P.O. BOX 138", "city": "BARRINGTON PASSAGE", "province": "NS", "country": "CA", "postalCode": "B0W1G0", "twitter": "None", "instagram": "None", "facebook": "None", "youtube": "None", "website": "None", "summary": "None", "logo": "None", "latitude": 43.52570000000003, "longitude": -65.61060999999995}, "804159226RR0001": {"name": "The Rosary Apostolate Inc.", "designationCode": "C", "categoryCode": "47", "address": "1208 WARDEN AVENUE,", "city": "TORONTO", "province": "ON", "country": "CA", "postalCode": "M1R2R3", "twitter": "None", "instagram": "None", "facebook": "None", "youtube": "None", "website": "None", "summary": "None", "logo": "None", "latitude": 43.74850871994927, "longitude": -79.2960553316981}, "831867114RR0001": {"name": "The Rose Centre for Love, Sex and Disability", "designationCode": "C", "categoryCode": "11", "address": "1807-10 HOGARTH AVENUE", "city": "TORONTO", "province": "ON", "country": "CA", "postalCode": "M4K1J9", "twitter": "None", "instagram": "None", "facebook": "None", "youtube": "None", "website": "None", "summary": "None", "logo": "None", "latitude": 43.67357617294684, "longitude": -79.35525743770548}, "831218102RR0001": {"name": "The Rose Orchestra", "designationCode": "C", "categoryCode": "22", "address": "320-350 RUTHERFORD ROAD S     PLAZA II", "city": "BRAMPTON", "province": "ON", "country": "CA", "postalCode": "L6W4N6", "twitter": "None", "instagram": "None", "facebook": "None", "youtube": "None", "website": "None", "summary": "None", "logo": "None", "latitude": 43.685949999423144, "longitude": -79.72488003000726}, "827398066RR0001": {"name": "The Ross River HOPE Society", "designationCode": "C", "categoryCode": "49", "address": "7 ROSS RIVER AVENUE", "city": "ROSS RIVER", "province": "YT", "country": "CA", "postalCode": "Y0B1S0", "twitter": "None", "instagram": "None", "facebook": "None", "youtube": "None", "website": "None", "summary": "None", "logo": "None", "latitude": 61.97977014576872, "longitude": -132.45208914352878}, "863906236RR0001": {"name": "The Rossy Family Foundation - La Fondation Familiale Rossy", "designationCode": "B", "categoryCode": "03", "address": "5690 ROYALMOUNT", "city": "TOWN OF MOUNT-ROYAL", "province": "QC", "country": "CA", "postalCode": "H4P1K4", "twitter": "None", "instagram": "None", "facebook": "None", "youtube": "None", "website": "None", "summary": "None", "logo": "None", "latitude": 45.49195374686948, "longitude": -73.66939301206078}, "851855353RR0001": {"name": "The Rotary Club of Brampton South Charitable Foundation", "designationCode": "A", "categoryCode": "63", "address": "PO BOX 51122 RPO CITY CENTRE", "city": "BRAMPTON", "province": "ON", "country": "CA", "postalCode": "L6T5M2", "twitter": "None", "instagram": "None", "facebook": "None", "youtube": "None", "website": "None", "summary": "None", "logo": "None", "latitude": 43.68815049793295, "longitude": -79.75036075680674}, "833356249RR0001": {"name": "The Rotary Club of Brentwood Bay Foundation", "designationCode": "C", "categoryCode": "63", "address": "6819 JEDORA DR", "city": "BRENTWOOD BAY", "province": "BC", "country": "CA", "postalCode": "V8M1A6", "twitter": "None", "instagram": "None", "facebook": "None", "youtube": "None", "website": "None", "summary": "None", "logo": "None", "latitude": 48.56662798658869, "longitude": -123.46457934968744}, "839296712RR0001": {"name": "The Rotary Club of Dartmouth Charitable Foundation", "designationCode": "A", "categoryCode": "63", "address": "PO BOX 45", "city": "DARTMOUTH", "province": "NS", "country": "CA", "postalCode": "B2Y3V2", "twitter": "None", "instagram": "None", "facebook": "None", "youtube": "None", "website": "None", "summary": "None", "logo": "None", "latitude": 44.66445000000006, "longitude": -63.549799999999934}, "849080841RR0001": {"name": "The Rotary Club of Sackville, NB Registered Charities, Inc.", "designationCode": "C", "categoryCode": "63", "address": "P.O. BOX 6331", "city": "SACKVILLE", "province": "NB", "country": "CA", "postalCode": "E4L1G6", "twitter": "None", "instagram": "None", "facebook": "None", "youtube": "None", "website": "None", "summary": "None", "logo": "None", "latitude": 45.89997900000006, "longitude": -64.37448349999994}, "855873063RR0001": {"name": "The Rotary Club of Westshore Sunrise Foundation", "designationCode": "A", "categoryCode": "63", "address": "PO BOX 28016 RPO WESTSHORE    2945 JACKLIN ROAD", "city": "VICTORIA", "province": "BC", "country": "CA", "postalCode": "V9B5E3", "twitter": "None", "instagram": "None", "facebook": "None", "youtube": "None", "website": "None", "summary": "None", "logo": "None", "latitude": 48.44116049956732, "longitude": -123.51114197550397}, "119125797RR0001": {"name": "The Rotary Foundation (Canada)", "designationCode": "C", "categoryCode": "09", "address": "33 KING STREET WEST", "city": "CALEDON", "province": "ON", "country": "CA", "postalCode": "L7E1C7", "twitter": "None", "instagram": "None", "facebook": "None", "youtube": "None", "website": "None", "summary": "None", "logo": "None", "latitude": 43.878788904812666, "longitude": -79.73921503915389}, "853911857RR0001": {"name": "The Rothschild Charitable Trust", "designationCode": "B", "categoryCode": "05", "address": "525 GLENGROVE AVENUE", "city": "TORONTO", "province": "ON", "country": "CA", "postalCode": "M6B2H1", "twitter": "None", "instagram": "None", "facebook": "None", "youtube": "None", "website": "None", "summary": "None", "logo": "None", "latitude": 43.71365777655962, "longitude": -79.43063498528481}, "119126332RR0001": {"name": "The Royal Astronomical Society of Canada, Victoria Centre", "designationCode": "C", "categoryCode": "29", "address": "8550 EAST SAANICH RD", "city": "NORTH SAANICH", "province": "BC", "country": "CA", "postalCode": "V8L1H1", "twitter": "None", "instagram": "None", "facebook": "None", "youtube": "None", "website": "None", "summary": "None", "logo": "None", "latitude": 48.61405237330483, "longitude": -123.41588962689671}, "107933566RR0001": {"name": "The Royal Canadian Legion #59 Poppy Trust Fund", "designationCode": "C", "categoryCode": "09", "address": "268 HIGH ST W", "city": "MOOSE JAW", "province": "SK", "country": "CA", "postalCode": "S6H1S8", "twitter": "None", "instagram": "None", "facebook": "None", "youtube": "None", "website": "None", "summary": "None", "logo": "None", "latitude": 50.39174047544658, "longitude": -105.54147536250224}, "108097205RR0001": {"name": "The Royal Canadian Legion Bertie Township Branch No. 230 (Ontario) Poppy Fund", "designationCode": "C", "categoryCode": "09", "address": "228 SOUTH MILL STREET S.      P.O. BOX 122", "city": "RIDGEWAY", "province": "ON", "country": "CA", "postalCode": "L0S1N0", "twitter": "None", "instagram": "None", "facebook": "None", "youtube": "None", "website": "None", "summary": "None", "logo": "None", "latitude": 42.88126489508914, "longitude": -79.05363560113129}, "891610461RR0001": {"name": "The Royal Canadian Legion Branch no. 423 (Ontario) Poppy Fund", "designationCode": "C", "categoryCode": "09", "address": "48 ELGIN STREET               PO BOX 149", "city": "ALEXANDRIA", "province": "ON", "country": "CA", "postalCode": "K0C1A0", "twitter": "None", "instagram": "None", "facebook": "None", "youtube": "None", "website": "None", "summary": "None", "logo": "None", "latitude": 45.31263274963943, "longitude": -74.63547902732422}, "106862790RR0001": {"name": "The Royal Canadian Legion Branch 351 (Ontario) Poppy Fund", "designationCode": "C", "categoryCode": "09", "address": "330 KENT ST", "city": "OTTAWA", "province": "ON", "country": "CA", "postalCode": "K2P2A6", "twitter": "None", "instagram": "None", "facebook": "None", "youtube": "None", "website": "None", "summary": "None", "logo": "None", "latitude": 45.41396382263843, "longitude": -75.69814502971882}, "890944143RR0001": {"name": "The Royal Canadian Legion Somme Branch #31 Poppy Committee", "designationCode": "C", "categoryCode": "09", "address": "PO BOX 99", "city": "DARTMOUTH", "province": "NS", "country": "CA", "postalCode": "B2Y3Y2", "twitter": "None", "instagram": "None", "facebook": "None", "youtube": "None", "website": "None", "summary": "None", "logo": "None", "latitude": 44.67403500000006, "longitude": -63.57535099999993}, "892909763RR0001": {"name": "The Royal Canadian Legion Thorold (Ontario No. 017) Branch Poppy Fund", "designationCode": "C", "categoryCode": "09", "address": "3 ORMOND STREET SOUTH", "city": "THOROLD", "province": "ON", "country": "CA", "postalCode": "L2V1X9", "twitter": "None", "instagram": "None", "facebook": "None", "youtube": "None", "website": "None", "summary": "None", "logo": "None", "latitude": 43.124596742714516, "longitude": -79.19905161368207}, "890273725RR0001": {"name": "The Royal Canadian Legion Zone A4 Veterans and Youth Trust Fund", "designationCode": "C", "categoryCode": "05", "address": "870 CATHCART BLVD", "city": "SARNIA", "province": "ON", "country": "CA", "postalCode": "N7V2N8", "twitter": "None", "instagram": "None", "facebook": "None", "youtube": "None", "website": "None", "summary": "None", "logo": "None", "latitude": 43.00709309822348, "longitude": -82.37839026291614}, "814484101RR0001": {"name": "The Royal Canadian Legion, Riverside Branch No. 255 (Ontario) Poppy Fund", "designationCode": "C", "categoryCode": "09", "address": "5645 WYANDOTTE ST E", "city": "WINDSOR", "province": "ON", "country": "CA", "postalCode": "N8S1M4", "twitter": "None", "instagram": "None", "facebook": "None", "youtube": "None", "website": "None", "summary": "None", "logo": "None", "latitude": 42.32851474712928, "longitude": -82.96880879932489}, "842036170RR0001": {"name": "The Royal Canadian Legion,Branch NO.635 (Ontario) Poppy Fund", "designationCode": "C", "categoryCode": "09", "address": "3021 BRIGDEN RD               SS 1", "city": "BRIGDEN", "province": "ON", "country": "CA", "postalCode": "N0N1B0", "twitter": "None", "instagram": "None", "facebook": "None", "youtube": "None", "website": "None", "summary": "None", "logo": "None", "latitude": 42.81314467055225, "longitude": -82.28293091329543}, "805191749RR0001": {"name": "The Royal Canadian Theatre Company", "designationCode": "C", "categoryCode": "22", "address": "20097-37 AVE", "city": "LANGLEY", "province": "BC", "country": "CA", "postalCode": "V3A6K3", "twitter": "None", "instagram": "None", "facebook": "None", "youtube": "None", "website": "None", "summary": "None", "logo": "None", "latitude": 49.06938689431368, "longitude": -122.66702925260317}, "829287499RR0001": {"name": "The Royal Lepage Foothills Shelter Foundation", "designationCode": "A", "categoryCode": "03", "address": "16 - 11625 ELBOW DR SW", "city": "CALGARY", "province": "AB", "country": "CA", "postalCode": "T2W1G8", "twitter": "None", "instagram": "None", "facebook": "None", "youtube": "None", "website": "None", "summary": "None", "logo": "None", "latitude": 50.94882120483007, "longitude": -114.08460396658758}, "119129021RR0001": {"name": "The Royal Life Saving Society Canada, Alberta and Northwest Territories Branch", "designationCode": "C", "categoryCode": "59", "address": "13123 156 STREET NW", "city": "EDMONTON", "province": "AB", "country": "CA", "postalCode": "T5V1V2", "twitter": "None", "instagram": "None", "facebook": "None", "youtube": "None", "website": "None", "summary": "None", "logo": "None", "latitude": 53.5907774220071, "longitude": -113.59022525695381}, "856692959RR0001": {"name": "The Royal Priesthood Ministries", "designationCode": "C", "categoryCode": "39", "address": "57 MICHELANGELO BLVD", "city": "BRAMPTON", "province": "ON", "country": "CA", "postalCode": "L6P0H1", "twitter": "None", "instagram": "None", "facebook": "None", "youtube": "None", "website": "None", "summary": "None", "logo": "None", "latitude": 43.79225954342439, "longitude": -79.727107636476}, "803953439RR0001": {"name": "The Royal Winnipeg Rifles Foundation", "designationCode": "C", "categoryCode": "59", "address": "180 KINGSWAY", "city": "WINNIPEG", "province": "MB", "country": "CA", "postalCode": "R3M0H2", "twitter": "None", "instagram": "None", "facebook": "None", "youtube": "None", "website": "None", "summary": "None", "logo": "None", "latitude": 49.87202307908718, "longitude": -97.16789317678466}, "833549710RR0001": {"name": "The Rt. Hon. Sir Winston Spencer Churchill Society", "designationCode": "C", "categoryCode": "21", "address": "101 - 11420 142 ST NW", "city": "EDMONTON", "province": "AB", "country": "CA", "postalCode": "T5M1V1", "twitter": "None", "instagram": "None", "facebook": "None", "youtube": "None", "website": "None", "summary": "None", "logo": "None", "latitude": 53.56405348969226, "longitude": -113.565861}, "808860233RR0001": {"name": "The Rumie Initiative", "designationCode": "C", "categoryCode": "21", "address": "600 - 10 DUNDAS ST E", "city": "TORONTO", "province": "ON", "country": "CA", "postalCode": "M5B2G9", "twitter": "None", "instagram": "None", "facebook": "None", "youtube": "None", "website": "None", "summary": "None", "logo": "None", "latitude": 43.65643517626506, "longitude": -79.38053825465974}, "828557694RR0001": {"name": "The Russ Beach Smiths Falls-Montague Airport Aviation Historical Museum Society", "designationCode": "C", "categoryCode": "50", "address": "PO BOX 4", "city": "SMITHS FALLS", "province": "ON", "country": "CA", "postalCode": "K7A4S9", "twitter": "None", "instagram": "None", "facebook": "None", "youtube": "None", "website": "None", "summary": "None", "logo": "None", "latitude": 44.90257200000005, "longitude": -76.02153199999994}, "832906770RR0001": {"name": "The Ruth Elizabeth Hyndman Foundation", "designationCode": "B", "categoryCode": "05", "address": "202-10060 JASPER AVE NW", "city": "EDMONTON", "province": "AB", "country": "CA", "postalCode": "T5J3R8", "twitter": "None", "instagram": "None", "facebook": "None", "youtube": "None", "website": "None", "summary": "None", "logo": "None", "latitude": 53.541084453834316, "longitude": -113.49278554108712}, "817195423RR0001": {"name": "The Ryley Family Foundation", "designationCode": "B", "categoryCode": "05", "address": "367 - 3219 YONGE ST", "city": "TORONTO", "province": "ON", "country": "CA", "postalCode": "M4N3S1", "twitter": "None", "instagram": "None", "facebook": "None", "youtube": "None", "website": "None", "summary": "None", "logo": "None", "latitude": 43.72822237330483, "longitude": -79.40298575587182}, "829448612RR0001": {"name": "The RBQ Foundation", "designationCode": "B", "categoryCode": "05", "address": "1 LOMBARD PLACE               30TH FLOOR", "city": "WINNIPEG", "province": "MB", "country": "CA", "postalCode": "R3B0Y1", "twitter": "None", "instagram": "None", "facebook": "None", "youtube": "None", "website": "None", "summary": "None", "logo": "None", "latitude": 49.895687601816974, "longitude": -97.13720600433791}, "738428721RR0001": {"name": "The RCO Foundation", "designationCode": "A", "categoryCode": "03", "address": "110 - 30 NORMANDY PL", "city": "OAKVILLE", "province": "ON", "country": "CA", "postalCode": "L6K3V2", "twitter": "None", "instagram": "None", "facebook": "None", "youtube": "None", "website": "None", "summary": "None", "logo": "None", "latitude": 43.44425441603674, "longitude": -79.67963032693758}, "818799033RR0001": {"name": "The RDJ Fund / Le fonds RDJ", "designationCode": "B", "categoryCode": "03", "address": "1000, DE LA GAUCHETI\u00c8RE OUEST SUITE 200", "city": "MONTR\u00c9AL", "province": "QC", "country": "CA", "postalCode": "H3B4W5", "twitter": "None", "instagram": "None", "facebook": "None", "youtube": "None", "website": "None", "summary": "None", "logo": "None", "latitude": 45.49846698248619, "longitude": -73.56698518102652}, "791744923RR0001": {"name": "The S. Clair Synagogue", "designationCode": "C", "categoryCode": "42", "address": "544 ST. CLAIR WEST", "city": "TORONTO", "province": "ON", "country": "CA", "postalCode": "M6C1A5", "twitter": "None", "instagram": "None", "facebook": "None", "youtube": "None", "website": "None", "summary": "None", "logo": "None", "latitude": 43.68276629615091, "longitude": -79.42069796753988}, "812681633RR0001": {"name": "The S.S. Kyle Historical Foundation Inc.", "designationCode": "C", "categoryCode": "52", "address": "91 LARKHALL ST", "city": "ST. JOHN'S", "province": "NL", "country": "CA", "postalCode": "A1B2C5", "twitter": "None", "instagram": "None", "facebook": "None", "youtube": "None", "website": "None", "summary": "None", "logo": "None", "latitude": 47.568880267009014, "longitude": -52.749117516677074}, "827146473RR0001": {"name": "The S'Cool Public Education Foundation / La fondation scolaire de l'enseignement publique", "designationCode": "C", "categoryCode": "21", "address": "101 EXCHANGE AVENUE", "city": "VAUGHAN", "province": "ON", "country": "CA", "postalCode": "L4K5R6", "twitter": "None", "instagram": "None", "facebook": "None", "youtube": "None", "website": "None", "summary": "None", "logo": "None", "latitude": 43.78674994947823, "longitude": -79.5277468437877}, "846980456RR0001": {"name": "The Sabourin Family Foundation", "designationCode": "B", "categoryCode": "03", "address": "1900-401 BAY ST               P O BOX 19", "city": "TORONTO", "province": "ON", "country": "CA", "postalCode": "M5H1Y4", "twitter": "None", "instagram": "None", "facebook": "None", "youtube": "None", "website": "None", "summary": "None", "logo": "None", "latitude": 43.651658304201, "longitude": -79.38148850259707}, "804219343RR0001": {"name": "The Sackville Community Band Society", "designationCode": "C", "categoryCode": "22", "address": "45 CONNOLLY", "city": "SACKVILLE", "province": "NS", "country": "CA", "postalCode": "B4E1S6", "twitter": "None", "instagram": "None", "facebook": "None", "youtube": "None", "website": "None", "summary": "None", "logo": "None", "latitude": 44.7770960366688, "longitude": -63.69980191495753}, "126599208RR0001": {"name": "The Safehaven Project for Community Living", "designationCode": "C", "categoryCode": "59", "address": "1173 BLOOR ST WEST", "city": "TORONTO", "province": "ON", "country": "CA", "postalCode": "M6H1M9", "twitter": "None", "instagram": "None", "facebook": "None", "youtube": "None", "website": "None", "summary": "None", "logo": "None", "latitude": 43.65921482763009, "longitude": -79.43833831473256}, "816290258RR0001": {"name": "The Saint Archangel Gabriel Serbian Orthodox Parish of the Serbian Orthodox Church", "designationCode": "C", "categoryCode": "39", "address": "49 NORTH LAKE ROAD            PO BOX 2918", "city": "RICHMOND HILL", "province": "ON", "country": "CA", "postalCode": "L4E1A8", "twitter": "None", "instagram": "None", "facebook": "None", "youtube": "None", "website": "None", "summary": "None", "logo": "None"}, "836370205RR0001": {"name": "The Saint Elijah the Prophet Parish of the Serbian Orthodox Church, Niagara Falls, Ontario, Canada", "designationCode": "C", "categoryCode": "39", "address": "5906 SYLVIA PL", "city": "NIAGARA FALLS", "province": "ON", "country": "CA", "postalCode": "L2G4C1", "twitter": "None", "instagram": "None", "facebook": "None", "youtube": "None", "website": "None", "summary": "None", "logo": "None", "latitude": 43.0890840313636, "longitude": -79.09089292296163}, "805457686RR0001": {"name": "The Saint John Exhibition Association Foundation Inc.", "designationCode": "A", "categoryCode": "03", "address": "1 GERMAIN STREET              SUITE 1700 - PO BOX 6370", "city": "SAINT JOHN", "province": "NB", "country": "CA", "postalCode": "E2L4R8", "twitter": "None", "instagram": "None", "facebook": "None", "youtube": "None", "website": "None", "summary": "None", "logo": "None", "latitude": 45.274201376074785, "longitude": -66.06101769054756}, "119202836RR0001": {"name": "The Saint Thomas Cemetery Company", "designationCode": "C", "categoryCode": "59", "address": "67 WEST AVENUE", "city": "ST THOMAS", "province": "ON", "country": "CA", "postalCode": "N5R3P6", "twitter": "None", "instagram": "None", "facebook": "None", "youtube": "None", "website": "None", "summary": "None", "logo": "None", "latitude": 42.767648380831936, "longitude": -81.19761502952323}, "890580145RR0001": {"name": "The Saint Vincent's Nursing Home Foundation", "designationCode": "A", "categoryCode": "05", "address": "2080 WINDSOR ST.", "city": "HALIFAX", "province": "NS", "country": "CA", "postalCode": "B3K5B2", "twitter": "None", "instagram": "None", "facebook": "None", "youtube": "None", "website": "None", "summary": "None", "logo": "None", "latitude": 44.64848772739378, "longitude": -63.593321698250925}, "831096268RR0001": {"name": "The Saints Holy Cosmas and Damian Orthodox Church", "designationCode": "C", "categoryCode": "39", "address": "2874 RUE DE CHAMONIX", "city": "SAINT-LAURENT", "province": "QC", "country": "CA", "postalCode": "H4R3B7", "twitter": "None", "instagram": "None", "facebook": "None", "youtube": "None", "website": "None", "summary": "None", "logo": "None", "latitude": 45.5085560954758, "longitude": -73.71293421365954}, "828964882RR0001": {"name": "The Sakyong Potrang Canada", "designationCode": "C", "categoryCode": "35", "address": "601 - 5121 SACKVILLE ST", "city": "HALIFAX", "province": "NS", "country": "CA", "postalCode": "B3J1K1", "twitter": "None", "instagram": "None", "facebook": "None", "youtube": "None", "website": "None", "summary": "None", "logo": "None", "latitude": 44.64683105190717, "longitude": -63.57139841701768}, "850883885RR0001": {"name": "The Salt Spring Forum Society", "designationCode": "C", "categoryCode": "21", "address": "PO BOX 673 STN GANGES", "city": "SALT SPRING ISLAND", "province": "BC", "country": "CA", "postalCode": "V8K2W3", "twitter": "None", "instagram": "None", "facebook": "None", "youtube": "None", "website": "None", "summary": "None", "logo": "None", "latitude": 48.85312235658836, "longitude": -123.46678846442953}, "829489905RR0001": {"name": "The Saltire Foundation (Canada)", "designationCode": "A", "categoryCode": "03", "address": "390 BAY ST                    SUITE 1202", "city": "TORONTO", "province": "ON", "country": "CA", "postalCode": "M5H2Y2", "twitter": "None", "instagram": "None", "facebook": "None", "youtube": "None", "website": "None", "summary": "None", "logo": "None", "latitude": 43.65110410687275, "longitude": -79.38169965834723}, "107951618RR0408": {"name": "The Salvation Army - Belleville Ministries", "designationCode": "C", "categoryCode": "40", "address": "290 BRIDGE ST W", "city": "BELLEVILLE", "province": "ON", "country": "CA", "postalCode": "K8P5L6", "twitter": "None", "instagram": "None", "facebook": "None", "youtube": "None", "website": "None", "summary": "None", "logo": "None", "latitude": 44.159607446620946, "longitude": -77.40613253121937}, "107951618RR0594": {"name": "The Salvation Army - Boundless Vancouver", "designationCode": "C", "categoryCode": "09", "address": "301 - 291 2ND AVE E", "city": "VANCOUVER", "province": "BC", "country": "CA", "postalCode": "V5T1B8", "twitter": "None", "instagram": "None", "facebook": "None", "youtube": "None", "website": "None", "summary": "None", "logo": "None", "latitude": 49.26805774023303, "longitude": -123.09864657963544}, "107951618RR0362": {"name": "The Salvation Army - Mississippi-Rideau Lakes Corps", "designationCode": "C", "categoryCode": "40", "address": "P.O. BOX 381", "city": "SMITHS FALLS", "province": "ON", "country": "CA", "postalCode": "K7A4T2", "twitter": "None", "instagram": "None", "facebook": "None", "youtube": "None", "website": "None", "summary": "None", "logo": "None", "latitude": 44.90257200000005, "longitude": -76.02153199999994}, "107951618RR0316": {"name": "The Salvation Army - Toronto Mental Health", "designationCode": "C", "categoryCode": "01", "address": "1020 ISLINGTON AVE            UNIT 9A", "city": "TORONTO", "province": "ON", "country": "CA", "postalCode": "M8Z6A4", "twitter": "None", "instagram": "None", "facebook": "None", "youtube": "None", "website": "None", "summary": "None", "logo": "None", "latitude": 43.631911184286494, "longitude": -79.51817431046204}, "107951618RR0129": {"name": "The Salvation Army Alberta & Northern Territories Division", "designationCode": "C", "categoryCode": "40", "address": "9618 101A AVE", "city": "EDMONTON", "province": "AB", "country": "CA", "postalCode": "T5H0C7", "twitter": "None", "instagram": "None", "facebook": "None", "youtube": "None", "website": "None", "summary": "None", "logo": "None", "latitude": 53.54365034722136, "longitude": -113.48311703733621}, "107951618RR0305": {"name": "The Salvation Army Barrhaven Church", "designationCode": "C", "categoryCode": "40", "address": "2 - 2201 JOCKVALE RD", "city": "NEPEAN", "province": "ON", "country": "CA", "postalCode": "K2J4J9", "twitter": "None", "instagram": "None", "facebook": "None", "youtube": "None", "website": "None", "summary": "None", "logo": "None", "latitude": 45.27508589927274, "longitude": -75.77705820373353}}