{"851293324RR0001": {"name": "Le Nouvel Op\u00e9ra", "designationCode": "C", "categoryCode": "22", "address": "642, RUE DE L'\u00c9GLISE, #204", "city": "VERDUN", "province": "QC", "country": "CA", "postalCode": "H4G2M8", "twitter": "None", "instagram": "None", "facebook": "None", "youtube": "None", "website": "None", "summary": "None", "logo": "None", "latitude": 45.46297651399405, "longitude": -73.57214541771019}, "823729694RR0001": {"name": "Le P\u00e2turage", "designationCode": "C", "categoryCode": "54", "address": "320 RUE POTVIN", "city": "SAINTE-SOPHIE", "province": "QC", "country": "CA", "postalCode": "J5J1L2", "twitter": "None", "instagram": "None", "facebook": "None", "youtube": "None", "website": "None", "summary": "None", "logo": "None", "latitude": 45.83721014293956, "longitude": -73.9165024522191}, "118799857RR0001": {"name": "Le P'tit Bonheur, une Oeuvre du P\u00e8re Sablon", "designationCode": "C", "categoryCode": "56", "address": "4265 AV PAPINEAU", "city": "MONTREAL", "province": "QC", "country": "CA", "postalCode": "H2H1T3", "twitter": "None", "instagram": "None", "facebook": "None", "youtube": "None", "website": "None", "summary": "None", "logo": "None", "latitude": 45.531162123261375, "longitude": -73.57075917413027}, "825826787RR0001": {"name": "Le Papillon blanc, danse", "designationCode": "C", "categoryCode": "01", "address": "2033 RUE DE NERAC", "city": "QUEBEC", "province": "QC", "country": "CA", "postalCode": "G1C4Y8", "twitter": "None", "instagram": "None", "facebook": "None", "youtube": "None", "website": "None", "summary": "None", "logo": "None", "latitude": 46.88974148211082, "longitude": -71.16596425298631}, "817040231RR0001": {"name": "Le Parkinson en Mouvement", "designationCode": "C", "categoryCode": "11", "address": "4666 JEANNE-MANCE", "city": "MONTREAL", "province": "QC", "country": "CA", "postalCode": "H2V4J4", "twitter": "None", "instagram": "None", "facebook": "None", "youtube": "None", "website": "None", "summary": "None", "logo": "None", "latitude": 45.5183807129957, "longitude": -73.59059537443001}, "807349931RR0001": {"name": "Le Pas de Deux", "designationCode": "C", "categoryCode": "09", "address": "457, RUE LAVAL", "city": "JOLIETTE", "province": "QC", "country": "CA", "postalCode": "J6E5G9", "twitter": "None", "instagram": "None", "facebook": "None", "youtube": "None", "website": "None", "summary": "None", "logo": "None", "latitude": 46.0193204929022, "longitude": -73.43212873829977}, "896101532RR0001": {"name": "Le Petit Train Inc.", "designationCode": "C", "categoryCode": "09", "address": "118 BOUL SPRINGER             C.P.720", "city": "CHAPAIS", "province": "QC", "country": "CA", "postalCode": "G0W1H0", "twitter": "None", "instagram": "None", "facebook": "None", "youtube": "None", "website": "None", "summary": "None", "logo": "None", "latitude": 49.782551900340614, "longitude": -74.85755894936224}, "139354039RR0002": {"name": "Le Ph\u00e9nix, ECJ, Centre Mauricie/M\u00e9kinac", "designationCode": "C", "categoryCode": "59", "address": "1 - 2513 AV SAINT-MARC", "city": "SHAWINIGAN", "province": "QC", "country": "CA", "postalCode": "G9N2K2", "twitter": "None", "instagram": "None", "facebook": "None", "youtube": "None", "website": "None", "summary": "None", "logo": "None", "latitude": 46.55648267222569, "longitude": -72.73801764253552}, "807185699RR0001": {"name": "Le Phare Familial Inc.", "designationCode": "C", "categoryCode": "01", "address": "46 UPTON RUE", "city": "MONCTON", "province": "NB", "country": "CA", "postalCode": "E1E3Z1", "twitter": "None", "instagram": "None", "facebook": "None", "youtube": "None", "website": "None", "summary": "None", "logo": "None"}, "817434038RR0001": {"name": "Le Pont / Bridging", "designationCode": "C", "categoryCode": "09", "address": "12 RUE APPLEGLEN", "city": "HUDSON", "province": "QC", "country": "CA", "postalCode": "J0P1H0", "twitter": "None", "instagram": "None", "facebook": "None", "youtube": "None", "website": "None", "summary": "None", "logo": "None", "latitude": 45.44663077378967, "longitude": -74.1362383685443}, "897071668RR0001": {"name": "Le Projet Harmonie", "designationCode": "C", "categoryCode": "09", "address": "6155, RUE DUQUESNE", "city": "MONTR\u00c9AL", "province": "QC", "country": "CA", "postalCode": "H1M2K6", "twitter": "None", "instagram": "None", "facebook": "None", "youtube": "None", "website": "None", "summary": "None", "logo": "None"}, "815509583RR0001": {"name": "Le Projet Vainqueur/The Conqueror Project", "designationCode": "B", "categoryCode": "13", "address": "182, FIELDCREST AVENUE", "city": "POINTE-CLAIRE", "province": "QC", "country": "CA", "postalCode": "H9S4A4", "twitter": "None", "instagram": "None", "facebook": "None", "youtube": "None", "website": "None", "summary": "None", "logo": "None", "latitude": 45.44021777655963, "longitude": -73.81250809893824}, "832937395RR0001": {"name": "Le Quartier des g\u00e9n\u00e9rations", "designationCode": "C", "categoryCode": "09", "address": "6354 RUE SAINT-DENIS", "city": "MONTREAL", "province": "QC", "country": "CA", "postalCode": "H2S2R7", "twitter": "None", "instagram": "None", "facebook": "None", "youtube": "None", "website": "None", "summary": "None", "logo": "None", "latitude": 45.53339182234995, "longitude": -73.60375396116324}, "835007881RR0001": {"name": "Le Refuge de Galahad", "designationCode": "C", "categoryCode": "54", "address": "3250 CH D'ENTRELACS", "city": "ENTRELACS", "province": "QC", "country": "CA", "postalCode": "J0T2E0", "twitter": "None", "instagram": "None", "facebook": "None", "youtube": "None", "website": "None", "summary": "None", "logo": "None", "latitude": 46.12735590109851, "longitude": -73.99064405491592}, "836573204RR0001": {"name": "Le Refuge Chatopia", "designationCode": "C", "categoryCode": "54", "address": "7340 MOUNTAIN SIGHTS", "city": "MONTREAL", "province": "QC", "country": "CA", "postalCode": "H4P2A6", "twitter": "None", "instagram": "None", "facebook": "None", "youtube": "None", "website": "None", "summary": "None", "logo": "None", "latitude": 45.495448744359315, "longitude": -73.65085551820628}, "860955376RR0001": {"name": "Le Regroupement des partenaires francophones", "designationCode": "C", "categoryCode": "09", "address": "390-RUE RIDEAU                BOITE POSTALE 20087", "city": "OTTAWA", "province": "ON", "country": "CA", "postalCode": "K1N9J7", "twitter": "None", "instagram": "None", "facebook": "None", "youtube": "None", "website": "None", "summary": "None", "logo": "None", "latitude": 45.43003370578235, "longitude": -75.68263220217565}, "143875615RR0001": {"name": "Le Renaissance (La Tuque) 2000 Inc.", "designationCode": "C", "categoryCode": "09", "address": "3675 BOUL DU CHANOINE-MOREAU  UNITE 211", "city": "TROIS-RIVIERES", "province": "QC", "country": "CA", "postalCode": "G8Y5M6", "twitter": "None", "instagram": "None", "facebook": "None", "youtube": "None", "website": "None", "summary": "None", "logo": "None", "latitude": 46.35489286459091, "longitude": -72.57700745216087}, "846714475RR0001": {"name": "Le Roi Community Foundation", "designationCode": "A", "categoryCode": "03", "address": "PO BOX 3", "city": "TRAIL", "province": "BC", "country": "CA", "postalCode": "V1R4L3", "twitter": "None", "instagram": "None", "facebook": "None", "youtube": "None", "website": "None", "summary": "None", "logo": "None", "latitude": 49.096419000000054, "longitude": -117.71217349999993}, "781612916RR0001": {"name": "Le Royaume Des Petites-Mains", "designationCode": "C", "categoryCode": "01", "address": "7593 BOUL SAINT-LAURENT", "city": "MONTREAL", "province": "QC", "country": "CA", "postalCode": "H2R1W9", "twitter": "None", "instagram": "None", "facebook": "None", "youtube": "None", "website": "None", "summary": "None", "logo": "None", "latitude": 45.536809384541876, "longitude": -73.6236686731355}, "819926478RR0001": {"name": "Le Salon du Livre du Grand Sudbury", "designationCode": "C", "categoryCode": "21", "address": "14 BEECH STREET", "city": "SUDBURY", "province": "ON", "country": "CA", "postalCode": "P3C1Z2", "twitter": "None", "instagram": "None", "facebook": "None", "youtube": "None", "website": "None", "summary": "None", "logo": "None"}, "800665341RR0001": {"name": "Le Salon Particulier", "designationCode": "C", "categoryCode": "22", "address": "4851 RUE DE BORDEAUX", "city": "MONTREAL", "province": "QC", "country": "CA", "postalCode": "H2H2A2", "twitter": "None", "instagram": "None", "facebook": "None", "youtube": "None", "website": "None", "summary": "None", "logo": "None", "latitude": 45.536490104362585, "longitude": -73.57697114195861}, "732521323RR0001": {"name": "Le Sanctuaire Apostolique de Qu\u00e9bec / The Apostolic Sanctuary of Qu\u00e9bec City", "designationCode": "C", "categoryCode": "39", "address": "544 BOUL MAURICIEN", "city": "TROIS-RIVIERES", "province": "QC", "country": "CA", "postalCode": "G9B1S1", "twitter": "None", "instagram": "None", "facebook": "None", "youtube": "None", "website": "None", "summary": "None", "logo": "None", "latitude": 46.311084051358904, "longitude": -72.5916656802471}, "101836633RR0001": {"name": "Le Support - Fondation de la d\u00e9ficience intellectuelle", "designationCode": "A", "categoryCode": "09", "address": "6275 BOUL DES GRANDES-PRAIRIES", "city": "SAINT-LEONARD", "province": "QC", "country": "CA", "postalCode": "H1P1A5", "twitter": "None", "instagram": "None", "facebook": "None", "youtube": "None", "website": "None", "summary": "None", "logo": "None", "latitude": 45.6035398615325, "longitude": -73.60743530910572}, "883773723RR0001": {"name": "Le Th\u00e9\u00e2tre la Tangente", "designationCode": "C", "categoryCode": "22", "address": "1507 RUE YONGE                CASIER POSTALE 15030", "city": "TORONTO", "province": "ON", "country": "CA", "postalCode": "M4T1Z2", "twitter": "None", "instagram": "None", "facebook": "None", "youtube": "None", "website": "None", "summary": "None", "logo": "None", "latitude": 43.689317667782305, "longitude": -79.3945682675286}, "861905297RR0001": {"name": "Le Th\u00e9\u00e2tre Jeunesse en t\u00eate", "designationCode": "C", "categoryCode": "22", "address": "1948, AVENUE MONTCLAIR", "city": "OTTAWA", "province": "ON", "country": "CA", "postalCode": "K1W1H9", "twitter": "None", "instagram": "None", "facebook": "None", "youtube": "None", "website": "None", "summary": "None", "logo": "None", "latitude": 45.43956197919664, "longitude": -75.53336146378895}, "123788317RR0001": {"name": "Le Theatre les Gens d'en Bas Inc", "designationCode": "C", "categoryCode": "22", "address": "50 RTE DU GOLF-DU-BIC", "city": "RIMOUSKI", "province": "QC", "country": "CA", "postalCode": "G0L1B0", "twitter": "None", "instagram": "None", "facebook": "None", "youtube": "None", "website": "None", "summary": "None", "logo": "None", "latitude": 48.37394439886873, "longitude": -68.70699524300298}, "885272716RR0001": {"name": "Le Tournant 3F Inc.", "designationCode": "C", "categoryCode": "59", "address": "118-1500 RUE DES ERABLES", "city": "DOLBEAU-MISTASSINI", "province": "QC", "country": "CA", "postalCode": "G8L2W7", "twitter": "None", "instagram": "None", "facebook": "None", "youtube": "None", "website": "None", "summary": "None", "logo": "None", "latitude": 48.88012178022363, "longitude": -72.22857106846962}, "807610472RR0001": {"name": "Le Tr\u00e0sh - Travail de rue \u00e0 Shawinigan", "designationCode": "C", "categoryCode": "09", "address": "756 4E RUE DE LA POINTE", "city": "SHAWINIGAN", "province": "QC", "country": "CA", "postalCode": "G9N1H2", "twitter": "None", "instagram": "None", "facebook": "None", "youtube": "None", "website": "None", "summary": "None", "logo": "None", "latitude": 46.53978205020488, "longitude": -72.75115455957068}, "855506192RR0001": {"name": "Le Transport de Clare Society-Clare Transportation Society", "designationCode": "C", "categoryCode": "09", "address": "795B HIGHWAY 1", "city": "SAULNIERVILLE", "province": "NS", "country": "CA", "postalCode": "B0W2Z0", "twitter": "None", "instagram": "None", "facebook": "None", "youtube": "None", "website": "None", "summary": "None", "logo": "None", "latitude": 44.29374142072718, "longitude": -66.12504182403873}, "107655383RR0001": {"name": "Le Treflerie", "designationCode": "C", "categoryCode": "09", "address": "481 DES CHARDONNERETS", "city": "MARIA", "province": "QC", "country": "CA", "postalCode": "G0C1Y0", "twitter": "None", "instagram": "None", "facebook": "None", "youtube": "None", "website": "None", "summary": "None", "logo": "None", "latitude": 48.17512652097626, "longitude": -65.98792189332879}, "837869098RR0001": {"name": "Le Tremplin, Centre pour personnes immigrantes et leurs familles", "designationCode": "C", "categoryCode": "09", "address": "52 COTE DU PASSAGE", "city": "LEVIS", "province": "QC", "country": "CA", "postalCode": "G6V5S7", "twitter": "None", "instagram": "None", "facebook": "None", "youtube": "None", "website": "None", "summary": "None", "logo": "None", "latitude": 46.80651432526414, "longitude": -71.18391498684268}, "896999760RR0001": {"name": "Le Vieux Th\u00e9atre de St-Fabien", "designationCode": "C", "categoryCode": "22", "address": "112, 1E RUE, CP100", "city": "SAINT-FABIEN", "province": "QC", "country": "CA", "postalCode": "G0L2Z0", "twitter": "None", "instagram": "None", "facebook": "None", "youtube": "None", "website": "None", "summary": "None", "logo": "None", "latitude": 48.29571051318597, "longitude": -68.86665246156727}, "885073585RR0001": {"name": "Le 78e Fraser Highlanders (Garnison Fort Ste-Helene) / The 78th Fraser Highlanders (Fort St. Helen Garrison)", "designationCode": "C", "categoryCode": "50", "address": "1195 SHERBROOKE STREET WEST", "city": "MONTREAL", "province": "QC", "country": "CA", "postalCode": "H3A1H9", "twitter": "None", "instagram": "None", "facebook": "None", "youtube": "None", "website": "None", "summary": "None", "logo": "None", "latitude": 45.50071925258228, "longitude": -73.57773646367339}, "863831467RR0001": {"name": "Lead Foundation", "designationCode": "C", "categoryCode": "20", "address": "5271 MEMORIAL DR SE           SUITE 209", "city": "CALGARY", "province": "AB", "country": "CA", "postalCode": "T2A4V1", "twitter": "None", "instagram": "None", "facebook": "None", "youtube": "None", "website": "None", "summary": "None", "logo": "None", "latitude": 51.05287468118579, "longitude": -113.95758759774357}, "832214902RR0001": {"name": "Leadership Education and Development, Canada", "designationCode": "C", "categoryCode": "21", "address": "2843 LIONEL CRES SW", "city": "CALGARY", "province": "AB", "country": "CA", "postalCode": "T3E6B1", "twitter": "None", "instagram": "None", "facebook": "None", "youtube": "None", "website": "None", "summary": "None", "logo": "None", "latitude": 50.995224335276134, "longitude": -114.12431036245613}, "823039813RR0001": {"name": "Leadership Victoria Society", "designationCode": "C", "categoryCode": "20", "address": "620 VIEW STREET               UNIT 306", "city": "VICTORIA", "province": "BC", "country": "CA", "postalCode": "V8W1J6", "twitter": "None", "instagram": "None", "facebook": "None", "youtube": "None", "website": "None", "summary": "None", "logo": "None", "latitude": 48.4258226128167, "longitude": -123.36688448473656}, "854778263RR0001": {"name": "Leading Stars Arts and Education Foundation", "designationCode": "C", "categoryCode": "22", "address": "10020 100 STREET              10TH FLOOR", "city": "EDMONTON", "province": "AB", "country": "CA", "postalCode": "T5J0N5", "twitter": "None", "instagram": "None", "facebook": "None", "youtube": "None", "website": "None", "summary": "None", "logo": "None", "latitude": 53.540593833780704, "longitude": -113.49026311835759}, "107769655RR0001": {"name": "Leading Thunderbird Lodge Inc.", "designationCode": "C", "categoryCode": "57", "address": "BOX 400", "city": "FT QU'APPELLE", "province": "SK", "country": "CA", "postalCode": "S0G1S0", "twitter": "None", "instagram": "None", "facebook": "None", "youtube": "None", "website": "None", "summary": "None", "logo": "None", "latitude": 50.33098795842485, "longitude": -102.28109602986969}, "836468363RR0001": {"name": "League of Innovators", "designationCode": "C", "categoryCode": "21", "address": "5 8TH AVE E", "city": "VANCOUVER", "province": "BC", "country": "CA", "postalCode": "V5T1R6", "twitter": "None", "instagram": "None", "facebook": "None", "youtube": "None", "website": "None", "summary": "None", "logo": "None", "latitude": 49.26378951875456, "longitude": -123.10464163627447}, "790874127RR0001": {"name": "Leah and Paul Atkinson Family Foundation", "designationCode": "B", "categoryCode": "03", "address": "120 BALSAM AVENUE", "city": "TORONTO", "province": "ON", "country": "CA", "postalCode": "M4E3B7", "twitter": "None", "instagram": "None", "facebook": "None", "youtube": "None", "website": "None", "summary": "None", "logo": "None", "latitude": 43.67525835913792, "longitude": -79.29125347478188}, "885301614RR0001": {"name": "Leaky Heaven Performance Society", "designationCode": "C", "categoryCode": "22", "address": "600 CAMPBELL AVENUE", "city": "VANCOUVER", "province": "BC", "country": "CA", "postalCode": "V6A3K1", "twitter": "None", "instagram": "None", "facebook": "None", "youtube": "None", "website": "None", "summary": "None", "logo": "None", "latitude": 49.27892182070519, "longitude": -123.08481049887483}, "860424969RR0001": {"name": "Leamington and Area Family Health Team", "designationCode": "C", "categoryCode": "11", "address": "197 TALBOT STREET WEST", "city": "LEAMINGTON", "province": "ON", "country": "CA", "postalCode": "N8H1N8", "twitter": "None", "instagram": "None", "facebook": "None", "youtube": "None", "website": "None", "summary": "None", "logo": "None", "latitude": 42.04936926562591, "longitude": -82.61544699289921}, "892963364RR0001": {"name": "Leamington Mennonite Community Foundation", "designationCode": "A", "categoryCode": "03", "address": "158 ROAD 10 RR #1", "city": "COTTAM", "province": "ON", "country": "CA", "postalCode": "N0R1B0", "twitter": "None", "instagram": "None", "facebook": "None", "youtube": "None", "website": "None", "summary": "None", "logo": "None", "latitude": 42.15130536973747, "longitude": -82.7235497207921}, "892312364RR0001": {"name": "Leanne Children's Foundation", "designationCode": "B", "categoryCode": "03", "address": "17435-119 STREET", "city": "EDMONTON", "province": "AB", "country": "CA", "postalCode": "T5X0A6", "twitter": "None", "instagram": "None", "facebook": "None", "youtube": "None", "website": "None", "summary": "None", "logo": "None", "latitude": 53.63717257507648, "longitude": -113.52820622352728}, "849767264RR0001": {"name": "Learn For Life Nepal", "designationCode": "C", "categoryCode": "21", "address": "118 DAVIS TRAIL", "city": "THORNTON", "province": "ON", "country": "CA", "postalCode": "L0L2N0", "twitter": "None", "instagram": "None", "facebook": "None", "youtube": "None", "website": "None", "summary": "None", "logo": "None", "latitude": 44.27300149177702, "longitude": -79.73155049847078}, "801631714RR0001": {"name": "Learning Buddies Network of the Lower Mainland Society", "designationCode": "C", "categoryCode": "21", "address": "PO BOX 27544 RPO OAKRIDGE", "city": "VANCOUVER", "province": "BC", "country": "CA", "postalCode": "V5Z4M4", "twitter": "None", "instagram": "None", "facebook": "None", "youtube": "None", "website": "None", "summary": "None", "logo": "None", "latitude": 49.23004000000003, "longitude": -123.12116999999995}, "119010312RR0001": {"name": "Learning Disabilities Association of Canada (LDAC) Association canadienne des troubles d'apprentissage (ACTA)", "designationCode": "C", "categoryCode": "13", "address": "2420 BANK ST                  SUITE 20", "city": "OTTAWA", "province": "ON", "country": "CA", "postalCode": "K1V8S1", "twitter": "None", "instagram": "None", "facebook": "None", "youtube": "None", "website": "None", "summary": "None", "logo": "None", "latitude": 45.35444402798807, "longitude": -75.649529239829}, "119010379RR0001": {"name": "Learning Disabilities Association of Peel Region", "designationCode": "C", "categoryCode": "11", "address": "26-5155 SPECTRUM WAY", "city": "MISSISSAUGA", "province": "ON", "country": "CA", "postalCode": "L4W5A1", "twitter": "None", "instagram": "None", "facebook": "None", "youtube": "None", "website": "None", "summary": "None", "logo": "None", "latitude": 43.649806471579254, "longitude": -79.60971813765944}, "825818008RR0001": {"name": "Learning Inspires Frees Empowers Children Foundation", "designationCode": "C", "categoryCode": "03", "address": "203 WALKERVILLE RD", "city": "MARKHAM", "province": "ON", "country": "CA", "postalCode": "L6B1B9", "twitter": "None", "instagram": "None", "facebook": "None", "youtube": "None", "website": "None", "summary": "None", "logo": "None", "latitude": 43.89296570774425, "longitude": -79.2324086293209}, "737148296RR0001": {"name": "Learning Legacy Fund Society", "designationCode": "B", "categoryCode": "21", "address": "ETHOS LAW GROUP LLP           702-2695 GRANVILLE STREET", "city": "VANCOUVER", "province": "BC", "country": "CA", "postalCode": "V6H3H4", "twitter": "None", "instagram": "None", "facebook": "None", "youtube": "None", "website": "None", "summary": "None", "logo": "None", "latitude": 49.261897288649095, "longitude": -123.13869492509642}, "820262285RR0001": {"name": "Learningstorm Education Society", "designationCode": "C", "categoryCode": "20", "address": "1406 LAUREL RD", "city": "NORTH SAANICH", "province": "BC", "country": "CA", "postalCode": "V8L5K8", "twitter": "None", "instagram": "None", "facebook": "None", "youtube": "None", "website": "None", "summary": "None", "logo": "None", "latitude": 48.68591548326467, "longitude": -123.4408103068267}, "814722542RR0001": {"name": "Leave No Trace Canada/Sans Trace Canada", "designationCode": "C", "categoryCode": "52", "address": "151 BOUL SAINTE-ROSE", "city": "LAVAL", "province": "QC", "country": "CA", "postalCode": "H7L1L2", "twitter": "None", "instagram": "None", "facebook": "None", "youtube": "None", "website": "None", "summary": "None", "logo": "None", "latitude": 45.61641865390384, "longitude": -73.78307932889949}, "841769680RR0001": {"name": "Leave Out Violence (LOVE) Society BC", "designationCode": "C", "categoryCode": "29", "address": "2455 FRASER ST", "city": "VANCOUVER", "province": "BC", "country": "CA", "postalCode": "V5T0E6", "twitter": "None", "instagram": "None", "facebook": "None", "youtube": "None", "website": "None", "summary": "None", "logo": "None", "latitude": 49.262871108093286, "longitude": -123.0892040047463}, "847921301RR0001": {"name": "Leave Out Violence (Ontario)", "designationCode": "C", "categoryCode": "09", "address": "202 - 3130 BATHURST ST", "city": "NORTH YORK", "province": "ON", "country": "CA", "postalCode": "M6A2A1", "twitter": "None", "instagram": "None", "facebook": "None", "youtube": "None", "website": "None", "summary": "None", "logo": "None", "latitude": 43.72069149042071, "longitude": -79.43011963047474}, "836554154RR0001": {"name": "Ledcor Charitable Foundation", "designationCode": "B", "categoryCode": "03", "address": "1200, 1067 WEST CORDOVA STREET", "city": "VANCOUVER", "province": "BC", "country": "CA", "postalCode": "V6C1C7", "twitter": "None", "instagram": "None", "facebook": "None", "youtube": "None", "website": "None", "summary": "None", "logo": "None", "latitude": 49.28816920901367, "longitude": -123.1179448262451}, "825163611RR0001": {"name": "Leduc and District Emergency Shelter Association", "designationCode": "C", "categoryCode": "01", "address": "BOX 3153", "city": "LEDUC", "province": "AB", "country": "CA", "postalCode": "T9E6L9", "twitter": "None", "instagram": "None", "facebook": "None", "youtube": "None", "website": "None", "summary": "None", "logo": "None", "latitude": 53.26051200000006, "longitude": -113.54857099999992}, "139138002RR0001": {"name": "Leduc Community Hospital Foundation", "designationCode": "A", "categoryCode": "13", "address": "4210 48 ST", "city": "LEDUC", "province": "AB", "country": "CA", "postalCode": "T9E5Z3", "twitter": "None", "instagram": "None", "facebook": "None", "youtube": "None", "website": "None", "summary": "None", "logo": "None"}, "817385818RR0001": {"name": "Leduc LINX Connect Centre", "designationCode": "C", "categoryCode": "09", "address": "101-4906 49 AVE", "city": "LEDUC", "province": "AB", "country": "CA", "postalCode": "T9E6W6", "twitter": "None", "instagram": "None", "facebook": "None", "youtube": "None", "website": "None", "summary": "None", "logo": "None", "latitude": 53.26399747489747, "longitude": -113.5510335}, "876449075RR0001": {"name": "Leduc Santa's Helpers Society", "designationCode": "C", "categoryCode": "09", "address": "2 ALLINDALE PL", "city": "LEDUC", "province": "AB", "country": "CA", "postalCode": "T9E5G5", "twitter": "None", "instagram": "None", "facebook": "None", "youtube": "None", "website": "None", "summary": "None", "logo": "None", "latitude": 53.26406861945315, "longitude": -113.57498490342769}, "827192642RR0001": {"name": "Lee Family Foundation Inc.", "designationCode": "B", "categoryCode": "03", "address": "301 CHURCHILL DRIVE", "city": "WINNIPEG", "province": "MB", "country": "CA", "postalCode": "R3L1V7", "twitter": "None", "instagram": "None", "facebook": "None", "youtube": "None", "website": "None", "summary": "None", "logo": "None", "latitude": 49.86329917459164, "longitude": -97.11662294924666}, "849283312RR0001": {"name": "Leeds & Grenville Community Family Health Team", "designationCode": "C", "categoryCode": "11", "address": "2235 PARKEDALE AVE", "city": "BROCKVILLE", "province": "ON", "country": "CA", "postalCode": "K6V6B2", "twitter": "None", "instagram": "None", "facebook": "None", "youtube": "None", "website": "None", "summary": "None", "logo": "None"}, "857321319RR0001": {"name": "Left Behind by Suicide Inc.", "designationCode": "C", "categoryCode": "09", "address": "1085 CARRICK STREET", "city": "THUNDER BAY", "province": "ON", "country": "CA", "postalCode": "P7B6L9", "twitter": "None", "instagram": "None", "facebook": "None", "youtube": "None", "website": "None", "summary": "None", "logo": "None", "latitude": 48.404826000000014, "longitude": -89.2500091066712}, "830174157RR0001": {"name": "Legacies in Action Society", "designationCode": "C", "categoryCode": "21", "address": "1860 - 777 HORNBY ST", "city": "VANCOUVER", "province": "BC", "country": "CA", "postalCode": "V6Z1S4", "twitter": "None", "instagram": "None", "facebook": "None", "youtube": "None", "website": "None", "summary": "None", "logo": "None", "latitude": 49.28271993479128, "longitude": -123.12162022303635}, "799263728RR0001": {"name": "Legacy Christian Foundation", "designationCode": "B", "categoryCode": "03", "address": "202-2232 41ST W AVE", "city": "VANCOUVER", "province": "BC", "country": "CA", "postalCode": "V6M1Z8", "twitter": "None", "instagram": "None", "facebook": "None", "youtube": "None", "website": "None", "summary": "None", "logo": "None", "latitude": 49.234653, "longitude": -123.15913425}, "770010924RR0001": {"name": "Legacy Flight Foundation", "designationCode": "C", "categoryCode": "21", "address": "155A MACLAURIN DR", "city": "CALGARY", "province": "AB", "country": "CA", "postalCode": "T3Z3S4", "twitter": "None", "instagram": "None", "facebook": "None", "youtube": "None", "website": "None", "summary": "None", "logo": "None", "latitude": 51.10104966791917, "longitude": -114.37382984906152}, "801780834RR0001": {"name": "Legacy Land Trust Society", "designationCode": "C", "categoryCode": "52", "address": "1 - 5401 49 AVE", "city": "OLDS", "province": "AB", "country": "CA", "postalCode": "T4H1G3", "twitter": "None", "instagram": "None", "facebook": "None", "youtube": "None", "website": "None", "summary": "None", "logo": "None", "latitude": 51.78755118512322, "longitude": -114.10602636871721}, "893766485RR0001": {"name": "Legacy Life Centre", "designationCode": "C", "categoryCode": "36", "address": "44 COMMERCIAL DR              P O BOX 150", "city": "BURKS FALLS", "province": "ON", "country": "CA", "postalCode": "P0A1C0", "twitter": "None", "instagram": "None", "facebook": "None", "youtube": "None", "website": "None", "summary": "None", "logo": "None", "latitude": 45.60896654789645, "longitude": -79.40467109362946}, "891549420RR0001": {"name": "Legacy Place Society", "designationCode": "C", "categoryCode": "09", "address": "BVPO BOX 20194", "city": "CALGARY", "province": "AB", "country": "CA", "postalCode": "T2P4L2", "twitter": "None", "instagram": "None", "facebook": "None", "youtube": "None", "website": "None", "summary": "None", "logo": "None", "latitude": 51.04531500000006, "longitude": -114.06301099999993}, "827598152RR0001": {"name": "Legacy Private Trust Foundation", "designationCode": "B", "categoryCode": "03", "address": "1 TORONTO STREET, SUITE 808   P.O. BOX 19", "city": "TORONTO", "province": "ON", "country": "CA", "postalCode": "M5C2V6", "twitter": "None", "instagram": "None", "facebook": "None", "youtube": "None", "website": "None", "summary": "None", "logo": "None", "latitude": 43.64988730558597, "longitude": -79.37604079929623}, "119119626RR0001": {"name": "Legacy Winter Guard Corporation", "designationCode": "C", "categoryCode": "22", "address": "12 BOSWORTH ST", "city": "ANCASTER", "province": "ON", "country": "CA", "postalCode": "L9K1N8", "twitter": "None", "instagram": "None", "facebook": "None", "youtube": "None", "website": "None", "summary": "None", "logo": "None", "latitude": 43.21367770716733, "longitude": -79.95803671412088}, "819215443RR0001": {"name": "Legal Aid Foundation of Alberta", "designationCode": "C", "categoryCode": "59", "address": "400 REVILLON BUILDING         10320 102 AVE NW", "city": "EDMONTON", "province": "AB", "country": "CA", "postalCode": "T5J4A1", "twitter": "None", "instagram": "None", "facebook": "None", "youtube": "None", "website": "None", "summary": "None", "logo": "None", "latitude": 53.543019497114486, "longitude": -113.49890116763807}, "805783859RR0001": {"name": "Legal Help Centre of Winnipeg Inc.", "designationCode": "C", "categoryCode": "59", "address": "202 - 393 PORTAGE AVE", "city": "WINNIPEG", "province": "MB", "country": "CA", "postalCode": "R3B3H6", "twitter": "None", "instagram": "None", "facebook": "None", "youtube": "None", "website": "None", "summary": "None", "logo": "None", "latitude": 49.89219673884805, "longitude": -97.14776200779028}, "119012573RR0001": {"name": "Legion of Mary - Toronto Senatus", "designationCode": "C", "categoryCode": "39", "address": "2472 DANFORTH AVENUE", "city": "TORONTO", "province": "ON", "country": "CA", "postalCode": "M4C1K9", "twitter": "None", "instagram": "None", "facebook": "None", "youtube": "None", "website": "None", "summary": "None", "logo": "None", "latitude": 43.68774018347842, "longitude": -79.30387811977026}, "850652595RR0001": {"name": "Legs for Literacy Trust", "designationCode": "A", "categoryCode": "25", "address": "324 RIDGEWAY DRIVE", "city": "RIVERVIEW", "province": "NB", "country": "CA", "postalCode": "E1B2K9", "twitter": "None", "instagram": "None", "facebook": "None", "youtube": "None", "website": "None", "summary": "None", "logo": "None", "latitude": 46.06246468777759, "longitude": -64.78926275477531}, "861685279RR0001": {"name": "Leila Day Care Centre Inc.", "designationCode": "C", "categoryCode": "01", "address": "2095 SINCLAIR ST", "city": "WINNIPEG", "province": "MB", "country": "CA", "postalCode": "R2V3K2", "twitter": "None", "instagram": "None", "facebook": "None", "youtube": "None", "website": "None", "summary": "None", "logo": "None", "latitude": 49.953102957527896, "longitude": -97.13302644460173}, "827292921RR0001": {"name": "Leket Canada", "designationCode": "C", "categoryCode": "09", "address": "1 YORKDALE ROAD, SUITE 602", "city": "TORONTO", "province": "ON", "country": "CA", "postalCode": "M6A3A1", "twitter": "None", "instagram": "None", "facebook": "None", "youtube": "None", "website": "None", "summary": "None", "logo": "None", "latitude": 43.72823883758475, "longitude": -79.45371698998802}, "849038732RR0001": {"name": "Lend A Paw Animal Rescue Inc.", "designationCode": "C", "categoryCode": "54", "address": "P.O. BOX 852", "city": "MAIDSTONE", "province": "SK", "country": "CA", "postalCode": "S0M1M0", "twitter": "None", "instagram": "None", "facebook": "None", "youtube": "None", "website": "None", "summary": "None", "logo": "None", "latitude": 53.087690000000066, "longitude": -109.29660999999999}, "746666924RR0001": {"name": "Lending a Hand Society", "designationCode": "B", "categoryCode": "03", "address": "200 BURRARD ST                1200 WATERFRONT CENTRE", "city": "VANCOUVER", "province": "BC", "country": "CA", "postalCode": "V6C3L6", "twitter": "None", "instagram": "None", "facebook": "None", "youtube": "None", "website": "None", "summary": "None", "logo": "None", "latitude": 49.2867400533782, "longitude": -123.11400005395502}, "813368685RR0001": {"name": "Leo Rescue Canada", "designationCode": "C", "categoryCode": "54", "address": "200 BALM BEACH RD E", "city": "TINY", "province": "ON", "country": "CA", "postalCode": "L0L2J0", "twitter": "None", "instagram": "None", "facebook": "None", "youtube": "None", "website": "None", "summary": "None", "logo": "None", "latitude": 44.71613820162243, "longitude": -79.94980214946543}, "846608453RR0001": {"name": "Leq' \u00e0:Mel Cultural Society", "designationCode": "C", "categoryCode": "29", "address": "43101 LEQ' A:MEL WAY", "city": "DEROCHE", "province": "BC", "country": "CA", "postalCode": "V0M1G0", "twitter": "None", "instagram": "None", "facebook": "None", "youtube": "None", "website": "None", "summary": "None", "logo": "None", "latitude": 49.18718400000006, "longitude": -122.07962149999994}, "123931503RR0001": {"name": "Les \u00e9ditions esse", "designationCode": "C", "categoryCode": "22", "address": "CP 47549,                     COMPTOIR PLATEAU-MONT-ROYAL", "city": "MONTR\u00c9AL", "province": "QC", "country": "CA", "postalCode": "H2H2N6", "twitter": "None", "instagram": "None", "facebook": "None", "youtube": "None", "website": "None", "summary": "None", "logo": "None", "latitude": 45.536074999999926, "longitude": -73.5724809189723}, "144060282RR0001": {"name": "Les \u00e9ditions prot\u00e9gez-vous", "designationCode": "C", "categoryCode": "59", "address": "2120, RUE SHERBROOKE EST      BUREAU 305", "city": "MONTR\u00c9AL", "province": "QC", "country": "CA", "postalCode": "H2K1C3", "twitter": "None", "instagram": "None", "facebook": "None", "youtube": "None", "website": "None", "summary": "None", "logo": "None", "latitude": 45.531030615038404, "longitude": -73.56290721922811}, "107378861RR0001": {"name": "Les \u00c9quipes PACEM pour l'Accompagnement des Couples et l'Engagement dans le Mariage", "designationCode": "C", "categoryCode": "49", "address": "CP 20053 CSP ROSEMONT", "city": "TROIS-RIVIERES", "province": "QC", "country": "CA", "postalCode": "G8Z4T9", "twitter": "None", "instagram": "None", "facebook": "None", "youtube": "None", "website": "None", "summary": "None", "logo": "None", "latitude": 46.34016900000006, "longitude": -72.54503449999993}, "807821343RR0001": {"name": "Les ami(e)s du bassin versant du Lac Waterloo", "designationCode": "C", "categoryCode": "52", "address": "85 RUE DES FLANDRES", "city": "WATERLOO", "province": "QC", "country": "CA", "postalCode": "J0E2N0", "twitter": "None", "instagram": "None", "facebook": "None", "youtube": "None", "website": "None", "summary": "None", "logo": "None", "latitude": 45.32895206301566, "longitude": -72.51887359019567}, "808072029RR0001": {"name": "Les ami(es)s d'\u00c9m\u00e9lie", "designationCode": "C", "categoryCode": "09", "address": "191, GRAND RANG", "city": "STE-\u00c9MILIE-DE-L'\u00c9NERGIE", "province": "QC", "country": "CA", "postalCode": "J0K2K0", "twitter": "None", "instagram": "None", "facebook": "None", "youtube": "None", "website": "None", "summary": "None", "logo": "None", "latitude": 46.30735811627915, "longitude": -73.66556661904912}, "856849898RR0001": {"name": "Les amis de la biblioth\u00e8que de Pointe-Claire / The Friends of the Pointe-Claire Library", "designationCode": "A", "categoryCode": "03", "address": "100,AVENUE DOUGLAS-SHAND", "city": "POINTE-CLAIRE", "province": "QC", "country": "CA", "postalCode": "H9R4V1", "twitter": "None", "instagram": "None", "facebook": "None", "youtube": "None", "website": "None", "summary": "None", "logo": "None", "latitude": 45.448977321945925, "longitude": -73.81907803107515}, "838833309RR0001": {"name": "Les amis de la jeunesse lavalloise", "designationCode": "A", "categoryCode": "59", "address": "400-2540 BOUL DANIEL-JOHNSON", "city": "LAVAL", "province": "QC", "country": "CA", "postalCode": "H7T2S3", "twitter": "None", "instagram": "None", "facebook": "None", "youtube": "None", "website": "None", "summary": "None", "logo": "None", "latitude": 45.567061785446434, "longitude": -73.75546153915388}, "848600235RR0001": {"name": "Les amis de S\u00e9bastien M\u00e9tivier", "designationCode": "C", "categoryCode": "59", "address": "1840 RUE IDA-STEINBERG", "city": "MONTREAL", "province": "QC", "country": "CA", "postalCode": "H1V3W1", "twitter": "None", "instagram": "None", "facebook": "None", "youtube": "None", "website": "None", "summary": "None", "logo": "None", "latitude": 45.560613801027, "longitude": -73.53296497250287}, "858737612RR0001": {"name": "Les amis des arts visuels du Manitoba inc.", "designationCode": "C", "categoryCode": "22", "address": "219 BOUL PROVENCHER", "city": "WINNIPEG", "province": "MB", "country": "CA", "postalCode": "R2H0G4", "twitter": "None", "instagram": "None", "facebook": "None", "youtube": "None", "website": "None", "summary": "None", "logo": "None", "latitude": 49.892807084655765, "longitude": -97.11997064293955}, "805773520RR0001": {"name": "Les amis du CCFM inc.", "designationCode": "A", "categoryCode": "03", "address": "340 BOULEVARD PROVENCHER", "city": "WINNIPEG", "province": "MB", "country": "CA", "postalCode": "R2H0G7", "twitter": "None", "instagram": "None", "facebook": "None", "youtube": "None", "website": "None", "summary": "None", "logo": "None", "latitude": 49.89396984869324, "longitude": -97.11442403133495}, "833439649RR0001": {"name": "Les amis et amies de la chapelle Loyola / The Loyola Chapel Community", "designationCode": "C", "categoryCode": "38", "address": "P.O. BOX 52, STATION NDG", "city": "MONTREAL", "province": "QC", "country": "CA", "postalCode": "H4A3P4", "twitter": "None", "instagram": "None", "facebook": "None", "youtube": "None", "website": "None", "summary": "None", "logo": "None", "latitude": 45.47830095808482, "longitude": -73.58390179144656}, "139087340RR0001": {"name": "Les arts et la ville", "designationCode": "C", "categoryCode": "22", "address": "122 - 870 AV DE SALABERRY", "city": "QUEBEC", "province": "QC", "country": "CA", "postalCode": "G1R2T9", "twitter": "None", "instagram": "None", "facebook": "None", "youtube": "None", "website": "None", "summary": "None", "logo": "None", "latitude": 46.80589182679337, "longitude": -71.22672208246271}, "898982251RR0001": {"name": "Les boutons d'or inc.", "designationCode": "C", "categoryCode": "01", "address": "310 LAMOUREUX RD              SS 1", "city": "ILE DES CHENES", "province": "MB", "country": "CA", "postalCode": "R0A0T1", "twitter": "None", "instagram": "None", "facebook": "None", "youtube": "None", "website": "None", "summary": "None", "logo": "None", "latitude": 49.70676417524545, "longitude": -96.98496179005872}, "846107415RR0001": {"name": "Les bouts de papier de la Haute-Gasp\u00e9sie", "designationCode": "C", "categoryCode": "21", "address": "48B-3E AVENUE OUEST", "city": "ST-ANNE-DES-MONTS", "province": "QC", "country": "CA", "postalCode": "G4V3T2", "twitter": "None", "instagram": "None", "facebook": "None", "youtube": "None", "website": "None", "summary": "None", "logo": "None", "latitude": 49.12732987114387, "longitude": -66.48772848534952}, "755566296RR0001": {"name": "Les centres Maison de Paix / House of Peace Centers / Los Centros Casa De Paz", "designationCode": "C", "categoryCode": "39", "address": "5216 RUE BELMONT", "city": "SAINT-HUBERT", "province": "QC", "country": "CA", "postalCode": "J3Y2X7", "twitter": "None", "instagram": "None", "facebook": "None", "youtube": "None", "website": "None", "summary": "None", "logo": "None", "latitude": 45.46451947183906, "longitude": -73.41774183570881}, "126758093RR0001": {"name": "Les cimeti\u00e8res Baron de Hirsch-Back River Inc. / Baron de Hirsch-Back River Cemeteries Inc.", "designationCode": "C", "categoryCode": "59", "address": "5015 DE LA SAVANE", "city": "MONTREAL", "province": "QC", "country": "CA", "postalCode": "H4P1V1", "twitter": "None", "instagram": "None", "facebook": "None", "youtube": "None", "website": "None", "summary": "None", "logo": "None", "latitude": 45.49992927451082, "longitude": -73.65494445351719}, "874551500RR0001": {"name": "Les communaut\u00e9s de retrait\u00e9s Massawappi / Massawappi Retirement Communities", "designationCode": "C", "categoryCode": "09", "address": "1515 RUE PLEASANT VIEW", "city": "SHERBROOKE", "province": "QC", "country": "CA", "postalCode": "J1M0C6", "twitter": "None", "instagram": "None", "facebook": "None", "youtube": "None", "website": "None", "summary": "None", "logo": "None", "latitude": 45.34294714425778, "longitude": -71.84699989299337}, "869522946RR0001": {"name": "Les compagnons de Louis Cyr", "designationCode": "C", "categoryCode": "50", "address": "215, RUE SAINTE-LOUISE", "city": "ST-JEAN-DE-MATHA", "province": "QC", "country": "CA", "postalCode": "J0K2S0", "twitter": "None", "instagram": "None", "facebook": "None", "youtube": "None", "website": "None", "summary": "None", "logo": "None", "latitude": 46.23114392506777, "longitude": -73.5332635520514}, "821335551RR0001": {"name": "Les diab\u00e9tiques de la Haute-Yamaska inc.", "designationCode": "C", "categoryCode": "11", "address": "223 - 170 RUE SAINT-ANTOINE N", "city": "GRANBY", "province": "QC", "country": "CA", "postalCode": "J2G5G8", "twitter": "None", "instagram": "None", "facebook": "None", "youtube": "None", "website": "None", "summary": "None", "logo": "None", "latitude": 45.406239965715216, "longitude": -72.72721565888182}, "867131344RR0001": {"name": "Les entreprises communautaires d'insertion \u00e0 l'emploi de l'Outaouais Inc.", "designationCode": "C", "categoryCode": "20", "address": "64A BOUL GREBER", "city": "GATINEAU", "province": "QC", "country": "CA", "postalCode": "J8T3P8", "twitter": "None", "instagram": "None", "facebook": "None", "youtube": "None", "website": "None", "summary": "None", "logo": "None", "latitude": 45.46287009950735, "longitude": -75.69987046403945}}