{"119297844RR0001": {"name": "WIARTON PASTORAL CHARGE,", "designationCode": "C", "categoryCode": "44", "address": "PO BOX 159", "city": "WIARTON", "province": "ON", "country": "CA", "postalCode": "N0H2T0", "twitter": "None", "instagram": "None", "facebook": "None", "youtube": "None", "website": "None", "summary": "None", "logo": "None", "latitude": 44.74013000000008, "longitude": -81.13977999999997}, "119288918RR0179": {"name": "WIARTON, ONTARIO, CONGREGATION OF JEHOVAH'S WITNESSES,", "designationCode": "C", "categoryCode": "61", "address": "2813 26TH ST EAST RR1", "city": "OWEN SOUND", "province": "ON", "country": "CA", "postalCode": "N4K5N3", "twitter": "None", "instagram": "None", "facebook": "None", "youtube": "None", "website": "None", "summary": "None", "logo": "None", "latitude": 44.59194582160938, "longitude": -80.90927301914212}, "896826963RR0001": {"name": "WICIHITOWIN FOUNDATION INC.", "designationCode": "C", "categoryCode": "21", "address": "325 - 2550 15 AVENUE", "city": "REGINA", "province": "SK", "country": "CA", "postalCode": "S4P1A5", "twitter": "None", "instagram": "None", "facebook": "None", "youtube": "None", "website": "None", "summary": "None", "logo": "None", "latitude": 50.44246350764606, "longitude": -104.61698002553523}, "119297893RR0001": {"name": "WICK PRESBYTERIAN CHURCH,", "designationCode": "C", "categoryCode": "37", "address": "2120 CONCESSION 2", "city": "SUNDERLAND", "province": "ON", "country": "CA", "postalCode": "L0C1H0", "twitter": "None", "instagram": "None", "facebook": "None", "youtube": "None", "website": "None", "summary": "None", "logo": "None", "latitude": 44.228102797622796, "longitude": -78.9811066533269}, "119297877RR0001": {"name": "WICKLOW UNITED BAPTIST CHURCH,", "designationCode": "C", "categoryCode": "31", "address": "58 PATTERSON ROAD", "city": "WICKLOW", "province": "NB", "country": "CA", "postalCode": "E7L3W6", "twitter": "None", "instagram": "None", "facebook": "None", "youtube": "None", "website": "None", "summary": "None", "logo": "None", "latitude": 46.493996646142215, "longitude": -67.58916737160274}, "119288918RR1503": {"name": "WIDDIFIELD CONGREGATION OF JEHOVAH S WITNESSES", "designationCode": "C", "categoryCode": "61", "address": "6864 HWY 63", "city": "NORTH BAY", "province": "ON", "country": "CA", "postalCode": "P1B8G4", "twitter": "None", "instagram": "None", "facebook": "None", "youtube": "None", "website": "None", "summary": "None", "logo": "None", "latitude": 46.36709394460377, "longitude": -79.31026222660745}, "119297943RR0001": {"name": "WIDE WORLD OF FAITH CHURCH, INC.", "designationCode": "C", "categoryCode": "39", "address": "465 ALEXANDER AVE", "city": "WINNIPEG", "province": "MB", "country": "CA", "postalCode": "R3A0N7", "twitter": "None", "instagram": "None", "facebook": "None", "youtube": "None", "website": "None", "summary": "None", "logo": "None", "latitude": 49.9048029398116, "longitude": -97.14633125281341}, "824594121RR0001": {"name": "WIDEMAN EDUCATION FOUNDATION", "designationCode": "C", "categoryCode": "23", "address": "8377 168A ST", "city": "SURREY", "province": "BC", "country": "CA", "postalCode": "V4N4T8", "twitter": "None", "instagram": "None", "facebook": "None", "youtube": "None", "website": "None", "summary": "None", "logo": "None", "latitude": 49.15510241909516, "longitude": -122.7552150266604}, "108208075RR0001": {"name": "WIDEMAN MENNONITE CHURCH", "designationCode": "C", "categoryCode": "34", "address": "10530 HIGHWAY 48", "city": "MARKHAM", "province": "ON", "country": "CA", "postalCode": "L3P3J3", "twitter": "None", "instagram": "None", "facebook": "None", "youtube": "None", "website": "None", "summary": "None", "logo": "None", "latitude": 43.922509605455275, "longitude": -79.27124917492718}, "800546756RR0001": {"name": "WIEBE FAMILY FOUNDATION", "designationCode": "B", "categoryCode": "03", "address": "11 ESTATE CRESCENT", "city": "ST. ALBERT", "province": "AB", "country": "CA", "postalCode": "T8N5X2", "twitter": "None", "instagram": "None", "facebook": "None", "youtube": "None", "website": "None", "summary": "None", "logo": "None", "latitude": 53.662376893127245, "longitude": -113.62582086182096}, "891440992RR0001": {"name": "WIEDRICK AND ASSOCIATES, APOSTOLIC MINISTRIES", "designationCode": "C", "categoryCode": "49", "address": "595 TAUNTON ROAD EAST", "city": "OSHAWA", "province": "ON", "country": "CA", "postalCode": "L1H7K5", "twitter": "None", "instagram": "None", "facebook": "None", "youtube": "None", "website": "None", "summary": "None", "logo": "None", "latitude": 43.93753725210737, "longitude": -78.8578777257195}, "119298016RR0001": {"name": "WIESENTHAL BAPTIST CHURCH,", "designationCode": "C", "categoryCode": "31", "address": "RR 2", "city": "MILLET", "province": "AB", "country": "CA", "postalCode": "T0C1Z0", "twitter": "None", "instagram": "None", "facebook": "None", "youtube": "None", "website": "None", "summary": "None", "logo": "None", "latitude": 53.09068000000008, "longitude": -113.46958999999998}, "885459016RR0001": {"name": "WIETSE AND CORRIE VAN DOLDER AND FAMILY CHARITABLE FOUNDATION", "designationCode": "B", "categoryCode": "03", "address": "8297 POPLAR SIDE ROAD", "city": "COLLINGWOOD", "province": "ON", "country": "CA", "postalCode": "L9Y4P7", "twitter": "None", "instagram": "None", "facebook": "None", "youtube": "None", "website": "None", "summary": "None", "logo": "None", "latitude": 44.47000581886141, "longitude": -80.25534078843644}, "866477425RR0001": {"name": "WIGS FOR KIDS", "designationCode": "C", "categoryCode": "11", "address": "244 GRANTHAM AVE", "city": "ST CATHARINES", "province": "ON", "country": "CA", "postalCode": "L2M4Z4", "twitter": "None", "instagram": "None", "facebook": "None", "youtube": "None", "website": "None", "summary": "None", "logo": "None", "latitude": 43.17567425728549, "longitude": -79.22029589742641}, "119298032RR0001": {"name": "WIGWAMEN INCORPORATED", "designationCode": "C", "categoryCode": "59", "address": "106-23 LESMILL ROAD", "city": "TORONTO", "province": "ON", "country": "CA", "postalCode": "M3B3P6", "twitter": "None", "instagram": "None", "facebook": "None", "youtube": "None", "website": "None", "summary": "None", "logo": "None", "latitude": 43.756499388020025, "longitude": -79.35275909362946}, "874647274RR0001": {"name": "WIKWEMIKONG ANISHNABE ASSOCIATION FOR COMMUNITY LIVING", "designationCode": "C", "categoryCode": "09", "address": "11 FOX LAKE ROAD", "city": "WIKWEMIKONG", "province": "ON", "country": "CA", "postalCode": "P0P2J0", "twitter": "None", "instagram": "None", "facebook": "None", "youtube": "None", "website": "None", "summary": "None", "logo": "None", "latitude": 45.80247372053413, "longitude": -81.7236622704065}, "123187320RR0001": {"name": "WIL COUNSELLING AND TRAINING FOR EMPLOYMENT", "designationCode": "C", "categoryCode": "09", "address": "141 DUNDAS ST  4TH FLOOR", "city": "LONDON", "province": "ON", "country": "CA", "postalCode": "N6A1G3", "twitter": "None", "instagram": "None", "facebook": "None", "youtube": "None", "website": "None", "summary": "None", "logo": "None", "latitude": 42.983461111835744, "longitude": -81.25049478475394}, "119298057RR0001": {"name": "WILBERFORCE FULL GOSPEL CHURCH", "designationCode": "C", "categoryCode": "39", "address": "P.O. BOX 39", "city": "WILBERFORCE", "province": "ON", "country": "CA", "postalCode": "K0L3C0", "twitter": "None", "instagram": "None", "facebook": "None", "youtube": "None", "website": "None", "summary": "None", "logo": "None", "latitude": 44.99796121193059, "longitude": -78.21053236882112}, "857767206RR0001": {"name": "WILD AT HEART REFUGE CENTRE", "designationCode": "C", "categoryCode": "54", "address": "95 WHITE RD", "city": "LIVELY", "province": "ON", "country": "CA", "postalCode": "P3Y1C3", "twitter": "None", "instagram": "None", "facebook": "None", "youtube": "None", "website": "None", "summary": "None", "logo": "None", "latitude": 46.42267214262245, "longitude": -81.13675944569825}, "858063365RR0001": {"name": "WILD ELK FEDERATION INC.", "designationCode": "C", "categoryCode": "52", "address": "6727 20 AVE NW", "city": "EDMONTON", "province": "AB", "country": "CA", "postalCode": "T6K2H1", "twitter": "None", "instagram": "None", "facebook": "None", "youtube": "None", "website": "None", "summary": "None", "logo": "None", "latitude": 53.45134748124544, "longitude": -113.43719305536962}, "119298115RR0001": {"name": "WILD HONEY CHILDREN'S CENTRE INCORPORATED", "designationCode": "C", "categoryCode": "01", "address": "811 ST PAUL AVENUE", "city": "WINNIPEG", "province": "MB", "country": "CA", "postalCode": "R3G0K9", "twitter": "None", "instagram": "None", "facebook": "None", "youtube": "None", "website": "None", "summary": "None", "logo": "None", "latitude": 49.887931493219334, "longitude": -97.16979133236194}, "874935521RR0001": {"name": "WILD NEIGHBOURS SOCIETY", "designationCode": "C", "categoryCode": "54", "address": "201-2040 SPRINGFIELD RD", "city": "KELOWNA", "province": "BC", "country": "CA", "postalCode": "V1Y9N7", "twitter": "None", "instagram": "None", "facebook": "None", "youtube": "None", "website": "None", "summary": "None", "logo": "None", "latitude": 49.8772224865829, "longitude": -119.44738366763806}, "811710938RR0001": {"name": "WILD OCEAN WHALE SOCIETY", "designationCode": "C", "categoryCode": "54", "address": "4037 LYTTON AVENUE", "city": "POWELL RIVER", "province": "BC", "country": "CA", "postalCode": "V8A5A6", "twitter": "None", "instagram": "None", "facebook": "None", "youtube": "None", "website": "None", "summary": "None", "logo": "None", "latitude": 49.82507998000469, "longitude": -124.51697415670245}, "885023028RR0001": {"name": "WILD PACIFIC TRAIL SOCIETY", "designationCode": "C", "categoryCode": "56", "address": "BOX 572", "city": "UCLUELET", "province": "BC", "country": "CA", "postalCode": "V0R3A0", "twitter": "None", "instagram": "None", "facebook": "None", "youtube": "None", "website": "None", "summary": "None", "logo": "None", "latitude": 48.938210000000026, "longitude": -125.54276999999996}, "893218164RR0001": {"name": "WILD ROSE CHARITABLE TRUST", "designationCode": "B", "categoryCode": "39", "address": "3425 2 AVENUE SOUTH", "city": "LETHBRIDGE", "province": "AB", "country": "CA", "postalCode": "T1J4V1", "twitter": "None", "instagram": "None", "facebook": "None", "youtube": "None", "website": "None", "summary": "None", "logo": "None", "latitude": 49.696839530439966, "longitude": -112.78914308381903}, "121778237RR0001": {"name": "WILD ROSE DANCE ARTS ASSOCIATION (1987)", "designationCode": "C", "categoryCode": "22", "address": "10728 MAPLECREEK DRIVE SE", "city": "CALGARY", "province": "AB", "country": "CA", "postalCode": "T2J1Y5", "twitter": "None", "instagram": "None", "facebook": "None", "youtube": "None", "website": "None", "summary": "None", "logo": "None", "latitude": 50.95739924202203, "longitude": -114.03575415999201}, "844330993RR0001": {"name": "WILD ROSE HUMANE SOCIETY", "designationCode": "C", "categoryCode": "54", "address": "93 HERITAGE DRIVE", "city": "COCHRANE", "province": "AB", "country": "CA", "postalCode": "T4C0E2", "twitter": "None", "instagram": "None", "facebook": "None", "youtube": "None", "website": "None", "summary": "None", "logo": "None", "latitude": 51.20749328428787, "longitude": -114.5081966195571}, "119123404RR0001": {"name": "WILD ROSE UNITED CHURCH", "designationCode": "C", "categoryCode": "44", "address": "1317 FIRST STREET NW", "city": "CALGARY", "province": "AB", "country": "CA", "postalCode": "T2M2S5", "twitter": "None", "instagram": "None", "facebook": "None", "youtube": "None", "website": "None", "summary": "None", "logo": "None", "latitude": 51.063893580904846, "longitude": -114.0650262324714}, "892562182RR0001": {"name": "WILD ROSE UNITED CHURCH FOUNDATION", "designationCode": "A", "categoryCode": "43", "address": "1317 1 ST NW", "city": "CALGARY", "province": "AB", "country": "CA", "postalCode": "T2M2S5", "twitter": "None", "instagram": "None", "facebook": "None", "youtube": "None", "website": "None", "summary": "None", "logo": "None", "latitude": 51.063893580904846, "longitude": -114.0650262324714}, "868580887RR0001": {"name": "WILD ROSE WEST CEMETERY", "designationCode": "C", "categoryCode": "59", "address": "1 - 190 26TH ST E", "city": "PRINCE ALBERT", "province": "SK", "country": "CA", "postalCode": "S6V1Z7", "twitter": "None", "instagram": "None", "facebook": "None", "youtube": "None", "website": "None", "summary": "None", "logo": "None", "latitude": 53.189527500000004, "longitude": -105.75040050000001}, "892819723RR0001": {"name": "WILD SHEEP FOUNDATION ALBERTA", "designationCode": "C", "categoryCode": "54", "address": "BOX 2639", "city": "ROCKY MOUNTAIN HOUSE", "province": "AB", "country": "CA", "postalCode": "T4T1L6", "twitter": "None", "instagram": "None", "facebook": "None", "youtube": "None", "website": "None", "summary": "None", "logo": "None", "latitude": 52.37758500000005, "longitude": -114.93030049999993}, "108208489RR0001": {"name": "WILD STRAWBERRY CHILDREN'S CENTRE INC.", "designationCode": "C", "categoryCode": "01", "address": "659 ALVERSTONE ST", "city": "WINNIPEG", "province": "MB", "country": "CA", "postalCode": "R3E2G8", "twitter": "None", "instagram": "None", "facebook": "None", "youtube": "None", "website": "None", "summary": "None", "logo": "None", "latitude": 49.897745655549045, "longitude": -97.16976219037775}, "844837393RR0001": {"name": "WILDAID CANADA SOCIETY", "designationCode": "C", "categoryCode": "54", "address": "1100-120 EGLINTON AVE E", "city": "TORONTO", "province": "ON", "country": "CA", "postalCode": "M4P1E2", "twitter": "None", "instagram": "None", "facebook": "None", "youtube": "None", "website": "None", "summary": "None", "logo": "None", "latitude": 43.7089009100495, "longitude": -79.38780176683875}, "856080205RR0001": {"name": "WILDERNESS CHURCH", "designationCode": "C", "categoryCode": "39", "address": "403 - 950 ARBOUR LAKE RD NW", "city": "CALGARY", "province": "AB", "country": "CA", "postalCode": "T3G5B3", "twitter": "None", "instagram": "None", "facebook": "None", "youtube": "None", "website": "None", "summary": "None", "logo": "None", "latitude": 51.13347506411219, "longitude": -114.21297624588851}, "119298099RR0001": {"name": "WILDERNESS MINISTRIES INC", "designationCode": "C", "categoryCode": "47", "address": "PO BOX 602", "city": "NIPAWIN", "province": "SK", "country": "CA", "postalCode": "S0E1E0", "twitter": "None", "instagram": "None", "facebook": "None", "youtube": "None", "website": "None", "summary": "None", "logo": "None", "latitude": 53.396118, "longitude": -104.00834700000001}, "836148361RR0001": {"name": "WILDERNESS YOUTH CHALLENGE PROGRAM", "designationCode": "C", "categoryCode": "57", "address": "78 AMBER CRESCENT", "city": "ST. ALBERT", "province": "AB", "country": "CA", "postalCode": "T8N2J1", "twitter": "None", "instagram": "None", "facebook": "None", "youtube": "None", "website": "None", "summary": "None", "logo": "None", "latitude": 53.63434208993587, "longitude": -113.59104443738836}, "118782317RR0001": {"name": "WILDLANDS LEAGUE", "designationCode": "C", "categoryCode": "52", "address": "401 RICHMOND STREET WEST      SUITE 380", "city": "TORONTO", "province": "ON", "country": "CA", "postalCode": "M5V3A8", "twitter": "None", "instagram": "None", "facebook": "None", "youtube": "None", "website": "None", "summary": "None", "logo": "None", "latitude": 43.64803297305114, "longitude": -79.39483379779568}, "119298131RR0001": {"name": "WILDLIFE HABITAT CANADA/ HABITAT FAUNIQUE CANADA", "designationCode": "C", "categoryCode": "52", "address": "247 - 2039 ROBERTSON RD", "city": "NEPEAN", "province": "ON", "country": "CA", "postalCode": "K2H8R2", "twitter": "None", "instagram": "None", "facebook": "None", "youtube": "None", "website": "None", "summary": "None", "logo": "None", "latitude": 45.323512487967875, "longitude": -75.82981100017288}, "891710535RR0001": {"name": "WILDLIFE PRESERVATION CANADA/CONSERVATION DE LA FAUNE AU CA NADA", "designationCode": "C", "categoryCode": "54", "address": "5420 HIGHWAY 6                RR 5", "city": "GUELPH", "province": "ON", "country": "CA", "postalCode": "N1H6J2", "twitter": "None", "instagram": "None", "facebook": "None", "youtube": "None", "website": "None", "summary": "None", "logo": "None", "latitude": 43.57296517735107, "longitude": -80.28245636726805}, "893492371RR0001": {"name": "WILDLIFE REHABILITATION SOCIETY OF EDMONTON", "designationCode": "C", "categoryCode": "54", "address": "12515 128 ST NW", "city": "EDMONTON", "province": "AB", "country": "CA", "postalCode": "T5L1C9", "twitter": "None", "instagram": "None", "facebook": "None", "youtube": "None", "website": "None", "summary": "None", "logo": "None", "latitude": 53.58172458090485, "longitude": -113.54281419799204}, "899049399RR0001": {"name": "WILDLIFE REHABILITATION SOCIETY OF SASKATCHEWAN INC", "designationCode": "C", "categoryCode": "54", "address": "P O BOX 24004                 MIDTOWN POSTAL OUTLET", "city": "SASKATOON", "province": "SK", "country": "CA", "postalCode": "S7K8B4", "twitter": "None", "instagram": "None", "facebook": "None", "youtube": "None", "website": "None", "summary": "None", "logo": "None", "latitude": 52.13049000000005, "longitude": -106.65926449999994}, "899447981RR0001": {"name": "WILDLIFE RESCUE NETWORK INC.", "designationCode": "C", "categoryCode": "54", "address": "2 RED RIVER PLACE", "city": "R.M.OF ST-ANDREWS", "province": "MB", "country": "CA", "postalCode": "R1A2V2", "twitter": "None", "instagram": "None", "facebook": "None", "youtube": "None", "website": "None", "summary": "None", "logo": "None", "latitude": 50.03696121625112, "longitude": -97.0088089796861}, "867883985RR0001": {"name": "WILDROSE POLIO SUPPORT SOCIETY", "designationCode": "C", "categoryCode": "11", "address": "132 WARWICK ROAD", "city": "EDMONTON", "province": "AB", "country": "CA", "postalCode": "T5X4P8", "twitter": "None", "instagram": "None", "facebook": "None", "youtube": "None", "website": "None", "summary": "None", "logo": "None", "latitude": 53.62605252429447, "longitude": -113.53090257253764}, "134892496RR0001": {"name": "WILDSIGHT", "designationCode": "C", "categoryCode": "59", "address": "2-495 WALLINGER AVE", "city": "KIMBERLEY", "province": "BC", "country": "CA", "postalCode": "V1A1Z6", "twitter": "None", "instagram": "None", "facebook": "None", "youtube": "None", "website": "None", "summary": "None", "logo": "None", "latitude": 49.68305323120201, "longitude": -115.98422198615019}, "119298164RR0001": {"name": "WILDWOOD BIBLE CAMP", "designationCode": "C", "categoryCode": "56", "address": "50 WATSON LANE RR#1", "city": "UTTERSON", "province": "ON", "country": "CA", "postalCode": "P0B1M0", "twitter": "None", "instagram": "None", "facebook": "None", "youtube": "None", "website": "None", "summary": "None", "logo": "None", "latitude": 45.23309901252214, "longitude": -79.32112696476992}, "108208505RR0001": {"name": "WILDWOOD CHAPEL (INTERDENOMINATIONAL)", "designationCode": "C", "categoryCode": "47", "address": "BOX 34", "city": "WILDWOOD", "province": "AB", "country": "CA", "postalCode": "T0E2M0", "twitter": "None", "instagram": "None", "facebook": "None", "youtube": "None", "website": "None", "summary": "None", "logo": "None", "latitude": 53.60579000000007, "longitude": -115.23706999999996}, "119298180RR0001": {"name": "WILDWOOD COMMUNITY CHURCH", "designationCode": "C", "categoryCode": "39", "address": "BOX 137", "city": "BOWSER", "province": "BC", "country": "CA", "postalCode": "V0R1G0", "twitter": "None", "instagram": "None", "facebook": "None", "youtube": "None", "website": "None", "summary": "None", "logo": "None", "latitude": 49.4340082596226, "longitude": -124.66596648716988}, "817256548RR0001": {"name": "WILDWOOD EVANSBURG ENTWISTLE COMMUNITY FOOD BANK SOCIETY", "designationCode": "C", "categoryCode": "09", "address": "BOX 483", "city": "EVANSBURG", "province": "AB", "country": "CA", "postalCode": "T0E0T0", "twitter": "None", "instagram": "None", "facebook": "None", "youtube": "None", "website": "None", "summary": "None", "logo": "None", "latitude": 53.59391000000005, "longitude": -115.02120999999994}, "861012102RR0001": {"name": "WILDWOOD FELLOWSHIP CHURCH", "designationCode": "C", "categoryCode": "39", "address": "BOX 133 STN WHONNOCK", "city": "MAPLE RIDGE", "province": "BC", "country": "CA", "postalCode": "V2W1V9", "twitter": "None", "instagram": "None", "facebook": "None", "youtube": "None", "website": "None", "summary": "None", "logo": "None", "latitude": 49.20843000000008, "longitude": -122.44787999999994}, "882353311RR0001": {"name": "WILDWOOD LEARNING CENTRE", "designationCode": "B", "categoryCode": "20", "address": "2250 SHERIDAN GARDEN DRIVE", "city": "OAKVILLE", "province": "ON", "country": "CA", "postalCode": "L6J7T1", "twitter": "None", "instagram": "None", "facebook": "None", "youtube": "None", "website": "None", "summary": "None", "logo": "None", "latitude": 43.49072670745579, "longitude": -79.65647072909586}, "108208570RR0001": {"name": "WILDWOOD MENNONITE CHURCH", "designationCode": "C", "categoryCode": "34", "address": "1502 ACADIA DR", "city": "SASKATOON", "province": "SK", "country": "CA", "postalCode": "S7H5H8", "twitter": "None", "instagram": "None", "facebook": "None", "youtube": "None", "website": "None", "summary": "None", "logo": "None", "latitude": 52.10732649708581, "longitude": -106.59892570944635}, "130754252RR0001": {"name": "WILDWOOD PLAY SCHOOL", "designationCode": "C", "categoryCode": "20", "address": "PO BOX 34145 RPO WESTBROOK", "city": "CALGARY", "province": "AB", "country": "CA", "postalCode": "T3C3W2", "twitter": "None", "instagram": "None", "facebook": "None", "youtube": "None", "website": "None", "summary": "None", "logo": "None", "latitude": 51.04149007501829, "longitude": -114.14100994835258}, "891718041RR0001": {"name": "WILDWOOD SENIOR CITIZENS CLUB", "designationCode": "C", "categoryCode": "56", "address": "BOX 464", "city": "WILDWOOD", "province": "AB", "country": "CA", "postalCode": "T0E2M0", "twitter": "None", "instagram": "None", "facebook": "None", "youtube": "None", "website": "None", "summary": "None", "logo": "None", "latitude": 53.60579000000007, "longitude": -115.23706999999996}, "118818491RR0058": {"name": "WILDWOOD SEVENTH-DAY ADVENTIST CHURCH", "designationCode": "C", "categoryCode": "41", "address": "PO 1000", "city": "ABBOTSFORD", "province": "BC", "country": "CA", "postalCode": "V2S4P5", "twitter": "None", "instagram": "None", "facebook": "None", "youtube": "None", "website": "None", "summary": "None", "logo": "None", "latitude": 49.03851300000005, "longitude": -122.29441549999993}, "891005944RR0001": {"name": "WILF AND JEAN BELL FOUNDATION", "designationCode": "B", "categoryCode": "55", "address": "367 QUEENS AVE", "city": "LONDON", "province": "ON", "country": "CA", "postalCode": "N6B1X5", "twitter": "None", "instagram": "None", "facebook": "None", "youtube": "None", "website": "None", "summary": "None", "logo": "None", "latitude": 42.98726359412545, "longitude": -81.24185893941777}, "108208786RR0002": {"name": "WILFRID LAURIER UNIVERSITY", "designationCode": "C", "categoryCode": "20", "address": "75 UNIVERSITY AVE WEST", "city": "WATERLOO", "province": "ON", "country": "CA", "postalCode": "N2L3C5", "twitter": "None", "instagram": "None", "facebook": "None", "youtube": "None", "website": "None", "summary": "None", "logo": "None", "latitude": 43.474871381037815, "longitude": -80.52850186744779}, "891898587RR0001": {"name": "WILFRID LAURIER UNIVERSITY EMPLOYEE'S CHARITY TRUST", "designationCode": "B", "categoryCode": "75", "address": "75 UNIVERSITY AVE W", "city": "WATERLOO", "province": "ON", "country": "CA", "postalCode": "N2L3C5", "twitter": "None", "instagram": "None", "facebook": "None", "youtube": "None", "website": "None", "summary": "None", "logo": "None", "latitude": 43.474871381037815, "longitude": -80.52850186744779}, "108208828RR0001": {"name": "WILFRID PASTORAL CHARGE", "designationCode": "C", "categoryCode": "44", "address": "24 CEDARTAM STREET            RR 1", "city": "PEFFERLAW", "province": "ON", "country": "CA", "postalCode": "L0E1N0", "twitter": "None", "instagram": "None", "facebook": "None", "youtube": "None", "website": "None", "summary": "None", "logo": "None", "latitude": 44.2664410552254, "longitude": -79.18802537125603}, "119298263RR0001": {"name": "WILHELMINA EVANGELICAL LUTHERAN CHURCH", "designationCode": "C", "categoryCode": "32", "address": "BOX 148", "city": "HAY LAKES", "province": "AB", "country": "CA", "postalCode": "T0B1W0", "twitter": "None", "instagram": "None", "facebook": "None", "youtube": "None", "website": "None", "summary": "None", "logo": "None", "latitude": 53.30343927264969, "longitude": -113.17427122370117}, "119298289RR0001": {"name": "WILKESPORT UNITED CHURCH", "designationCode": "C", "categoryCode": "44", "address": "908 BENTPATH LINE", "city": "SOMBRA", "province": "ON", "country": "CA", "postalCode": "N0P2H0", "twitter": "None", "instagram": "None", "facebook": "None", "youtube": "None", "website": "None", "summary": "None", "logo": "None", "latitude": 42.71618251211812, "longitude": -82.39753044601535}, "119298313RR0001": {"name": "WILKIE & DISTRICT COMBINED APPEAL DONOR S CHOICE", "designationCode": "A", "categoryCode": "05", "address": "BOX 580", "city": "WILKIE", "province": "SK", "country": "CA", "postalCode": "S0K4W0", "twitter": "None", "instagram": "None", "facebook": "None", "youtube": "None", "website": "None", "summary": "None", "logo": "None", "latitude": 52.410810000000026, "longitude": -108.70070999999996}, "889318994RR0001": {"name": "WILKIE AND DISTRICT HEALTH FOUNDATION", "designationCode": "C", "categoryCode": "19", "address": "PO BOX 580", "city": "WILKIE", "province": "SK", "country": "CA", "postalCode": "S0K4W0", "twitter": "None", "instagram": "None", "facebook": "None", "youtube": "None", "website": "None", "summary": "None", "logo": "None", "latitude": 52.410810000000026, "longitude": -108.70070999999996}, "108209057RR0001": {"name": "WILKIE AND DISTRICT HISTORICAL MUSEUM SOCIETY", "designationCode": "C", "categoryCode": "50", "address": "BOX 868", "city": "WILKIE", "province": "SK", "country": "CA", "postalCode": "S0K4W0", "twitter": "None", "instagram": "None", "facebook": "None", "youtube": "None", "website": "None", "summary": "None", "logo": "None", "latitude": 52.410810000000026, "longitude": -108.70070999999996}, "119298339RR0001": {"name": "WILKIE PASTORAL CHARGE,", "designationCode": "C", "categoryCode": "44", "address": "BOX 66", "city": "WILKIE", "province": "SK", "country": "CA", "postalCode": "S0K4W0", "twitter": "None", "instagram": "None", "facebook": "None", "youtube": "None", "website": "None", "summary": "None", "logo": "None", "latitude": 52.410810000000026, "longitude": -108.70070999999996}, "866523137RR0001": {"name": "WILKIE PENTECOSTAL CHAPEL", "designationCode": "C", "categoryCode": "36", "address": "BOX 1086", "city": "WILKIE", "province": "SK", "country": "CA", "postalCode": "S0K4W0", "twitter": "None", "instagram": "None", "facebook": "None", "youtube": "None", "website": "None", "summary": "None", "logo": "None", "latitude": 52.410810000000026, "longitude": -108.70070999999996}, "863265674RR0001": {"name": "WILL GO MINISTRIES (CANADA)", "designationCode": "C", "categoryCode": "47", "address": "10120 NUMBER 2 ROAD", "city": "RICHMOND", "province": "BC", "country": "CA", "postalCode": "V7E2E3", "twitter": "None", "instagram": "None", "facebook": "None", "youtube": "None", "website": "None", "summary": "None", "logo": "None", "latitude": 49.13984677990652, "longitude": -123.15892201661977}, "889257473RR0001": {"name": "WILLIAM & EDITH GOLDING MEMORIAL FUND 14671001", "designationCode": "B", "categoryCode": "05", "address": "155 WELLINGTON ST W           20TH FLOOR", "city": "TORONTO", "province": "ON", "country": "CA", "postalCode": "M5V3K7", "twitter": "None", "instagram": "None", "facebook": "None", "youtube": "None", "website": "None", "summary": "None", "logo": "None", "latitude": 43.64596585316531, "longitude": -79.38574575644876}, "119298461RR0001": {"name": "WILLIAM & FLORENCE LEDE FAMILY FOUNDATION", "designationCode": "B", "categoryCode": "13", "address": "12421 29A AVENUE", "city": "EDMONTON", "province": "AB", "country": "CA", "postalCode": "T6J6C7", "twitter": "None", "instagram": "None", "facebook": "None", "youtube": "None", "website": "None", "summary": "None", "logo": "None", "latitude": 53.46004319980972, "longitude": -113.54393090394728}, "889312971RR0001": {"name": "WILLIAM & LYNNE GRAY FOUNDATION", "designationCode": "B", "categoryCode": "03", "address": "R.R. #7", "city": "STRATHROY", "province": "ON", "country": "CA", "postalCode": "N7G3H8", "twitter": "None", "instagram": "None", "facebook": "None", "youtube": "None", "website": "None", "summary": "None", "logo": "None", "latitude": 42.94815900000006, "longitude": -81.67608799999994}, "141034512RR0001": {"name": "WILLIAM ABERHART MUSIC PARENTS ASSOCIATION", "designationCode": "C", "categoryCode": "22", "address": "3009 MORLEY TRAIL NW", "city": "CALGARY", "province": "AB", "country": "CA", "postalCode": "T2M4G9", "twitter": "None", "instagram": "None", "facebook": "None", "youtube": "None", "website": "None", "summary": "None", "logo": "None", "latitude": 51.07862388842404, "longitude": -114.11428356425641}, "889238465RR0001": {"name": "WILLIAM AND GLADYS JARVIS FOUNDATION", "designationCode": "B", "categoryCode": "05", "address": "1402 - 1 KING ST W", "city": "HAMILTON", "province": "ON", "country": "CA", "postalCode": "L8P1A4", "twitter": "None", "instagram": "None", "facebook": "None", "youtube": "None", "website": "None", "summary": "None", "logo": "None", "latitude": 43.26019321073324, "longitude": -79.88135629363086}, "843745928RR0001": {"name": "WILLIAM AND MARY DORSSERS FOUNDATION", "designationCode": "B", "categoryCode": "21", "address": "101 ELLEN ST                  P.O. BOX 1933", "city": "BLENHEIM", "province": "ON", "country": "CA", "postalCode": "N0P1A0", "twitter": "None", "instagram": "None", "facebook": "None", "youtube": "None", "website": "None", "summary": "None", "logo": "None", "latitude": 42.333772106584306, "longitude": -82.00029409215757}, "118941970RR0001": {"name": "WILLIAM BLACK MEMORIAL UNITED CHURCH", "designationCode": "C", "categoryCode": "44", "address": "P.O. BOX 118", "city": "BRIDGETOWN", "province": "NS", "country": "CA", "postalCode": "B0S1C0", "twitter": "None", "instagram": "None", "facebook": "None", "youtube": "None", "website": "None", "summary": "None", "logo": "None", "latitude": 44.85015000000004, "longitude": -65.29881999999998}, "890796568RR0002": {"name": "WILLIAM BLACK MEMORIAL UNITED CHURCH", "designationCode": "C", "categoryCode": "44", "address": "10515 PEGGYS COVE ROAD", "city": "GLEN MARGARET", "province": "NS", "country": "CA", "postalCode": "B3Z3G9", "twitter": "None", "instagram": "None", "facebook": "None", "youtube": "None", "website": "None", "summary": "None", "logo": "None", "latitude": 44.58627141355524, "longitude": -63.91551274811022}, "119298453RR0001": {"name": "WILLIAM F HAYBALL CHARITABLE FOUNDATION", "designationCode": "B", "categoryCode": "53", "address": "408-73 RICHMOND ST W", "city": "TORONTO", "province": "ON", "country": "CA", "postalCode": "M5H4E8", "twitter": "None", "instagram": "None", "facebook": "None", "youtube": "None", "website": "None", "summary": "None", "logo": "None", "latitude": 43.65076373122454, "longitude": -79.38307050453754}, "126236645RR0001": {"name": "WILLIAM J. CADZOW HOSPITAL AUXILIARY ASSOCIATION", "designationCode": "C", "categoryCode": "19", "address": "POST OFFICE BOX 507", "city": "LAC LA BICHE", "province": "AB", "country": "CA", "postalCode": "T0A2C0", "twitter": "None", "instagram": "None", "facebook": "None", "youtube": "None", "website": "None", "summary": "None", "logo": "None", "latitude": 54.77110000000005, "longitude": -111.97444999999999}, "119298495RR0001": {"name": "WILLIAM JAMES HENDERSON FOUNDATION", "designationCode": "B", "categoryCode": "03", "address": "HICKEY & HICKEY, BARRISTERS & SOLICITORS, 93 CLARENCE STREET", "city": "KINGSTON", "province": "ON", "country": "CA", "postalCode": "K7L4V6", "twitter": "None", "instagram": "None", "facebook": "None", "youtube": "None", "website": "None", "summary": "None", "logo": "None", "latitude": 44.23013506440066, "longitude": -76.48285920745577}, "137006771RR0001": {"name": "WILLIAM MERCER WILSON NON-PROFIT CENTRE (LONDON) INC", "designationCode": "C", "categoryCode": "01", "address": "453 DUFFERIN AVENUE", "city": "LONDON", "province": "ON", "country": "CA", "postalCode": "N6B1Z7", "twitter": "None", "instagram": "None", "facebook": "None", "youtube": "None", "website": "None", "summary": "None", "logo": "None", "latitude": 42.98947514458435, "longitude": -81.23911606604543}, "107830713RR0001": {"name": "WILLIAM OSLER HEALTH SYSTEM", "designationCode": "C", "categoryCode": "10", "address": "2100 BOVAIRD ST E", "city": "BRAMPTON", "province": "ON", "country": "CA", "postalCode": "L6R3J7", "twitter": "None", "instagram": "None", "facebook": "None", "youtube": "None", "website": "None", "summary": "None", "logo": "None", "latitude": 43.74450384790733, "longitude": -79.74428060790696}, "132258716RR0001": {"name": "WILLIAM OSLER HEALTH SYSTEM VOLUNTEER ASSOCIATION", "designationCode": "C", "categoryCode": "19", "address": "2100 BOVAIRD DRIVE", "city": "BRAMPTON", "province": "ON", "country": "CA", "postalCode": "L6R3J7", "twitter": "None", "instagram": "None", "facebook": "None", "youtube": "None", "website": "None", "summary": "None", "logo": "None", "latitude": 43.74450384790733, "longitude": -79.74428060790696}, "899003727RR0001": {"name": "WILLIAM VOORTMAN FUND", "designationCode": "B", "categoryCode": "03", "address": "P.O. BOX #202", "city": "WATERDOWN", "province": "ON", "country": "CA", "postalCode": "L0R2H0", "twitter": "None", "instagram": "None", "facebook": "None", "youtube": "None", "website": "None", "summary": "None", "logo": "None", "latitude": 43.329109500000015, "longitude": -79.8842655}, "108212952RR0001": {"name": "WILLIAM W. CREIGHTON YOUTH SERVICES", "designationCode": "C", "categoryCode": "01", "address": "P.O. BOX 10632", "city": "THUNDER BAY", "province": "ON", "country": "CA", "postalCode": "P7B6V1", "twitter": "None", "instagram": "None", "facebook": "None", "youtube": "None", "website": "None", "summary": "None", "logo": "None", "latitude": 48.38168400000005, "longitude": -89.24550199999993}, "893198564RR0001": {"name": "WILLIAM WATSON LODGE SOCIETY", "designationCode": "C", "categoryCode": "56", "address": "PO BOX 30344 RPO CHINOOK      6455 MACLEOD TRAIL SOUTH", "city": "CALGARY", "province": "AB", "country": "CA", "postalCode": "T2H2W1", "twitter": "None", "instagram": "None", "facebook": "None", "youtube": "None", "website": "None", "summary": "None", "logo": "None", "latitude": 51.005367448320385, "longitude": -114.06985238465288}, "883569212RR0001": {"name": "WILLIAMS FAMILY FOUNDATION INC.", "designationCode": "B", "categoryCode": "13", "address": "P.O. BOX 1919", "city": "ST JOHN'S", "province": "NL", "country": "CA", "postalCode": "A1C5R4", "twitter": "None", "instagram": "None", "facebook": "None", "youtube": "None", "website": "None", "summary": "None", "logo": "None", "latitude": 47.56082100000006, "longitude": -52.71219349999993}, "899072946RR0001": {"name": "WILLIAMS LAKE & DISTRICT SOCIETY FOR PEOPLE IN MOTION", "designationCode": "C", "categoryCode": "09", "address": "100-529 CARSON DRIVE", "city": "WILLIAMS LAKE", "province": "BC", "country": "CA", "postalCode": "V2G1T4", "twitter": "None", "instagram": "None", "facebook": "None", "youtube": "None", "website": "None", "summary": "None", "logo": "None", "latitude": 52.13363590471513, "longitude": -122.14028206799046}, "108212465RR0001": {"name": "WILLIAMS LAKE ALLIANCE CHURCH", "designationCode": "C", "categoryCode": "39", "address": "261 3RD AVE S", "city": "WILLIAMS LAKE", "province": "BC", "country": "CA", "postalCode": "V2G1J5", "twitter": "None", "instagram": "None", "facebook": "None", "youtube": "None", "website": "None", "summary": "None", "logo": "None", "latitude": 52.12544352844941, "longitude": -122.14260438885674}, "119298610RR0001": {"name": "WILLIAMS LAKE AND DISTRICT DAY CARE SOCIETY", "designationCode": "C", "categoryCode": "20", "address": "660 SECOND AVE N", "city": "WILLIAMS LAKE", "province": "BC", "country": "CA", "postalCode": "V2G4C4", "twitter": "None", "instagram": "None", "facebook": "None", "youtube": "None", "website": "None", "summary": "None", "logo": "None", "latitude": 52.13887082488879, "longitude": -122.15071693637874}, "890304397RR0001": {"name": "WILLIAMS LAKE AND DISTRICT SENIORS ACTIVITY CENTRE SOCIETY", "designationCode": "C", "categoryCode": "56", "address": "176 NORTH 4TH AVE", "city": "WILLIANS LAKE", "province": "BC", "country": "CA", "postalCode": "V2G2C7", "twitter": "None", "instagram": "None", "facebook": "None", "youtube": "None", "website": "None", "summary": "None", "logo": "None"}, "119298602RR0001": {"name": "WILLIAMS LAKE ASSOCIATION FOR COMMUNITY LIVING", "designationCode": "C", "categoryCode": "01", "address": "BOX 6001", "city": "WILLIAMS LAKE", "province": "BC", "country": "CA", "postalCode": "V2G3W2", "twitter": "None", "instagram": "None", "facebook": "None", "youtube": "None", "website": "None", "summary": "None", "logo": "None", "latitude": 52.12864500000006, "longitude": -122.14108249999992}, "886434190RR0001": {"name": "WILLIAMS LAKE CRIME STOPPERS ASSOCIATION", "designationCode": "C", "categoryCode": "59", "address": "575 BORLAND STREET", "city": "WILLIAMS LAKE", "province": "BC", "country": "CA", "postalCode": "V2G1R9", "twitter": "None", "instagram": "None", "facebook": "None", "youtube": "None", "website": "None", "summary": "None", "logo": "None", "latitude": 52.12988849235396, "longitude": -122.13794305536962}, "119298644RR0001": {"name": "WILLIAMS LAKE FIELD NATURALISTS", "designationCode": "C", "categoryCode": "56", "address": "1305A BORLAND RD", "city": "WILLIAMS LAKE", "province": "BC", "country": "CA", "postalCode": "V2G5K5", "twitter": "None", "instagram": "None", "facebook": "None", "youtube": "None", "website": "None", "summary": "None", "logo": "None", "latitude": 52.123331202412736, "longitude": -122.11992669655943}, "893125641RR0001": {"name": "WILLIAMS LAKE HOSPICE SOCIETY", "designationCode": "C", "categoryCode": "11", "address": "517 6TH AVE NORTH", "city": "WILLIAMS LAKE", "province": "BC", "country": "CA", "postalCode": "V2G2G8", "twitter": "None", "instagram": "None", "facebook": "None", "youtube": "None", "website": "None", "summary": "None", "logo": "None", "latitude": 52.1381019213823, "longitude": -122.14286175998356}, "119298651RR0001": {"name": "WILLIAMS LAKE MUSEUM & HISTORICAL SOCIETY", "designationCode": "C", "categoryCode": "50", "address": "B - 1660 BROADWAY AVE S", "city": "WILLIAMS LAKE", "province": "BC", "country": "CA", "postalCode": "V2G2W4", "twitter": "None", "instagram": "None", "facebook": "None", "youtube": "None", "website": "None", "summary": "None", "logo": "None", "latitude": 52.122605352229044, "longitude": -122.09845469165245}, "118818491RR0035": {"name": "WILLIAMS LAKE SEVENTH-DAY ADVENTIST CHURCH", "designationCode": "C", "categoryCode": "41", "address": "PO 1000", "city": "ABBOTSFORD", "province": "BC", "country": "CA", "postalCode": "V2S4P5", "twitter": "None", "instagram": "None", "facebook": "None", "youtube": "None", "website": "None", "summary": "None", "logo": "None", "latitude": 49.03851300000005, "longitude": -122.29441549999993}, "119298685RR0001": {"name": "WILLIAMS LAKE STUDIO THEATRE SOCIETY", "designationCode": "C", "categoryCode": "22", "address": "P. O. BOX 4473", "city": "WILLIAMS LAKE", "province": "BC", "country": "CA", "postalCode": "V2G2V5", "twitter": "None", "instagram": "None", "facebook": "None", "youtube": "None", "website": "None", "summary": "None", "logo": "None", "latitude": 52.12864500000006, "longitude": -122.14108249999992}, "816962344RR0001": {"name": "WILLIAMS LAKE SUNSHINE AND SMILES SOCIETY", "designationCode": "C", "categoryCode": "01", "address": "1087 MIDNIGHT DR", "city": "WILLIAMS LAKE", "province": "BC", "country": "CA", "postalCode": "V2G5K7", "twitter": "None", "instagram": "None", "facebook": "None", "youtube": "None", "website": "None", "summary": "None", "logo": "None", "latitude": 52.154958101304175, "longitude": -122.15513797905241}, "888540457RR0001": {"name": "WILLIAMS S HERRON CHARITABLE FOUNDATION", "designationCode": "B", "categoryCode": "03", "address": "310 MCKENZIE TOWNE GATE SE    SUITE 2412", "city": "CALGARY", "province": "AB", "country": "CA", "postalCode": "T2Z1E6", "twitter": "None", "instagram": "None", "facebook": "None", "youtube": "None", "website": "None", "summary": "None", "logo": "None", "latitude": 50.91328171686219, "longitude": -113.95624839583989}, "843090945RR0001": {"name": "WILLIAMS WILSON SHERPORT FOUNDATION", "designationCode": "B", "categoryCode": "03", "address": "1 TORONTO STREET              SUITE 808", "city": "TORONTO", "province": "ON", "country": "CA", "postalCode": "M5C2V6", "twitter": "None", "instagram": "None", "facebook": "None", "youtube": "None", "website": "None", "summary": "None", "logo": "None", "latitude": 43.64988730558597, "longitude": -79.37604079929623}, "890226574RR0001": {"name": "WILLIAMSBURG CEMETERY FUND", "designationCode": "C", "categoryCode": "59", "address": "1883 ROUTE 107", "city": "WILLIAMSBURG", "province": "NB", "country": "CA", "postalCode": "E6B1W9", "twitter": "None", "instagram": "None", "facebook": "None", "youtube": "None", "website": "None", "summary": "None", "logo": "None", "latitude": 46.33589611459217, "longitude": -66.78048423284373}, "119298701RR0001": {"name": "WILLIAMSTOWN - ST ANDREWS UNITED CHURCH", "designationCode": "C", "categoryCode": "44", "address": "PO BOX 157", "city": "WILLIAMSTOWN", "province": "ON", "country": "CA", "postalCode": "K0C2J0", "twitter": "None", "instagram": "None", "facebook": "None", "youtube": "None", "website": "None", "summary": "None", "logo": "None", "latitude": 45.14653000000004, "longitude": -74.57874999999996}}