{"107784829RR0001": {"name": "NORTHSIDE MENNONITE CHURCH SOCIETY", "designationCode": "C", "categoryCode": "34", "address": "3337 VOTH RD", "city": "VANDERHOOF", "province": "BC", "country": "CA", "postalCode": "V0J3A0", "twitter": "None", "instagram": "None", "facebook": "None", "youtube": "None", "website": "None", "summary": "None", "logo": "None", "latitude": 54.02797208381904, "longitude": -124.04257471282281}, "119061570RR0001": {"name": "NORTHSIDE UNITED CHURCH", "designationCode": "C", "categoryCode": "44", "address": "41 GEORGE ST, EAST, BOX 266", "city": "SEAFORTH", "province": "ON", "country": "CA", "postalCode": "N0K1W0", "twitter": "None", "instagram": "None", "facebook": "None", "youtube": "None", "website": "None", "summary": "None", "logo": "None", "latitude": 43.549895778492875, "longitude": -81.39393189996522}, "892360769RR0001": {"name": "NORTHSIDE/HARBOURVIEW HOSPITAL FOUNDATION", "designationCode": "A", "categoryCode": "13", "address": "P.O. BOX 399                  520 PURVES STREET", "city": "NORTH SYDNEY", "province": "NS", "country": "CA", "postalCode": "B2A3M4", "twitter": "None", "instagram": "None", "facebook": "None", "youtube": "None", "website": "None", "summary": "None", "logo": "None", "latitude": 46.2172416908223, "longitude": -60.23541199375946}, "883146508RR0001": {"name": "NORTHSTAR CULTURAL COMMUNITY CENTRE", "designationCode": "C", "categoryCode": "56", "address": "225 A ERIE ST E", "city": "WINDSOR", "province": "ON", "country": "CA", "postalCode": "N9A3X2", "twitter": "None", "instagram": "None", "facebook": "None", "youtube": "None", "website": "None", "summary": "None", "logo": "None", "latitude": 42.310210432685174, "longitude": -83.03007343352188}, "889392049RR0001": {"name": "NORTHSTAR FELLOWSHIP BAPTIST CHURCH", "designationCode": "C", "categoryCode": "31", "address": "301 NORTH STAR ROAD", "city": "QUESNEL", "province": "BC", "country": "CA", "postalCode": "V2L5K2", "twitter": "None", "instagram": "None", "facebook": "None", "youtube": "None", "website": "None", "summary": "None", "logo": "None", "latitude": 52.98224679553091, "longitude": -122.46734546610145}, "894327774RR0001": {"name": "NORTHUMBERLAND & NEWCASTLE BOARD OF EDUCATION CHARITABLE TRUST", "designationCode": "C", "categoryCode": "21", "address": "1994 FISHER DRIVE             BOX 719", "city": "PETERBOROUGH", "province": "ON", "country": "CA", "postalCode": "K9J7A1", "twitter": "None", "instagram": "None", "facebook": "None", "youtube": "None", "website": "None", "summary": "None", "logo": "None", "latitude": 44.26026409074394, "longitude": -78.35251916965822}, "107785222RR0001": {"name": "NORTHUMBERLAND ARTS COUNCIL", "designationCode": "C", "categoryCode": "22", "address": "PO BOX 335", "city": "TATAMAGOUCHE", "province": "NS", "country": "CA", "postalCode": "B0K1V0", "twitter": "None", "instagram": "None", "facebook": "None", "youtube": "None", "website": "None", "summary": "None", "logo": "None", "latitude": 45.71288526208159, "longitude": -63.415849046616174}, "119061810RR0001": {"name": "NORTHUMBERLAND BIG SISTERS BIG BROTHERS INCORPORATED", "designationCode": "C", "categoryCode": "09", "address": "62 SWAYNE ST", "city": "COBOURG", "province": "ON", "country": "CA", "postalCode": "K9A1K5", "twitter": "None", "instagram": "None", "facebook": "None", "youtube": "None", "website": "None", "summary": "None", "logo": "None", "latitude": 43.96105512851285, "longitude": -78.16322799500833}, "132389362RR0001": {"name": "NORTHUMBERLAND CHILD DEVELOPMENT CENTRE", "designationCode": "C", "categoryCode": "11", "address": "205 PETER ST", "city": "PORT HOPE", "province": "ON", "country": "CA", "postalCode": "L1A3V6", "twitter": "None", "instagram": "None", "facebook": "None", "youtube": "None", "website": "None", "summary": "None", "logo": "None", "latitude": 43.9539701406892, "longitude": -78.27307363584177}, "893118786RR0001": {"name": "NORTHUMBERLAND CHRISTIAN OUTREACH CENTRE", "designationCode": "C", "categoryCode": "39", "address": "2694 FOXMEADOW RD", "city": "PETERBOROUGH", "province": "ON", "country": "CA", "postalCode": "K9L0A8", "twitter": "None", "instagram": "None", "facebook": "None", "youtube": "None", "website": "None", "summary": "None", "logo": "None", "latitude": 44.30403616905169, "longitude": -78.29081825465974}, "107785248RR0001": {"name": "NORTHUMBERLAND CHRISTIAN SCHOOL SOCIETY INC.", "designationCode": "C", "categoryCode": "20", "address": "8861 DANFORTH RD.", "city": "COBOURG", "province": "ON", "country": "CA", "postalCode": "K9A4J8", "twitter": "None", "instagram": "None", "facebook": "None", "youtube": "None", "website": "None", "summary": "None", "logo": "None", "latitude": 43.991887617722405, "longitude": -78.15829412207701}, "871463337RR0001": {"name": "NORTHUMBERLAND COMMUNITY SERVICE ORDER PROGRAM INC", "designationCode": "C", "categoryCode": "59", "address": "17 - 975 ELGIN ST W", "city": "COBOURG", "province": "ON", "country": "CA", "postalCode": "K9A5J3", "twitter": "None", "instagram": "None", "facebook": "None", "youtube": "None", "website": "None", "summary": "None", "logo": "None", "latitude": 43.97389754697929, "longitude": -78.1881239739539}, "119061836RR0001": {"name": "NORTHUMBERLAND CONGREGATION OF THE CHURCH OF GOD IN CHRIST MENNONITE, TATAMAGOUCHE, NOVA SCOTIA", "designationCode": "C", "categoryCode": "34", "address": "RR#1", "city": "TATAMAGOUCHE", "province": "NS", "country": "CA", "postalCode": "B0K1V0", "twitter": "None", "instagram": "None", "facebook": "None", "youtube": "None", "website": "None", "summary": "None", "logo": "None", "latitude": 45.71288526208159, "longitude": -63.415849046616174}, "119061844RR0001": {"name": "NORTHUMBERLAND COUNTY FOODBANKS", "designationCode": "C", "categoryCode": "09", "address": "PO BOX 572", "city": "COBOURG", "province": "ON", "country": "CA", "postalCode": "K9A4L3", "twitter": "None", "instagram": "None", "facebook": "None", "youtube": "None", "website": "None", "summary": "None", "logo": "None", "latitude": 43.95960600000005, "longitude": -78.16778449999994}, "890826266RR0001": {"name": "NORTHUMBERLAND FAMILY RESPITE SERVICES INC", "designationCode": "C", "categoryCode": "11", "address": "72 WALTON STREET", "city": "PORT HOPE", "province": "ON", "country": "CA", "postalCode": "L1A1N3", "twitter": "None", "instagram": "None", "facebook": "None", "youtube": "None", "website": "None", "summary": "None", "logo": "None", "latitude": 43.95165305941164, "longitude": -78.29428624379047}, "897853735RR0001": {"name": "NORTHUMBERLAND FISHERIES MUSEUM AND HERITAGE ASSOCIATION", "designationCode": "C", "categoryCode": "50", "address": "P O BOX 1489", "city": "PICTOU", "province": "NS", "country": "CA", "postalCode": "B0K1H0", "twitter": "None", "instagram": "None", "facebook": "None", "youtube": "None", "website": "None", "summary": "None", "logo": "None", "latitude": 45.67583400000005, "longitude": -62.70865099999993}, "895535698RR0001": {"name": "NORTHUMBERLAND HILLS HOSPITAL", "designationCode": "C", "categoryCode": "10", "address": "1000 DEPALMA DRIVE", "city": "COBOURG", "province": "ON", "country": "CA", "postalCode": "K9A5W6", "twitter": "None", "instagram": "None", "facebook": "None", "youtube": "None", "website": "None", "summary": "None", "logo": "None", "latitude": 43.97740561795415, "longitude": -78.19511099836033}, "121914923RR0001": {"name": "NORTHUMBERLAND HILLS HOSPITAL FOUNDATION", "designationCode": "A", "categoryCode": "13", "address": "1000 DEPALMA DRIVE", "city": "COBOURG", "province": "ON", "country": "CA", "postalCode": "K9A5W6", "twitter": "None", "instagram": "None", "facebook": "None", "youtube": "None", "website": "None", "summary": "None", "logo": "None", "latitude": 43.97740561795415, "longitude": -78.19511099836033}, "870609443RR0001": {"name": "NORTHUMBERLAND HUMANE SOCIETY", "designationCode": "C", "categoryCode": "54", "address": "371 WARD ST", "city": "PORT HOPE", "province": "ON", "country": "CA", "postalCode": "L1A4A4", "twitter": "None", "instagram": "None", "facebook": "None", "youtube": "None", "website": "None", "summary": "None", "logo": "None", "latitude": 43.95998985258839, "longitude": -78.27139528238801}, "892575903RR0001": {"name": "NORTHUMBERLAND LAND TRUST", "designationCode": "C", "categoryCode": "55", "address": "BOX 1153", "city": "COBOURG", "province": "ON", "country": "CA", "postalCode": "K9A5K4", "twitter": "None", "instagram": "None", "facebook": "None", "youtube": "None", "website": "None", "summary": "None", "logo": "None", "latitude": 43.96105500000006, "longitude": -78.13427299999994}, "119061869RR0001": {"name": "NORTHUMBERLAND ORCHESTRA SOCIETY", "designationCode": "C", "categoryCode": "22", "address": "PO BOX 1012", "city": "COBOURG", "province": "ON", "country": "CA", "postalCode": "K9A4W4", "twitter": "None", "instagram": "None", "facebook": "None", "youtube": "None", "website": "None", "summary": "None", "logo": "None", "latitude": 43.95960600000005, "longitude": -78.16778449999994}, "119061877RR0001": {"name": "NORTHUMBERLAND PASTORAL CHARGE", "designationCode": "C", "categoryCode": "44", "address": "5425 HIGHWAY 366", "city": "LORNEVILLE", "province": "NS", "country": "CA", "postalCode": "B4H3X9", "twitter": "None", "instagram": "None", "facebook": "None", "youtube": "None", "website": "None", "summary": "None", "logo": "None", "latitude": 45.988327908143646, "longitude": -63.94231951725227}, "119061885RR0001": {"name": "NORTHUMBERLAND PLAYERS", "designationCode": "C", "categoryCode": "22", "address": "213 SECOND ST", "city": "COBOURG", "province": "ON", "country": "CA", "postalCode": "K9A3N7", "twitter": "None", "instagram": "None", "facebook": "None", "youtube": "None", "website": "None", "summary": "None", "logo": "None", "latitude": 43.95957588480444, "longitude": -78.16743363379959}, "119061893RR0001": {"name": "NORTHUMBERLAND RECREATION ASSOCIATION INC.", "designationCode": "C", "categoryCode": "56", "address": "PO BOX 87", "city": "MURRAY RIVER", "province": "PE", "country": "CA", "postalCode": "C0A1W0", "twitter": "None", "instagram": "None", "facebook": "None", "youtube": "None", "website": "None", "summary": "None", "logo": "None", "latitude": 45.98806724330268, "longitude": -62.720381883269674}, "859142705RR0001": {"name": "NORTHUMBERLAND REGIONAL HIGH SCHOOL EDUCATIONAL SOCIETY", "designationCode": "C", "categoryCode": "25", "address": "104 ALMA ROAD, RR3", "city": "WESTVILLE", "province": "NS", "country": "CA", "postalCode": "B0K2A0", "twitter": "None", "instagram": "None", "facebook": "None", "youtube": "None", "website": "None", "summary": "None", "logo": "None", "latitude": 45.582730732313166, "longitude": -62.76109855717168}, "897773677RR0001": {"name": "NORTHUMBERLAND SALMON PROTECTION ASSOCIATION", "designationCode": "C", "categoryCode": "52", "address": "485 ROUTE 420", "city": "SOUTH ESK", "province": "NB", "country": "CA", "postalCode": "E1V4L9", "twitter": "None", "instagram": "None", "facebook": "None", "youtube": "None", "website": "None", "summary": "None", "logo": "None", "latitude": 46.95451615814293, "longitude": -65.65680695107805}, "135456358RR0002": {"name": "NORTHUMBERLAND SUPPORTIVE NON-PROFIT HOUSING CORPORATION", "designationCode": "C", "categoryCode": "01", "address": "580 COURTHOUSE ROAD", "city": "COBOURG", "province": "ON", "country": "CA", "postalCode": "K9A5J6", "twitter": "None", "instagram": "None", "facebook": "None", "youtube": "None", "website": "None", "summary": "None", "logo": "None", "latitude": 43.97324838721195, "longitude": -78.19547709287872}, "107785339RR0001": {"name": "NORTHUMBERLAND UNITED WAY", "designationCode": "A", "categoryCode": "05", "address": "62 SWAYNE ST", "city": "COBOURG", "province": "ON", "country": "CA", "postalCode": "K9A1K5", "twitter": "None", "instagram": "None", "facebook": "None", "youtube": "None", "website": "None", "summary": "None", "logo": "None", "latitude": 43.96105512851285, "longitude": -78.16322799500833}, "890782741RR0001": {"name": "NORTHUMBERLAND VETERANS ASSOCIATION", "designationCode": "C", "categoryCode": "09", "address": "222 HALIBURTON RD", "city": "PICTOU", "province": "NS", "country": "CA", "postalCode": "B0K1H0", "twitter": "None", "instagram": "None", "facebook": "None", "youtube": "None", "website": "None", "summary": "None", "logo": "None", "latitude": 45.67568031620352, "longitude": -62.72677401667708}, "132177296RR0001": {"name": "NORTHUMBERLAND YOUTH FOR CHRIST", "designationCode": "C", "categoryCode": "49", "address": "POST OFFICE BOX 462", "city": "COBOURG", "province": "ON", "country": "CA", "postalCode": "K9A4L1", "twitter": "None", "instagram": "None", "facebook": "None", "youtube": "None", "website": "None", "summary": "None", "logo": "None", "latitude": 43.95960600000005, "longitude": -78.16778449999994}, "858855547RR0001": {"name": "NORTHUP / LAWSON MEMORIAL TRUST FUND", "designationCode": "B", "categoryCode": "22", "address": "130 KING STREET WEST, 20TH FLOBOX 430 STN FIRST CANADIAN PLA", "city": "TORONTO", "province": "ON", "country": "CA", "postalCode": "M5X1K1", "twitter": "None", "instagram": "None", "facebook": "None", "youtube": "None", "website": "None", "summary": "None", "logo": "None", "latitude": 43.64868300000006, "longitude": -79.38544399999994}, "847519618RR0001": {"name": "NORTHVIEW COMMUNITY CHURCH", "designationCode": "C", "categoryCode": "34", "address": "32040 DOWNES RD  RR1", "city": "ABBOTSFORD", "province": "BC", "country": "CA", "postalCode": "V4X1X5", "twitter": "None", "instagram": "None", "facebook": "None", "youtube": "None", "website": "None", "summary": "None", "logo": "None", "latitude": 49.074451513994035, "longitude": -122.3374434888915}, "851226043RR0001": {"name": "NORTHVIEW COMMUNITY CHURCH OF PETERBOROUGH INC.", "designationCode": "C", "categoryCode": "36", "address": "1000 FAIRBAIRN ST", "city": "PETERBOROUGH", "province": "ON", "country": "CA", "postalCode": "K9K1C2", "twitter": "None", "instagram": "None", "facebook": "None", "youtube": "None", "website": "None", "summary": "None", "logo": "None", "latitude": 44.32151847684135, "longitude": -78.35084832522467}, "131856213RR0001": {"name": "NORTHVIEW COMMUNITY CHURCH-FREE METHODIST CHURCH IN CANADA", "designationCode": "C", "categoryCode": "39", "address": "744 SANGSTER BLVD", "city": "REGINA", "province": "SK", "country": "CA", "postalCode": "S4R7N8", "twitter": "None", "instagram": "None", "facebook": "None", "youtube": "None", "website": "None", "summary": "None", "logo": "None", "latitude": 50.487902493796255, "longitude": -104.63181202553523}, "123268336RR0001": {"name": "NORTHVIEW DAYCARE & NURSERY SCHOOL OF PETERBOROUGH", "designationCode": "C", "categoryCode": "20", "address": "1000 FAIRBAIRN ST", "city": "PETERBOROUGH", "province": "ON", "country": "CA", "postalCode": "K9K1C2", "twitter": "None", "instagram": "None", "facebook": "None", "youtube": "None", "website": "None", "summary": "None", "logo": "None", "latitude": 44.32151847684135, "longitude": -78.35084832522467}, "894693712RR0001": {"name": "NORTHVILLE FARM HERITAGE CENTRE", "designationCode": "C", "categoryCode": "56", "address": "6 FALLS VIEW PLACE", "city": "COLDBROOK", "province": "NS", "country": "CA", "postalCode": "B4R1B5", "twitter": "None", "instagram": "None", "facebook": "None", "youtube": "None", "website": "None", "summary": "None", "logo": "None", "latitude": 45.05981816013624, "longitude": -64.60016025327477}, "119131860RR0001": {"name": "NORTHWEST ALBERTA RESOURCE SOCIETY", "designationCode": "C", "categoryCode": "09", "address": "BOX 396", "city": "HIGH LEVEL", "province": "AB", "country": "CA", "postalCode": "T0H1Z0", "twitter": "None", "instagram": "None", "facebook": "None", "youtube": "None", "website": "None", "summary": "None", "logo": "None", "latitude": 58.52077909031678, "longitude": -117.13094845132863}, "872368212RR0001": {"name": "NORTHWEST ANIMAL SHELTER SOCIETY", "designationCode": "C", "categoryCode": "54", "address": "P.O. BOX 3064", "city": "SMITHERS", "province": "BC", "country": "CA", "postalCode": "V0J2N0", "twitter": "None", "instagram": "None", "facebook": "None", "youtube": "None", "website": "None", "summary": "None", "logo": "None", "latitude": 54.78312000000005, "longitude": -127.16847999999999}, "107785610RR0001": {"name": "NORTHWEST BAPTIST THEOLOGICAL COLLEGE", "designationCode": "C", "categoryCode": "20", "address": "7600 GLOVER ROAD", "city": "LANGLEY", "province": "BC", "country": "CA", "postalCode": "V2Y1Y1", "twitter": "None", "instagram": "None", "facebook": "None", "youtube": "None", "website": "None", "summary": "None", "logo": "None", "latitude": 49.14035608924, "longitude": -122.60750361270851}, "873672273RR0001": {"name": "NORTHWEST CANADA B'NAI B'RITH YOUTH ORGANIZATION SOCIETY", "designationCode": "C", "categoryCode": "49", "address": "10220-156 STREET              SUITE 200", "city": "EDMONTON", "province": "AB", "country": "CA", "postalCode": "T5P2R1", "twitter": "None", "instagram": "None", "facebook": "None", "youtube": "None", "website": "None", "summary": "None", "logo": "None", "latitude": 53.54370900000001, "longitude": -113.590396762046}, "899729214RR0001": {"name": "NORTHWEST CANADIAN GREYHOUND LEAGUE", "designationCode": "C", "categoryCode": "54", "address": "210-4745 54A STREET", "city": "DELTA", "province": "BC", "country": "CA", "postalCode": "V4K2Z9", "twitter": "None", "instagram": "None", "facebook": "None", "youtube": "None", "website": "None", "summary": "None", "logo": "None", "latitude": 49.089303, "longitude": -123.07242928725753}, "883415705RR0001": {"name": "NORTHWEST CHURCH OF CHRIST, INC", "designationCode": "C", "categoryCode": "39", "address": "4423 4TH AVE", "city": "REGINA", "province": "SK", "country": "CA", "postalCode": "S4T0J4", "twitter": "None", "instagram": "None", "facebook": "None", "youtube": "None", "website": "None", "summary": "None", "logo": "None", "latitude": 50.46290851399405, "longitude": -104.64528060935426}, "134517226RR0001": {"name": "NORTHWEST COMMUNITY CHURCH", "designationCode": "C", "categoryCode": "34", "address": "113 - 8TH STREET WEST", "city": "MEADOW LAKE", "province": "SK", "country": "CA", "postalCode": "S9X1A1", "twitter": "None", "instagram": "None", "facebook": "None", "youtube": "None", "website": "None", "summary": "None", "logo": "None", "latitude": 54.13195761226845, "longitude": -108.45102938542293}, "880713425RR0001": {"name": "NORTHWEST COMMUNITY CHURCH", "designationCode": "C", "categoryCode": "39", "address": "33 EDGEVALLEY CIR NW", "city": "CALGARY", "province": "AB", "country": "CA", "postalCode": "T3A4X1", "twitter": "None", "instagram": "None", "facebook": "None", "youtube": "None", "website": "None", "summary": "None", "logo": "None", "latitude": 51.1294478104334, "longitude": -114.14555583582438}, "730995495RR0001": {"name": "NORTHWEST COMMUNITY COLLEGE FOUNDATION", "designationCode": "A", "categoryCode": "23", "address": "1800-510 GEORGIA W ST", "city": "VANCOUVER", "province": "BC", "country": "CA", "postalCode": "V6B0M3", "twitter": "None", "instagram": "None", "facebook": "None", "youtube": "None", "website": "None", "summary": "None", "logo": "None", "latitude": 49.28012307167682, "longitude": -123.11442679241839}, "866991862RR0001": {"name": "NORTHWEST HANDI TRANSIT INC", "designationCode": "C", "categoryCode": "99", "address": "PO BOX 190", "city": "GLADSTONE", "province": "MB", "country": "CA", "postalCode": "R0J0T0", "twitter": "None", "instagram": "None", "facebook": "None", "youtube": "None", "website": "None", "summary": "None", "logo": "None", "latitude": 50.22542000000004, "longitude": -98.95074999999997}, "889025169RR0001": {"name": "NORTHWEST INSTITUTE FOR BIOREGIONAL RESEARCH SOCIETY", "designationCode": "C", "categoryCode": "59", "address": "POST OFFICE BOX 2781", "city": "SMITHERS", "province": "BC", "country": "CA", "postalCode": "V0J2N0", "twitter": "None", "instagram": "None", "facebook": "None", "youtube": "None", "website": "None", "summary": "None", "logo": "None", "latitude": 54.78312000000005, "longitude": -127.16847999999999}, "107786022RR0001": {"name": "NORTHWEST INTERLAKE PASTORAL CHARGE", "designationCode": "C", "categoryCode": "44", "address": "PO BOX 39", "city": "FAULKNER", "province": "MB", "country": "CA", "postalCode": "R0C0Y0", "twitter": "None", "instagram": "None", "facebook": "None", "youtube": "None", "website": "None", "summary": "None", "logo": "None", "latitude": 51.421710000000076, "longitude": -98.65550999999999}, "107786055RR0001": {"name": "NORTHWEST LANGLEY BAPTIST CHURCH", "designationCode": "C", "categoryCode": "31", "address": "20025-91A AVE", "city": "LANGLEY", "province": "BC", "country": "CA", "postalCode": "V1M3A2", "twitter": "None", "instagram": "None", "facebook": "None", "youtube": "None", "website": "None", "summary": "None", "logo": "None", "latitude": 49.169069496537546, "longitude": -122.66775352553523}, "863889242RR0001": {"name": "NORTHWEST LONDON RESOURCE CENTRE", "designationCode": "C", "categoryCode": "09", "address": "27A - 1225 WONDERLAND RD N", "city": "LONDON", "province": "ON", "country": "CA", "postalCode": "N6G2V9", "twitter": "None", "instagram": "None", "facebook": "None", "youtube": "None", "website": "None", "summary": "None", "logo": "None", "latitude": 43.004988980518014, "longitude": -81.30332782644554}, "107785685RR0001": {"name": "NORTHWEST MENNONITE CONFERENCE", "designationCode": "C", "categoryCode": "47", "address": "BOX 1316", "city": "DIDSBURY", "province": "AB", "country": "CA", "postalCode": "T0M0W0", "twitter": "None", "instagram": "None", "facebook": "None", "youtube": "None", "website": "None", "summary": "None", "logo": "None", "latitude": 51.666270000000054, "longitude": -114.13792999999998}, "862728094RR0001": {"name": "NORTHWEST PENTECOSTAL ASSEMBLY (EDMONTON)", "designationCode": "C", "categoryCode": "36", "address": "9949 - 169 AVENUE", "city": "EDMONTON", "province": "AB", "country": "CA", "postalCode": "T5X5A7", "twitter": "None", "instagram": "None", "facebook": "None", "youtube": "None", "website": "None", "summary": "None", "logo": "None", "latitude": 53.63043711904912, "longitude": -113.49744347504169}, "882514003RR0001": {"name": "NORTHWEST REGIONAL FETAL ALCOHOL SPECTRUM DISORDER SOCIETY", "designationCode": "C", "categoryCode": "11", "address": "P.O. BOX 3668", "city": "HIGH LEVEL", "province": "AB", "country": "CA", "postalCode": "T0H1Z0", "twitter": "None", "instagram": "None", "facebook": "None", "youtube": "None", "website": "None", "summary": "None", "logo": "None", "latitude": 58.52077909031678, "longitude": -117.13094845132863}, "886783992RR0001": {"name": "NORTHWEST ROTARY CHARITABLE FOUNDATION", "designationCode": "A", "categoryCode": "23", "address": "P.O. BOX 805", "city": "ST. JOHN'S", "province": "NL", "country": "CA", "postalCode": "A1C5L7", "twitter": "None", "instagram": "None", "facebook": "None", "youtube": "None", "website": "None", "summary": "None", "logo": "None", "latitude": 47.56082100000006, "longitude": -52.71219349999993}, "824072748RR0001": {"name": "NORTHWEST SCHOOL DIVISION NO. 203", "designationCode": "C", "categoryCode": "20", "address": "525 5 ST W", "city": "MEADOW LAKE", "province": "SK", "country": "CA", "postalCode": "S9X1B4", "twitter": "None", "instagram": "None", "facebook": "None", "youtube": "None", "website": "None", "summary": "None", "logo": "None", "latitude": 54.1263160513486, "longitude": -108.44312224524516}, "886100791RR0001": {"name": "NORTHWEST TERRITORIES SOCIETY FOR THE PREVENTION OF CRUELTY TO AMIMALS", "designationCode": "C", "categoryCode": "54", "address": "118 FALCON RD", "city": "YELLOWKNIFE", "province": "NT", "country": "CA", "postalCode": "X1A0G8", "twitter": "None", "instagram": "None", "facebook": "None", "youtube": "None", "website": "None", "summary": "None", "logo": "None", "latitude": 62.449139335315614, "longitude": -114.4659807520886}, "119062263RR0001": {"name": "NORTHWEST UNITED BAPTIST CHURCH", "designationCode": "C", "categoryCode": "39", "address": "688 HIGHWAY 325               GD", "city": "BLOCKHOUSE", "province": "NS", "country": "CA", "postalCode": "B0J1E0", "twitter": "None", "instagram": "None", "facebook": "None", "youtube": "None", "website": "None", "summary": "None", "logo": "None", "latitude": 44.44440769899172, "longitude": -64.41968697657325}, "133029140RR0001": {"name": "NORTHWEST WILDLIFE PRESERVATION SOCIETY", "designationCode": "C", "categoryCode": "54", "address": "720-1190 MELVILLE ST", "city": "VANCOUVER", "province": "BC", "country": "CA", "postalCode": "V6E3W1", "twitter": "None", "instagram": "None", "facebook": "None", "youtube": "None", "website": "None", "summary": "None", "logo": "None", "latitude": 49.28770276268118, "longitude": -123.12398074274317}, "107785800RR0001": {"name": "NORTHWESTERN HEALTH UNIT", "designationCode": "C", "categoryCode": "19", "address": "210 FIRST ST N", "city": "KENORA", "province": "ON", "country": "CA", "postalCode": "P9N2K4", "twitter": "None", "instagram": "None", "facebook": "None", "youtube": "None", "website": "None", "summary": "None", "logo": "None", "latitude": 49.76944408465575, "longitude": -94.48831443796529}, "133289306RR0001": {"name": "NORTHWESTERN MARQUETTE FESTIVAL", "designationCode": "C", "categoryCode": "22", "address": "203 PELLY AVENUE SOUTH", "city": "RUSSELL", "province": "MB", "country": "CA", "postalCode": "R0J1W0", "twitter": "None", "instagram": "None", "facebook": "None", "youtube": "None", "website": "None", "summary": "None", "logo": "None", "latitude": 50.77698954412232, "longitude": -101.28643241949274}, "132707985RR0001": {"name": "NORTHWESTERN ONTARIO AIR SEARCH & RESCUE ASSOCIATION", "designationCode": "C", "categoryCode": "59", "address": "411 JOHN PATTERSON DRIVE", "city": "THUNDRER BAY", "province": "ON", "country": "CA", "postalCode": "P7E6M8", "twitter": "None", "instagram": "None", "facebook": "None", "youtube": "None", "website": "None", "summary": "None", "logo": "None", "latitude": 48.36885201690822, "longitude": -89.31446875188978}, "119062149RR0001": {"name": "NORTHWESTERN ONTARIO CRIME STOPPERS INC.", "designationCode": "C", "categoryCode": "59", "address": "P.O. BOX 672", "city": "KENORA", "province": "ON", "country": "CA", "postalCode": "P9N3X6", "twitter": "None", "instagram": "None", "facebook": "None", "youtube": "None", "website": "None", "summary": "None", "logo": "None", "latitude": 49.77125700000006, "longitude": -94.48912249999994}, "890567191RR0001": {"name": "NORTHWESTERN ONTARIO LAYWORKERS MISSION", "designationCode": "C", "categoryCode": "47", "address": "BOX 84", "city": "MURILLO", "province": "ON", "country": "CA", "postalCode": "P0T2G0", "twitter": "None", "instagram": "None", "facebook": "None", "youtube": "None", "website": "None", "summary": "None", "logo": "None", "latitude": 37.321920000000034, "longitude": -121.77071999999998}, "136917226RR0001": {"name": "NORTHWESTERN ONTARIO LITERACY NETWORK", "designationCode": "C", "categoryCode": "21", "address": "1116 WATERFORD ST", "city": "THUNDER BAY", "province": "ON", "country": "CA", "postalCode": "P7B5R1", "twitter": "None", "instagram": "None", "facebook": "None", "youtube": "None", "website": "None", "summary": "None", "logo": "None", "latitude": 48.40355461088347, "longitude": -89.24633966362735}, "888774866RR0001": {"name": "NORTHWESTERN ONTARIO PASTORAL INSTITUTE", "designationCode": "C", "categoryCode": "49", "address": "234 MCCOMBER CRESCENT", "city": "THUNDER BAY", "province": "ON", "country": "CA", "postalCode": "P7A7E8", "twitter": "None", "instagram": "None", "facebook": "None", "youtube": "None", "website": "None", "summary": "None", "logo": "None", "latitude": 48.452320581193305, "longitude": -89.24275453370088}, "119062164RR0001": {"name": "NORTHWESTERN ONTARIO REGIONAL SCIENCE FAIR", "designationCode": "C", "categoryCode": "21", "address": "296 HILLDALE ROAD", "city": "THUNDER BAY", "province": "ON", "country": "CA", "postalCode": "P7G1Y8", "twitter": "None", "instagram": "None", "facebook": "None", "youtube": "None", "website": "None", "summary": "None", "logo": "None", "latitude": 48.461787282820694, "longitude": -89.25817160998943}, "107785859RR0001": {"name": "NORTHWESTERN ONTARIO SPORTS HALL OF FAME", "designationCode": "C", "categoryCode": "50", "address": "219 MAY ST S", "city": "THUNDER BAY", "province": "ON", "country": "CA", "postalCode": "P7E1B5", "twitter": "None", "instagram": "None", "facebook": "None", "youtube": "None", "website": "None", "summary": "None", "logo": "None", "latitude": 48.381767999999994, "longitude": -89.24554486000329}, "855805842RR0001": {"name": "NORTHWOOD CHURCH OF GOD IN CHRIST, MENNONITE INC.", "designationCode": "C", "categoryCode": "39", "address": "P.O. BOX 205", "city": "LEOVILLE", "province": "SK", "country": "CA", "postalCode": "S0J1N0", "twitter": "None", "instagram": "None", "facebook": "None", "youtube": "None", "website": "None", "summary": "None", "logo": "None", "latitude": 53.81522424750259, "longitude": -107.48751307404838}, "119288918RR0895": {"name": "NORTHWOOD CONGREGATION OF JEHOVAH'S WITNESSES", "designationCode": "C", "categoryCode": "61", "address": "457 HURON ST", "city": "WOODSTOCK", "province": "ON", "country": "CA", "postalCode": "N4S7A9", "twitter": "None", "instagram": "None", "facebook": "None", "youtube": "None", "website": "None", "summary": "None", "logo": "None", "latitude": 43.145640408823375, "longitude": -80.75230750986775}, "119288918RR0640": {"name": "NORTHWOOD CONGREGATION OF JEHOVAH'S WITNESSES, BRAMPTON, ONTARIO", "designationCode": "C", "categoryCode": "61", "address": "PO BOX 4100", "city": "GEORGETOWN", "province": "ON", "country": "CA", "postalCode": "L7G4Y4", "twitter": "None", "instagram": "None", "facebook": "None", "youtube": "None", "website": "None", "summary": "None", "logo": "None", "latitude": 43.65006000000005, "longitude": -79.89909199999994}, "888811494RR0001": {"name": "NORTHWOOD HOMECARE LIMITED", "designationCode": "C", "categoryCode": "11", "address": "1 SOUTH 130 EILEEN STUBBS AVE.", "city": "DARTMOUTH", "province": "NS", "country": "CA", "postalCode": "B3B2C4", "twitter": "None", "instagram": "None", "facebook": "None", "youtube": "None", "website": "None", "summary": "None", "logo": "None", "latitude": 44.696168736223235, "longitude": -63.57295919654976}, "888240249RR0001": {"name": "NORTHWOOD NEIGHBOURHOOD SERVICES", "designationCode": "C", "categoryCode": "56", "address": "400-1860 WILSON AVE", "city": "NORTH YORK", "province": "ON", "country": "CA", "postalCode": "M9M3A7", "twitter": "None", "instagram": "None", "facebook": "None", "youtube": "None", "website": "None", "summary": "None", "logo": "None", "latitude": 43.71757010023632, "longitude": -79.52388976146906}, "118919836RR0001": {"name": "NORTHWOOD UNITED CHURCH", "designationCode": "C", "categoryCode": "44", "address": "8855 156TH ST", "city": "SURREY", "province": "BC", "country": "CA", "postalCode": "V3R4K9", "twitter": "None", "instagram": "None", "facebook": "None", "youtube": "None", "website": "None", "summary": "None", "logo": "None", "latitude": 49.163874024716435, "longitude": -122.79025842629812}, "119062305RR0001": {"name": "NORTHWOODCARE INCORPORATED", "designationCode": "C", "categoryCode": "10", "address": "1 SOUTH 130 EILEEN STUBBS AVE", "city": "DARTMOUTH", "province": "NS", "country": "CA", "postalCode": "B3B2C4", "twitter": "None", "instagram": "None", "facebook": "None", "youtube": "None", "website": "None", "summary": "None", "logo": "None", "latitude": 44.696168736223235, "longitude": -63.57295919654976}, "131589004RR0001": {"name": "NORTON UNITED BAPTIST CHURCH", "designationCode": "C", "categoryCode": "31", "address": "41 CHURCH ST", "city": "NORTON", "province": "NB", "country": "CA", "postalCode": "E5T1A4", "twitter": "None", "instagram": "None", "facebook": "None", "youtube": "None", "website": "None", "summary": "None", "logo": "None", "latitude": 45.640232275347536, "longitude": -65.69632093023232}, "119062602RR0001": {"name": "NORVAL PRESBYTERIAN CHURCH", "designationCode": "C", "categoryCode": "37", "address": "EDYTHE KING                   P.O. BOX 58", "city": "NORVAL", "province": "ON", "country": "CA", "postalCode": "L0P1K0", "twitter": "None", "instagram": "None", "facebook": "None", "youtube": "None", "website": "None", "summary": "None", "logo": "None", "latitude": 43.64613899999999, "longitude": -79.8600465}, "119062610RR0001": {"name": "NORVAL UNITED CHURCH", "designationCode": "C", "categoryCode": "44", "address": "P.O. BOX 116", "city": "NORVAL", "province": "ON", "country": "CA", "postalCode": "L0P1K0", "twitter": "None", "instagram": "None", "facebook": "None", "youtube": "None", "website": "None", "summary": "None", "logo": "None", "latitude": 43.64690000000007, "longitude": -79.85805999999997}, "887599991RR0001": {"name": "NORWAY POINT COMMUNITY CHURCH,", "designationCode": "C", "categoryCode": "44", "address": "730 EGLINTON AVE EAST", "city": "TORONTO", "province": "ON", "country": "CA", "postalCode": "M4G2K7", "twitter": "None", "instagram": "None", "facebook": "None", "youtube": "None", "website": "None", "summary": "None", "logo": "None", "latitude": 43.712871190691786, "longitude": -79.36840697766742}, "891040149RR0001": {"name": "NORWEGIAN HOUSE SOCIETY", "designationCode": "C", "categoryCode": "21", "address": "6540 THOMAS STREET", "city": "BURNABY", "province": "BC", "country": "CA", "postalCode": "V5B4P9", "twitter": "None", "instagram": "None", "facebook": "None", "youtube": "None", "website": "None", "summary": "None", "logo": "None", "latitude": 49.24789100343447, "longitude": -122.96684059007887}, "118791177RR0001": {"name": "NORWEGIAN LAFT HUS SOCIETY", "designationCode": "C", "categoryCode": "22", "address": "4402 47TH AVENUE", "city": "RED DEER", "province": "AB", "country": "CA", "postalCode": "T4N6T4", "twitter": "None", "instagram": "None", "facebook": "None", "youtube": "None", "website": "None", "summary": "None", "logo": "None", "latitude": 52.263546929453845, "longitude": -113.8050368716018}, "119062644RR0001": {"name": "NORWEGIAN LUTHERAN CEMETERY", "designationCode": "C", "categoryCode": "59", "address": "BOX 96", "city": "CADOGAN", "province": "AB", "country": "CA", "postalCode": "T0B0T0", "twitter": "None", "instagram": "None", "facebook": "None", "youtube": "None", "website": "None", "summary": "None", "logo": "None", "latitude": 52.31970000000007, "longitude": -110.45016999999996}, "107787053RR0001": {"name": "NORWEGIAN OLD PEOPLE'S HOME ASSOCIATION, VANCOUVER, B.C.", "designationCode": "C", "categoryCode": "01", "address": "7725 4 ST", "city": "BURNABY", "province": "BC", "country": "CA", "postalCode": "V3N5B6", "twitter": "None", "instagram": "None", "facebook": "None", "youtube": "None", "website": "None", "summary": "None", "logo": "None", "latitude": 49.22242221201477, "longitude": -122.9270952061281}, "129646949RR0001": {"name": "NORWEST COMMUNITY HEALTH CENTRES", "designationCode": "C", "categoryCode": "11", "address": "525 SIMPSON STREET", "city": "THUNDER BAY", "province": "ON", "country": "CA", "postalCode": "P7C3J6", "twitter": "None", "instagram": "None", "facebook": "None", "youtube": "None", "website": "None", "summary": "None", "logo": "None", "latitude": 48.391155701915864, "longitude": -89.23720540827512}, "130656309RR0001": {"name": "NORWICH AND DISTRICT HISTORICAL SOCIETY", "designationCode": "C", "categoryCode": "50", "address": "89 STOVER ST N                RR 3", "city": "NORWICH", "province": "ON", "country": "CA", "postalCode": "N0J1P0", "twitter": "None", "instagram": "None", "facebook": "None", "youtube": "None", "website": "None", "summary": "None", "logo": "None", "latitude": 42.99525835486252, "longitude": -80.59965603652834}, "119062685RR0001": {"name": "NORWICH BAPTIST CHURCH", "designationCode": "C", "categoryCode": "31", "address": "5 ELGIN STREET EAST           P.O. BOX 458", "city": "NORWICH", "province": "ON", "country": "CA", "postalCode": "N0J1P0", "twitter": "None", "instagram": "None", "facebook": "None", "youtube": "None", "website": "None", "summary": "None", "logo": "None", "latitude": 42.989163709145195, "longitude": -80.59690540240402}, "107787137RR0001": {"name": "NORWICH UNITED CHURCH", "designationCode": "C", "categoryCode": "44", "address": "BOX 183 80 MAIN ST W", "city": "NORWICH", "province": "ON", "country": "CA", "postalCode": "N0J1P0", "twitter": "None", "instagram": "None", "facebook": "None", "youtube": "None", "website": "None", "summary": "None", "logo": "None", "latitude": 42.98707734505698, "longitude": -80.60128731141434}, "119062743RR0001": {"name": "NORWOOD AGRICULTURAL SOCIETY", "designationCode": "C", "categoryCode": "56", "address": "PO BOX 377", "city": "NORWOOD", "province": "ON", "country": "CA", "postalCode": "K0L2V0", "twitter": "None", "instagram": "None", "facebook": "None", "youtube": "None", "website": "None", "summary": "None", "logo": "None", "latitude": 44.38304000000005, "longitude": -77.97911999999997}, "119062750RR0001": {"name": "NORWOOD BAPTIST CHURCH", "designationCode": "C", "categoryCode": "31", "address": "57 BAY STREET WEST            PO BOX 33", "city": "HASTINGS", "province": "ON", "country": "CA", "postalCode": "K0L1Y0", "twitter": "None", "instagram": "None", "facebook": "None", "youtube": "None", "website": "None", "summary": "None", "logo": "None", "latitude": 44.30415675491956, "longitude": -77.95805745253624}, "887193399RR0001": {"name": "NORWOOD CENTENNIAL SPORTS COMPLEX INC", "designationCode": "C", "categoryCode": "56", "address": "PO BOX 149", "city": "NORWOOD", "province": "ON", "country": "CA", "postalCode": "K0L2V0", "twitter": "None", "instagram": "None", "facebook": "None", "youtube": "None", "website": "None", "summary": "None", "logo": "None", "latitude": 44.38304000000005, "longitude": -77.97911999999997}, "880516232RR0001": {"name": "NORWOOD FRENCH IMMERSION PRESCHOOL INC.", "designationCode": "C", "categoryCode": "01", "address": "320 DE LA CATHEDRALE AVENUE", "city": "WINNIPEG", "province": "MB", "country": "CA", "postalCode": "R2H0J4", "twitter": "None", "instagram": "None", "facebook": "None", "youtube": "None", "website": "None", "summary": "None", "logo": "None", "latitude": 49.89099188533698, "longitude": -97.114265991373}, "107787236RR0001": {"name": "NORWOOD NURSERY SCHOOL INC.", "designationCode": "C", "categoryCode": "01", "address": "87 WALMER ST", "city": "WINNIPEG", "province": "MB", "country": "CA", "postalCode": "R2H1H9", "twitter": "None", "instagram": "None", "facebook": "None", "youtube": "None", "website": "None", "summary": "None", "logo": "None", "latitude": 49.87886946494281, "longitude": -97.12911095031454}, "871289542RR0001": {"name": "NORWOOD PENTECOSTAL CHURCH", "designationCode": "C", "categoryCode": "36", "address": "P.O. BOX 82", "city": "NORWOOD", "province": "ON", "country": "CA", "postalCode": "K0L2V0", "twitter": "None", "instagram": "None", "facebook": "None", "youtube": "None", "website": "None", "summary": "None", "logo": "None", "latitude": 44.38304000000005, "longitude": -77.97911999999997}, "119062800RR0001": {"name": "NORWOOD SENIORS SERVICES ASSOCIATION", "designationCode": "C", "categoryCode": "09", "address": "12840 - 64 STREET", "city": "EDMONTON", "province": "AB", "country": "CA", "postalCode": "T5A4M8", "twitter": "None", "instagram": "None", "facebook": "None", "youtube": "None", "website": "None", "summary": "None", "logo": "None", "latitude": 53.58727556924808, "longitude": -113.43972661994316}, "118793074RR0013": {"name": "NORWOOD SEVENTH-DAY ADVENTIST CHURCH", "designationCode": "C", "categoryCode": "41", "address": "1555 RUE POIRIER", "city": "SAINT-LAURENT", "province": "QC", "country": "CA", "postalCode": "H4L1H6", "twitter": "None", "instagram": "None", "facebook": "None", "youtube": "None", "website": "None", "summary": "None", "logo": "None", "latitude": 45.520811977263406, "longitude": -73.69499642702966}, "119062834RR0001": {"name": "NORWOOD UNITED CHURCH", "designationCode": "C", "categoryCode": "44", "address": "BOX 443", "city": "NORWOOD", "province": "ON", "country": "CA", "postalCode": "K0L2V0", "twitter": "None", "instagram": "None", "facebook": "None", "youtube": "None", "website": "None", "summary": "None", "logo": "None", "latitude": 44.38304000000005, "longitude": -77.97911999999997}, "118893635RR0001": {"name": "NORWOOD WESLEYAN STANDARD CHURCH", "designationCode": "C", "categoryCode": "39", "address": "11306 91 ST NW", "city": "EDMONTON", "province": "AB", "country": "CA", "postalCode": "T5B4A3", "twitter": "None", "instagram": "None", "facebook": "None", "youtube": "None", "website": "None", "summary": "None", "logo": "None", "latitude": 53.56292400000001, "longitude": -113.48120878368607}, "890852940RR0001": {"name": "NOSE CREEK MUSEUM HERITAGE FOUNDATION", "designationCode": "A", "categoryCode": "53", "address": "1701 MAIN ST. S.W.", "city": "AIRDRIE", "province": "AB", "country": "CA", "postalCode": "T4B1C5", "twitter": "None", "instagram": "None", "facebook": "None", "youtube": "None", "website": "None", "summary": "None", "logo": "None", "latitude": 51.277320656990916, "longitude": -114.01337881799253}, "119062891RR0001": {"name": "NOSE CREEK VALLEY MUSEUM SOCIETY", "designationCode": "C", "categoryCode": "50", "address": "1701 MAIN ST SW", "city": "AIRDRIE", "province": "AB", "country": "CA", "postalCode": "T4B1C5", "twitter": "None", "instagram": "None", "facebook": "None", "youtube": "None", "website": "None", "summary": "None", "logo": "None", "latitude": 51.277320656990916, "longitude": -114.01337881799253}, "868827692RR0001": {"name": "NOT BY MIGHT MINISTRIES", "designationCode": "C", "categoryCode": "39", "address": "BOX 6124", "city": "FORT ST. JOHN", "province": "BC", "country": "CA", "postalCode": "V1J4H6", "twitter": "None", "instagram": "None", "facebook": "None", "youtube": "None", "website": "None", "summary": "None", "logo": "None", "latitude": 56.25253500000005, "longitude": -120.84748099999993}, "865253488RR0001": {"name": "NOTABLE ACTS INC.", "designationCode": "C", "categoryCode": "22", "address": "717 ABERDEEN ST", "city": "FREDERICTON", "province": "NB", "country": "CA", "postalCode": "E3B1S7", "twitter": "None", "instagram": "None", "facebook": "None", "youtube": "None", "website": "None", "summary": "None", "logo": "None", "latitude": 45.95433934860632, "longitude": -66.64079134817364}}