{"107910259RR0045": {"name": "St. Dunstan's Parish", "designationCode": "C", "categoryCode": "38", "address": "3150 DANFORTH AVE", "city": "SCARBOROUGH", "province": "ON", "country": "CA", "postalCode": "M1L1B6", "twitter": "None", "instagram": "None", "facebook": "None", "youtube": "None", "website": "None", "summary": "None", "logo": "None", "latitude": 43.691809157943204, "longitude": -79.28591861977026}, "107910259RR0046": {"name": "St. Edward the Confessor Parish", "designationCode": "C", "categoryCode": "38", "address": "75 CHURCHILL AVENUE", "city": "TORONTO", "province": "ON", "country": "CA", "postalCode": "M2N1Y8", "twitter": "None", "instagram": "None", "facebook": "None", "youtube": "None", "website": "None", "summary": "None", "logo": "None", "latitude": 43.772141958047506, "longitude": -79.41927578668718}, "107910259RR0047": {"name": "St. Elizabeth of Hungary Parish", "designationCode": "C", "categoryCode": "38", "address": "432 SHEPPARD AVE EAST", "city": "TORONTO", "province": "ON", "country": "CA", "postalCode": "M2N3B7", "twitter": "None", "instagram": "None", "facebook": "None", "youtube": "None", "website": "None", "summary": "None", "logo": "None", "latitude": 43.76594012245332, "longitude": -79.390978447429}, "108013863RR0001": {"name": "St. Elizabeth of Hungary Parish", "designationCode": "C", "categoryCode": "38", "address": "BOX 155", "city": "STOCKHOLM", "province": "SK", "country": "CA", "postalCode": "S0A3Y0", "twitter": "None", "instagram": "None", "facebook": "None", "youtube": "None", "website": "None", "summary": "None", "logo": "None", "latitude": 50.856318000000016, "longitude": -102.3081885}, "107910259RR0202": {"name": "St. Elizabeth Seton Parish", "designationCode": "C", "categoryCode": "38", "address": "17955 LESLIE ST", "city": "NEWMARKET", "province": "ON", "country": "CA", "postalCode": "L3Y9A4", "twitter": "None", "instagram": "None", "facebook": "None", "youtube": "None", "website": "None", "summary": "None", "logo": "None", "latitude": 44.07706889982102, "longitude": -79.43471730676939}, "107910259RR0223": {"name": "St. Eugene de Mazenod Mission", "designationCode": "C", "categoryCode": "39", "address": "1252 STEELES AVE. W.", "city": "BRAMPTON", "province": "ON", "country": "CA", "postalCode": "L6Y0A9", "twitter": "None", "instagram": "None", "facebook": "None", "youtube": "None", "website": "None", "summary": "None", "logo": "None", "latitude": 43.64165425484566, "longitude": -79.76026663670629}, "817177116RR0001": {"name": "St. Eugene's Roman Catholic Parish Inc.", "designationCode": "C", "categoryCode": "38", "address": "POST OFFICE BOX 104", "city": "COVEHEAD", "province": "PE", "country": "CA", "postalCode": "C0A1P0", "twitter": "None", "instagram": "None", "facebook": "None", "youtube": "None", "website": "None", "summary": "None", "logo": "None", "latitude": 46.38420237836484, "longitude": -63.13324753003213}, "107910259RR0175": {"name": "St. Fidelis Parish", "designationCode": "C", "categoryCode": "38", "address": "33 CONNIE ST", "city": "TORONTO", "province": "ON", "country": "CA", "postalCode": "M6L5H8", "twitter": "None", "instagram": "None", "facebook": "None", "youtube": "None", "website": "None", "summary": "None", "logo": "None", "latitude": 43.72280559922671, "longitude": -79.47328687243946}, "107910259RR0136": {"name": "St. Francis de Sales Parish", "designationCode": "C", "categoryCode": "38", "address": "1001 RAVENSCROFT ROAD", "city": "AJAX", "province": "ON", "country": "CA", "postalCode": "L1T4X1", "twitter": "None", "instagram": "None", "facebook": "None", "youtube": "None", "website": "None", "summary": "None", "logo": "None", "latitude": 43.87477236914989, "longitude": -79.05332739835005}, "119109817RR0017": {"name": "St. Francis of Assisi - St. Martin of Tours Parish", "designationCode": "C", "categoryCode": "38", "address": "46 CATHCART ST", "city": "LONDON", "province": "ON", "country": "CA", "postalCode": "N6C3L7", "twitter": "None", "instagram": "None", "facebook": "None", "youtube": "None", "website": "None", "summary": "None", "logo": "None", "latitude": 42.97008150513591, "longitude": -81.25438397986046}, "107910259RR0048": {"name": "St. Francis of Assisi Parish", "designationCode": "C", "categoryCode": "38", "address": "72 MANSFIELD AVENUE", "city": "TORONTO", "province": "ON", "country": "CA", "postalCode": "M6J2B2", "twitter": "None", "instagram": "None", "facebook": "None", "youtube": "None", "website": "None", "summary": "None", "logo": "None", "latitude": 43.6533732489756, "longitude": -79.41402631724273}, "107910259RR0150": {"name": "St. Francis of Assisi Parish", "designationCode": "C", "categoryCode": "38", "address": "115 WEST STREET NORTH", "city": "ORILLIA", "province": "ON", "country": "CA", "postalCode": "L3V5C4", "twitter": "None", "instagram": "None", "facebook": "None", "youtube": "None", "website": "None", "summary": "None", "logo": "None", "latitude": 44.61141375019598, "longitude": -79.42232368801953}, "119167096RR0002": {"name": "St. Francis Anglican Church", "designationCode": "C", "categoryCode": "30", "address": "253 BURRIN AVE                TREASURER", "city": "WINNIPEG", "province": "MB", "country": "CA", "postalCode": "R2V1E6", "twitter": "None", "instagram": "None", "facebook": "None", "youtube": "None", "website": "None", "summary": "None", "logo": "None", "latitude": 49.940072924807964, "longitude": -97.11903483331422}, "894534817RR0001": {"name": "St. Francis Valley Healthcare Foundation", "designationCode": "A", "categoryCode": "13", "address": "P. O. BOX 129", "city": "BARRY'S BAY", "province": "ON", "country": "CA", "postalCode": "K0J1B0", "twitter": "None", "instagram": "None", "facebook": "None", "youtube": "None", "website": "None", "summary": "None", "logo": "None", "latitude": 45.43239678569254, "longitude": -77.58978439269401}, "107909939RR0090": {"name": "St. Gabriel the Archangel Catholic Parish", "designationCode": "C", "categoryCode": "38", "address": "316 WINDERMERE DRIVE", "city": "CHESTERMERE", "province": "AB", "country": "CA", "postalCode": "T1X0B9", "twitter": "None", "instagram": "None", "facebook": "None", "youtube": "None", "website": "None", "summary": "None", "logo": "None", "latitude": 51.050042488458814, "longitude": -113.8367093052975}, "779820091RR0001": {"name": "St. Gabriel Cemetery Society", "designationCode": "B", "categoryCode": "59", "address": "108 EAST HILL ROAD            RR#1 BOX 2745", "city": "ARCADIA", "province": "NS", "country": "CA", "postalCode": "B0W1B0", "twitter": "None", "instagram": "None", "facebook": "None", "youtube": "None", "website": "None", "summary": "None", "logo": "None", "latitude": 43.695522800941006, "longitude": -66.0129170256508}, "107876476RR0069": {"name": "St. Gabriel Lalement Parish", "designationCode": "C", "categoryCode": "38", "address": "4 BAY OF IS. RD. / HWY 6      WHITEFISH RIVER FIRST NATION", "city": "BIRCH ISLAND", "province": "ON", "country": "CA", "postalCode": "P0P1A0", "twitter": "None", "instagram": "None", "facebook": "None", "youtube": "None", "website": "None", "summary": "None", "logo": "None", "latitude": 46.066182000000055, "longitude": -81.77364349999993}, "107910259RR0049": {"name": "St. Gabriel's Catholic Parish", "designationCode": "C", "categoryCode": "38", "address": "670 SHEPPARD AVENUE EAST", "city": "TORONTO", "province": "ON", "country": "CA", "postalCode": "M2K1B7", "twitter": "None", "instagram": "None", "facebook": "None", "youtube": "None", "website": "None", "summary": "None", "logo": "None", "latitude": 43.7683871830448, "longitude": -79.38061593456014}, "811454990RR0001": {"name": "St. George & St. Abanoub Coptic Orthodox Church", "designationCode": "C", "categoryCode": "39", "address": "860 NIPISSING RD.", "city": "MILTON", "province": "ON", "country": "CA", "postalCode": "L9T4Z9", "twitter": "None", "instagram": "None", "facebook": "None", "youtube": "None", "website": "None", "summary": "None", "logo": "None", "latitude": 43.523104076865486, "longitude": -79.86410306630523}, "725893929RR0001": {"name": "St. George and Area Food Bank Inc.", "designationCode": "C", "categoryCode": "09", "address": "401 - 124 MAIN ST", "city": "ST GEORGE", "province": "NB", "country": "CA", "postalCode": "E5C3S3", "twitter": "None", "instagram": "None", "facebook": "None", "youtube": "None", "website": "None", "summary": "None", "logo": "None", "latitude": 45.133777878123624, "longitude": -66.81089525685279}, "108018466RR0001": {"name": "St. George Children's Center", "designationCode": "C", "categoryCode": "01", "address": "39 BEVERLY STREET             P.O. BOX 108", "city": "ST.GEORGE", "province": "ON", "country": "CA", "postalCode": "N0E1N0", "twitter": "None", "instagram": "None", "facebook": "None", "youtube": "None", "website": "None", "summary": "None", "logo": "None", "latitude": 43.2468763780367, "longitude": -80.24910196684739}, "857757983RR0001": {"name": "St. George Malankara Orthodox Church, B C", "designationCode": "C", "categoryCode": "39", "address": "6389 120TH STREET             POST OFFICE BOX 31023", "city": "DELTA", "province": "BC", "country": "CA", "postalCode": "V4E2A6", "twitter": "None", "instagram": "None", "facebook": "None", "youtube": "None", "website": "None", "summary": "None", "logo": "None", "latitude": 49.11905652844942, "longitude": -122.89051600833855}, "846172682RR0001": {"name": "St. George Montessori School Inc.", "designationCode": "C", "categoryCode": "20", "address": "33 MALLARD ROAD", "city": "TORONTO", "province": "ON", "country": "CA", "postalCode": "M3B1S4", "twitter": "None", "instagram": "None", "facebook": "None", "youtube": "None", "website": "None", "summary": "None", "logo": "None", "latitude": 43.747722590022775, "longitude": -79.34931718570012}, "840745350RR0001": {"name": "St. George Syriac Orthodox Church, Canada", "designationCode": "C", "categoryCode": "39", "address": "34 MANSFIELD ST", "city": "BRAMPTON", "province": "ON", "country": "CA", "postalCode": "L6S2Y5", "twitter": "None", "instagram": "None", "facebook": "None", "youtube": "None", "website": "None", "summary": "None", "logo": "None", "latitude": 43.726190574788006, "longitude": -79.73633282555261}, "822308268RR0001": {"name": "St. George's Anglican Catholic Church", "designationCode": "C", "categoryCode": "39", "address": "RR#1                          ST. GEORGE BY THE SEA", "city": "LISCOMB", "province": "NS", "country": "CA", "postalCode": "B0J2A0", "twitter": "None", "instagram": "None", "facebook": "None", "youtube": "None", "website": "None", "summary": "None", "logo": "None", "latitude": 45.03111900000006, "longitude": -61.99802449999993}, "130890874RR0002": {"name": "St. George's Anglican Church", "designationCode": "C", "categoryCode": "30", "address": "298 MCINTYRE ST", "city": "THUNDER BAY", "province": "ON", "country": "CA", "postalCode": "P7A3B6", "twitter": "None", "instagram": "None", "facebook": "None", "youtube": "None", "website": "None", "summary": "None", "logo": "None", "latitude": 48.4458274632407, "longitude": -89.21232485801274}, "119175537RR0001": {"name": "St. George's School's Parents' Association", "designationCode": "C", "categoryCode": "21", "address": "45 WALMER ROAD", "city": "TORONTO", "province": "ON", "country": "CA", "postalCode": "M5R2X2", "twitter": "None", "instagram": "None", "facebook": "None", "youtube": "None", "website": "None", "summary": "None", "logo": "None", "latitude": 43.66953058618496, "longitude": -79.40642738337507}, "840267207RR0001": {"name": "St. George's, Lowville (ANiC) Anglican Church", "designationCode": "C", "categoryCode": "30", "address": "4691 PALLADIUM WAY", "city": "BURLINGTON", "province": "ON", "country": "CA", "postalCode": "L7M0W7", "twitter": "None", "instagram": "None", "facebook": "None", "youtube": "None", "website": "None", "summary": "None", "logo": "None", "latitude": 43.409636914536186, "longitude": -79.82396168890277}, "107910259RR0128": {"name": "St. Gertrude's Parish", "designationCode": "C", "categoryCode": "38", "address": "690 KING ST EAST", "city": "OSHAWA", "province": "ON", "country": "CA", "postalCode": "L1H1G5", "twitter": "None", "instagram": "None", "facebook": "None", "youtube": "None", "website": "None", "summary": "None", "logo": "None", "latitude": 43.90335512025888, "longitude": -78.83894508455634}, "824267025RR0001": {"name": "St. Gianna Beretta Molla Centre", "designationCode": "C", "categoryCode": "09", "address": "26 CHEVAL COURT", "city": "BRAMPTON", "province": "ON", "country": "CA", "postalCode": "L6P0E3", "twitter": "None", "instagram": "None", "facebook": "None", "youtube": "None", "website": "None", "summary": "None", "logo": "None", "latitude": 43.78936290123464, "longitude": -79.71597758350191}, "119175958RR0001": {"name": "St. Giles Presbyterian Women", "designationCode": "C", "categoryCode": "47", "address": "PO BOX 12068", "city": "PRINCE GEORGE", "province": "BC", "country": "CA", "postalCode": "V2L0A8", "twitter": "None", "instagram": "None", "facebook": "None", "youtube": "None", "website": "None", "summary": "None", "logo": "None", "latitude": 53.91241800000006, "longitude": -122.74463149999994}, "835263609RR0001": {"name": "St. Gregorios Indian Orthodox Church", "designationCode": "C", "categoryCode": "39", "address": "807 HAWKINS CRES", "city": "BURLINGTON", "province": "ON", "country": "CA", "postalCode": "L7S2C3", "twitter": "None", "instagram": "None", "facebook": "None", "youtube": "None", "website": "None", "summary": "None", "logo": "None", "latitude": 43.32988748571751, "longitude": -79.81414171368819}, "776588691RR0001": {"name": "St. Gregorios Jacobite Syriac Orthodox Church London, Ontario", "designationCode": "C", "categoryCode": "39", "address": "2081 GOUGH AVE", "city": "LONDON", "province": "ON", "country": "CA", "postalCode": "N5X0K4", "twitter": "None", "instagram": "None", "facebook": "None", "youtube": "None", "website": "None", "summary": "None", "logo": "None", "latitude": 43.05475827620245, "longitude": -81.25140702241507}, "107910259RR0129": {"name": "St. Gregory the Great Parish", "designationCode": "C", "categoryCode": "38", "address": "194 SIMCOE ST NORTH", "city": "OSHAWA", "province": "ON", "country": "CA", "postalCode": "L1G4S9", "twitter": "None", "instagram": "None", "facebook": "None", "youtube": "None", "website": "None", "summary": "None", "logo": "None", "latitude": 43.90271516013626, "longitude": -78.86596311105635}, "107910259RR0008": {"name": "St. Gregory's Parish", "designationCode": "C", "categoryCode": "38", "address": "122 RATHBURN ROAD", "city": "ISLINGTON", "province": "ON", "country": "CA", "postalCode": "M9B2K6", "twitter": "None", "instagram": "None", "facebook": "None", "youtube": "None", "website": "None", "summary": "None", "logo": "None", "latitude": 43.659745100236314, "longitude": -79.54386910338165}, "107910259RR0130": {"name": "St. Hedwig's Parish", "designationCode": "C", "categoryCode": "38", "address": "411 OLIVE AVE", "city": "OSHAWA", "province": "ON", "country": "CA", "postalCode": "L1H2P9", "twitter": "None", "instagram": "None", "facebook": "None", "youtube": "None", "website": "None", "summary": "None", "logo": "None", "latitude": 43.8920468198398, "longitude": -78.84449550109652}, "107910259RR0056": {"name": "St. Helen's Parish", "designationCode": "C", "categoryCode": "38", "address": "1680 DUNDAS STREET WEST", "city": "TORONTO", "province": "ON", "country": "CA", "postalCode": "M6K1V3", "twitter": "None", "instagram": "None", "facebook": "None", "youtube": "None", "website": "None", "summary": "None", "logo": "None", "latitude": 43.650067449939165, "longitude": -79.43780022147847}, "845452713RR0001": {"name": "St. Hilda's ANiC", "designationCode": "C", "categoryCode": "30", "address": "320 BRONTE RD", "city": "OAKVILLE", "province": "ON", "country": "CA", "postalCode": "L6L3C8", "twitter": "None", "instagram": "None", "facebook": "None", "youtube": "None", "website": "None", "summary": "None", "logo": "None", "latitude": 43.39746454786779, "longitude": -79.72202577866575}, "831308416RR0001": {"name": "St. Ignatius (Deemerton) Preservation Society", "designationCode": "C", "categoryCode": "56", "address": "R.R.#5", "city": "MILDMAY", "province": "ON", "country": "CA", "postalCode": "N0G2J0", "twitter": "None", "instagram": "None", "facebook": "None", "youtube": "None", "website": "None", "summary": "None", "logo": "None", "latitude": 44.04200000000003, "longitude": -81.11933999999997}, "107910259RR0188": {"name": "St. Ignatius Loyola Parish", "designationCode": "C", "categoryCode": "38", "address": "2300 BURNHAMTHORPE ROAD WEST", "city": "MISSISSAUGA", "province": "ON", "country": "CA", "postalCode": "L5L3T6", "twitter": "None", "instagram": "None", "facebook": "None", "youtube": "None", "website": "None", "summary": "None", "logo": "None", "latitude": 43.54343329721877, "longitude": -79.68952314014093}, "107910259RR0191": {"name": "St. Isaac Jogues Parish", "designationCode": "C", "categoryCode": "38", "address": "1148 FINCH AVENUE", "city": "PICKERING", "province": "ON", "country": "CA", "postalCode": "L1V1J6", "twitter": "None", "instagram": "None", "facebook": "None", "youtube": "None", "website": "None", "summary": "None", "logo": "None", "latitude": 43.84402928872351, "longitude": -79.10204731267947}, "108099771RR0090": {"name": "St. James and St. Brendan's, Port Colborne", "designationCode": "C", "categoryCode": "30", "address": "55 CHARLOTTE ST", "city": "PORT COLBORNE", "province": "ON", "country": "CA", "postalCode": "L3K3C9", "twitter": "None", "instagram": "None", "facebook": "None", "youtube": "None", "website": "None", "summary": "None", "logo": "None", "latitude": 42.88512043493552, "longitude": -79.25159533389115}, "892942962RR0001": {"name": "St. James Assiniboia 55+ Centre Inc.", "designationCode": "C", "categoryCode": "09", "address": "3RD FLOOR-203 DUFFIELD STREET", "city": "WINNIPEG", "province": "MB", "country": "CA", "postalCode": "R3J0H6", "twitter": "None", "instagram": "None", "facebook": "None", "youtube": "None", "website": "None", "summary": "None", "logo": "None", "latitude": 49.877573783513185, "longitude": -97.23678830901976}, "803519370RR0001": {"name": "St. James Church of Great Village Preservation Society", "designationCode": "C", "categoryCode": "50", "address": "8507 HIGHWAY 2", "city": "GREAT VILLAGE", "province": "NS", "country": "CA", "postalCode": "B0M1L0", "twitter": "None", "instagram": "None", "facebook": "None", "youtube": "None", "website": "None", "summary": "None", "logo": "None", "latitude": 45.40858276346116, "longitude": -63.60989534220677}, "821924396RR0001": {"name": "St. James Church Foundation Inc.", "designationCode": "B", "categoryCode": "03", "address": "61 KING STREET EAST           P.O. BOX 217", "city": "BROCKVILLE", "province": "ON", "country": "CA", "postalCode": "K6V5V4", "twitter": "None", "instagram": "None", "facebook": "None", "youtube": "None", "website": "None", "summary": "None", "logo": "None", "latitude": 44.59167488314392, "longitude": -75.68089577808884}, "107910259RR0019": {"name": "St. James Parish", "designationCode": "C", "categoryCode": "38", "address": "2118 ADJALA TECUMSETH TOWNLINER R #1", "city": "TOTTENHAM", "province": "ON", "country": "CA", "postalCode": "L0G1W0", "twitter": "None", "instagram": "None", "facebook": "None", "youtube": "None", "website": "None", "summary": "None", "logo": "None", "latitude": 44.025585878485536, "longitude": -79.8459236029208}, "107910259RR0059": {"name": "St. James Parish", "designationCode": "C", "categoryCode": "38", "address": "728 ANNETTE STREET", "city": "TORONTO", "province": "ON", "country": "CA", "postalCode": "M6S2E2", "twitter": "None", "instagram": "None", "facebook": "None", "youtube": "None", "website": "None", "summary": "None", "logo": "None", "latitude": 43.6586731906918, "longitude": -79.48618734277795}, "815371372RR0001": {"name": "St. James Presbyterian Church", "designationCode": "C", "categoryCode": "37", "address": "686 MAIN-A-DIEU ROAD", "city": "CATALONE", "province": "NS", "country": "CA", "postalCode": "B1C1V2", "twitter": "None", "instagram": "None", "facebook": "None", "youtube": "None", "website": "None", "summary": "None", "logo": "None", "latitude": 45.992021838161676, "longitude": -59.94359452663174}, "108084658RR0128": {"name": "St. James' Church Franktown", "designationCode": "C", "categoryCode": "30", "address": "2957 MCLACHLIN ROAD, RR6", "city": "SMITHS FALLS", "province": "ON", "country": "CA", "postalCode": "K7A4S7", "twitter": "None", "instagram": "None", "facebook": "None", "youtube": "None", "website": "None", "summary": "None", "logo": "None", "latitude": 44.998848904207094, "longitude": -76.06985798551595}, "107910259RR0168": {"name": "St. Jane Frances Parish", "designationCode": "C", "categoryCode": "38", "address": "2747 JANE STREET", "city": "DOWNSVIEW", "province": "ON", "country": "CA", "postalCode": "M3L2E8", "twitter": "None", "instagram": "None", "facebook": "None", "youtube": "None", "website": "None", "summary": "None", "logo": "None", "latitude": 43.742805275059084, "longitude": -79.51402471086091}, "107910259RR0060": {"name": "St. Joan of Arc Parish", "designationCode": "C", "categoryCode": "38", "address": "1701 BLOOR ST W", "city": "TORONTO", "province": "ON", "country": "CA", "postalCode": "M6P1B1", "twitter": "None", "instagram": "None", "facebook": "None", "youtube": "None", "website": "None", "summary": "None", "logo": "None", "latitude": 43.65511084927016, "longitude": -79.45796557048882}, "118861673RR0002": {"name": "St. John the Baptist Anglican Church", "designationCode": "C", "categoryCode": "30", "address": "POST OFFICE BOX 22006         RPO TAYLORS VARIETY", "city": "WALLACEBURG", "province": "ON", "country": "CA", "postalCode": "N8A5G4", "twitter": "None", "instagram": "None", "facebook": "None", "youtube": "None", "website": "None", "summary": "None", "logo": "None", "latitude": 42.592929000000055, "longitude": -82.39503049999993}, "710916099RR0001": {"name": "St. John the Baptist Melkite Catholic Church", "designationCode": "C", "categoryCode": "39", "address": "243 ELDERBERRY AVENUE,", "city": "LONDON", "province": "ON", "country": "CA", "postalCode": "N5X0A1", "twitter": "None", "instagram": "None", "facebook": "None", "youtube": "None", "website": "None", "summary": "None", "logo": "None", "latitude": 43.03651210687276, "longitude": -81.27771951624439}, "834074775RR0001": {"name": "St. John the Baptist Parish Society", "designationCode": "A", "categoryCode": "03", "address": "PO BOX 254", "city": "ST PETERS", "province": "NS", "country": "CA", "postalCode": "B0E3B0", "twitter": "None", "instagram": "None", "facebook": "None", "youtube": "None", "website": "None", "summary": "None", "logo": "None", "latitude": 45.691080000000056, "longitude": -60.747042499999935}, "119110443RR0012": {"name": "St. John the Baptist Roman Catholic Church", "designationCode": "C", "categoryCode": "38", "address": "38 WILSON ST E", "city": "PERTH", "province": "ON", "country": "CA", "postalCode": "K7H1L6", "twitter": "None", "instagram": "None", "facebook": "None", "youtube": "None", "website": "None", "summary": "None", "logo": "None", "latitude": 44.895721778233074, "longitude": -76.24690130212352}, "846906980RR0001": {"name": "St. John the Baptist Ukrainian Catholic Church #193", "designationCode": "C", "categoryCode": "38", "address": "PO BOX 232", "city": "RORKETON", "province": "MB", "country": "CA", "postalCode": "R0L1R0", "twitter": "None", "instagram": "None", "facebook": "None", "youtube": "None", "website": "None", "summary": "None", "logo": "None", "latitude": 51.390840000000026, "longitude": -99.59604999999999}, "119182269RR0001": {"name": "St. John the Baptist Ukrainian Catholic Shrine", "designationCode": "C", "categoryCode": "38", "address": "952 GREEN VALLEY CRESCENT", "city": "OTTAWA", "province": "ON", "country": "CA", "postalCode": "K2C3K7", "twitter": "None", "instagram": "None", "facebook": "None", "youtube": "None", "website": "None", "summary": "None", "logo": "None", "latitude": 45.37649246350052, "longitude": -75.7035333718912}, "107910259RR0018": {"name": "St. John the Evangelist Parish", "designationCode": "C", "categoryCode": "38", "address": "PO BOX 238", "city": "WAUBAUSHENE", "province": "ON", "country": "CA", "postalCode": "L0K2C0", "twitter": "None", "instagram": "None", "facebook": "None", "youtube": "None", "website": "None", "summary": "None", "logo": "None", "latitude": 44.75011000000006, "longitude": -79.69964999999996}, "107910259RR0064": {"name": "St. John the Evangelist Parish", "designationCode": "C", "categoryCode": "38", "address": "49 GEORGE ST", "city": "WESTON", "province": "ON", "country": "CA", "postalCode": "M9N2B4", "twitter": "None", "instagram": "None", "facebook": "None", "youtube": "None", "website": "None", "summary": "None", "logo": "None", "latitude": 43.703446461855734, "longitude": -79.52182320079066}, "107910259RR0108": {"name": "St. John the Evangelist Parish", "designationCode": "C", "categoryCode": "38", "address": "16066 GORE ROAD.", "city": "CALEDON EAST", "province": "ON", "country": "CA", "postalCode": "L7C3E6", "twitter": "None", "instagram": "None", "facebook": "None", "youtube": "None", "website": "None", "summary": "None", "logo": "None", "latitude": 43.899781476513596, "longitude": -79.83695833726668}, "107910259RR0151": {"name": "St. John the Evangelist Parish", "designationCode": "C", "categoryCode": "38", "address": "903 GIFFARD STREET", "city": "WHITBY", "province": "ON", "country": "CA", "postalCode": "L1N2S3", "twitter": "None", "instagram": "None", "facebook": "None", "youtube": "None", "website": "None", "summary": "None", "logo": "None", "latitude": 43.87919490640012, "longitude": -78.95368754146249}, "811073139RR0001": {"name": "St. John the Evangelist, Calgary Catholic Congregation, Inc.", "designationCode": "C", "categoryCode": "38", "address": "1423 8TH AVENUE SOUTHEAST", "city": "CALGARY", "province": "AB", "country": "CA", "postalCode": "T2G0N1", "twitter": "None", "instagram": "None", "facebook": "None", "youtube": "None", "website": "None", "summary": "None", "logo": "None", "latitude": 51.04030231943576, "longitude": -114.0291722549482}, "107910259RR0063": {"name": "St. John Bosco Parish", "designationCode": "C", "categoryCode": "38", "address": "402 WESTMOUNT AVE", "city": "TORONTO", "province": "ON", "country": "CA", "postalCode": "M6E3N5", "twitter": "None", "instagram": "None", "facebook": "None", "youtube": "None", "website": "None", "summary": "None", "logo": "None", "latitude": 43.686014113509195, "longitude": -79.44514611979893}, "826441032RR0001": {"name": "St. John Brebeuf Parish", "designationCode": "C", "categoryCode": "38", "address": "1707 JOHN BREBEUF PLACE", "city": "WINNIPEG", "province": "MB", "country": "CA", "postalCode": "R3N2A2", "twitter": "None", "instagram": "None", "facebook": "None", "youtube": "None", "website": "None", "summary": "None", "logo": "None", "latitude": 49.860466497691384, "longitude": -97.19755064348783}, "107910259RR0126": {"name": "St. John Chrysostom Parish", "designationCode": "C", "categoryCode": "38", "address": "432 ONTARIO STREET", "city": "NEWMARKET", "province": "ON", "country": "CA", "postalCode": "L3Y2K4", "twitter": "None", "instagram": "None", "facebook": "None", "youtube": "None", "website": "None", "summary": "None", "logo": "None", "latitude": 44.05718885648353, "longitude": -79.46088457770219}, "814796918RR0001": {"name": "St. John Chrysostom Russian Orthodox Church of Calgary", "designationCode": "C", "categoryCode": "39", "address": "14608 MACLEOD TRAIL, SE", "city": "CALGARY", "province": "AB", "country": "CA", "postalCode": "T2X1Z7", "twitter": "None", "instagram": "None", "facebook": "None", "youtube": "None", "website": "None", "summary": "None", "logo": "None", "latitude": 50.922272713572625, "longitude": -114.07176032151322}, "107910259RR0222": {"name": "St. John Fisher Parish", "designationCode": "C", "categoryCode": "38", "address": "300 BALMORAL DR", "city": "BRAMALEA", "province": "ON", "country": "CA", "postalCode": "L6T1V6", "twitter": "None", "instagram": "None", "facebook": "None", "youtube": "None", "website": "None", "summary": "None", "logo": "None", "latitude": 43.71016890593784, "longitude": -79.71127722540227}, "108023870RR0001": {"name": "St. John Lutheran Church", "designationCode": "C", "categoryCode": "32", "address": "BOX 710", "city": "PREECEVILLE", "province": "SK", "country": "CA", "postalCode": "S0A3B0", "twitter": "None", "instagram": "None", "facebook": "None", "youtube": "None", "website": "None", "summary": "None", "logo": "None", "latitude": 51.95420000000007, "longitude": -102.64748999999995}, "757966320RR0015": {"name": "St. John Paul II Syro-Malabar Catholic Church, Regina", "designationCode": "C", "categoryCode": "39", "address": "420 COLLEGE AVENUE", "city": "REGINA", "province": "SK", "country": "CA", "postalCode": "S4N0X2", "twitter": "None", "instagram": "None", "facebook": "None", "youtube": "None", "website": "None", "summary": "None", "logo": "None", "latitude": 50.44089350432784, "longitude": -104.58714052553522}, "107910259RR0113": {"name": "St. John Vianney Parish", "designationCode": "C", "categoryCode": "38", "address": "13 BALDWIN LANE", "city": "BARRIE", "province": "ON", "country": "CA", "postalCode": "L4N2W1", "twitter": "None", "instagram": "None", "facebook": "None", "youtube": "None", "website": "None", "summary": "None", "logo": "None", "latitude": 44.36781447792722, "longitude": -79.69105358381903}, "107910259RR0172": {"name": "St. John XXIII Parish", "designationCode": "C", "categoryCode": "38", "address": "150 GATEWAY BLVD", "city": "DON MILLS", "province": "ON", "country": "CA", "postalCode": "M3C3E2", "twitter": "None", "instagram": "None", "facebook": "None", "youtube": "None", "website": "None", "summary": "None", "logo": "None", "latitude": 43.714175289226006, "longitude": -79.3321187357323}, "108023045RR0001": {"name": "St. John's Anglican Church", "designationCode": "C", "categoryCode": "30", "address": "1087 LILLIAN STREET", "city": "NORTH YORK", "province": "ON", "country": "CA", "postalCode": "M2M3G1", "twitter": "None", "instagram": "None", "facebook": "None", "youtube": "None", "website": "None", "summary": "None", "logo": "None", "latitude": 43.79829664475723, "longitude": -79.41117848410231}, "136695384RR0001": {"name": "St. John's Anglican Church", "designationCode": "C", "categoryCode": "30", "address": "BOX 667", "city": "FORT QU'APPELLE", "province": "SK", "country": "CA", "postalCode": "S0G1S0", "twitter": "None", "instagram": "None", "facebook": "None", "youtube": "None", "website": "None", "summary": "None", "logo": "None", "latitude": 50.76964000000004, "longitude": -103.79339999999996}, "813995503RR0001": {"name": "St. John's Aquarium Incorporated", "designationCode": "C", "categoryCode": "50", "address": "35A SOUTHSIDE RD", "city": "PETTY HARBOUR", "province": "NL", "country": "CA", "postalCode": "A0A3H0", "twitter": "None", "instagram": "None", "facebook": "None", "youtube": "None", "website": "None", "summary": "None", "logo": "None", "latitude": 47.463382971989795, "longitude": -52.70774881036567}, "108023714RR0001": {"name": "St. John's Evangelical Lutheran Church", "designationCode": "C", "categoryCode": "32", "address": "BOX 147", "city": "LAIRD", "province": "SK", "country": "CA", "postalCode": "S0K2H0", "twitter": "None", "instagram": "None", "facebook": "None", "youtube": "None", "website": "None", "summary": "None", "logo": "None", "latitude": 51.98684384385166, "longitude": -106.06182592132525}, "108084658RR0134": {"name": "St. John's Glen-Almond Anglican Church", "designationCode": "C", "categoryCode": "30", "address": "5984 RIVER ROAD", "city": "L'ANGE GARDIEN", "province": "QC", "country": "CA", "postalCode": "J8L0H5", "twitter": "None", "instagram": "None", "facebook": "None", "youtube": "None", "website": "None", "summary": "None", "logo": "None", "latitude": 45.69108543608935, "longitude": -75.50257423426041}, "794319897RR0001": {"name": "St. John's Malankara Orthodox Syrian Church-Hamilton", "designationCode": "C", "categoryCode": "39", "address": "62 JEFFREY DR", "city": "ANCASTER", "province": "ON", "country": "CA", "postalCode": "L9K1R9", "twitter": "None", "instagram": "None", "facebook": "None", "youtube": "None", "website": "None", "summary": "None", "logo": "None", "latitude": 43.22268710242937, "longitude": -79.94277795602734}, "851158071RR0001": {"name": "St. John's McNicoll Centre", "designationCode": "C", "categoryCode": "09", "address": "146-1020 MCNICOLL AVENUE", "city": "SCARBOROUGH", "province": "ON", "country": "CA", "postalCode": "M1W2J6", "twitter": "None", "instagram": "None", "facebook": "None", "youtube": "None", "website": "None", "summary": "None", "logo": "None", "latitude": 43.804300190258175, "longitude": -79.33537751837918}, "800268120RR0001": {"name": "St. John's Middleton Foundation", "designationCode": "A", "categoryCode": "43", "address": "PO BOX 658", "city": "MIDDLETON", "province": "NS", "country": "CA", "postalCode": "B0S1P0", "twitter": "None", "instagram": "None", "facebook": "None", "youtube": "None", "website": "None", "summary": "None", "logo": "None", "latitude": 45.01449600000005, "longitude": -65.06449099999993}, "107910259RR0061": {"name": "St. John's Parish", "designationCode": "C", "categoryCode": "38", "address": "794 KINGSTON ROAD", "city": "TORONTO", "province": "ON", "country": "CA", "postalCode": "M4E1R7", "twitter": "None", "instagram": "None", "facebook": "None", "youtube": "None", "website": "None", "summary": "None", "logo": "None", "latitude": 43.680029132407995, "longitude": -79.29326639676258}, "108024035RR0001": {"name": "St. John's Presbyterian Church", "designationCode": "C", "categoryCode": "37", "address": "10 MOUNTAIN STREET", "city": "GRIMSBY", "province": "ON", "country": "CA", "postalCode": "L3M3J6", "twitter": "None", "instagram": "None", "facebook": "None", "youtube": "None", "website": "None", "summary": "None", "logo": "None", "latitude": 43.19325502859364, "longitude": -79.56278718959527}, "131609976RR0001": {"name": "St. John's Stevensville United Church", "designationCode": "C", "categoryCode": "44", "address": "PO BOX 267                    14789 SODOM ROAD", "city": "STEVENVILLE", "province": "ON", "country": "CA", "postalCode": "L0S1S0", "twitter": "None", "instagram": "None", "facebook": "None", "youtube": "None", "website": "None", "summary": "None", "logo": "None", "latitude": 42.967682999999994, "longitude": -79.05698057761528}, "118800507RR0001": {"name": "St. John's United Anglican Church", "designationCode": "C", "categoryCode": "44", "address": "BOX 395", "city": "MANNING", "province": "AB", "country": "CA", "postalCode": "T0H2M0", "twitter": "None", "instagram": "None", "facebook": "None", "youtube": "None", "website": "None", "summary": "None", "logo": "None", "latitude": 56.92804794843537, "longitude": -117.62848367126821}, "119181741RR0001": {"name": "St. John's United Church", "designationCode": "C", "categoryCode": "44", "address": "98 AURORA ROAD", "city": "POINTE CLAIRE", "province": "QC", "country": "CA", "postalCode": "H9R3G7", "twitter": "None", "instagram": "None", "facebook": "None", "youtube": "None", "website": "None", "summary": "None", "logo": "None", "latitude": 45.452373686623766, "longitude": -73.82316432491743}, "108099771RR0111": {"name": "St. John's York Cemetery Chapel", "designationCode": "C", "categoryCode": "30", "address": "678 INDIANA RD", "city": "CANFIELD", "province": "ON", "country": "CA", "postalCode": "N0A1C0", "twitter": "None", "instagram": "None", "facebook": "None", "youtube": "None", "website": "None", "summary": "None", "logo": "None", "latitude": 42.994267727777505, "longitude": -79.80747047899355}, "107910259RR0197": {"name": "St. Joseph the Worker Parish", "designationCode": "C", "categoryCode": "38", "address": "191 WADE GATE", "city": "THORNHILL", "province": "ON", "country": "CA", "postalCode": "L4J5Y4", "twitter": "None", "instagram": "None", "facebook": "None", "youtube": "None", "website": "None", "summary": "None", "logo": "None", "latitude": 43.80281555006085, "longitude": -79.4696898934157}, "107910259RR0199": {"name": "St. Joseph the Worker Parish", "designationCode": "C", "categoryCode": "38", "address": "1100 MARY STREET NORTH", "city": "OSHAWA", "province": "ON", "country": "CA", "postalCode": "L1G5G9", "twitter": "None", "instagram": "None", "facebook": "None", "youtube": "None", "website": "None", "summary": "None", "logo": "None", "latitude": 43.925737076317226, "longitude": -78.87269502723731}, "119221380RR0008": {"name": "St. Joseph Elementary School", "designationCode": "C", "categoryCode": "20", "address": "3665 BENVOULIN RD", "city": "KELOWNA", "province": "BC", "country": "CA", "postalCode": "V1W4M7", "twitter": "None", "instagram": "None", "facebook": "None", "youtube": "None", "website": "None", "summary": "None", "logo": "None", "latitude": 49.85056104631423, "longitude": -119.46776856721908}, "836716894RR0001": {"name": "St. Joseph Missionaries of Sacrifice Inc.", "designationCode": "B", "categoryCode": "39", "address": "PO BOX 220", "city": "MARSHALL", "province": "SK", "country": "CA", "postalCode": "S0M1R0", "twitter": "None", "instagram": "None", "facebook": "None", "youtube": "None", "website": "None", "summary": "None", "logo": "None", "latitude": 56.49266700000001, "longitude": -109.4480955}, "119109817RR0092": {"name": "St. Joseph Parish", "designationCode": "C", "categoryCode": "38", "address": "1025 WALLACE AVENUE NORTH", "city": "LISTOWEL", "province": "ON", "country": "CA", "postalCode": "N4W1M6", "twitter": "None", "instagram": "None", "facebook": "None", "youtube": "None", "website": "None", "summary": "None", "logo": "None", "latitude": 43.74128721509577, "longitude": -80.94555489647398}, "816734826RR0001": {"name": "St. Joseph Priests' Foundation of Edmonton", "designationCode": "B", "categoryCode": "43", "address": "8421 101 AVENUE", "city": "EDMONTON", "province": "AB", "country": "CA", "postalCode": "T6A0L1", "twitter": "None", "instagram": "None", "facebook": "None", "youtube": "None", "website": "None", "summary": "None", "logo": "None", "latitude": 53.541179499424025, "longitude": -113.45818346044207}, "757966320RR0007": {"name": "St. Joseph Syro-Malabar Catholic Church, Hamilton", "designationCode": "C", "categoryCode": "39", "address": "19 VIEWPOINT AVENUE", "city": "HAMILTON", "province": "ON", "country": "CA", "postalCode": "L8V2S4", "twitter": "None", "instagram": "None", "facebook": "None", "youtube": "None", "website": "None", "summary": "None", "logo": "None", "latitude": 43.241273591724884, "longitude": -79.848622709389}, "757966320RR0006": {"name": "St. Joseph Syro-Malabar Catholic Church, Kingston", "designationCode": "C", "categoryCode": "39", "address": "88 PATRICK STREET", "city": "KINGSTON", "province": "ON", "country": "CA", "postalCode": "K7K3P1", "twitter": "None", "instagram": "None", "facebook": "None", "youtube": "None", "website": "None", "summary": "None", "logo": "None", "latitude": 44.23893639494492, "longitude": -76.48908740885204}, "831138516RR0001": {"name": "St. Joseph's at Fleming Foundation", "designationCode": "A", "categoryCode": "13", "address": "659 BREALEY DRIVE", "city": "PETERBOROUGH", "province": "ON", "country": "CA", "postalCode": "K9K2R8", "twitter": "None", "instagram": "None", "facebook": "None", "youtube": "None", "website": "None", "summary": "None", "logo": "None", "latitude": 44.269026937532594, "longitude": -78.36892413053205}, "823167556RR0001": {"name": "St. Joseph's Continuing Care Centre of Sudbury", "designationCode": "C", "categoryCode": "10", "address": "1140 SOUTH BAY ROAD", "city": "SUDBURY", "province": "ON", "country": "CA", "postalCode": "P3E0B6", "twitter": "None", "instagram": "None", "facebook": "None", "youtube": "None", "website": "None", "summary": "None", "logo": "None", "latitude": 46.46722419302016, "longitude": -80.96758935672953}, "818466757RR0001": {"name": "St. Joseph's Foundation of Elliot Lake", "designationCode": "A", "categoryCode": "43", "address": "70 SPINE ROAD", "city": "ELLIOT LAKE", "province": "ON", "country": "CA", "postalCode": "P5A1X2", "twitter": "None", "instagram": "None", "facebook": "None", "youtube": "None", "website": "None", "summary": "None", "logo": "None", "latitude": 46.384222570120436, "longitude": -82.66114913455425}, "119183440RR0001": {"name": "St. Joseph's Health Centre, Guelph Volunteer Association", "designationCode": "C", "categoryCode": "19", "address": "100 WESTMOUNT ROAD", "city": "GUELPH", "province": "ON", "country": "CA", "postalCode": "N1H5H8", "twitter": "None", "instagram": "None", "facebook": "None", "youtube": "None", "website": "None", "summary": "None", "logo": "None", "latitude": 43.55088010439057, "longitude": -80.27103337871628}, "840138911RR0001": {"name": "St. Joseph's Health System International Outreach Program", "designationCode": "C", "categoryCode": "19", "address": "50 CHARLTON AVENUE EAST", "city": "HAMILTON", "province": "ON", "country": "CA", "postalCode": "L8N4A6", "twitter": "None", "instagram": "None", "facebook": "None", "youtube": "None", "website": "None", "summary": "None", "logo": "None", "latitude": 43.24918190034062, "longitude": -79.8696584834958}, "108026121RR0001": {"name": "St. Joseph's Healthcare Hamilton", "designationCode": "C", "categoryCode": "10", "address": "DEPT. OF FINANCE              50 CHARLTON AVE. E.", "city": "HAMILTON", "province": "ON", "country": "CA", "postalCode": "L8N4A6", "twitter": "None", "instagram": "None", "facebook": "None", "youtube": "None", "website": "None", "summary": "None", "logo": "None", "latitude": 43.24918190034062, "longitude": -79.8696584834958}, "813789823RR0001": {"name": "St. Joseph's Hospital Auxiliary Inc.", "designationCode": "C", "categoryCode": "19", "address": "130 BAYARD DR", "city": "SAINT JOHN", "province": "NB", "country": "CA", "postalCode": "E2L3L6", "twitter": "None", "instagram": "None", "facebook": "None", "youtube": "None", "website": "None", "summary": "None", "logo": "None", "latitude": 45.27906312600269, "longitude": -66.05797260115995}}