{"108090291RR0001": {"name": "SUPERIOR NORTH CATHOLIC DISTRICT SCHOOL BOARD", "designationCode": "C", "categoryCode": "20", "address": "21 SIMCOE PLAZA               PO BOX 610", "city": "TERRACE BAY", "province": "ON", "country": "CA", "postalCode": "P0T2W0", "twitter": "None", "instagram": "None", "facebook": "None", "youtube": "None", "website": "None", "summary": "None", "logo": "None", "latitude": 48.782985369340054, "longitude": -87.10176549580589}, "831062963RR0001": {"name": "SUPERIOR NORTH VICTIM SERVICES", "designationCode": "C", "categoryCode": "09", "address": "PO BOX 1165                   2 ONTARIO ST.", "city": "MARATHON", "province": "ON", "country": "CA", "postalCode": "P0T2E0", "twitter": "None", "instagram": "None", "facebook": "None", "youtube": "None", "website": "None", "summary": "None", "logo": "None", "latitude": 48.71776074203222, "longitude": -86.38036396137119}, "706907094RR0001": {"name": "SUPPER'S READY BRIGHTON", "designationCode": "C", "categoryCode": "09", "address": "30 CHATTEN ROAD", "city": "BRIGHTON", "province": "ON", "country": "CA", "postalCode": "K0K1H0", "twitter": "None", "instagram": "None", "facebook": "None", "youtube": "None", "website": "None", "summary": "None", "logo": "None", "latitude": 44.09124957364727, "longitude": -77.77173410039234}, "103966529RR0001": {"name": "SUPPORT & HOUSING - HALTON", "designationCode": "C", "categoryCode": "01", "address": "599 CHARTWELL ROAD", "city": "OAKVILLE", "province": "ON", "country": "CA", "postalCode": "L6J4A9", "twitter": "None", "instagram": "None", "facebook": "None", "youtube": "None", "website": "None", "summary": "None", "logo": "None", "latitude": 43.46660922038195, "longitude": -79.67601460600737}, "890307978RR0001": {"name": "SUPPORT AND TRUSTEE ADVISORY SERVICES", "designationCode": "C", "categoryCode": "11", "address": "6695 MILLCREEK AVE            UNIT 1", "city": "MISSISSAUGA", "province": "ON", "country": "CA", "postalCode": "L5N5R8", "twitter": "None", "instagram": "None", "facebook": "None", "youtube": "None", "website": "None", "summary": "None", "logo": "None"}, "892201047RR0001": {"name": "SUPPORT CASA GUATEMALA CHILDREN INC", "designationCode": "B", "categoryCode": "03", "address": "165 BRUCE ST. N               PO BOX 12", "city": "DURHAM", "province": "ON", "country": "CA", "postalCode": "N0G1R0", "twitter": "None", "instagram": "None", "facebook": "None", "youtube": "None", "website": "None", "summary": "None", "logo": "None", "latitude": 44.177125724240604, "longitude": -80.82330929252895}, "891385544RR0001": {"name": "SUPPORT FAMILIAL FLOCONS D'ESPOIR", "designationCode": "C", "categoryCode": "09", "address": "340 MONTMARTRE                SUITE 4", "city": "QUEBEC", "province": "QC", "country": "CA", "postalCode": "G1K1E2", "twitter": "None", "instagram": "None", "facebook": "None", "youtube": "None", "website": "None", "summary": "None", "logo": "None", "latitude": 46.81320152152451, "longitude": -71.23987883654553}, "104323613RR0003": {"name": "SUPPORTED EMPLOYMENT", "designationCode": "C", "categoryCode": "09", "address": "85 4TH AVE NE", "city": "PORTAGE LA PRAIRIE", "province": "MB", "country": "CA", "postalCode": "R1N3J5", "twitter": "None", "instagram": "None", "facebook": "None", "youtube": "None", "website": "None", "summary": "None", "logo": "None", "latitude": 49.97955024559698, "longitude": -98.28883753772978}, "136491529RR0001": {"name": "SUPPORTED LIFESTYLES LTD", "designationCode": "C", "categoryCode": "01", "address": "210-495 36TH STREET NE", "city": "CALGARY", "province": "AB", "country": "CA", "postalCode": "T2A6K3", "twitter": "None", "instagram": "None", "facebook": "None", "youtube": "None", "website": "None", "summary": "None", "logo": "None", "latitude": 51.056068499950385, "longitude": -113.98197311320847}, "107462566RR0001": {"name": "SUPPORTED TRAINING AND REHABILITATION IN DIVERSE ENVIRONMENTS", "designationCode": "C", "categoryCode": "09", "address": "26 - 55 ONTARIO ST S", "city": "MILTON", "province": "ON", "country": "CA", "postalCode": "L9T2M3", "twitter": "None", "instagram": "None", "facebook": "None", "youtube": "None", "website": "None", "summary": "None", "logo": "None", "latitude": 43.512389240991645, "longitude": -79.86950806279496}, "885382705RR0001": {"name": "SUPPORTERS OF ETOBICOKE SCHOOL OF THE ARTS TALENT", "designationCode": "A", "categoryCode": "21", "address": "675 ROYAL YORK RD", "city": "ETOBICOKE", "province": "ON", "country": "CA", "postalCode": "M8Y2T1", "twitter": "None", "instagram": "None", "facebook": "None", "youtube": "None", "website": "None", "summary": "None", "logo": "None", "latitude": 43.63067480988512, "longitude": -79.50437637688285}, "864188198RR0001": {"name": "SUPPORTING BURNABY YOUTH SOCIETY", "designationCode": "C", "categoryCode": "09", "address": "8890 BARTLETT ST              BOX 991", "city": "FORT LANGLEY", "province": "BC", "country": "CA", "postalCode": "V1M2S4", "twitter": "None", "instagram": "None", "facebook": "None", "youtube": "None", "website": "None", "summary": "None", "logo": "None", "latitude": 49.16395686926546, "longitude": -122.5809197988922}, "746257492RR0001": {"name": "SUPPORTING WOUNDED VETERANS CANADA", "designationCode": "C", "categoryCode": "59", "address": "1155 BOUL RENE-LEVESQUE O     2912", "city": "MONTREAL", "province": "QC", "country": "CA", "postalCode": "H3B2L5", "twitter": "None", "instagram": "None", "facebook": "None", "youtube": "None", "website": "None", "summary": "None", "logo": "None", "latitude": 45.498612132119526, "longitude": -73.5705753094811}, "870474764RR0001": {"name": "SUPPORTIVE CARE HOLDINGS SOCIETY", "designationCode": "A", "categoryCode": "09", "address": "#103 2776 BOURQUIN CRESCENT", "city": "ABBOTSFORD", "province": "BC", "country": "CA", "postalCode": "V2S6A4", "twitter": "None", "instagram": "None", "facebook": "None", "youtube": "None", "website": "None", "summary": "None", "logo": "None", "latitude": 49.052466203072356, "longitude": -122.31033316498561}, "136268166RR0001": {"name": "SUPPORTIVE HOUSING IN PEEL", "designationCode": "C", "categoryCode": "01", "address": "969 DERRY ROAD EAST           UNIT 107", "city": "MISSISSAUGA", "province": "ON", "country": "CA", "postalCode": "L5T2J7", "twitter": "None", "instagram": "None", "facebook": "None", "youtube": "None", "website": "None", "summary": "None", "logo": "None", "latitude": 43.6649186964046, "longitude": -79.68583087229429}, "130588767RR0001": {"name": "SUPPORTIVE INITIATIVE FOR RESIDENTS IN THE COUNTY OF HALIBURTON (S I R C H )", "designationCode": "C", "categoryCode": "59", "address": "# 4663 COUNTY D 21            BOX 687", "city": "HALIBURTON", "province": "ON", "country": "CA", "postalCode": "K0M1S0", "twitter": "None", "instagram": "None", "facebook": "None", "youtube": "None", "website": "None", "summary": "None", "logo": "None", "latitude": 45.0376406731071, "longitude": -78.55921600467858}, "885160960RR0001": {"name": "SUPREME TEMPLE DAUGHTERS OF THE NILE CONVALESCENT RELIEF FUND AND SUPREME TEMPLE DAUGHTERS OF THE NILE CONVALESCENT ENDOWMENT FUND", "designationCode": "A", "categoryCode": "05", "address": "130 KING STREET WEST 20TH FLOOBOX 430, STN FIRST CANADIAN PL", "city": "TORONTO", "province": "ON", "country": "CA", "postalCode": "M5X1K1", "twitter": "None", "instagram": "None", "facebook": "None", "youtube": "None", "website": "None", "summary": "None", "logo": "None", "latitude": 43.64826932503962, "longitude": -79.38190945606182}, "139893127RR0001": {"name": "SURBOIS", "designationCode": "C", "categoryCode": "21", "address": "649, CHEMIN LAROQUE", "city": "VALLEYFIELD", "province": "QC", "country": "CA", "postalCode": "J6T4E1", "twitter": "None", "instagram": "None", "facebook": "None", "youtube": "None", "website": "None", "summary": "None", "logo": "None", "latitude": 45.23336826897089, "longitude": -74.11828922779779}, "119206415RR0001": {"name": "SURE LIFE ASSEMBLY INC", "designationCode": "C", "categoryCode": "39", "address": "335 OTIS DRIVE", "city": "NACKAWIC", "province": "NB", "country": "CA", "postalCode": "E6G1H4", "twitter": "None", "instagram": "None", "facebook": "None", "youtube": "None", "website": "None", "summary": "None", "logo": "None", "latitude": 45.985091980321826, "longitude": -67.24103868673839}, "108053877RR0001": {"name": "SUREX COMMUNITY SERVICES", "designationCode": "C", "categoryCode": "10", "address": "311-40 WYNFORD DR", "city": "DON MILLS", "province": "ON", "country": "CA", "postalCode": "M3C1J5", "twitter": "None", "instagram": "None", "facebook": "None", "youtube": "None", "website": "None", "summary": "None", "logo": "None", "latitude": 43.72386212715652, "longitude": -79.33532275024501}, "805979424RR0001": {"name": "SURFRIDER FOUNDATION CANADA CHAPTERS", "designationCode": "C", "categoryCode": "59", "address": "P.O. BOX 10424, PACIFIC CENTRE1300 - 777 DUNSMUIR STREET", "city": "VANCOUVER", "province": "BC", "country": "CA", "postalCode": "V7K1K2", "twitter": "None", "instagram": "None", "facebook": "None", "youtube": "None", "website": "None", "summary": "None", "logo": "None", "latitude": 49.283979252322474, "longitude": -123.11691534049893}, "893443861RR0001": {"name": "SURGE NARROWS COMMUNITY ASSOCIATION", "designationCode": "C", "categoryCode": "21", "address": "P. O. BOX 52", "city": "SURGE NARROWS", "province": "BC", "country": "CA", "postalCode": "V0P1W0", "twitter": "None", "instagram": "None", "facebook": "None", "youtube": "None", "website": "None", "summary": "None", "logo": "None", "latitude": 50.19199915419076, "longitude": -125.17788827863077}, "119206456RR0001": {"name": "SURPRISE LAKE SOCIETY", "designationCode": "C", "categoryCode": "56", "address": "PO BOX 6392 STN MAIN", "city": "EDSON", "province": "AB", "country": "CA", "postalCode": "T7E1T8", "twitter": "None", "instagram": "None", "facebook": "None", "youtube": "None", "website": "None", "summary": "None", "logo": "None", "latitude": 53.58212700000006, "longitude": -116.43412399999994}, "887930246RR0001": {"name": "SURREY \"ARTSWEST\" SOCIETY", "designationCode": "C", "categoryCode": "22", "address": "6158 132 ST", "city": "SURREY", "province": "BC", "country": "CA", "postalCode": "V3X1M8", "twitter": "None", "instagram": "None", "facebook": "None", "youtube": "None", "website": "None", "summary": "None", "logo": "None", "latitude": 49.11468266472389, "longitude": -122.85651050608818}, "119206472RR0001": {"name": "SURREY ALLIANCE CHURCH", "designationCode": "C", "categoryCode": "39", "address": "13474 96 AVE", "city": "SURREY", "province": "BC", "country": "CA", "postalCode": "V3V1Y9", "twitter": "None", "instagram": "None", "facebook": "None", "youtube": "None", "website": "None", "summary": "None", "logo": "None", "latitude": 49.1770284740321, "longitude": -122.84900027699231}, "132363631RR0001": {"name": "SURREY ART GALLERY ASSOCIATION", "designationCode": "C", "categoryCode": "23", "address": "13750-88TH AVE", "city": "SURREY", "province": "BC", "country": "CA", "postalCode": "V3W3L1", "twitter": "None", "instagram": "None", "facebook": "None", "youtube": "None", "website": "None", "summary": "None", "logo": "None", "latitude": 49.162689527843845, "longitude": -122.84241291618096}, "108054024RR0001": {"name": "SURREY ASSOCIATION FOR COMMUNITY LIVING", "designationCode": "C", "categoryCode": "11", "address": "17687 - 56A AVENUE", "city": "SURREY", "province": "BC", "country": "CA", "postalCode": "V3S1G4", "twitter": "None", "instagram": "None", "facebook": "None", "youtube": "None", "website": "None", "summary": "None", "logo": "None", "latitude": 49.105102514859425, "longitude": -122.73255}, "129864575RR0001": {"name": "SURREY ASSOCIATION FOR EARLY CHILDHOOD EDUCATION", "designationCode": "C", "categoryCode": "01", "address": "BOX 34161                     17790 HWY #10", "city": "SURREY", "province": "BC", "country": "CA", "postalCode": "V3S8C4", "twitter": "None", "instagram": "None", "facebook": "None", "youtube": "None", "website": "None", "summary": "None", "logo": "None", "latitude": 49.10405674887256, "longitude": -122.72953324887257}, "890022999RR0001": {"name": "SURREY BIBLE MISSIONARY CHURCH", "designationCode": "C", "categoryCode": "39", "address": "925 FIFTH ST", "city": "NEW WESTMINSTER", "province": "BC", "country": "CA", "postalCode": "V3L2Y5", "twitter": "None", "instagram": "None", "facebook": "None", "youtube": "None", "website": "None", "summary": "None", "logo": "None", "latitude": 49.21859775787327, "longitude": -122.92489666387027}, "867005571RR0001": {"name": "SURREY CANAAN CHURCH", "designationCode": "C", "categoryCode": "39", "address": "101 - 8484 162 ST", "city": "SURREY", "province": "BC", "country": "CA", "postalCode": "V4N1B4", "twitter": "None", "instagram": "None", "facebook": "None", "youtube": "None", "website": "None", "summary": "None", "logo": "None", "latitude": 49.15708091035259, "longitude": -122.77325150608819}, "890619323RR0001": {"name": "SURREY CHINESE BAPTIST CHURCH", "designationCode": "C", "categoryCode": "39", "address": "8590 - 160TH STREET", "city": "SURREY", "province": "BC", "country": "CA", "postalCode": "V4N1A7", "twitter": "None", "instagram": "None", "facebook": "None", "youtube": "None", "website": "None", "summary": "None", "logo": "None", "latitude": 49.15886274271452, "longitude": -122.7788510205149}, "821858602RR0001": {"name": "SURREY CHINESE CHURCH OF THE NAZARENE", "designationCode": "C", "categoryCode": "39", "address": "9012 - 160 STREET", "city": "SURREY", "province": "BC", "country": "CA", "postalCode": "V4N3A5", "twitter": "None", "instagram": "None", "facebook": "None", "youtube": "None", "website": "None", "summary": "None", "logo": "None", "latitude": 49.166765999999996, "longitude": -122.77883998776632}, "862794591RR0001": {"name": "SURREY CHORAL ARTS PROJECT SOCIETY", "designationCode": "C", "categoryCode": "22", "address": "15610 18A AVENUE", "city": "SURREY", "province": "BC", "country": "CA", "postalCode": "V4A5C4", "twitter": "None", "instagram": "None", "facebook": "None", "youtube": "None", "website": "None", "summary": "None", "logo": "None", "latitude": 49.03550751788919, "longitude": -122.78994325145709}, "130565963RR0002": {"name": "SURREY CHRISTIAN ALLIANCE CHURCH", "designationCode": "C", "categoryCode": "39", "address": "15421 -110 AVENUE", "city": "SURREY", "province": "BC", "country": "CA", "postalCode": "V3R0X1", "twitter": "None", "instagram": "None", "facebook": "None", "youtube": "None", "website": "None", "summary": "None", "logo": "None", "latitude": 49.20252152207278, "longitude": -122.79453202553523}, "889354056RR0001": {"name": "SURREY CHRISTIAN LIFE ASSEMBLY", "designationCode": "C", "categoryCode": "36", "address": "CHURCH TREASURER              #110-12332 PATTULLO PLACE", "city": "SURREY", "province": "BC", "country": "CA", "postalCode": "V3V8C3", "twitter": "None", "instagram": "None", "facebook": "None", "youtube": "None", "website": "None", "summary": "None", "logo": "None", "latitude": 49.20403345989382, "longitude": -122.88003440677457}, "874594716RR0001": {"name": "SURREY CHRISTMAS BUREAU SOCIETY", "designationCode": "C", "categoryCode": "09", "address": "10688 KING GEORGE HWY         PO BOX 547", "city": "SURREY", "province": "BC", "country": "CA", "postalCode": "V3T5B7", "twitter": "None", "instagram": "None", "facebook": "None", "youtube": "None", "website": "None", "summary": "None", "logo": "None", "latitude": 49.19701187412167, "longitude": -122.84517396262022}, "108054271RR0001": {"name": "SURREY COVENANT REFORMED CHURCH", "designationCode": "C", "categoryCode": "39", "address": "17400-60TH AVE", "city": "SURREY", "province": "BC", "country": "CA", "postalCode": "V3S1T8", "twitter": "None", "instagram": "None", "facebook": "None", "youtube": "None", "website": "None", "summary": "None", "logo": "None", "latitude": 49.11143673593142, "longitude": -122.74033323593142}, "119206548RR0001": {"name": "SURREY CRIME PREVENTION SOCIETY", "designationCode": "C", "categoryCode": "09", "address": "15-12484 82 AVENUE", "city": "SURREY", "province": "BC", "country": "CA", "postalCode": "V3W3E9", "twitter": "None", "instagram": "None", "facebook": "None", "youtube": "None", "website": "None", "summary": "None", "logo": "None", "latitude": 49.15198852510253, "longitude": -122.87663052844943}, "861692432RR0001": {"name": "SURREY EVANGELICAL CHINESE BIBLE CHURCH", "designationCode": "C", "categoryCode": "39", "address": "13908 104 AVE", "city": "SURREY", "province": "BC", "country": "CA", "postalCode": "V3T1X2", "twitter": "None", "instagram": "None", "facebook": "None", "youtube": "None", "website": "None", "summary": "None", "logo": "None", "latitude": 49.19149649235394, "longitude": -122.83691400000001}, "133923896RR0001": {"name": "SURREY FESTIVAL OF DANCE SOCIETY", "designationCode": "C", "categoryCode": "22", "address": "203-10190 152A STREET", "city": "SURREY", "province": "BC", "country": "CA", "postalCode": "V3R1J7", "twitter": "None", "instagram": "None", "facebook": "None", "youtube": "None", "website": "None", "summary": "None", "logo": "None", "latitude": 49.18771741326677, "longitude": -122.79944944780438}, "118818491RR0069": {"name": "SURREY FILIPINO SEVENTH-DAY ADVENTIST CHURCH", "designationCode": "C", "categoryCode": "41", "address": "PO 1000", "city": "ABBOTSFORD", "province": "BC", "country": "CA", "postalCode": "V2S4P5", "twitter": "None", "instagram": "None", "facebook": "None", "youtube": "None", "website": "None", "summary": "None", "logo": "None", "latitude": 49.03851300000005, "longitude": -122.29441549999993}, "141057794RR0001": {"name": "SURREY FIRE FIGHTERS CHARITABLE SOCIETY", "designationCode": "A", "categoryCode": "09", "address": "8767-132ND ST", "city": "SURREY", "province": "BC", "country": "CA", "postalCode": "V3W4P1", "twitter": "None", "instagram": "None", "facebook": "None", "youtube": "None", "website": "None", "summary": "None", "logo": "None", "latitude": 49.16209483236193, "longitude": -122.85693397948509}, "133859058RR0001": {"name": "SURREY FOOD BANK FOUNDATION", "designationCode": "A", "categoryCode": "03", "address": "10734 CITY PARKWAY", "city": "SURREY", "province": "BC", "country": "CA", "postalCode": "V3T4C7", "twitter": "None", "instagram": "None", "facebook": "None", "youtube": "None", "website": "None", "summary": "None", "logo": "None", "latitude": 49.19769903136361, "longitude": -122.84875798055295}, "132168162RR0001": {"name": "SURREY FOOD BANK SOCIETY", "designationCode": "C", "categoryCode": "09", "address": "10732 CITY PARKWAY", "city": "SURREY", "province": "BC", "country": "CA", "postalCode": "V3T4C7", "twitter": "None", "instagram": "None", "facebook": "None", "youtube": "None", "website": "None", "summary": "None", "logo": "None", "latitude": 49.197619193350825, "longitude": -122.84874121916098}, "859887598RR0001": {"name": "SURREY FREE METHODIST CHURCH", "designationCode": "C", "categoryCode": "39", "address": "12371 96TH AVENUE", "city": "SURREY", "province": "BC", "country": "CA", "postalCode": "V3V1W9", "twitter": "None", "instagram": "None", "facebook": "None", "youtube": "None", "website": "None", "summary": "None", "logo": "None", "latitude": 49.17719346768412, "longitude": -122.88005002553523}, "891456840RR0001": {"name": "SURREY GERMAN LANGUAGE SCHOOL SOCIETY", "designationCode": "C", "categoryCode": "20", "address": "PO BOX 33558                  RPO CENTRAL CITY", "city": "SURREY", "province": "BC", "country": "CA", "postalCode": "V3T5R5", "twitter": "None", "instagram": "None", "facebook": "None", "youtube": "None", "website": "None", "summary": "None", "logo": "None", "latitude": 49.19459934321265, "longitude": -122.84818947275335}, "119206662RR0001": {"name": "SURREY HISTORICAL SOCIETY", "designationCode": "C", "categoryCode": "50", "address": "PO 34003                      17790 HWY 10", "city": "SURREY", "province": "BC", "country": "CA", "postalCode": "V3S8C4", "twitter": "None", "instagram": "None", "facebook": "None", "youtube": "None", "website": "None", "summary": "None", "logo": "None", "latitude": 49.10405674887256, "longitude": -122.72953324887257}, "119206605RR0001": {"name": "SURREY HOSPICE SOCIETY", "designationCode": "C", "categoryCode": "11", "address": "101 - 13463 78 AVE", "city": "SURREY", "province": "BC", "country": "CA", "postalCode": "V3W0A8", "twitter": "None", "instagram": "None", "facebook": "None", "youtube": "None", "website": "None", "summary": "None", "logo": "None", "latitude": 49.144550489324196, "longitude": -122.84927002553522}, "891766537RR0001": {"name": "SURREY HOSPITAL COMMUNITY CHILDCARE SOCIETY", "designationCode": "C", "categoryCode": "20", "address": "13750  96TH AVE", "city": "SURREY", "province": "BC", "country": "CA", "postalCode": "V3V1Z2", "twitter": "None", "instagram": "None", "facebook": "None", "youtube": "None", "website": "None", "summary": "None", "logo": "None", "latitude": 49.17699149956731, "longitude": -122.84243027699232}, "864580717RR0001": {"name": "SURREY HOUSE OF GRACE SOCIETY", "designationCode": "C", "categoryCode": "09", "address": "13557 KING GEORGE BLVD", "city": "SURREY", "province": "BC", "country": "CA", "postalCode": "V3T2V1", "twitter": "None", "instagram": "None", "facebook": "None", "youtube": "None", "website": "None", "summary": "None", "logo": "None", "latitude": 49.19992433591118, "longitude": -122.84650951820637}, "872671912RR0001": {"name": "SURREY HOUSE OF RESTORATION", "designationCode": "C", "categoryCode": "39", "address": "27- 13332 102A AVE", "city": "SURREY", "province": "BC", "country": "CA", "postalCode": "V3T5J7", "twitter": "None", "instagram": "None", "facebook": "None", "youtube": "None", "website": "None", "summary": "None", "logo": "None", "latitude": 49.18887149956733, "longitude": -122.85322119317328}, "140773979RR0001": {"name": "SURREY KOREAN PRESBYTERIAN CHURCH", "designationCode": "C", "categoryCode": "39", "address": "15964 88 AVE", "city": "SURREY", "province": "BC", "country": "CA", "postalCode": "V4N1H5", "twitter": "None", "instagram": "None", "facebook": "None", "youtube": "None", "website": "None", "summary": "None", "logo": "None", "latitude": 49.162729506780686, "longitude": -122.779773}, "119206613RR0001": {"name": "SURREY LITTLE THEATRE", "designationCode": "C", "categoryCode": "22", "address": "PO. BOX 34066                 17790 HWY 10", "city": "SURREY", "province": "BC", "country": "CA", "postalCode": "V3S8C4", "twitter": "None", "instagram": "None", "facebook": "None", "youtube": "None", "website": "None", "summary": "None", "logo": "None", "latitude": 49.10405674887256, "longitude": -122.72953324887257}, "825797871RR0001": {"name": "SURREY MEMORIAL HOSPITAL AUXILIARY", "designationCode": "C", "categoryCode": "19", "address": "13750 96 AVE", "city": "SURREY", "province": "BC", "country": "CA", "postalCode": "V3V1Z2", "twitter": "None", "instagram": "None", "facebook": "None", "youtube": "None", "website": "None", "summary": "None", "logo": "None", "latitude": 49.17699149956731, "longitude": -122.84243027699232}, "843942764RR0001": {"name": "SURREY NEW LIFE BAPTIST CHURCH", "designationCode": "C", "categoryCode": "31", "address": "103-16225 85TH AVE", "city": "SURREY", "province": "BC", "country": "CA", "postalCode": "V4N3K3", "twitter": "None", "instagram": "None", "facebook": "None", "youtube": "None", "website": "None", "summary": "None", "logo": "None", "latitude": 49.1573934893242, "longitude": -122.77246419317328}, "855972949RR0001": {"name": "SURREY PASTORS NETWORK SOCIETY", "designationCode": "C", "categoryCode": "49", "address": "10330 - 144TH STREET", "city": "SURREY", "province": "BC", "country": "CA", "postalCode": "V3T4V3", "twitter": "None", "instagram": "None", "facebook": "None", "youtube": "None", "website": "None", "summary": "None", "logo": "None", "latitude": 49.190471800998324, "longitude": -122.82311797665783}, "108054297RR0001": {"name": "SURREY PENTECOSTAL ASSEMBLY", "designationCode": "C", "categoryCode": "36", "address": "16870 80TH AVE", "city": "SURREY", "province": "BC", "country": "CA", "postalCode": "V4N5A7", "twitter": "None", "instagram": "None", "facebook": "None", "youtube": "None", "website": "None", "summary": "None", "logo": "None", "latitude": 49.14873484096027, "longitude": -122.75488889927274}, "119206696RR0001": {"name": "SURREY PLACE CENTRE", "designationCode": "C", "categoryCode": "11", "address": "2 SURREY PLACE", "city": "TORONTO", "province": "ON", "country": "CA", "postalCode": "M5S2C2", "twitter": "None", "instagram": "None", "facebook": "None", "youtube": "None", "website": "None", "summary": "None", "logo": "None", "latitude": 43.661209526775984, "longitude": -79.38833612409809}, "129053211RR0001": {"name": "SURREY PLACE CENTRE CHARITABLE FOUNDATION", "designationCode": "A", "categoryCode": "05", "address": "2 SURREY PLACE", "city": "TORONTO", "province": "ON", "country": "CA", "postalCode": "M5S2C2", "twitter": "None", "instagram": "None", "facebook": "None", "youtube": "None", "website": "None", "summary": "None", "logo": "None", "latitude": 43.661209526775984, "longitude": -79.38833612409809}, "119288918RR0638": {"name": "SURREY PLACE CONGREGATION OF JEHOVAH'S WITNESSES", "designationCode": "C", "categoryCode": "61", "address": "13111 107 AVE", "city": "SURREY", "province": "BC", "country": "CA", "postalCode": "V3T2G2", "twitter": "None", "instagram": "None", "facebook": "None", "youtube": "None", "website": "None", "summary": "None", "logo": "None", "latitude": 49.19704545657561, "longitude": -122.85899010935427}, "121391882RR0001": {"name": "SURREY PUBLIC LIBRARY", "designationCode": "C", "categoryCode": "50", "address": "10350 UNIVERSITY DRIVE", "city": "SURREY", "province": "BC", "country": "CA", "postalCode": "V3T4B8", "twitter": "None", "instagram": "None", "facebook": "None", "youtube": "None", "website": "None", "summary": "None", "logo": "None", "latitude": 49.19065760505509, "longitude": -122.84983166899438}, "891080186RR0001": {"name": "SURREY SEARCH AND RESCUE SOCIETY", "designationCode": "C", "categoryCode": "59", "address": "FIRE HALL NO 1 8767 132ND ST", "city": "SURREY", "province": "BC", "country": "CA", "postalCode": "V3W4P1", "twitter": "None", "instagram": "None", "facebook": "None", "youtube": "None", "website": "None", "summary": "None", "logo": "None", "latitude": 49.16209483236193, "longitude": -122.85693397948509}, "118818491RR0031": {"name": "SURREY SEVENTH-DAY ADVENTIST CHURCH", "designationCode": "C", "categoryCode": "41", "address": "PO 1000", "city": "ABBOTSFORD", "province": "BC", "country": "CA", "postalCode": "V2S4P5", "twitter": "None", "instagram": "None", "facebook": "None", "youtube": "None", "website": "None", "summary": "None", "logo": "None", "latitude": 49.03851300000005, "longitude": -122.29441549999993}, "119206738RR0001": {"name": "SURREY SYMPHONY SOCIETY", "designationCode": "C", "categoryCode": "22", "address": "100-15157 56 AVE              PO BOX 39083 PANORAMA PO", "city": "SURREY", "province": "BC", "country": "CA", "postalCode": "V3S9A5", "twitter": "None", "instagram": "None", "facebook": "None", "youtube": "None", "website": "None", "summary": "None", "logo": "None", "latitude": 49.104600251774364, "longitude": -122.8022542743963}, "891084774RR0001": {"name": "SURREY UNITY OF MAN ASSOCIATION", "designationCode": "C", "categoryCode": "39", "address": "540 232ND ST", "city": "LANGLEY", "province": "BC", "country": "CA", "postalCode": "V2Z2W2", "twitter": "None", "instagram": "None", "facebook": "None", "youtube": "None", "website": "None", "summary": "None", "logo": "None", "latitude": 49.011569371083134, "longitude": -122.58169190844895}, "863285615RR0001": {"name": "SURREY URBAN MISSION SOCIETY", "designationCode": "C", "categoryCode": "09", "address": "10776 KING GEORGE BOULEVARD", "city": "SURREY", "province": "BC", "country": "CA", "postalCode": "V3T2X7", "twitter": "None", "instagram": "None", "facebook": "None", "youtube": "None", "website": "None", "summary": "None", "logo": "None", "latitude": 49.19846530181401, "longitude": -122.84523572018374}, "893139261RR0001": {"name": "SURREY VIETNAMESE ALLIANCE CHURCH", "designationCode": "C", "categoryCode": "39", "address": "15396 SEQUOIA DRIVE", "city": "SURREY", "province": "BC", "country": "CA", "postalCode": "V3S8N4", "twitter": "None", "instagram": "None", "facebook": "None", "youtube": "None", "website": "None", "summary": "None", "logo": "None", "latitude": 49.147899621703516, "longitude": -122.79620762891687}, "133240937RR0001": {"name": "SURREY WHITE ROCK BURSARY FOUNDATION", "designationCode": "A", "categoryCode": "21", "address": "PO BOX 75039", "city": "SURREY", "province": "BC", "country": "CA", "postalCode": "V4A0B1", "twitter": "None", "instagram": "None", "facebook": "None", "youtube": "None", "website": "None", "summary": "None", "logo": "None", "latitude": 49.032438000000056, "longitude": -122.81646949999993}, "140327891RR0001": {"name": "SURREY WOMEN'S CENTRE SOCIETY", "designationCode": "C", "categoryCode": "09", "address": "PO BOX 33519, CENTRAL CITY", "city": "SURREY", "province": "BC", "country": "CA", "postalCode": "V3T5R5", "twitter": "None", "instagram": "None", "facebook": "None", "youtube": "None", "website": "None", "summary": "None", "logo": "None", "latitude": 49.19459934321265, "longitude": -122.84818947275335}, "889702940RR0001": {"name": "SURREY-NORTH DELTA MEALS ON WHEELS", "designationCode": "C", "categoryCode": "09", "address": "#142-6832 KING GEORGE BLVD.", "city": "SURREY", "province": "BC", "country": "CA", "postalCode": "V3W4Z9", "twitter": "None", "instagram": "None", "facebook": "None", "youtube": "None", "website": "None", "summary": "None", "logo": "None", "latitude": 49.12707852336427, "longitude": -122.84551881750554}, "892378043RR0001": {"name": "SURREYCARES COMMUNITY FOUNDATION", "designationCode": "A", "categoryCode": "03", "address": "PO BOX 34089", "city": "SURREY", "province": "BC", "country": "CA", "postalCode": "V3S8C4", "twitter": "None", "instagram": "None", "facebook": "None", "youtube": "None", "website": "None", "summary": "None", "logo": "None", "latitude": 49.13065500000006, "longitude": -122.81165449999993}, "859973042RR0001": {"name": "SURROUNDED BY CEDAR CHILD AND FAMILY SERVICES SOCIETY", "designationCode": "C", "categoryCode": "09", "address": "#211, 1497 ADMIRALS ROAD", "city": "VICTORIA", "province": "BC", "country": "CA", "postalCode": "V9A2P8", "twitter": "None", "instagram": "None", "facebook": "None", "youtube": "None", "website": "None", "summary": "None", "logo": "None", "latitude": 48.447145298920866, "longitude": -123.42646213506237}, "132417098RR0001": {"name": "SURSAUT COMPAGNIE DE DANSE", "designationCode": "C", "categoryCode": "22", "address": "250 RUE DU D\u00c9P\u00d4T              BUREAU 322", "city": "SHERBROOKE", "province": "QC", "country": "CA", "postalCode": "J1H5G1", "twitter": "None", "instagram": "None", "facebook": "None", "youtube": "None", "website": "None", "summary": "None", "logo": "None", "latitude": 45.39807494806416, "longitude": -71.88814775238072}, "871387536RR0001": {"name": "SURVIVAL RESEARCH INSTITUTE OF CANADA", "designationCode": "C", "categoryCode": "23", "address": "POST OFFICE BOX 8697", "city": "VICTORIA", "province": "BC", "country": "CA", "postalCode": "V8W3S3", "twitter": "None", "instagram": "None", "facebook": "None", "youtube": "None", "website": "None", "summary": "None", "logo": "None", "latitude": 48.42854700000005, "longitude": -123.36445249999994}, "865296966RR0001": {"name": "SURVIVOR-THRIVERS-BREAST CANCER SURVIVORS SOCIETY", "designationCode": "C", "categoryCode": "11", "address": "134 - 975A ELGIN ST W", "city": "COBOURG", "province": "ON", "country": "CA", "postalCode": "K9A5J3", "twitter": "None", "instagram": "None", "facebook": "None", "youtube": "None", "website": "None", "summary": "None", "logo": "None", "latitude": 43.97389754697929, "longitude": -78.1881239739539}, "898311709RR0001": {"name": "SURVIVOR'S HOPE CRISIS CENTRE INC.", "designationCode": "C", "categoryCode": "09", "address": "BOX 925", "city": "PINAWA", "province": "MB", "country": "CA", "postalCode": "R0E1L0", "twitter": "None", "instagram": "None", "facebook": "None", "youtube": "None", "website": "None", "summary": "None", "logo": "None", "latitude": 50.310997570508235, "longitude": -95.8027417506436}, "876605726RR0001": {"name": "SURVIVORS OF ABUSE RECOVERING (S.O.A.R.) SOCIETY", "designationCode": "C", "categoryCode": "09", "address": "P O BOX 105", "city": "KENTVILLE", "province": "NS", "country": "CA", "postalCode": "B4N3V9", "twitter": "None", "instagram": "None", "facebook": "None", "youtube": "None", "website": "None", "summary": "None", "logo": "None", "latitude": 45.07663200000006, "longitude": -64.49369299999994}, "865652390RR0001": {"name": "SURVIVORSHIP DRAGON BOAT TEAM SOCIETY", "designationCode": "C", "categoryCode": "11", "address": "P.O BOX 22089", "city": "PENTICTION", "province": "BC", "country": "CA", "postalCode": "V2A8L1", "twitter": "None", "instagram": "None", "facebook": "None", "youtube": "None", "website": "None", "summary": "None", "logo": "None", "latitude": 49.50021300000006, "longitude": -119.59384399999993}, "712171727RR0001": {"name": "SURVIVRE", "designationCode": "C", "categoryCode": "09", "address": "14603 RUE SERGE-DEYGLUN", "city": "MONTREAL", "province": "QC", "country": "CA", "postalCode": "H1A5J6", "twitter": "None", "instagram": "None", "facebook": "None", "youtube": "None", "website": "None", "summary": "None", "logo": "None", "latitude": 45.67772486234056, "longitude": -73.50089699988443}, "119206829RR0001": {"name": "SUS FOUNDATION OF CANADA", "designationCode": "C", "categoryCode": "23", "address": "620 SPADINA AVENUE", "city": "TORONTO", "province": "ON", "country": "CA", "postalCode": "M5S2H4", "twitter": "None", "instagram": "None", "facebook": "None", "youtube": "None", "website": "None", "summary": "None", "logo": "None", "latitude": 43.662010778233075, "longitude": -79.40183629173616}, "889170460RR0001": {"name": "SUSILA DHARMA ASSOCIATION (CANADA)", "designationCode": "C", "categoryCode": "09", "address": "572 RUE EMPIRE", "city": "GREENFIELD PARK", "province": "QC", "country": "CA", "postalCode": "J4V1W2", "twitter": "None", "instagram": "None", "facebook": "None", "youtube": "None", "website": "None", "summary": "None", "logo": "None", "latitude": 45.4855106250504, "longitude": -73.47881410502642}, "135608982RR0001": {"name": "SUSSEX AND AREA CRISIS PREGNANCY CENTRE INC", "designationCode": "C", "categoryCode": "09", "address": "36 MAPLE AVENUE               UNIT 13", "city": "SUSSEX", "province": "NB", "country": "CA", "postalCode": "E4E2N5", "twitter": "None", "instagram": "None", "facebook": "None", "youtube": "None", "website": "None", "summary": "None", "logo": "None", "latitude": 45.723945549569905, "longitude": -65.50955321928542}, "138398136RR0001": {"name": "SUSSEX AREA ACTIVITY CENTRE", "designationCode": "C", "categoryCode": "09", "address": "9 PETER STREET", "city": "SUSSEX", "province": "NB", "country": "CA", "postalCode": "E4E5R5", "twitter": "None", "instagram": "None", "facebook": "None", "youtube": "None", "website": "None", "summary": "None", "logo": "None", "latitude": 45.72291948052714, "longitude": -65.50905369335172}, "880033808RR0001": {"name": "SUSSEX AREA COMMUNITY FOUNDATION INCORPORATED", "designationCode": "A", "categoryCode": "03", "address": "490 MAIN ST", "city": "SUSSEX", "province": "NB", "country": "CA", "postalCode": "E4E2S4", "twitter": "None", "instagram": "None", "facebook": "None", "youtube": "None", "website": "None", "summary": "None", "logo": "None", "latitude": 45.723766986592764, "longitude": -65.51301949379723}, "832507263RR0001": {"name": "SUSSEX BAPTIST CHURCH INC.", "designationCode": "C", "categoryCode": "31", "address": "24 CHURCH ST", "city": "SUSSEX", "province": "NB", "country": "CA", "postalCode": "E4E1Y7", "twitter": "None", "instagram": "None", "facebook": "None", "youtube": "None", "website": "None", "summary": "None", "logo": "None", "latitude": 45.722433332217705, "longitude": -65.51001855741843}, "888526597RR0001": {"name": "SUSSEX CHRISTADELPHIAN ECCLESIA INC", "designationCode": "C", "categoryCode": "39", "address": "201 ROACHVILLE RD", "city": "ROACHVILLE", "province": "NB", "country": "CA", "postalCode": "E4G2J4", "twitter": "None", "instagram": "None", "facebook": "None", "youtube": "None", "website": "None", "summary": "None", "logo": "None", "latitude": 45.733604743366485, "longitude": -65.52778983449242}, "867092637RR0001": {"name": "SUSSEX ELEMENTARY HOME AND SCHOOL ASSOCIATION", "designationCode": "C", "categoryCode": "21", "address": "25 DUKE STREET", "city": "SUSSEX", "province": "NB", "country": "CA", "postalCode": "E4E1P8", "twitter": "None", "instagram": "None", "facebook": "None", "youtube": "None", "website": "None", "summary": "None", "logo": "None", "latitude": 45.72423247800828, "longitude": -65.51688733609058}, "894344175RR0001": {"name": "SUSSEX HEALTH CENTRE AUXILIARY", "designationCode": "C", "categoryCode": "19", "address": "75 A LEONARD DRIVE", "city": "SUSSEX", "province": "NB", "country": "CA", "postalCode": "E4E2P7", "twitter": "None", "instagram": "None", "facebook": "None", "youtube": "None", "website": "None", "summary": "None", "logo": "None", "latitude": 45.727557804609745, "longitude": -65.49035020553248}, "134373323RR0001": {"name": "SUSSEX HEALTH CENTRE SERVICES INC", "designationCode": "A", "categoryCode": "11", "address": "75 LEONARD DRIVE", "city": "SUSSEX", "province": "NB", "country": "CA", "postalCode": "E4E2P7", "twitter": "None", "instagram": "None", "facebook": "None", "youtube": "None", "website": "None", "summary": "None", "logo": "None", "latitude": 45.727557804609745, "longitude": -65.49035020553248}, "119288918RR0484": {"name": "SUSSEX NEW BRUNSWICK CONGREGATION OF JEHOVAH'S WITNESSES", "designationCode": "C", "categoryCode": "61", "address": "28 O'CONNELL AVE", "city": "SUSSEX", "province": "NB", "country": "CA", "postalCode": "E4E1W5", "twitter": "None", "instagram": "None", "facebook": "None", "youtube": "None", "website": "None", "summary": "None", "logo": "None", "latitude": 45.72002840383171, "longitude": -65.51440147250287}, "119206878RR0001": {"name": "SUSSEX PUBLIC LIBRARY", "designationCode": "C", "categoryCode": "50", "address": "46 MAGNOLIA AVE", "city": "SUSSEX", "province": "NB", "country": "CA", "postalCode": "E4E2H2", "twitter": "None", "instagram": "None", "facebook": "None", "youtube": "None", "website": "None", "summary": "None", "logo": "None", "latitude": 45.72109809463908, "longitude": -65.50554093086748}, "132807215RR0001": {"name": "SUSSEX RESOURCE CENTRE INC.", "designationCode": "C", "categoryCode": "09", "address": "625 MAIN ST UNIT W", "city": "SUSSEX", "province": "NB", "country": "CA", "postalCode": "E4E7H5", "twitter": "None", "instagram": "None", "facebook": "None", "youtube": "None", "website": "None", "summary": "None", "logo": "None", "latitude": 45.723080622771384, "longitude": -65.50769443756124}, "119206894RR0001": {"name": "SUSSEX VALE TRANSITION HOUSE INC", "designationCode": "C", "categoryCode": "09", "address": "P.O. BOX 4862", "city": "SUSSEX", "province": "NB", "country": "CA", "postalCode": "E4E5L9", "twitter": "None", "instagram": "None", "facebook": "None", "youtube": "None", "website": "None", "summary": "None", "logo": "None", "latitude": 45.72363300000005, "longitude": -65.51253349999993}, "108055583RR0001": {"name": "SUSSEX WESLEYAN CHURCH", "designationCode": "C", "categoryCode": "39", "address": "280 ST GEORGE ST", "city": "SUSSEX", "province": "NB", "country": "CA", "postalCode": "E4E1G6", "twitter": "None", "instagram": "None", "facebook": "None", "youtube": "None", "website": "None", "summary": "None", "logo": "None"}, "872885066RR0001": {"name": "SUSTAINABLE CALGARY SOCIETY", "designationCode": "C", "categoryCode": "59", "address": "BOX 52, 223-12TH AVENUE SW", "city": "CALGARY", "province": "AB", "country": "CA", "postalCode": "T2R0G9", "twitter": "None", "instagram": "None", "facebook": "None", "youtube": "None", "website": "None", "summary": "None", "logo": "None", "latitude": 51.04147448845882, "longitude": -114.0671642216227}, "136957214RR0001": {"name": "SUSTAINABLE ENVIRONMENT NETWORK SOCIETY", "designationCode": "C", "categoryCode": "59", "address": "3300-37 AVE", "city": "VERNON", "province": "BC", "country": "CA", "postalCode": "V1T2Y5", "twitter": "None", "instagram": "None", "facebook": "None", "youtube": "None", "website": "None", "summary": "None", "logo": "None", "latitude": 50.26875715983393, "longitude": -119.27578307272812}, "887724060RR0001": {"name": "SUSTAINABLE FISHERIES FOUNDATION", "designationCode": "C", "categoryCode": "52", "address": "24-4800 ISLAND HWY N", "city": "NANAIMO", "province": "BC", "country": "CA", "postalCode": "V9T1W6", "twitter": "None", "instagram": "None", "facebook": "None", "youtube": "None", "website": "None", "summary": "None", "logo": "None", "latitude": 49.21253386949778, "longitude": -124.02758412538275}, "863063293RR0001": {"name": "SUSTAINABLE URBAN DEVELOPMENT ASSOCIATION", "designationCode": "C", "categoryCode": "21", "address": "2637 COUNCIL RING ROAD", "city": "MISSISSAUGA", "province": "ON", "country": "CA", "postalCode": "L5L1S6", "twitter": "None", "instagram": "None", "facebook": "None", "youtube": "None", "website": "None", "summary": "None", "logo": "None", "latitude": 43.528626323907815, "longitude": -79.68602110993118}, "788930683RR0001": {"name": "SUSTAINING HOPE INTERNATIONAL", "designationCode": "C", "categoryCode": "09", "address": "8970 PLACE GEORGES-MONARQUE", "city": "MONTREAL", "province": "QC", "country": "CA", "postalCode": "H1E2T8", "twitter": "None", "instagram": "None", "facebook": "None", "youtube": "None", "website": "None", "summary": "None", "logo": "None", "latitude": 45.641365775722925, "longitude": -73.57319896904042}, "108055609RR0001": {"name": "SUTHERLAND CHURCH", "designationCode": "C", "categoryCode": "39", "address": "PO BOX 86069", "city": "NORTH VANCOUVER", "province": "BC", "country": "CA", "postalCode": "V7L4J5", "twitter": "None", "instagram": "None", "facebook": "None", "youtube": "None", "website": "None", "summary": "None", "logo": "None", "latitude": 49.32107700000006, "longitude": -123.07521049999994}}