{"107454548RR0001": {"name": "GROWING TOGETHER FAMILY RESOURCE CENTRE", "designationCode": "C", "categoryCode": "01", "address": "182 KING STREET               BOX 2038", "city": "BLENHEIM", "province": "ON", "country": "CA", "postalCode": "N0P1A0", "twitter": "None", "instagram": "None", "facebook": "None", "youtube": "None", "website": "None", "summary": "None", "logo": "None", "latitude": 42.33121613151393, "longitude": -81.9934354718677}, "118948959RR0001": {"name": "GRUENTHAL CHURCH INC.", "designationCode": "C", "categoryCode": "39", "address": "PO BOX 16", "city": "HAGUE", "province": "SK", "country": "CA", "postalCode": "S0K1X0", "twitter": "None", "instagram": "None", "facebook": "None", "youtube": "None", "website": "None", "summary": "None", "logo": "None"}, "131767386RR0001": {"name": "GRUNTHAL ABUNDANT LIFE FELLOWSHIP INC", "designationCode": "C", "categoryCode": "39", "address": "BOX 645", "city": "GRUNTHAL", "province": "MB", "country": "CA", "postalCode": "R0A0R0", "twitter": "None", "instagram": "None", "facebook": "None", "youtube": "None", "website": "None", "summary": "None", "logo": "None", "latitude": 49.40668000000005, "longitude": -96.85131999999999}, "132472994RR0001": {"name": "GRUNTHAL BERGTHALER MENNONITE CHURCH", "designationCode": "C", "categoryCode": "34", "address": "BOX 70", "city": "GRUNTHAL", "province": "MB", "country": "CA", "postalCode": "R0A0R0", "twitter": "None", "instagram": "None", "facebook": "None", "youtube": "None", "website": "None", "summary": "None", "logo": "None", "latitude": 49.40668000000005, "longitude": -96.85131999999999}, "118948975RR0001": {"name": "GRUNTHAL CHRISTIAN FELLOWSHIP TABERNACLE", "designationCode": "C", "categoryCode": "39", "address": "BOX 436", "city": "GRUNTHAL", "province": "MB", "country": "CA", "postalCode": "R0A0R0", "twitter": "None", "instagram": "None", "facebook": "None", "youtube": "None", "website": "None", "summary": "None", "logo": "None", "latitude": 49.40668000000005, "longitude": -96.85131999999999}, "120154240RR0001": {"name": "GRUNTHAL M.C.C. COMMUNITY ASSISTANCE CENTRE INC.", "designationCode": "A", "categoryCode": "09", "address": "PO BOX 422", "city": "GRUNTHAL", "province": "MB", "country": "CA", "postalCode": "R0A0R0", "twitter": "None", "instagram": "None", "facebook": "None", "youtube": "None", "website": "None", "summary": "None", "logo": "None", "latitude": 49.40668000000005, "longitude": -96.85131999999999}, "118948983RR0001": {"name": "GRUNTHAL SENIOR CITIZENS RECREATION CENTRE INC.", "designationCode": "C", "categoryCode": "56", "address": "PO BOX 533", "city": "GRUNTHAL", "province": "MB", "country": "CA", "postalCode": "R0A0R0", "twitter": "None", "instagram": "None", "facebook": "None", "youtube": "None", "website": "None", "summary": "None", "logo": "None", "latitude": 49.40668000000005, "longitude": -96.85131999999999}, "871655197RR0001": {"name": "GRUNTHAL YOUTH DROP-IN CENTER INC", "designationCode": "C", "categoryCode": "49", "address": "160 PARK STREET               PO BOX 119", "city": "GRUNTHAL", "province": "MB", "country": "CA", "postalCode": "R0A0R0", "twitter": "None", "instagram": "None", "facebook": "None", "youtube": "None", "website": "None", "summary": "None", "logo": "None", "latitude": 49.40539496369029, "longitude": -96.85735028108566}, "862597598RR0001": {"name": "GRUPPO FOLCLORISTICO TREVIGIANO-VENETO DI VANCOUVER (TREVIGIANO-VENETO FOLKLORISTIC GROUP OF VANCOUVER)", "designationCode": "C", "categoryCode": "09", "address": "2366 DUTHIE AVENUE", "city": "BURNABY", "province": "BC", "country": "CA", "postalCode": "V5A2S3", "twitter": "None", "instagram": "None", "facebook": "None", "youtube": "None", "website": "None", "summary": "None", "logo": "None", "latitude": 49.26278534509915, "longitude": -122.95339799210974}, "755722493RR0001": {"name": "GR8 Day - Crossroads Addiction Recovery Support", "designationCode": "C", "categoryCode": "11", "address": "1980 OTTAWA STREET,           LOWER LEVEL", "city": "WINDSOR", "province": "ON", "country": "CA", "postalCode": "N8Y1R7", "twitter": "None", "instagram": "None", "facebook": "None", "youtube": "None", "website": "None", "summary": "None", "logo": "None", "latitude": 42.31231256399661, "longitude": -83.00537970526274}, "862073111RR0001": {"name": "GSSA CHARITABLE SOCIETY", "designationCode": "C", "categoryCode": "20", "address": "327 LONG ACRES ST", "city": "KANATA", "province": "ON", "country": "CA", "postalCode": "K2M0H4", "twitter": "None", "instagram": "None", "facebook": "None", "youtube": "None", "website": "None", "summary": "None", "logo": "None", "latitude": 45.28524742547181, "longitude": -75.84251182125342}, "805878873RR0001": {"name": "GTA Faith Alliance", "designationCode": "C", "categoryCode": "09", "address": "10520 YONGE STREET UNIT 35B   SUITE 425", "city": "RICHMOND HILL", "province": "ON", "country": "CA", "postalCode": "L4C3C7", "twitter": "None", "instagram": "None", "facebook": "None", "youtube": "None", "website": "None", "summary": "None", "logo": "None", "latitude": 43.884329428241756, "longitude": -79.44029823102817}, "824357792RR0001": {"name": "GTA Victory Fellowship Church", "designationCode": "C", "categoryCode": "36", "address": "299 BARBER DR", "city": "GEORGETOWN", "province": "ON", "country": "CA", "postalCode": "L7G5H6", "twitter": "None", "instagram": "None", "facebook": "None", "youtube": "None", "website": "None", "summary": "None", "logo": "None", "latitude": 43.63478845879732, "longitude": -79.8789311159907}, "894945633RR0042": {"name": "GTA Vietnamese Community Church", "designationCode": "C", "categoryCode": "39", "address": "650 MCNICOLL AVE", "city": "TORONTO", "province": "ON", "country": "CA", "postalCode": "M2H2E1", "twitter": "None", "instagram": "None", "facebook": "None", "youtube": "None", "website": "None", "summary": "None", "logo": "None", "latitude": 43.80388545383431, "longitude": -79.338231}, "890825144RR0001": {"name": "GTCPS GROWING TOGETHER CHILD AND PARENT SOCIETY", "designationCode": "C", "categoryCode": "01", "address": "490 CAIRNSMORE STREET", "city": "DUNCAN", "province": "BC", "country": "CA", "postalCode": "V9L1Z8", "twitter": "None", "instagram": "None", "facebook": "None", "youtube": "None", "website": "None", "summary": "None", "logo": "None", "latitude": 48.78539851399404, "longitude": -123.71580955536962}, "118949023RR0001": {"name": "GUARDIAN ANGEL FOUNDATION OF SUDBURY", "designationCode": "C", "categoryCode": "03", "address": "1173 RIDEAU ST", "city": "SUDBURY", "province": "ON", "country": "CA", "postalCode": "P3A3A5", "twitter": "None", "instagram": "None", "facebook": "None", "youtube": "None", "website": "None", "summary": "None", "logo": "None", "latitude": 46.522763999999995, "longitude": -80.97031189901294}, "118949049RR0001": {"name": "GUARDIAN ANGELS CHURCH", "designationCode": "C", "categoryCode": "38", "address": "PO BOX 1026", "city": "ROBLIN", "province": "MB", "country": "CA", "postalCode": "R0L1P0", "twitter": "None", "instagram": "None", "facebook": "None", "youtube": "None", "website": "None", "summary": "None", "logo": "None", "latitude": 51.22816000000006, "longitude": -101.35248999999999}, "118849470RR0048": {"name": "GUARDIAN ANGELS PARISH", "designationCode": "C", "categoryCode": "38", "address": "1161 BROUGHTON ST", "city": "VANCOUVER", "province": "BC", "country": "CA", "postalCode": "V6G2B3", "twitter": "None", "instagram": "None", "facebook": "None", "youtube": "None", "website": "None", "summary": "None", "logo": "None", "latitude": 49.28423720457026, "longitude": -123.1355869287031}, "860449255RR0001": {"name": "GUARDIAN ANGELS PROGRAM", "designationCode": "C", "categoryCode": "09", "address": "BOX 905", "city": "VIRGIL", "province": "ON", "country": "CA", "postalCode": "L0S1T0", "twitter": "None", "instagram": "None", "facebook": "None", "youtube": "None", "website": "None", "summary": "None", "logo": "None", "latitude": 43.21981000000005, "longitude": -79.12214999999998}, "859069478RR0001": {"name": "GUARDIAN CAPITAL INC. CHARITABLE TRUST", "designationCode": "B", "categoryCode": "03", "address": "COMMERCE COURT WEST-SUITE 3100P. O. BOX 201", "city": "TORONTO", "province": "ON", "country": "CA", "postalCode": "M5L1E8", "twitter": "None", "instagram": "None", "facebook": "None", "youtube": "None", "website": "None", "summary": "None", "logo": "None", "latitude": 43.64868300000006, "longitude": -79.38544399999994}, "871095006RR0001": {"name": "GUATEMALA HOPE", "designationCode": "C", "categoryCode": "09", "address": "POST OFFICE BOX 68", "city": "WOODSLEE", "province": "ON", "country": "CA", "postalCode": "N0R1V0", "twitter": "None", "instagram": "None", "facebook": "None", "youtube": "None", "website": "None", "summary": "None", "logo": "None", "latitude": 43.2146884092523, "longitude": -80.39687656919502}, "871977617RR0001": {"name": "GUATEMALA STOVE PROJECT", "designationCode": "C", "categoryCode": "09", "address": "549 BROOKE VALLEY RD          RR 4", "city": "PERTH", "province": "ON", "country": "CA", "postalCode": "K7H3C6", "twitter": "None", "instagram": "None", "facebook": "None", "youtube": "None", "website": "None", "summary": "None", "logo": "None", "latitude": 44.842031256602986, "longitude": -76.42927790575116}, "118949304RR0001": {"name": "GUELPH (M.O.G.) WELCOME IN DROP IN CENTRE CORPORATION", "designationCode": "C", "categoryCode": "09", "address": "23 GORDON STREET", "city": "GUELPH", "province": "ON", "country": "CA", "postalCode": "N1H4G9", "twitter": "None", "instagram": "None", "facebook": "None", "youtube": "None", "website": "None", "summary": "None", "logo": "None", "latitude": 43.54165832664913, "longitude": -80.2474301512781}, "891531048RR0001": {"name": "GUELPH & AREA RIGHT TO LIFE ASSOCIATION", "designationCode": "C", "categoryCode": "09", "address": "26 NORFOLK ST.", "city": "GUELPH", "province": "ON", "country": "CA", "postalCode": "N1H4H8", "twitter": "None", "instagram": "None", "facebook": "None", "youtube": "None", "website": "None", "summary": "None", "logo": "None", "latitude": 43.54274133871947, "longitude": -80.24958261404119}, "118949171RR0001": {"name": "GUELPH & DISTRICT CHRISTIAN HOMES INC.", "designationCode": "C", "categoryCode": "01", "address": "70 WOODLAWN RD E", "city": "GUELPH", "province": "ON", "country": "CA", "postalCode": "N1H7W7", "twitter": "None", "instagram": "None", "facebook": "None", "youtube": "None", "website": "None", "summary": "None", "logo": "None", "latitude": 43.56893631588641, "longitude": -80.27213973529868}, "118949429RR0001": {"name": "GUELPH - WELLINGTON WOMEN IN CRISIS", "designationCode": "C", "categoryCode": "09", "address": "PO BOX 1451  STN MAIN", "city": "GUELPH", "province": "ON", "country": "CA", "postalCode": "N1H6N9", "twitter": "None", "instagram": "None", "facebook": "None", "youtube": "None", "website": "None", "summary": "None", "logo": "None", "latitude": 43.54455300000005, "longitude": -80.24788249999993}, "889484994RR0001": {"name": "GUELPH AND WELLINGTON AREA BREAST CANCER SUPPORT GROUP", "designationCode": "C", "categoryCode": "09", "address": "370 STONE ROAD WEST           BOX 25116", "city": "GUELPH", "province": "ON", "country": "CA", "postalCode": "N1G4V9", "twitter": "None", "instagram": "None", "facebook": "None", "youtube": "None", "website": "None", "summary": "None", "logo": "None", "latitude": 43.51781273071199, "longitude": -80.23655620194545}, "118949098RR0001": {"name": "GUELPH ARTS COUNCIL", "designationCode": "C", "categoryCode": "22", "address": "1B - 42 CARDEN ST", "city": "GUELPH", "province": "ON", "country": "CA", "postalCode": "N1H3A2", "twitter": "None", "instagram": "None", "facebook": "None", "youtube": "None", "website": "None", "summary": "None", "logo": "None", "latitude": 43.54399190065772, "longitude": -80.24845488317258}, "118949106RR0001": {"name": "GUELPH BIBLE CHAPEL", "designationCode": "C", "categoryCode": "39", "address": "216 SILVERCREEK PKW. SOUTH", "city": "GUELPH", "province": "ON", "country": "CA", "postalCode": "N1H3S7", "twitter": "None", "instagram": "None", "facebook": "None", "youtube": "None", "website": "None", "summary": "None", "logo": "None", "latitude": 43.52875348849449, "longitude": -80.26462171325879}, "107456808RR0001": {"name": "GUELPH BIBLE CONFERENCE CENTRE", "designationCode": "C", "categoryCode": "56", "address": "485 WATERLOO AVE", "city": "GUELPH", "province": "ON", "country": "CA", "postalCode": "N1H3K4", "twitter": "None", "instagram": "None", "facebook": "None", "youtube": "None", "website": "None", "summary": "None", "logo": "None", "latitude": 43.529633833369495, "longitude": -80.26232913395788}, "877318824RR0001": {"name": "GUELPH BLOCK PARENTS INCORPORATED", "designationCode": "C", "categoryCode": "59", "address": "15 WYNDHAM STREET SOUTH", "city": "GUELPH", "province": "ON", "country": "CA", "postalCode": "N1H4C6", "twitter": "None", "instagram": "None", "facebook": "None", "youtube": "None", "website": "None", "summary": "None", "logo": "None", "latitude": 43.543478045761674, "longitude": -80.24603832558127}, "875756769RR0001": {"name": "GUELPH CHAMBER CHOIR", "designationCode": "C", "categoryCode": "22", "address": "PO BOX 513", "city": "GUELPH", "province": "ON", "country": "CA", "postalCode": "N1H6K9", "twitter": "None", "instagram": "None", "facebook": "None", "youtube": "None", "website": "None", "summary": "None", "logo": "None", "latitude": 43.54455300000005, "longitude": -80.24788249999993}, "888531662RR0001": {"name": "GUELPH CHRISTADELPHIAN CHURCH", "designationCode": "C", "categoryCode": "39", "address": "187 NORFOLK STREET", "city": "GUELPH", "province": "ON", "country": "CA", "postalCode": "N1H4K1", "twitter": "None", "instagram": "None", "facebook": "None", "youtube": "None", "website": "None", "summary": "None", "logo": "None", "latitude": 43.547975234260406, "longitude": -80.25462769245215}, "107456865RR0001": {"name": "GUELPH CHRISTIAN CHURCH (DISCIPLES OF CHRIST)", "designationCode": "C", "categoryCode": "39", "address": "P.O. BOX 31002,", "city": "GUELPH", "province": "ON", "country": "CA", "postalCode": "N1H1S7", "twitter": "None", "instagram": "None", "facebook": "None", "youtube": "None", "website": "None", "summary": "None", "logo": "None", "latitude": 43.55428200000006, "longitude": -80.26132849999993}, "137218145RR0001": {"name": "GUELPH CHRISTIAN LIFE CHURCH", "designationCode": "C", "categoryCode": "36", "address": "P.O. BOX 25071                STONE SQUARE CENTER", "city": "GUELPH", "province": "ON", "country": "CA", "postalCode": "N1G4T4", "twitter": "None", "instagram": "None", "facebook": "None", "youtube": "None", "website": "None", "summary": "None", "logo": "None", "latitude": 43.51778200566344, "longitude": -80.23663757119738}, "107456881RR0001": {"name": "GUELPH COMMUNITY HEALTH CENTRE", "designationCode": "C", "categoryCode": "11", "address": "1-176 WYNDHAM ST N", "city": "GUELPH", "province": "ON", "country": "CA", "postalCode": "N1H8N9", "twitter": "None", "instagram": "None", "facebook": "None", "youtube": "None", "website": "None", "summary": "None", "logo": "None", "latitude": 43.54774905107046, "longitude": -80.2508189462169}, "873263511RR0001": {"name": "GUELPH CONTEMPORARY DANCE FESTIVAL", "designationCode": "C", "categoryCode": "22", "address": "2I - 42 CARDEN ST", "city": "GUELPH", "province": "ON", "country": "CA", "postalCode": "N1H3A2", "twitter": "None", "instagram": "None", "facebook": "None", "youtube": "None", "website": "None", "summary": "None", "logo": "None", "latitude": 43.54399190065772, "longitude": -80.24845488317258}, "858683857RR0001": {"name": "GUELPH FAITH BIBLE ASSEMBLY", "designationCode": "C", "categoryCode": "39", "address": "27 HEATH ROAD", "city": "GUELPH", "province": "ON", "country": "CA", "postalCode": "N1H6G8", "twitter": "None", "instagram": "None", "facebook": "None", "youtube": "None", "website": "None", "summary": "None", "logo": "None", "latitude": 43.535846544289775, "longitude": -80.27304126822109}, "891557845RR0001": {"name": "GUELPH FIELD NATURALISTS", "designationCode": "C", "categoryCode": "52", "address": "PO BOX 1401", "city": "GUELPH", "province": "ON", "country": "CA", "postalCode": "N1H6N8", "twitter": "None", "instagram": "None", "facebook": "None", "youtube": "None", "website": "None", "summary": "None", "logo": "None", "latitude": 43.54455300000005, "longitude": -80.24788249999993}, "887381390RR0001": {"name": "GUELPH FIREFIGHTERS BENEVOLENT FOUNDATION", "designationCode": "A", "categoryCode": "05", "address": "50 WYNDHAM STREET SOUTH", "city": "GUELPH", "province": "ON", "country": "CA", "postalCode": "N1H4E1", "twitter": "None", "instagram": "None", "facebook": "None", "youtube": "None", "website": "None", "summary": "None", "logo": "None", "latitude": 43.54297590374482, "longitude": -80.24396389783045}, "107456972RR0001": {"name": "GUELPH GENERAL HOSPITAL COMMISSION", "designationCode": "C", "categoryCode": "10", "address": "115 DELHI STREET", "city": "GUELPH", "province": "ON", "country": "CA", "postalCode": "N1E4J4", "twitter": "None", "instagram": "None", "facebook": "None", "youtube": "None", "website": "None", "summary": "None", "logo": "None", "latitude": 43.55583993148417, "longitude": -80.25379920184993}, "118949395RR0001": {"name": "GUELPH HIKING TRAIL CLUB", "designationCode": "C", "categoryCode": "53", "address": "5162 WELLINGTON RD 27         RR 1", "city": "ROCKWOOD", "province": "ON", "country": "CA", "postalCode": "N0B2K0", "twitter": "None", "instagram": "None", "facebook": "None", "youtube": "None", "website": "None", "summary": "None", "logo": "None", "latitude": 43.62896733071438, "longitude": -80.15865644842125}, "891314973RR0001": {"name": "GUELPH HISTORICAL RAILWAY ASSOCIATION", "designationCode": "C", "categoryCode": "52", "address": "35 HARVARD RD.                P.O BOX 21054", "city": "GUELPH", "province": "ON", "country": "CA", "postalCode": "N1G4T3", "twitter": "None", "instagram": "None", "facebook": "None", "youtube": "None", "website": "None", "summary": "None", "logo": "None", "latitude": 43.52407310470837, "longitude": -80.22229025815085}, "891320368RR0001": {"name": "GUELPH HISTORICAL SOCIETY", "designationCode": "C", "categoryCode": "50", "address": "A102-100 CRIMEA ST", "city": "GUELPH", "province": "ON", "country": "CA", "postalCode": "N1H2Y6", "twitter": "None", "instagram": "None", "facebook": "None", "youtube": "None", "website": "None", "summary": "None", "logo": "None", "latitude": 43.5375149579666, "longitude": -80.26164472780806}, "118949221RR0001": {"name": "GUELPH HORTICULTURAL SOCIETY", "designationCode": "C", "categoryCode": "56", "address": "SUITE 153, 3-304 STONE RD W", "city": "GUELPH", "province": "ON", "country": "CA", "postalCode": "N1G4W4", "twitter": "None", "instagram": "None", "facebook": "None", "youtube": "None", "website": "None", "summary": "None", "logo": "None", "latitude": 43.51865389892697, "longitude": -80.23544417464987}, "108083650RR0001": {"name": "GUELPH INDEPENDENT LIVING", "designationCode": "C", "categoryCode": "01", "address": "207 - 255 WOODLAWN RD W", "city": "GUELPH", "province": "ON", "country": "CA", "postalCode": "N1H8J1", "twitter": "None", "instagram": "None", "facebook": "None", "youtube": "None", "website": "None", "summary": "None", "logo": "None", "latitude": 43.55253481604013, "longitude": -80.294682578032}, "889814190RR0001": {"name": "GUELPH KNIGHTS CHARITIES TRUST", "designationCode": "A", "categoryCode": "65", "address": "40 KENWOOD CRES.", "city": "GUELPH", "province": "ON", "country": "CA", "postalCode": "N1H6E5", "twitter": "None", "instagram": "None", "facebook": "None", "youtube": "None", "website": "None", "summary": "None", "logo": "None", "latitude": 43.53847755369619, "longitude": -80.27416042382703}, "852997170RR0001": {"name": "GUELPH KOREAN CHURCH", "designationCode": "C", "categoryCode": "39", "address": "255 WOOLWICH STREET", "city": "GUELPH", "province": "ON", "country": "CA", "postalCode": "N1H3V8", "twitter": "None", "instagram": "None", "facebook": "None", "youtube": "None", "website": "None", "summary": "None", "logo": "None", "latitude": 43.549171238155544, "longitude": -80.25578968855699}, "118949320RR0001": {"name": "GUELPH PIPE BAND", "designationCode": "C", "categoryCode": "20", "address": "57 WATSON ROAD SOUTH", "city": "GUELPH", "province": "ON", "country": "CA", "postalCode": "N1L1E3", "twitter": "None", "instagram": "None", "facebook": "None", "youtube": "None", "website": "None", "summary": "None", "logo": "None", "latitude": 43.56357639283332, "longitude": -80.20419518731755}, "889091245RR0001": {"name": "GUELPH PUBLIC LIBRARY", "designationCode": "C", "categoryCode": "50", "address": "100 NORFOLK STREET", "city": "GUELPH", "province": "ON", "country": "CA", "postalCode": "N1H4J6", "twitter": "None", "instagram": "None", "facebook": "None", "youtube": "None", "website": "None", "summary": "None", "logo": "None", "latitude": 43.54590901858166, "longitude": -80.25271434987573}, "118949361RR0001": {"name": "GUELPH SERVICES FOR THE AUTISTIC", "designationCode": "C", "categoryCode": "01", "address": "16 CARIBOU CRESCENT", "city": "GUELPH", "province": "ON", "country": "CA", "postalCode": "N1E1C9", "twitter": "None", "instagram": "None", "facebook": "None", "youtube": "None", "website": "None", "summary": "None", "logo": "None", "latitude": 43.57831920012685, "longitude": -80.25580377583847}, "107797383RR0022": {"name": "GUELPH SEVENTH-DAY ADVENTIST CHURCH", "designationCode": "C", "categoryCode": "41", "address": "P.O. BOX 1773 STATION MAIN", "city": "GUELPH", "province": "ON", "country": "CA", "postalCode": "N1H6Z9", "twitter": "None", "instagram": "None", "facebook": "None", "youtube": "None", "website": "None", "summary": "None", "logo": "None", "latitude": 43.54455300000005, "longitude": -80.24788249999993}, "118949387RR0001": {"name": "GUELPH SIKH SOCIETY", "designationCode": "C", "categoryCode": "62", "address": "70 STEVENSON STREET SOUTH", "city": "GUELPH", "province": "ON", "country": "CA", "postalCode": "N1E5N4", "twitter": "None", "instagram": "None", "facebook": "None", "youtube": "None", "website": "None", "summary": "None", "logo": "None", "latitude": 43.55201773108642, "longitude": -80.23321536271592}, "138619341RR0001": {"name": "GUELPH VINEYARD CHRISTIAN FELLOWSHIP", "designationCode": "C", "categoryCode": "39", "address": "218 SILVERCREEK PARKWAY NORTH SUITE 204, UNIT 17", "city": "GUELPH", "province": "ON", "country": "CA", "postalCode": "N1H8E8", "twitter": "None", "instagram": "None", "facebook": "None", "youtube": "None", "website": "None", "summary": "None", "logo": "None", "latitude": 43.54344866910997, "longitude": -80.28531017701486}, "865775159RR0001": {"name": "GUELPH VISION CHRISTIAN FELLOWSHIP", "designationCode": "C", "categoryCode": "39", "address": "60 BISHOP COURT", "city": "GUELPH", "province": "ON", "country": "CA", "postalCode": "N1G2R9", "twitter": "None", "instagram": "None", "facebook": "None", "youtube": "None", "website": "None", "summary": "None", "logo": "None", "latitude": 43.51031300302975, "longitude": -80.24812579972892}, "898543863RR0001": {"name": "GUELPH WISH FUND FOR CHILDREN", "designationCode": "C", "categoryCode": "09", "address": "PO BOX 21032", "city": "GUELPH", "province": "ON", "country": "CA", "postalCode": "N1G3A2", "twitter": "None", "instagram": "None", "facebook": "None", "youtube": "None", "website": "None", "summary": "None", "logo": "None", "latitude": 43.524069000000054, "longitude": -80.22243499999993}, "891637985RR0001": {"name": "GUELPH YOUTH MUSIC CENTRE", "designationCode": "C", "categoryCode": "22", "address": "75 CARDIGAN ST", "city": "GUELPH", "province": "ON", "country": "CA", "postalCode": "N1H3Z7", "twitter": "None", "instagram": "None", "facebook": "None", "youtube": "None", "website": "None", "summary": "None", "logo": "None", "latitude": 43.550450306711156, "longitude": -80.25452706852693}, "135120376RR0001": {"name": "GUELPH YOUTH SINGERS", "designationCode": "C", "categoryCode": "22", "address": "75 CARDIGAN STREET", "city": "GUELPH", "province": "ON", "country": "CA", "postalCode": "N1H3Z7", "twitter": "None", "instagram": "None", "facebook": "None", "youtube": "None", "website": "None", "summary": "None", "logo": "None", "latitude": 43.550450306711156, "longitude": -80.25452706852693}, "888325644RR0001": {"name": "GUELPH-CAMBRIDGE CHINESE ALLIANCE CHURCH", "designationCode": "C", "categoryCode": "39", "address": "31 TANNERY ST W", "city": "CAMBRIDGE", "province": "ON", "country": "CA", "postalCode": "N3C1H2", "twitter": "None", "instagram": "None", "facebook": "None", "youtube": "None", "website": "None", "summary": "None", "logo": "None", "latitude": 43.429887449362234, "longitude": -80.31090210782504}, "126778059RR0001": {"name": "GUELPH/WELLINGTON SENIORS ASSOCIATION", "designationCode": "C", "categoryCode": "56", "address": "683 WOOLWICH ST", "city": "GUELPH", "province": "ON", "country": "CA", "postalCode": "N1H3Y8", "twitter": "None", "instagram": "None", "facebook": "None", "youtube": "None", "website": "None", "summary": "None", "logo": "None", "latitude": 43.560050330313125, "longitude": -80.27048621810292}, "730392321RR0001": {"name": "GUENTHER FAMILY FOUNDATION INC.", "designationCode": "B", "categoryCode": "03", "address": "54 WILLIAM MARSHALL WAY", "city": "WINNIPEG", "province": "MB", "country": "CA", "postalCode": "R3R3T2", "twitter": "None", "instagram": "None", "facebook": "None", "youtube": "None", "website": "None", "summary": "None", "logo": "None", "latitude": 49.860720000000015, "longitude": -97.29023562118391}, "132238627RR0001": {"name": "GUEPE, GROUPE UNI DES EDUCATEURS-NATURALISTES ET PROFESSIONNELS EN ENVIRONNEMENT", "designationCode": "C", "categoryCode": "52", "address": "9432 BOUL. GOUIN", "city": "PIERREFONDS", "province": "QC", "country": "CA", "postalCode": "H8Y1T4", "twitter": "None", "instagram": "None", "facebook": "None", "youtube": "None", "website": "None", "summary": "None", "logo": "None", "latitude": 45.507315253499236, "longitude": -73.7650985212666}, "869175190RR0001": {"name": "GUIDE DOG USERS OF CANADA/UTILISATEURS DE CHIENS-GUIDES DU CANADA", "designationCode": "C", "categoryCode": "09", "address": "214 ROSE ST", "city": "BARRIE", "province": "ON", "country": "CA", "postalCode": "L4M2V1", "twitter": "None", "instagram": "None", "facebook": "None", "youtube": "None", "website": "None", "summary": "None", "logo": "None", "latitude": 44.40737538525007, "longitude": -79.67975444422635}, "107457269RR0001": {"name": "GUIDES FRANCO-CANADIENNES, DISTRICT D'OTTAWA INC.", "designationCode": "C", "categoryCode": "29", "address": "2445 BLVD ST LAURENT          SUITE B151-C", "city": "OTTAWA", "province": "ON", "country": "CA", "postalCode": "K1G6C3", "twitter": "None", "instagram": "None", "facebook": "None", "youtube": "None", "website": "None", "summary": "None", "logo": "None", "latitude": 45.38168751145521, "longitude": -75.62661254310727}, "888350261RR0001": {"name": "GUIDING STAR CHURCH", "designationCode": "C", "categoryCode": "39", "address": "202 - 550 FENNELL AVE E", "city": "HAMILTON", "province": "ON", "country": "CA", "postalCode": "L8V4S9", "twitter": "None", "instagram": "None", "facebook": "None", "youtube": "None", "website": "None", "summary": "None", "logo": "None", "latitude": 43.23219794751593, "longitude": -79.85633844644805}, "118949502RR0001": {"name": "GUIDO DE BRES CANADIAN REFORMED HIGH SCHOOL SOCIETY", "designationCode": "C", "categoryCode": "20", "address": "420 CRERAR DR", "city": "HAMILTON", "province": "ON", "country": "CA", "postalCode": "L9A5K3", "twitter": "None", "instagram": "None", "facebook": "None", "youtube": "None", "website": "None", "summary": "None", "logo": "None", "latitude": 43.2087322711926, "longitude": -79.87259474825444}, "854683901RR0001": {"name": "GUIGNOLEE DE CHAPAIS", "designationCode": "C", "categoryCode": "09", "address": "21 3E AVE                     C.P. 236", "city": "CHAPAIS", "province": "QC", "country": "CA", "postalCode": "G0W1H0", "twitter": "None", "instagram": "None", "facebook": "None", "youtube": "None", "website": "None", "summary": "None", "logo": "None", "latitude": 49.783386457123854, "longitude": -74.85350155164737}, "887818219RR0001": {"name": "GUILD ELECTRIC CHARITABLE FOUNDATION", "designationCode": "B", "categoryCode": "03", "address": "470 MIDWEST ROAD", "city": "SCARBOROUGH", "province": "ON", "country": "CA", "postalCode": "M1P4Y5", "twitter": "None", "instagram": "None", "facebook": "None", "youtube": "None", "website": "None", "summary": "None", "logo": "None", "latitude": 43.76398185815695, "longitude": -79.27250641335274}, "118949585RR0001": {"name": "GUILD OF THE VICTORIA GENERAL HOSPITAL INC.", "designationCode": "A", "categoryCode": "13", "address": "GIFT SHOP                     2340 PEMBINA HIGHWAY", "city": "WINNIPEG", "province": "MB", "country": "CA", "postalCode": "R3T2E8", "twitter": "None", "instagram": "None", "facebook": "None", "youtube": "None", "website": "None", "summary": "None", "logo": "None", "latitude": 49.80722251101473, "longitude": -97.15451489589073}, "890058043RR0001": {"name": "GUILDE - ASSOMPTION,", "designationCode": "C", "categoryCode": "49", "address": "1679 CHEMIN ST-LOUIS", "city": "QU\u00c9BEC", "province": "QC", "country": "CA", "postalCode": "G1S1G5", "twitter": "None", "instagram": "None", "facebook": "None", "youtube": "None", "website": "None", "summary": "None", "logo": "None", "latitude": 46.782686211052926, "longitude": -71.24601196192994}, "118832997RR0001": {"name": "GUILDE CANADIENNE DES METIERS D'ART/CANADIAN GUILD OF CRAFTS", "designationCode": "C", "categoryCode": "22", "address": "1460 RUE SHERBROOKE OUEST     SUITE B", "city": "MONTREAL", "province": "QC", "country": "CA", "postalCode": "H3G1K4", "twitter": "None", "instagram": "None", "facebook": "None", "youtube": "None", "website": "None", "summary": "None", "logo": "None", "latitude": 45.497673514282496, "longitude": -73.58063049206548}, "119288918RR1223": {"name": "GUILDFORD NORTH CONGREGATION OF JEHOVAH'S WITNESSES", "designationCode": "C", "categoryCode": "61", "address": "15008 SWALLOW DR", "city": "SURREY", "province": "BC", "country": "CA", "postalCode": "V3R4X2", "twitter": "None", "instagram": "None", "facebook": "None", "youtube": "None", "website": "None", "summary": "None", "logo": "None", "latitude": 49.204342477927234, "longitude": -122.8061424970858}, "119288918RR1191": {"name": "GUILDFORD-SOUTH CONGREGATION OF JEHOVAH'S WITNESSES", "designationCode": "C", "categoryCode": "61", "address": "15035-96A AVE", "city": "SURREY", "province": "BC", "country": "CA", "postalCode": "V3R8K5", "twitter": "None", "instagram": "None", "facebook": "None", "youtube": "None", "website": "None", "summary": "None", "logo": "None", "latitude": 49.17782527061568, "longitude": -122.8062993965897}, "131518052RR0001": {"name": "GUILDS PASTORAL CHARGE,", "designationCode": "C", "categoryCode": "44", "address": "P.O BOX 2062", "city": "BLENHEIM", "province": "ON", "country": "CA", "postalCode": "N0P1A0", "twitter": "None", "instagram": "None", "facebook": "None", "youtube": "None", "website": "None", "summary": "None", "logo": "None", "latitude": 42.335210000000075, "longitude": -81.99768999999998}, "118949619RR0001": {"name": "GUILDWOOD COMMUNITY PRESBYTERIAN CHURCH", "designationCode": "C", "categoryCode": "37", "address": "140 GUILDWOOD PKY", "city": "SCARBOROUGH", "province": "ON", "country": "CA", "postalCode": "M1E1P4", "twitter": "None", "instagram": "None", "facebook": "None", "youtube": "None", "website": "None", "summary": "None", "logo": "None", "latitude": 43.74769938776022, "longitude": -79.19877572176694}, "119288918RR1725": {"name": "GUILDWOOD CONGREGATION OF JEHOVAH'S WITNESSES, TORONTO, ONTARIO", "designationCode": "C", "categoryCode": "61", "address": "1425 MORNINGSIDE AV", "city": "SCARBOROUGH", "province": "ON", "country": "CA", "postalCode": "M1B3J1", "twitter": "None", "instagram": "None", "facebook": "None", "youtube": "None", "website": "None", "summary": "None", "logo": "None", "latitude": 43.811110581193304, "longitude": -79.20358869908858}, "892046244RR0001": {"name": "GUJARATI CULTURAL SOCIETY OF MANITOBA INC", "designationCode": "C", "categoryCode": "22", "address": "103-86 NIAKWA ROAD", "city": "WINNIPEG", "province": "MB", "country": "CA", "postalCode": "R2M3A9", "twitter": "None", "instagram": "None", "facebook": "None", "youtube": "None", "website": "None", "summary": "None", "logo": "None", "latitude": 49.85464211125885, "longitude": -97.1011816945296}, "118949635RR0001": {"name": "GUJARATI MANDAL OF CALGARY", "designationCode": "C", "categoryCode": "59", "address": "PO BOX 1003 STN M", "city": "CALGARY", "province": "AB", "country": "CA", "postalCode": "T2P2K4", "twitter": "None", "instagram": "None", "facebook": "None", "youtube": "None", "website": "None", "summary": "None", "logo": "None", "latitude": 51.04531500000006, "longitude": -114.06301099999993}, "891926172RR0001": {"name": "GUJARATI SAMAJ OF SASKATCHEWAN INCORPORATED", "designationCode": "C", "categoryCode": "39", "address": "P.O. BOX 4153 STN MAIN", "city": "REGINA", "province": "SK", "country": "CA", "postalCode": "S4P2W1", "twitter": "None", "instagram": "None", "facebook": "None", "youtube": "None", "website": "None", "summary": "None", "logo": "None", "latitude": 50.43676200000006, "longitude": -104.59527649999994}, "868415399RR0001": {"name": "GUJRATI HINDU SENIORS SOCIETY", "designationCode": "C", "categoryCode": "09", "address": "P.O. BOX 19312                108-4800 KINGSWAY", "city": "BURNABY", "province": "BC", "country": "CA", "postalCode": "V5H4J2", "twitter": "None", "instagram": "None", "facebook": "None", "youtube": "None", "website": "None", "summary": "None", "logo": "None", "latitude": 49.227286536982305, "longitude": -122.9962848197239}, "867253833RR0001": {"name": "GULF ISLANDS FAMILIES TOGETHER SOCIETY", "designationCode": "C", "categoryCode": "09", "address": "152 MCPHILLIPS AVE", "city": "SALTSPRING ISLAND", "province": "BC", "country": "CA", "postalCode": "V8K2V8", "twitter": "None", "instagram": "None", "facebook": "None", "youtube": "None", "website": "None", "summary": "None", "logo": "None", "latitude": 48.85268530449111, "longitude": -123.50278582915585}, "883015596RR0001": {"name": "GULF ISLANDS MARINE RESCUE SOCIETY", "designationCode": "C", "categoryCode": "59", "address": "180 LEISURE LANE", "city": "SALT SPRING ISLAND", "province": "BC", "country": "CA", "postalCode": "V8K2P8", "twitter": "None", "instagram": "None", "facebook": "None", "youtube": "None", "website": "None", "summary": "None", "logo": "None", "latitude": 48.86497008081177, "longitude": -123.5026751954745}, "868060534RR0001": {"name": "GULF ISLANDS SENIORS RESIDENCE ASSOCIATION", "designationCode": "C", "categoryCode": "09", "address": "121 ATKINS ROAD               SUITE 100", "city": "SALT SPRING ISLAND", "province": "BC", "country": "CA", "postalCode": "V8K2X7", "twitter": "None", "instagram": "None", "facebook": "None", "youtube": "None", "website": "None", "summary": "None", "logo": "None", "latitude": 48.86112265560418, "longitude": -123.51506799963627}, "107457764RR0001": {"name": "GULF OF GEORGIA CANNERY SOCIETY", "designationCode": "C", "categoryCode": "50", "address": "12138 4TH AVE", "city": "RICHMOND", "province": "BC", "country": "CA", "postalCode": "V7E3J1", "twitter": "None", "instagram": "None", "facebook": "None", "youtube": "None", "website": "None", "summary": "None", "logo": "None", "latitude": 49.12625666472388, "longitude": -123.1871715427319}, "889080560RR0001": {"name": "GULF SHORE CEMETERY SOCIETY", "designationCode": "C", "categoryCode": "52", "address": "1995 GULF SHORE RD", "city": "PUGWASH", "province": "NS", "country": "CA", "postalCode": "B0K1L0", "twitter": "None", "instagram": "None", "facebook": "None", "youtube": "None", "website": "None", "summary": "None", "logo": "None", "latitude": 45.87253244387963, "longitude": -63.56445749596063}, "864322060RR0001": {"name": "GULF SHORE COMMUNITY HEALTH CORPORATION", "designationCode": "C", "categoryCode": "11", "address": "P.O. BOX 210", "city": "NORTH RUSTICO", "province": "PE", "country": "CA", "postalCode": "C0A1X0", "twitter": "None", "instagram": "None", "facebook": "None", "youtube": "None", "website": "None", "summary": "None", "logo": "None", "latitude": 46.438988438295645, "longitude": -63.31766459361739}, "118949726RR0001": {"name": "GULL LAKE & DISTRICT DONORS CHOICE APPEAL", "designationCode": "A", "categoryCode": "05", "address": "BOX 404", "city": "GULL LAKE", "province": "SK", "country": "CA", "postalCode": "S0N1A0", "twitter": "None", "instagram": "None", "facebook": "None", "youtube": "None", "website": "None", "summary": "None", "logo": "None", "latitude": 50.09796000000006, "longitude": -108.48363999999998}, "118949734RR0001": {"name": "GULL LAKE & DISTRICT RECREATION COMPLEX INC.", "designationCode": "C", "categoryCode": "56", "address": "BOX 586", "city": "GULL LAKE", "province": "SK", "country": "CA", "postalCode": "S0N1A0", "twitter": "None", "instagram": "None", "facebook": "None", "youtube": "None", "website": "None", "summary": "None", "logo": "None", "latitude": 50.09796000000006, "longitude": -108.48363999999998}, "897013785RR0001": {"name": "GULL LAKE & DISTRICT ROAD AMBULANCE CORPORATION", "designationCode": "C", "categoryCode": "59", "address": "BOX 656", "city": "GULL LAKE", "province": "SK", "country": "CA", "postalCode": "S0N1A0", "twitter": "None", "instagram": "None", "facebook": "None", "youtube": "None", "website": "None", "summary": "None", "logo": "None", "latitude": 50.09796000000006, "longitude": -108.48363999999998}, "118949718RR0001": {"name": "GULL LAKE BAPTIST CAMP", "designationCode": "C", "categoryCode": "56", "address": "SITE 1 BOX 6 RR 3", "city": "LACOMBE", "province": "AB", "country": "CA", "postalCode": "T4L2N3", "twitter": "None", "instagram": "None", "facebook": "None", "youtube": "None", "website": "None", "summary": "None", "logo": "None", "latitude": 52.463094000000055, "longitude": -113.73671149999993}, "893109827RR0001": {"name": "GULL LAKE HISTORICAL SOCIETY", "designationCode": "C", "categoryCode": "50", "address": "#12, 7428-49 AVENUE", "city": "RED DEER", "province": "AB", "country": "CA", "postalCode": "T4P1M2", "twitter": "None", "instagram": "None", "facebook": "None", "youtube": "None", "website": "None", "summary": "None", "logo": "None", "latitude": 52.300879209992594, "longitude": -113.81063420713197}, "889973004RR0001": {"name": "GULL LAKE NORTH CITIZENS ON PATROL ASSOCIATION", "designationCode": "C", "categoryCode": "59", "address": "5117-50 STREET                PO BOX 919", "city": "RIMBEY", "province": "AB", "country": "CA", "postalCode": "T0C2J0", "twitter": "None", "instagram": "None", "facebook": "None", "youtube": "None", "website": "None", "summary": "None", "logo": "None", "latitude": 52.641403878988996, "longitude": -114.23833734202813}, "118949742RR0001": {"name": "GULL LAKE PASTORAL CHARGE", "designationCode": "C", "categoryCode": "44", "address": "BOX 308", "city": "GULL LAKE", "province": "SK", "country": "CA", "postalCode": "S0N1A0", "twitter": "None", "instagram": "None", "facebook": "None", "youtube": "None", "website": "None", "summary": "None", "logo": "None", "latitude": 50.09796000000006, "longitude": -108.48363999999998}, "865743173RR0001": {"name": "GULL LAKE SPECIAL CARE HOME AUXILIARY", "designationCode": "C", "categoryCode": "19", "address": "BOX 539", "city": "GULL LAKE", "province": "SK", "country": "CA", "postalCode": "S0N1A0", "twitter": "None", "instagram": "None", "facebook": "None", "youtube": "None", "website": "None", "summary": "None", "logo": "None", "latitude": 50.09796000000006, "longitude": -108.48363999999998}, "107457988RR0001": {"name": "GUNNINGSVILLE BAPTIST CHURCH", "designationCode": "C", "categoryCode": "31", "address": "160 OLD COACH ROAD", "city": "RIVERVIEW", "province": "NB", "country": "CA", "postalCode": "E1B1N8", "twitter": "None", "instagram": "None", "facebook": "None", "youtube": "None", "website": "None", "summary": "None", "logo": "None", "latitude": 46.07044588923211, "longitude": -64.77694583054426}, "890174444RR0001": {"name": "GUR MANDIR TEMPLE", "designationCode": "C", "categoryCode": "39", "address": "207 QUEEN'S PLATE DRIVE", "city": "TORONTO", "province": "ON", "country": "CA", "postalCode": "M9W6Z7", "twitter": "None", "instagram": "None", "facebook": "None", "youtube": "None", "website": "None", "summary": "None", "logo": "None", "latitude": 43.72015887512252, "longitude": -79.59432041583518}, "886666197RR0001": {"name": "GURD AND AREA HISTORICAL CORPORATION", "designationCode": "C", "categoryCode": "52", "address": "4077 HWY 522 GEN DEL", "city": "COMMANDA", "province": "ON", "country": "CA", "postalCode": "P0H1J0", "twitter": "None", "instagram": "None", "facebook": "None", "youtube": "None", "website": "None", "summary": "None", "logo": "None", "latitude": 45.95161758948015, "longitude": -79.60427433840383}, "890195068RR0001": {"name": "GURDJIEFF FOUNDATION OF BRITISH COLUMBIA", "designationCode": "C", "categoryCode": "29", "address": "519 W 14 STREET", "city": "NORTH VANCOUVER", "province": "BC", "country": "CA", "postalCode": "V7M1R1", "twitter": "None", "instagram": "None", "facebook": "None", "youtube": "None", "website": "None", "summary": "None", "logo": "None", "latitude": 49.32110551399404, "longitude": -123.0855911662531}, "139418446RR0001": {"name": "GURDUWARA GUR GIANPARKASH SAHIB SOCIETY INC", "designationCode": "C", "categoryCode": "62", "address": "G.P.O. BOX 141", "city": "WINNIPEG", "province": "MB", "country": "CA", "postalCode": "R3C2G1", "twitter": "None", "instagram": "None", "facebook": "None", "youtube": "None", "website": "None", "summary": "None", "logo": "None", "latitude": 49.899525000000054, "longitude": -97.14112999999993}, "845178870RR0001": {"name": "GURDWARA DUKH NIVARAN SAHIB SOCIETY", "designationCode": "C", "categoryCode": "62", "address": "15255 68 AVE", "city": "SURREY", "province": "BC", "country": "CA", "postalCode": "V3S2C1", "twitter": "None", "instagram": "None", "facebook": "None", "youtube": "None", "website": "None", "summary": "None", "logo": "None", "latitude": 49.126381500432686, "longitude": -122.79990141618097}}