{"873152367RR0001": {"name": "NORMAN JUELL GLOBAL OUTREACH MINISTRIES INC", "designationCode": "C", "categoryCode": "43", "address": "238 MAGUIRE CRT", "city": "SASKATOON", "province": "SK", "country": "CA", "postalCode": "S7W1A6", "twitter": "None", "instagram": "None", "facebook": "None", "youtube": "None", "website": "None", "summary": "None", "logo": "None", "latitude": 52.14451106105376, "longitude": -106.56321105969745}, "107778870RR0001": {"name": "NORMAN KENNEDY PRESBYTERIAN CHURCH", "designationCode": "C", "categoryCode": "37", "address": "5303 SHERWOOD DRIVE", "city": "REGINA", "province": "SK", "country": "CA", "postalCode": "S4R7E7", "twitter": "None", "instagram": "None", "facebook": "None", "youtube": "None", "website": "None", "summary": "None", "logo": "None", "latitude": 50.47697653173897, "longitude": -104.65805233236193}, "138983754RR0001": {"name": "NORMAN P NORDIN MEMORIAL FUND", "designationCode": "B", "categoryCode": "45", "address": "155 WELLINGTON ST WEST        20TH FLOOR", "city": "TORONTO", "province": "ON", "country": "CA", "postalCode": "M5V3K7", "twitter": "None", "instagram": "None", "facebook": "None", "youtube": "None", "website": "None", "summary": "None", "logo": "None", "latitude": 43.64596585316531, "longitude": -79.38574575644876}, "131586174RR0001": {"name": "NORMAN STERNTHAL FOUNDATION", "designationCode": "B", "categoryCode": "03", "address": "5858 COTE DES NEIGES #612", "city": "MONTREAL", "province": "QC", "country": "CA", "postalCode": "H3S2S1", "twitter": "None", "instagram": "None", "facebook": "None", "youtube": "None", "website": "None", "summary": "None", "logo": "None", "latitude": 45.49969080402809, "longitude": -73.62970606330413}, "132146663RR0001": {"name": "NORMAN'S COVE PASTORAL CHARGE", "designationCode": "C", "categoryCode": "44", "address": "PO BOX 7", "city": "NORMANS COVE", "province": "NL", "country": "CA", "postalCode": "A0B2T0", "twitter": "None", "instagram": "None", "facebook": "None", "youtube": "None", "website": "None", "summary": "None", "logo": "None", "latitude": 47.43185706121664, "longitude": -53.818582395057184}, "886772599RR0001": {"name": "NORMANDALE CEMETERY BOARD", "designationCode": "C", "categoryCode": "59", "address": "99 HIGHWAY #6, R.R. #3", "city": "SIMCOE", "province": "ON", "country": "CA", "postalCode": "N3Y4K2", "twitter": "None", "instagram": "None", "facebook": "None", "youtube": "None", "website": "None", "summary": "None", "logo": "None", "latitude": 42.78715554537152, "longitude": -80.27621748200231}, "890831191RR0001": {"name": "NORMANNA FOUNDATION", "designationCode": "A", "categoryCode": "03", "address": "7725-4TH STREET", "city": "BURNABY", "province": "BC", "country": "CA", "postalCode": "V3N5B6", "twitter": "None", "instagram": "None", "facebook": "None", "youtube": "None", "website": "None", "summary": "None", "logo": "None", "latitude": 49.22242221201477, "longitude": -122.9270952061281}, "853472843RR0001": {"name": "NORQUAY CHARITABLE TRUST", "designationCode": "B", "categoryCode": "39", "address": "780 SASKATCHEWAN AVE W", "city": "PORTAGE LA PRAIRIE", "province": "MB", "country": "CA", "postalCode": "R1N0M7", "twitter": "None", "instagram": "None", "facebook": "None", "youtube": "None", "website": "None", "summary": "None", "logo": "None", "latitude": 49.97373494820344, "longitude": -98.30132080652011}, "866650310RR0001": {"name": "NORQUAY EMMANUEL LUTHERAN CHURCH", "designationCode": "C", "categoryCode": "32", "address": "PO BOX 117", "city": "NORQUAY", "province": "SK", "country": "CA", "postalCode": "S0A2V0", "twitter": "None", "instagram": "None", "facebook": "None", "youtube": "None", "website": "None", "summary": "None", "logo": "None", "latitude": 51.88199000000003, "longitude": -102.08761999999996}, "841797475RR0001": {"name": "NORQUAY INVOLVED COMMUNITY EFFORT SENIOR CITIZENS CENTRE INC.", "designationCode": "B", "categoryCode": "56", "address": "BOX 234", "city": "NORQUAY", "province": "SK", "country": "CA", "postalCode": "S0A2V0", "twitter": "None", "instagram": "None", "facebook": "None", "youtube": "None", "website": "None", "summary": "None", "logo": "None", "latitude": 51.88199000000003, "longitude": -102.08761999999996}, "119058832RR0001": {"name": "NORQUAY UNITED CHURCH", "designationCode": "C", "categoryCode": "44", "address": "45 1ST AVE SE", "city": "NORQUAY", "province": "SK", "country": "CA", "postalCode": "S0A2V0", "twitter": "None", "instagram": "None", "facebook": "None", "youtube": "None", "website": "None", "summary": "None", "logo": "None", "latitude": 51.16798417917577, "longitude": -103.49519518206169}, "880074562RR0001": {"name": "NORRIS ARM BOYS AND GIRLS CLUB INC.", "designationCode": "C", "categoryCode": "09", "address": "P.O. BOX 345", "city": "NORRIS ARM", "province": "NL", "country": "CA", "postalCode": "A0G3M0", "twitter": "None", "instagram": "None", "facebook": "None", "youtube": "None", "website": "None", "summary": "None", "logo": "None", "latitude": 49.08671703047479, "longitude": -55.27271442158606}, "863757431RR0001": {"name": "NORRIS LAKE CEMETERY ASSOCIATION", "designationCode": "C", "categoryCode": "59", "address": "PO BOX 956", "city": "TEULON", "province": "MB", "country": "CA", "postalCode": "R0C3B0", "twitter": "None", "instagram": "None", "facebook": "None", "youtube": "None", "website": "None", "summary": "None", "logo": "None", "latitude": 50.38882296172802, "longitude": -97.07887338068231}, "119058857RR0001": {"name": "NORRONA EVANGELICAL LUTHERAN CHURCH OF BULYEA SASKATCHEWAN INC.", "designationCode": "C", "categoryCode": "32", "address": "RR 2", "city": "CRAVEN", "province": "SK", "country": "CA", "postalCode": "S0G0W0", "twitter": "None", "instagram": "None", "facebook": "None", "youtube": "None", "website": "None", "summary": "None", "logo": "None", "latitude": 50.78455650000001, "longitude": -103.80089025}, "122766298RR0001": {"name": "NORSHEL CENTRE INC", "designationCode": "C", "categoryCode": "59", "address": "890 NAIRN AVE", "city": "WINNIPEG", "province": "MB", "country": "CA", "postalCode": "R2L0X8", "twitter": "None", "instagram": "None", "facebook": "None", "youtube": "None", "website": "None", "summary": "None", "logo": "None", "latitude": 49.90138669605882, "longitude": -97.08626777436659}, "860613710RR0001": {"name": "NORSHEL RESIDENTIAL INC.", "designationCode": "C", "categoryCode": "11", "address": "50 VALENCE AVENUE", "city": "WINNIPEG", "province": "MB", "country": "CA", "postalCode": "R3T3W7", "twitter": "None", "instagram": "None", "facebook": "None", "youtube": "None", "website": "None", "summary": "None", "logo": "None", "latitude": 49.78198164002537, "longitude": -97.14636102123605}, "119288918RR1178": {"name": "NORTE CONGREGATION OF JEHOVAH'S WITNESSES", "designationCode": "C", "categoryCode": "61", "address": "25 QUEEN'S PLATE DRIVE", "city": "ETOBICOKE", "province": "ON", "country": "CA", "postalCode": "M9W7C8", "twitter": "None", "instagram": "None", "facebook": "None", "youtube": "None", "website": "None", "summary": "None", "logo": "None", "latitude": 43.70895319484672, "longitude": -79.58974841877804}, "121125322RR0001": {"name": "NORTH & SOUTH ESK SENIOR HOUSING INC.", "designationCode": "C", "categoryCode": "09", "address": "308 RED BANK", "city": "RED BANK", "province": "NB", "country": "CA", "postalCode": "E9E2P2", "twitter": "None", "instagram": "None", "facebook": "None", "youtube": "None", "website": "None", "summary": "None", "logo": "None", "latitude": 46.93338000000006, "longitude": -65.80898999999994}, "131476319RR0001": {"name": "NORTH ALGOMA LITERACY COALITION", "designationCode": "C", "categoryCode": "21", "address": "BOX 1387                      50 B BRODWAY AVN.", "city": "WAWA", "province": "ON", "country": "CA", "postalCode": "P0S1K0", "twitter": "None", "instagram": "None", "facebook": "None", "youtube": "None", "website": "None", "summary": "None", "logo": "None", "latitude": 47.9933647472273, "longitude": -84.7708425}, "119058881RR0001": {"name": "NORTH ALTON COMMUNITY HALL ASSOCIATION", "designationCode": "C", "categoryCode": "56", "address": "4309 PROSPECT ROAD", "city": "NORTH ALTON", "province": "NS", "country": "CA", "postalCode": "B4N3V8", "twitter": "None", "instagram": "None", "facebook": "None", "youtube": "None", "website": "None", "summary": "None", "logo": "None", "latitude": 45.051259405184595, "longitude": -64.5093309353846}, "107779746RR0002": {"name": "NORTH AMERICA INDIAN MISSION INC.", "designationCode": "C", "categoryCode": "47", "address": "P O BOX 220 STN A", "city": "ABBOTSFORD", "province": "BC", "country": "CA", "postalCode": "V2T6Z6", "twitter": "None", "instagram": "None", "facebook": "None", "youtube": "None", "website": "None", "summary": "None", "logo": "None", "latitude": 49.05161700000005, "longitude": -122.32930399999994}, "107779746RR0001": {"name": "NORTH AMERICA INDIAN MISSION OF CANADA", "designationCode": "C", "categoryCode": "47", "address": "P O BOX 220 STN A", "city": "ABBOTSFORD", "province": "BC", "country": "CA", "postalCode": "V2T6Z6", "twitter": "None", "instagram": "None", "facebook": "None", "youtube": "None", "website": "None", "summary": "None", "logo": "None", "latitude": 49.05161700000005, "longitude": -122.32930399999994}, "867228132RR0001": {"name": "NORTH AMERICA RAILWAY HALL OF FAME", "designationCode": "C", "categoryCode": "50", "address": "101-750 TALBOT ST.", "city": "ST THOMAS", "province": "ON", "country": "CA", "postalCode": "N5P1E2", "twitter": "None", "instagram": "None", "facebook": "None", "youtube": "None", "website": "None", "summary": "None", "logo": "None", "latitude": 42.77879893180109, "longitude": -81.18687295867603}, "888694015RR0001": {"name": "NORTH AMERICAN ATHIA SATPANTH SAMAJ OF TORONTO INCORPORATED", "designationCode": "C", "categoryCode": "48", "address": "2731 MARKHAM ROAD", "city": "TORONTO", "province": "ON", "country": "CA", "postalCode": "M1X1M4", "twitter": "None", "instagram": "None", "facebook": "None", "youtube": "None", "website": "None", "summary": "None", "logo": "None", "latitude": 43.820496355271445, "longitude": -79.24615950591529}, "890153398RR0001": {"name": "NORTH AMERICAN BAPTIST CONFERENCE ASSOCIATION OF BRITISH COLUMBIA CHURCHES", "designationCode": "C", "categoryCode": "31", "address": "7505 KILREA PLACE", "city": "BURNABY", "province": "BC", "country": "CA", "postalCode": "V5A3N8", "twitter": "None", "instagram": "None", "facebook": "None", "youtube": "None", "website": "None", "summary": "None", "logo": "None", "latitude": 49.25914082763007, "longitude": -122.94523696171149}, "889909016RR0001": {"name": "NORTH AMERICAN BAPTIST CONFERENCE FOUNDATION OF CANADA", "designationCode": "A", "categoryCode": "03", "address": "903 - 386 BROADWAY", "city": "WINNIPEG", "province": "MB", "country": "CA", "postalCode": "R3C3R6", "twitter": "None", "instagram": "None", "facebook": "None", "youtube": "None", "website": "None", "summary": "None", "logo": "None", "latitude": 49.88653076545114, "longitude": -97.14461727517464}, "119058923RR0001": {"name": "NORTH AMERICAN BLACK HISTORICAL MUSEUM INCORPORATED", "designationCode": "C", "categoryCode": "50", "address": "277 KING ST", "city": "AMHERSTBURG", "province": "ON", "country": "CA", "postalCode": "N9V2C7", "twitter": "None", "instagram": "None", "facebook": "None", "youtube": "None", "website": "None", "summary": "None", "logo": "None", "latitude": 42.10123972468112, "longitude": -83.10602190005214}, "854105053RR0001": {"name": "NORTH AMERICAN CARNIVAL MUSEUM AND ARCHIVES (N.A.C.M.A.)", "designationCode": "C", "categoryCode": "50", "address": "114 ALICE ST", "city": "BRANTFORD", "province": "ON", "country": "CA", "postalCode": "N3S5B7", "twitter": "None", "instagram": "None", "facebook": "None", "youtube": "None", "website": "None", "summary": "None", "logo": "None", "latitude": 43.15114052756006, "longitude": -80.25295099013465}, "820200749RR0001": {"name": "NORTH AMERICAN CHURCH & GOSPEL HALLS ASSISTANCE FUND (CANADA)", "designationCode": "A", "categoryCode": "43", "address": "243 FAIRMONT RD", "city": "WINNIPEG", "province": "MB", "country": "CA", "postalCode": "R3R1A8", "twitter": "None", "instagram": "None", "facebook": "None", "youtube": "None", "website": "None", "summary": "None", "logo": "None", "latitude": 49.8602992711926, "longitude": -97.27583467164877}, "828154476RR0001": {"name": "NORTH AMERICAN GENERAL MISSION", "designationCode": "C", "categoryCode": "47", "address": "377 POLDON DR", "city": "NORWICH", "province": "ON", "country": "CA", "postalCode": "N0J1P0", "twitter": "None", "instagram": "None", "facebook": "None", "youtube": "None", "website": "None", "summary": "None", "logo": "None", "latitude": 42.99435909744011, "longitude": -80.59326518584096}, "875216905RR0001": {"name": "NORTH AMERICAN HINDU ASSOCIATION OF DHARMA STUDIES INC./ASSOCIATION DES HINDOUS NORD AMERICAINS POUR L'ETUDE DU DHARMA INC.", "designationCode": "C", "categoryCode": "48", "address": "3520 UNIVERSITY ST.", "city": "MONTREAL", "province": "QC", "country": "CA", "postalCode": "H3A2A7", "twitter": "None", "instagram": "None", "facebook": "None", "youtube": "None", "website": "None", "summary": "None", "logo": "None", "latitude": 45.50683993559934, "longitude": -73.57737646018228}, "864355557RR0001": {"name": "NORTH AMERICAN INTESTINAL DISEASE EDUCATION AND AWARENESS SOCIETY", "designationCode": "C", "categoryCode": "01", "address": "3885 203A ST", "city": "LANGLEY", "province": "BC", "country": "CA", "postalCode": "V3A1W6", "twitter": "None", "instagram": "None", "facebook": "None", "youtube": "None", "website": "None", "summary": "None", "logo": "None", "latitude": 49.07251732944775, "longitude": -122.66089189234785}, "119058980RR0001": {"name": "NORTH AMERICAN MUSLIM FOUNDATION", "designationCode": "C", "categoryCode": "21", "address": "4140 FINCH AVENUE EAST", "city": "SCARBOROUGH", "province": "ON", "country": "CA", "postalCode": "M1S3T9", "twitter": "None", "instagram": "None", "facebook": "None", "youtube": "None", "website": "None", "summary": "None", "logo": "None", "latitude": 43.80293408249138, "longitude": -79.2897992682784}, "130720824RR0001": {"name": "NORTH AMERICAN NATIVE PLANT SOCIETY", "designationCode": "C", "categoryCode": "52", "address": "PO BOX 84  STN D", "city": "ETOBICOKE", "province": "ON", "country": "CA", "postalCode": "M9A4X1", "twitter": "None", "instagram": "None", "facebook": "None", "youtube": "None", "website": "None", "summary": "None", "logo": "None", "latitude": 43.64439900000005, "longitude": -79.56714049999994}, "888454261RR0001": {"name": "NORTH AMERICAN SIKH LEAGUE (CHARITABLE FOUNDATION)", "designationCode": "C", "categoryCode": "59", "address": "169 ROYAL VELLY DR.", "city": "CALEDON", "province": "ON", "country": "CA", "postalCode": "L7C1A6", "twitter": "None", "instagram": "None", "facebook": "None", "youtube": "None", "website": "None", "summary": "None", "logo": "None", "latitude": 43.74765697697495, "longitude": -79.83187812173216}, "891309148RR0001": {"name": "NORTH AMERICAN WILDLIFE ENFORCEMENT MEMORIAL MUSEUM AND EDUCATIONAL CENTER (CANADA) INC.", "designationCode": "C", "categoryCode": "50", "address": "BOX 1239", "city": "BOISSEVAIN", "province": "MB", "country": "CA", "postalCode": "R0K0E0", "twitter": "None", "instagram": "None", "facebook": "None", "youtube": "None", "website": "None", "summary": "None", "logo": "None", "latitude": 49.23156000000006, "longitude": -100.05945999999994}, "107779936RR0001": {"name": "NORTH AMERICAN WORD OUTREACH INC.", "designationCode": "C", "categoryCode": "47", "address": "1802 49 AVENUE", "city": "LLOYDMINSTER", "province": "SK", "country": "CA", "postalCode": "S9V1T2", "twitter": "None", "instagram": "None", "facebook": "None", "youtube": "None", "website": "None", "summary": "None", "logo": "None", "latitude": 53.253720000000015, "longitude": -110.0036279411966}, "141004523RR0001": {"name": "NORTH AND SOUTH ESK RECREATION COUNCIL INC", "designationCode": "C", "categoryCode": "56", "address": "32 NORTHWEST RD", "city": "SUNNY CORNER", "province": "NB", "country": "CA", "postalCode": "E9E1J4", "twitter": "None", "instagram": "None", "facebook": "None", "youtube": "None", "website": "None", "summary": "None", "logo": "None", "latitude": 46.94875316449811, "longitude": -65.81663006576073}, "132585597RR0001": {"name": "NORTH ATLANTIC AVIATION MUSEUM", "designationCode": "C", "categoryCode": "50", "address": "PO BOX 234, TRANS CANADA HWY.", "city": "GANDER", "province": "NL", "country": "CA", "postalCode": "A1V1W6", "twitter": "None", "instagram": "None", "facebook": "None", "youtube": "None", "website": "None", "summary": "None", "logo": "None", "latitude": 48.945360357549525, "longitude": -54.60865095085398}, "107779951RR0001": {"name": "NORTH AUGUSTA PASTORAL CHARGE", "designationCode": "C", "categoryCode": "44", "address": "7199 BROWN RD.", "city": "BROCKVILLE", "province": "ON", "country": "CA", "postalCode": "K6V5T2", "twitter": "None", "instagram": "None", "facebook": "None", "youtube": "None", "website": "None", "summary": "None", "logo": "None", "latitude": 44.652525000000054, "longitude": -75.67165699999994}, "119059038RR0001": {"name": "NORTH BATTLEFORD LOCAL CHURCH", "designationCode": "C", "categoryCode": "39", "address": "BOX 934", "city": "NORTH BATTLEFORD", "province": "SK", "country": "CA", "postalCode": "S9A2Z3", "twitter": "None", "instagram": "None", "facebook": "None", "youtube": "None", "website": "None", "summary": "None", "logo": "None", "latitude": 52.77640200000006, "longitude": -108.29903299999994}, "119059053RR0001": {"name": "NORTH BATTLEFORD PASTORAL CHARGE", "designationCode": "C", "categoryCode": "44", "address": "1301 102ND ST", "city": "NORTH BATTLEFORD", "province": "SK", "country": "CA", "postalCode": "S9A1G4", "twitter": "None", "instagram": "None", "facebook": "None", "youtube": "None", "website": "None", "summary": "None", "logo": "None", "latitude": 52.77657800146343, "longitude": -108.29609999041736}, "890645591RR0001": {"name": "NORTH BATTLEFORD SENIOR CITIZENS \"ACTION NOW\" CLUB INC.", "designationCode": "C", "categoryCode": "59", "address": "1501-101 ST STREET", "city": "NORTH BATTLEFORD", "province": "SK", "country": "CA", "postalCode": "S9A1A3", "twitter": "None", "instagram": "None", "facebook": "None", "youtube": "None", "website": "None", "summary": "None", "logo": "None", "latitude": 52.77981586372556, "longitude": -108.29759936167673}, "119059194RR0001": {"name": "NORTH BAY & DISTRICT CARDIAC FITNESS CLUB", "designationCode": "C", "categoryCode": "11", "address": "9 HOWARD AV.", "city": "NORTH BAY", "province": "ON", "country": "CA", "postalCode": "P1A1N7", "twitter": "None", "instagram": "None", "facebook": "None", "youtube": "None", "website": "None", "summary": "None", "logo": "None", "latitude": 46.28210208133753, "longitude": -79.44902696087476}, "839113941RR0001": {"name": "NORTH BAY AND AREA COMMUNITY FOUNDATION", "designationCode": "A", "categoryCode": "03", "address": "P.O.BOX 22008 FISHER PO", "city": "NORTH BAY", "province": "ON", "country": "CA", "postalCode": "P1B8G4", "twitter": "None", "instagram": "None", "facebook": "None", "youtube": "None", "website": "None", "summary": "None", "logo": "None", "latitude": 46.309971302291835, "longitude": -79.45201921907942}, "891107971RR0001": {"name": "NORTH BAY AND DISTRICT CRITICAL INCIDENT STRESS TEAM INC", "designationCode": "C", "categoryCode": "19", "address": "170 NIAGARA ROAD", "city": "NIPISSING", "province": "ON", "country": "CA", "postalCode": "P0H1W0", "twitter": "None", "instagram": "None", "facebook": "None", "youtube": "None", "website": "None", "summary": "None", "logo": "None", "latitude": 46.03397321481338, "longitude": -79.56080797313712}, "119059103RR0001": {"name": "NORTH BAY AND DISTRICT SOCIETY FOR THE PREVENTION OF CRUELTY TO ANIMALS", "designationCode": "C", "categoryCode": "54", "address": "PO BOX 1383                   2060 MAIN STREET WEST", "city": "NORTH BAY", "province": "ON", "country": "CA", "postalCode": "P1B8K5", "twitter": "None", "instagram": "None", "facebook": "None", "youtube": "None", "website": "None", "summary": "None", "logo": "None", "latitude": 46.32483333668977, "longitude": -79.49674858214559}, "130522998RR0001": {"name": "NORTH BAY AREA MUSEUM SOCIETY", "designationCode": "C", "categoryCode": "50", "address": "100 FERGUSON STREET", "city": "NORTH BAY", "province": "ON", "country": "CA", "postalCode": "P1B1W8", "twitter": "None", "instagram": "None", "facebook": "None", "youtube": "None", "website": "None", "summary": "None", "logo": "None", "latitude": 46.31009583484344, "longitude": -79.4651372647873}, "896559564RR0001": {"name": "NORTH BAY ASTRONOMY CLUB", "designationCode": "C", "categoryCode": "20", "address": "746 DURRIL", "city": "NORTH BAY", "province": "ON", "country": "CA", "postalCode": "P1B4J1", "twitter": "None", "instagram": "None", "facebook": "None", "youtube": "None", "website": "None", "summary": "None", "logo": "None", "latitude": 46.32100159117663, "longitude": -79.46971262782034}, "889298683RR0001": {"name": "NORTH BAY CHORAL SOCIETY", "designationCode": "C", "categoryCode": "22", "address": "PO BOX 772", "city": "NORTH BAY", "province": "ON", "country": "CA", "postalCode": "P1B8J8", "twitter": "None", "instagram": "None", "facebook": "None", "youtube": "None", "website": "None", "summary": "None", "logo": "None", "latitude": 46.30661700000006, "longitude": -79.45993249999994}, "860455823RR0001": {"name": "NORTH BAY CHRISTADELPHIAN ECCLESIA", "designationCode": "C", "categoryCode": "39", "address": "112 MAIN ST E", "city": "NORTH BAY", "province": "ON", "country": "CA", "postalCode": "P1B1A8", "twitter": "None", "instagram": "None", "facebook": "None", "youtube": "None", "website": "None", "summary": "None", "logo": "None", "latitude": 46.3101572087252, "longitude": -79.4637899862371}, "131376212RR0001": {"name": "NORTH BAY CHURCH OF CHRIST,", "designationCode": "C", "categoryCode": "39", "address": "PO BOX 745", "city": "NORTH BAY", "province": "ON", "country": "CA", "postalCode": "P1B8J8", "twitter": "None", "instagram": "None", "facebook": "None", "youtube": "None", "website": "None", "summary": "None", "logo": "None", "latitude": 46.30661700000006, "longitude": -79.45993249999994}, "106923964RR0001": {"name": "NORTH BAY CHURCH OF GOD", "designationCode": "C", "categoryCode": "39", "address": "70 BORDEN AVE S", "city": "KITCHENER", "province": "ON", "country": "CA", "postalCode": "N2G3R5", "twitter": "None", "instagram": "None", "facebook": "None", "youtube": "None", "website": "None", "summary": "None", "logo": "None", "latitude": 43.440899171850326, "longitude": -80.47557134479716}, "890599962RR0001": {"name": "NORTH BAY COUNCIL NO 1007 CHARITABLE TRUST", "designationCode": "A", "categoryCode": "65", "address": "P.O. BOX 122", "city": "NORTH BAY", "province": "ON", "country": "CA", "postalCode": "P1B8G8", "twitter": "None", "instagram": "None", "facebook": "None", "youtube": "None", "website": "None", "summary": "None", "logo": "None", "latitude": 46.30661700000006, "longitude": -79.45993249999994}, "107780280RR0001": {"name": "NORTH BAY INDIAN FRIENDSHIP CENTRE", "designationCode": "C", "categoryCode": "03", "address": "980 CASSELLS ST", "city": "NORTH BAY", "province": "ON", "country": "CA", "postalCode": "P1B4A6", "twitter": "None", "instagram": "None", "facebook": "None", "youtube": "None", "website": "None", "summary": "None", "logo": "None", "latitude": 46.316656392463415, "longitude": -79.45905308632919}, "119059236RR0001": {"name": "NORTH BAY KIWANIS MUSIC FESTIVAL COMMITTEE", "designationCode": "C", "categoryCode": "22", "address": "500 ANITA AVE", "city": "NORTH BAY", "province": "ON", "country": "CA", "postalCode": "P1C0A7", "twitter": "None", "instagram": "None", "facebook": "None", "youtube": "None", "website": "None", "summary": "None", "logo": "None", "latitude": 46.326339173763536, "longitude": -79.38784593528285}, "898259866RR0001": {"name": "NORTH BAY MILITARY FAMILY RESOURCE CENTRE", "designationCode": "C", "categoryCode": "09", "address": "39 STERLING AVENUE", "city": "HORNELL HEIGHTS", "province": "ON", "country": "CA", "postalCode": "P0H1P0", "twitter": "None", "instagram": "None", "facebook": "None", "youtube": "None", "website": "None", "summary": "None", "logo": "None", "latitude": 46.360408355760335, "longitude": -79.41120464659232}, "868685645RR0001": {"name": "NORTH BAY PARRY SOUND DISTRICT HEALTH UNIT", "designationCode": "C", "categoryCode": "19", "address": "345 OAK STREET WEST", "city": "NORTH BAY", "province": "ON", "country": "CA", "postalCode": "P1B2T2", "twitter": "None", "instagram": "None", "facebook": "None", "youtube": "None", "website": "None", "summary": "None", "logo": "None", "latitude": 46.31355558873172, "longitude": -79.46772590363949}, "887204725RR0001": {"name": "NORTH BAY PROFESSIONAL PARAMEDIC ASSOCIATION", "designationCode": "C", "categoryCode": "59", "address": "43 FERRIS DRIVE", "city": "NORTH BAY", "province": "ON", "country": "CA", "postalCode": "P1B8Z4", "twitter": "None", "instagram": "None", "facebook": "None", "youtube": "None", "website": "None", "summary": "None", "logo": "None", "latitude": 46.26037816654155, "longitude": -79.41981182007001}, "119059251RR0001": {"name": "NORTH BAY PSYCHIATRIC HOSPITAL VOLUNTEER ASSOCIATION", "designationCode": "C", "categoryCode": "19", "address": "P.O. BOX 143                  258 MAIN ST. W.", "city": "TROUT CREEK", "province": "ON", "country": "CA", "postalCode": "P0H2L0", "twitter": "None", "instagram": "None", "facebook": "None", "youtube": "None", "website": "None", "summary": "None", "logo": "None", "latitude": 45.988269428824005, "longitude": -79.35556483858582}, "107460909RR0001": {"name": "NORTH BAY RECOVERY HOME", "designationCode": "C", "categoryCode": "57", "address": "393 OAK STREET WEST", "city": "NORTH BAY", "province": "ON", "country": "CA", "postalCode": "P1B2T2", "twitter": "None", "instagram": "None", "facebook": "None", "youtube": "None", "website": "None", "summary": "None", "logo": "None", "latitude": 46.31403947876394, "longitude": -79.46806002735289}, "119059202RR0001": {"name": "NORTH BAY REGIONAL HEALTH CENTRE", "designationCode": "C", "categoryCode": "11", "address": "ATT: SARA LINGENFELTER        50 COLLEGE DRIVE", "city": "NORTH BAY", "province": "ON", "country": "CA", "postalCode": "P1B0A4", "twitter": "None", "instagram": "None", "facebook": "None", "youtube": "None", "website": "None", "summary": "None", "logo": "None", "latitude": 46.343261097697784, "longitude": -79.48721760456496}, "887731123RR0001": {"name": "NORTH BAY REGIONAL HEALTH CENTRE FOUNDATION", "designationCode": "A", "categoryCode": "03", "address": "50 COLLEGE DR                 PO BOX 2500", "city": "NORTH BAY", "province": "ON", "country": "CA", "postalCode": "P1B0A4", "twitter": "None", "instagram": "None", "facebook": "None", "youtube": "None", "website": "None", "summary": "None", "logo": "None", "latitude": 46.343261097697784, "longitude": -79.48721760456496}, "119059269RR0001": {"name": "NORTH BAY REGIONAL SCIENCE FAIR", "designationCode": "C", "categoryCode": "21", "address": "P.O.BOX 24007 66 JOSEPHINE ST", "city": "NORTH BAY", "province": "ON", "country": "CA", "postalCode": "P1B0C7", "twitter": "None", "instagram": "None", "facebook": "None", "youtube": "None", "website": "None", "summary": "None", "logo": "None", "latitude": 46.33350485977308, "longitude": -79.46892966322332}, "107797383RR0069": {"name": "NORTH BAY SEVENTH-DAY ADVENTIST CHURCH", "designationCode": "C", "categoryCode": "41", "address": "P.O. BOX 1494 STN MAIN", "city": "NORTH BAY", "province": "ON", "country": "CA", "postalCode": "P1B8K6", "twitter": "None", "instagram": "None", "facebook": "None", "youtube": "None", "website": "None", "summary": "None", "logo": "None", "latitude": 46.321452162305185, "longitude": -79.48136420420431}, "119059293RR0001": {"name": "NORTH BAY SPORTS HALL OF FAME", "designationCode": "C", "categoryCode": "50", "address": "309 CEDAR HTS RD W            RR 2", "city": "NORTH BAY", "province": "ON", "country": "CA", "postalCode": "P1B8G3", "twitter": "None", "instagram": "None", "facebook": "None", "youtube": "None", "website": "None", "summary": "None", "logo": "None", "latitude": 46.34702677127545, "longitude": -79.47479559197467}, "119059301RR0001": {"name": "NORTH BAY SYMPHONY SOCIETY", "designationCode": "C", "categoryCode": "22", "address": "160 OVERHOLT PL", "city": "NORTH BAY", "province": "ON", "country": "CA", "postalCode": "P1B7X8", "twitter": "None", "instagram": "None", "facebook": "None", "youtube": "None", "website": "None", "summary": "None", "logo": "None", "latitude": 46.3300814787926, "longitude": -79.432371}, "122736895RR0001": {"name": "NORTH BAY THEATRE AND ARTS COMMUNITY CENTRE", "designationCode": "C", "categoryCode": "22", "address": "150 MAIN STREET EAST", "city": "NORTH BAY", "province": "ON", "country": "CA", "postalCode": "P1B1A8", "twitter": "None", "instagram": "None", "facebook": "None", "youtube": "None", "website": "None", "summary": "None", "logo": "None", "latitude": 46.30964217597662, "longitude": -79.46329790963144}, "119059319RR0001": {"name": "NORTH BRAMALEA PRESBYTERIAN CHURCH", "designationCode": "C", "categoryCode": "37", "address": "925 NORTH PARK DRIVE", "city": "BRAMPTON", "province": "ON", "country": "CA", "postalCode": "L6S5R8", "twitter": "None", "instagram": "None", "facebook": "None", "youtube": "None", "website": "None", "summary": "None", "logo": "None", "latitude": 43.73461308713726, "longitude": -79.74266680013295}, "130602154RR0001": {"name": "NORTH BRAMALEA UNITED CHURCH", "designationCode": "C", "categoryCode": "44", "address": "363 HOWDEN BLVD", "city": "BRAMPTON", "province": "ON", "country": "CA", "postalCode": "L6S4L6", "twitter": "None", "instagram": "None", "facebook": "None", "youtube": "None", "website": "None", "summary": "None", "logo": "None", "latitude": 43.71710139886872, "longitude": -79.74224641742171}, "119059335RR0001": {"name": "NORTH BRANCH CEMETERY", "designationCode": "C", "categoryCode": "59", "address": "5542 COUNTY RD 20", "city": "SOUTH GLENGARRY", "province": "ON", "country": "CA", "postalCode": "K6K0A7", "twitter": "None", "instagram": "None", "facebook": "None", "youtube": "None", "website": "None", "summary": "None", "logo": "None", "latitude": 45.1084249270694, "longitude": -74.70438888911143}, "888586393RR0001": {"name": "NORTH BRITISH SOCIETY OF HALIFAX CHARITABLE TRUST", "designationCode": "A", "categoryCode": "25", "address": "502 - 5657 SPRING GARDEN RD", "city": "HALIFAX", "province": "NS", "country": "CA", "postalCode": "B3J3R4", "twitter": "None", "instagram": "None", "facebook": "None", "youtube": "None", "website": "None", "summary": "None", "logo": "None", "latitude": 44.64321800521938, "longitude": -63.57617228611219}, "107780363RR0001": {"name": "NORTH BROADWAY BAPTIST CHURCH", "designationCode": "C", "categoryCode": "31", "address": "6 NORTH ST EAST", "city": "TILLSONBURG", "province": "ON", "country": "CA", "postalCode": "N4G1B2", "twitter": "None", "instagram": "None", "facebook": "None", "youtube": "None", "website": "None", "summary": "None", "logo": "None", "latitude": 42.87842437275657, "longitude": -80.74602454163538}, "889912044RR0001": {"name": "NORTH BROOKFIELD UNITED BAPTIST CHURCH,", "designationCode": "C", "categoryCode": "31", "address": "6766 HIGHWAY 208", "city": "SOUTH BROOKFIELD", "province": "NS", "country": "CA", "postalCode": "B0T1X0", "twitter": "None", "instagram": "None", "facebook": "None", "youtube": "None", "website": "None", "summary": "None", "logo": "None", "latitude": 44.38170368900379, "longitude": -64.9652568824825}, "844671941RR0001": {"name": "NORTH BURLINGTON BAPTIST CHURCH", "designationCode": "C", "categoryCode": "31", "address": "1377 WALKERS LINE", "city": "BURLINGTON", "province": "ON", "country": "CA", "postalCode": "L7M0Z1", "twitter": "None", "instagram": "None", "facebook": "None", "youtube": "None", "website": "None", "summary": "None", "logo": "None", "latitude": 43.375740242598965, "longitude": -79.80108624031993}, "872171301RR0001": {"name": "NORTH BUXTON COMMUNITY CHURCH", "designationCode": "C", "categoryCode": "39", "address": "21991 A.D. SHADD ROAD", "city": "NORTH BUXTON", "province": "ON", "country": "CA", "postalCode": "N0P1Y0", "twitter": "None", "instagram": "None", "facebook": "None", "youtube": "None", "website": "None", "summary": "None", "logo": "None", "latitude": 42.31795766459305, "longitude": -82.2343492604846}, "854570884RR0001": {"name": "NORTH BUXTON MEMORIAL CEMETERY", "designationCode": "C", "categoryCode": "59", "address": "50 CRANE DR.", "city": "CHATHAM", "province": "ON", "country": "CA", "postalCode": "N7L3V7", "twitter": "None", "instagram": "None", "facebook": "None", "youtube": "None", "website": "None", "summary": "None", "logo": "None", "latitude": 42.400773231461784, "longitude": -82.2166988087886}, "130312671RR0001": {"name": "NORTH CARADOC - ST. ANDREW'S PRESBYTERIAN CHURCH", "designationCode": "C", "categoryCode": "37", "address": "8503 SCOTCHMERE DR", "city": "STRATHROY", "province": "ON", "country": "CA", "postalCode": "N7G3H3", "twitter": "None", "instagram": "None", "facebook": "None", "youtube": "None", "website": "None", "summary": "None", "logo": "None", "latitude": 42.94826315452553, "longitude": -81.56154947336277}, "866540982RR0001": {"name": "NORTH CARIBOO ABORIGINAL FAMILY PROGRAM SOCIETY", "designationCode": "C", "categoryCode": "09", "address": "324 HOY STREET", "city": "QUESNEL", "province": "BC", "country": "CA", "postalCode": "V2J1X3", "twitter": "None", "instagram": "None", "facebook": "None", "youtube": "None", "website": "None", "summary": "None", "logo": "None", "latitude": 52.9769279439379, "longitude": -122.505559421548}, "869763391RR0001": {"name": "NORTH CENTENNIAL MANOR INC", "designationCode": "C", "categoryCode": "10", "address": "2 KIMBERLY DRIVE", "city": "KAPUSKASING", "province": "ON", "country": "CA", "postalCode": "P5N1L5", "twitter": "None", "instagram": "None", "facebook": "None", "youtube": "None", "website": "None", "summary": "None", "logo": "None", "latitude": 49.424544394161316, "longitude": -82.43183285824134}, "120178868RR0001": {"name": "NORTH CENTENNIAL SENIORS ASSOCIATION OF WINNIPEG INC.", "designationCode": "C", "categoryCode": "19", "address": "86 SINCLAIR STREET", "city": "WINNIPEG", "province": "MB", "country": "CA", "postalCode": "R2X1X1", "twitter": "None", "instagram": "None", "facebook": "None", "youtube": "None", "website": "None", "summary": "None", "logo": "None", "latitude": 49.91809496332096, "longitude": -97.16061944101205}, "890195407RR0001": {"name": "NORTH CENTRAL ALBERTA AMATEUR RADIO CLUB", "designationCode": "C", "categoryCode": "59", "address": "14 DUNVEGAN COURT", "city": "ST. ALBERT", "province": "AB", "country": "CA", "postalCode": "T8N6B1", "twitter": "None", "instagram": "None", "facebook": "None", "youtube": "None", "website": "None", "summary": "None", "logo": "None", "latitude": 53.655588774366606, "longitude": -113.64696423039393}, "107780629RR0001": {"name": "NORTH CENTRAL COMMUNITY ASSOCIATION INC.", "designationCode": "C", "categoryCode": "59", "address": "3355 6TH AVE", "city": "REGINA", "province": "SK", "country": "CA", "postalCode": "S4T4L8", "twitter": "None", "instagram": "None", "facebook": "None", "youtube": "None", "website": "None", "summary": "None", "logo": "None", "latitude": 50.45981247345519, "longitude": -104.62971094463039}, "897451803RR0001": {"name": "NORTH CENTRAL FAMILY CENTRE INC.", "designationCode": "C", "categoryCode": "59", "address": "2931 - 5TH AVENUE", "city": "REGINA", "province": "SK", "country": "CA", "postalCode": "S4T0L4", "twitter": "None", "instagram": "None", "facebook": "None", "youtube": "None", "website": "None", "summary": "None", "logo": "None", "latitude": 50.46138247403208, "longitude": -104.62353202553523}, "873784110RR0001": {"name": "NORTH CENTRAL HEALTH DISTRICT FOUNDATION INC.", "designationCode": "A", "categoryCode": "13", "address": "PO BOX 2020", "city": "MELFORT", "province": "SK", "country": "CA", "postalCode": "S0E1A0", "twitter": "None", "instagram": "None", "facebook": "None", "youtube": "None", "website": "None", "summary": "None", "logo": "None", "latitude": 52.85637, "longitude": -104.63436225000001}, "131520223RR0001": {"name": "NORTH CENTRAL SENIORS ASSOCIATION", "designationCode": "C", "categoryCode": "56", "address": "5401 MORIATY CRESCENT", "city": "PRINCE GEORGE", "province": "BC", "country": "CA", "postalCode": "V1N4C3", "twitter": "None", "instagram": "None", "facebook": "None", "youtube": "None", "website": "None", "summary": "None", "logo": "None", "latitude": 53.86850012770478, "longitude": -122.77332803087266}, "126777499RR0001": {"name": "NORTH CHANNEL LITERACY COUNCIL", "designationCode": "C", "categoryCode": "21", "address": "1 - 10 PARIS DR", "city": "ELLIOT LAKE", "province": "ON", "country": "CA", "postalCode": "P5A2L9", "twitter": "None", "instagram": "None", "facebook": "None", "youtube": "None", "website": "None", "summary": "None", "logo": "None", "latitude": 46.377231125599145, "longitude": -82.665884595037}, "135576379RR0001": {"name": "NORTH CHANNEL MARINE TOURISM COUNCIL", "designationCode": "C", "categoryCode": "52", "address": "PO BOX 70", "city": "SPANISH", "province": "ON", "country": "CA", "postalCode": "P0P2A0", "twitter": "None", "instagram": "None", "facebook": "None", "youtube": "None", "website": "None", "summary": "None", "logo": "None", "latitude": 46.18876017634285, "longitude": -82.33714063287171}, "870166816RR0001": {"name": "NORTH COAST CETACEAN SOCIETY", "designationCode": "C", "categoryCode": "11", "address": "235 SPEARFISH ROAD", "city": "QUALICUM BEACH", "province": "BC", "country": "CA", "postalCode": "V9K2A6", "twitter": "None", "instagram": "None", "facebook": "None", "youtube": "None", "website": "None", "summary": "None", "logo": "None", "latitude": 49.37657103754951, "longitude": -124.56968979466521}, "890348527RR0001": {"name": "NORTH COAST HEALTH IMPROVEMENT SOCIETY", "designationCode": "C", "categoryCode": "11", "address": "P.O. BOX 326", "city": "PRINCE RUPERT", "province": "BC", "country": "CA", "postalCode": "V8J3P9", "twitter": "None", "instagram": "None", "facebook": "None", "youtube": "None", "website": "None", "summary": "None", "logo": "None", "latitude": 54.313233000000054, "longitude": -130.32604249999994}, "119103810RR0001": {"name": "NORTH COAST TRANSITION SOCIETY", "designationCode": "C", "categoryCode": "09", "address": "1402 PARK AVENUE", "city": "PRINCE RUPERT", "province": "BC", "country": "CA", "postalCode": "V8J3W6", "twitter": "None", "instagram": "None", "facebook": "None", "youtube": "None", "website": "None", "summary": "None", "logo": "None", "latitude": 54.304104179975766, "longitude": -130.33652258186834}, "119059434RR0001": {"name": "NORTH COLCHESTER HIGH SCHOOL SCHOLARSHIP FUND", "designationCode": "C", "categoryCode": "21", "address": "PO BOX 160                    GREG MACLELLAN, PRINCIPAL", "city": "TATAMAGOUCHE", "province": "NS", "country": "CA", "postalCode": "B0K1V0", "twitter": "None", "instagram": "None", "facebook": "None", "youtube": "None", "website": "None", "summary": "None", "logo": "None", "latitude": 45.63953700000006, "longitude": -63.198282499999934}, "874204324RR0001": {"name": "NORTH COLUMBIA ENVIRONMENTAL SOCIETY", "designationCode": "C", "categoryCode": "52", "address": "BOX 3116", "city": "REVELSTOKE", "province": "BC", "country": "CA", "postalCode": "V0E2S0", "twitter": "None", "instagram": "None", "facebook": "None", "youtube": "None", "website": "None", "summary": "None", "logo": "None", "latitude": 52.00738183978388, "longitude": -118.56208529545198}, "119288918RR0509": {"name": "NORTH CONGREGATION OF JEHOVAH'S WITNESSES", "designationCode": "C", "categoryCode": "61", "address": "BOX 624, 32 HENDERSHOT STREET", "city": "TAVISTOCK", "province": "ON", "country": "CA", "postalCode": "N0B2R0", "twitter": "None", "instagram": "None", "facebook": "None", "youtube": "None", "website": "None", "summary": "None", "logo": "None", "latitude": 43.320710782891, "longitude": -80.83459072485226}, "119288918RR0423": {"name": "NORTH CONGREGATION OF JEHOVAH'S WITNESSES KINGSTON ONTARIO", "designationCode": "C", "categoryCode": "61", "address": "849 DEVELOPMENT DR", "city": "KINGSTON", "province": "ON", "country": "CA", "postalCode": "K7M4W6", "twitter": "None", "instagram": "None", "facebook": "None", "youtube": "None", "website": "None", "summary": "None", "logo": "None", "latitude": 44.240658561169354, "longitude": -76.58039141603673}, "119288918RR1293": {"name": "NORTH CONGREGATION OF JEHOVAH'S WITNESSES, AMHERSTBURG, ONTARIO", "designationCode": "C", "categoryCode": "61", "address": "1485 FRONT RD SOUTH", "city": "AMHERSTBURG", "province": "ON", "country": "CA", "postalCode": "N9V2M7", "twitter": "None", "instagram": "None", "facebook": "None", "youtube": "None", "website": "None", "summary": "None", "logo": "None"}, "119288918RR0181": {"name": "NORTH CONGREGATION OF JEHOVAH'S WITNESSES, CHILLIWACK, BRITISH COLUMBIA", "designationCode": "C", "categoryCode": "61", "address": "45645 HERRON AVE.", "city": "CHILLIWACK", "province": "BC", "country": "CA", "postalCode": "V2P3G8", "twitter": "None", "instagram": "None", "facebook": "None", "youtube": "None", "website": "None", "summary": "None", "logo": "None", "latitude": 49.17850047879261, "longitude": -121.96161000000001}, "119288918RR0921": {"name": "NORTH CONGREGATION OF JEHOVAH'S WITNESSES, SUDBURY ONTARIO", "designationCode": "C", "categoryCode": "61", "address": "1197 CARMELO AVE", "city": "SUDBURY", "province": "ON", "country": "CA", "postalCode": "P3A4P3", "twitter": "None", "instagram": "None", "facebook": "None", "youtube": "None", "website": "None", "summary": "None", "logo": "None", "latitude": 46.52317883819032, "longitude": -80.91269093507975}, "892845728RR0001": {"name": "NORTH COUNTRY BAPTIST CHURCH", "designationCode": "C", "categoryCode": "31", "address": "P O BOX 2498", "city": "ORILLIA", "province": "ON", "country": "CA", "postalCode": "L3V7A3", "twitter": "None", "instagram": "None", "facebook": "None", "youtube": "None", "website": "None", "summary": "None", "logo": "None", "latitude": 44.60657100000006, "longitude": -79.41824449999993}, "871766895RR0001": {"name": "NORTH COUNTY HEALTH FOUNDATION", "designationCode": "A", "categoryCode": "13", "address": "BOX 430", "city": "PICTURE BUTTE", "province": "AB", "country": "CA", "postalCode": "T0K1V0", "twitter": "None", "instagram": "None", "facebook": "None", "youtube": "None", "website": "None", "summary": "None", "logo": "None", "latitude": 49.87851001832194, "longitude": -112.77815001110848}}