{"129029161RR0001": {"name": "THE CORPORATION OF THE ANGLICAN PARISH OF KINGSTON", "designationCode": "C", "categoryCode": "30", "address": "3372 ROUTE 845", "city": "LONG REACH", "province": "NB", "country": "CA", "postalCode": "E5S1W3", "twitter": "None", "instagram": "None", "facebook": "None", "youtube": "None", "website": "None", "summary": "None", "logo": "None", "latitude": 45.47824178868291, "longitude": -66.07708265888768}, "129536850RR0001": {"name": "THE CORPORATION OF THE ANGLICAN PARISH OF LANCASTER", "designationCode": "C", "categoryCode": "30", "address": "668 MANAWAGONISH RD", "city": "SAINT JOHN", "province": "NB", "country": "CA", "postalCode": "E2M3W5", "twitter": "None", "instagram": "None", "facebook": "None", "youtube": "None", "website": "None", "summary": "None", "logo": "None", "latitude": 45.25585078380166, "longitude": -66.10147551820629}, "118786904RR0001": {"name": "THE CORPORATION OF THE ANGLICAN PARISH OF LUDLOW AND BLISSFIELD", "designationCode": "C", "categoryCode": "30", "address": "323 MAIN ST", "city": "DOAKTOWN", "province": "NB", "country": "CA", "postalCode": "E9C1E1", "twitter": "None", "instagram": "None", "facebook": "None", "youtube": "None", "website": "None", "summary": "None", "logo": "None", "latitude": 46.55371621785, "longitude": -66.13754673167}, "130043185RR0001": {"name": "THE CORPORATION OF THE ANGLICAN PARISH OF MADAWASKA", "designationCode": "C", "categoryCode": "30", "address": "P.O. BOX 51", "city": "EDMUNDSTON", "province": "NB", "country": "CA", "postalCode": "E3V3K7", "twitter": "None", "instagram": "None", "facebook": "None", "youtube": "None", "website": "None", "summary": "None", "logo": "None", "latitude": 47.37372000000006, "longitude": -68.32513249999994}, "129293023RR0001": {"name": "THE CORPORATION OF THE ANGLICAN PARISH OF MCADAM", "designationCode": "C", "categoryCode": "30", "address": "39 CAMBRIDGE DR", "city": "SAINT JOHN", "province": "NB", "country": "CA", "postalCode": "E2K5T3", "twitter": "None", "instagram": "None", "facebook": "None", "youtube": "None", "website": "None", "summary": "None", "logo": "None", "latitude": 45.29075225116864, "longitude": -66.10665605355196}, "119249811RR0001": {"name": "THE CORPORATION OF THE ANGLICAN PARISH OF MILLIDGEVILLE", "designationCode": "C", "categoryCode": "30", "address": "162 WATERLOO ST               PO BOX  22064 LANDSDOWNE", "city": "SAINT JOHN", "province": "NB", "country": "CA", "postalCode": "E2K4T7", "twitter": "None", "instagram": "None", "facebook": "None", "youtube": "None", "website": "None", "summary": "None", "logo": "None", "latitude": 45.27825409134918, "longitude": -66.07661935522188}, "134976083RR0001": {"name": "THE CORPORATION OF THE ANGLICAN PARISH OF MINTO AND CHIPMAN", "designationCode": "C", "categoryCode": "30", "address": "718 PLEASANT DR", "city": "MINTO", "province": "NB", "country": "CA", "postalCode": "E4B2V1", "twitter": "None", "instagram": "None", "facebook": "None", "youtube": "None", "website": "None", "summary": "None", "logo": "None", "latitude": 46.07988258381404, "longitude": -66.05085987572107}, "108018664RR0001": {"name": "THE CORPORATION OF THE ANGLICAN PARISH OF MONCTON", "designationCode": "C", "categoryCode": "30", "address": "51 CHURCH ST", "city": "MONCTON", "province": "NB", "country": "CA", "postalCode": "E1C4Z3", "twitter": "None", "instagram": "None", "facebook": "None", "youtube": "None", "website": "None", "summary": "None", "logo": "None", "latitude": 46.08986306717061, "longitude": -64.77854692503911}, "106713498RR0001": {"name": "THE CORPORATION OF THE ANGLICAN PARISH OF MUSQUASH", "designationCode": "C", "categoryCode": "30", "address": "2664 ROUTE 175", "city": "LEPREAU", "province": "NB", "country": "CA", "postalCode": "E5J0B4", "twitter": "None", "instagram": "None", "facebook": "None", "youtube": "None", "website": "None", "summary": "None", "logo": "None", "latitude": 45.17668958521651, "longitude": -66.45980791047094}, "130789308RR0001": {"name": "THE CORPORATION OF THE ANGLICAN PARISH OF NEW BANDON", "designationCode": "C", "categoryCode": "30", "address": "1066 BAYVIEW COURT", "city": "BATHURST", "province": "NB", "country": "CA", "postalCode": "E2A5W4", "twitter": "None", "instagram": "None", "facebook": "None", "youtube": "None", "website": "None", "summary": "None", "logo": "None", "latitude": 47.625048096832124, "longitude": -65.61383118500763}, "131894263RR0001": {"name": "THE CORPORATION OF THE ANGLICAN PARISH OF OROMOCTO AND MAUGERVILLE / LA SOCI\u00c9T\u00c9 PAROISSIALE ANGLICANE D'OROMOCTO ET DE MAUGERVILLE", "designationCode": "C", "categoryCode": "30", "address": "60 BROAD RD", "city": "OROMOCTO", "province": "NB", "country": "CA", "postalCode": "E2V1C2", "twitter": "None", "instagram": "None", "facebook": "None", "youtube": "None", "website": "None", "summary": "None", "logo": "None", "latitude": 45.849556092720626, "longitude": -66.47254666178608}, "108071390RR0001": {"name": "THE CORPORATION OF THE ANGLICAN PARISH OF PENNFIELD", "designationCode": "C", "categoryCode": "30", "address": "68 ROUTE 778", "city": "PENNFIELD", "province": "NB", "country": "CA", "postalCode": "E5H2B4", "twitter": "None", "instagram": "None", "facebook": "None", "youtube": "None", "website": "None", "summary": "None", "logo": "None", "latitude": 45.107128053980766, "longitude": -66.73998874773838}, "119185353RR0001": {"name": "THE CORPORATION OF THE ANGLICAN PARISH OF PORTLAND", "designationCode": "C", "categoryCode": "30", "address": "PO BOX 22078 RPO LANSDOWNE", "city": "SAINT JOHNS", "province": "NB", "country": "CA", "postalCode": "E2K4T7", "twitter": "None", "instagram": "None", "facebook": "None", "youtube": "None", "website": "None", "summary": "None", "logo": "None", "latitude": 45.27825409134918, "longitude": -66.07661935522188}, "131122079RR0001": {"name": "THE CORPORATION OF THE ANGLICAN PARISH OF QUISPAMIS", "designationCode": "C", "categoryCode": "30", "address": "239 QUISPAMSIS ROAD", "city": "QUISPAMSIS", "province": "NB", "country": "CA", "postalCode": "E2E3T4", "twitter": "None", "instagram": "None", "facebook": "None", "youtube": "None", "website": "None", "summary": "None", "logo": "None", "latitude": 45.426654269724104, "longitude": -65.96178120030656}, "130329493RR0001": {"name": "THE CORPORATION OF THE ANGLICAN PARISH OF RENFORTH", "designationCode": "C", "categoryCode": "30", "address": "1760 ROTHESAY RD", "city": "ROTHESAY", "province": "NB", "country": "CA", "postalCode": "E2H2J5", "twitter": "None", "instagram": "None", "facebook": "None", "youtube": "None", "website": "None", "summary": "None", "logo": "None", "latitude": 45.34809581028089, "longitude": -66.01724102808288}, "131175150RR0001": {"name": "THE CORPORATION OF THE ANGLICAN PARISH OF RESTIGOUCHE", "designationCode": "C", "categoryCode": "30", "address": "6 ABERDEEN ST", "city": "CAMPBELLTON", "province": "NB", "country": "CA", "postalCode": "E3N2J4", "twitter": "None", "instagram": "None", "facebook": "None", "youtube": "None", "website": "None", "summary": "None", "logo": "None", "latitude": 48.00444481320337, "longitude": -66.67296667262973}, "106712706RR0001": {"name": "THE CORPORATION OF THE ANGLICAN PARISH OF RICHMOND", "designationCode": "C", "categoryCode": "30", "address": "3947 ROUTE 540", "city": "BELLEVILLE", "province": "NB", "country": "CA", "postalCode": "E7M5X2", "twitter": "None", "instagram": "None", "facebook": "None", "youtube": "None", "website": "None", "summary": "None", "logo": "None", "latitude": 46.20129372781046, "longitude": -67.70285665516792}, "132121997RR0001": {"name": "THE CORPORATION OF THE ANGLICAN PARISH OF RIVERVIEW", "designationCode": "C", "categoryCode": "30", "address": "28 WOOLRIDGE ST", "city": "RIVERVIEW", "province": "NB", "country": "CA", "postalCode": "E1B4G3", "twitter": "None", "instagram": "None", "facebook": "None", "youtube": "None", "website": "None", "summary": "None", "logo": "None", "latitude": 46.05766727841801, "longitude": -64.82213405361917}, "130106396RR0001": {"name": "THE CORPORATION OF THE ANGLICAN PARISH OF ROTHESAY", "designationCode": "C", "categoryCode": "30", "address": "4 CHURCH AVENUE", "city": "ROTHESAY", "province": "NB", "country": "CA", "postalCode": "E2E5G4", "twitter": "None", "instagram": "None", "facebook": "None", "youtube": "None", "website": "None", "summary": "None", "logo": "None", "latitude": 45.38914542322715, "longitude": -65.99492855238348}, "108071200RR0001": {"name": "THE CORPORATION OF THE ANGLICAN PARISH OF SACKVILLE", "designationCode": "C", "categoryCode": "30", "address": "125 MAIN ST", "city": "SACKVILLE", "province": "NB", "country": "CA", "postalCode": "E4L4B2", "twitter": "None", "instagram": "None", "facebook": "None", "youtube": "None", "website": "None", "summary": "None", "logo": "None", "latitude": 45.89964181155858, "longitude": -64.36908111128749}, "118877026RR0001": {"name": "THE CORPORATION OF THE ANGLICAN PARISH OF SAINT JOHN", "designationCode": "C", "categoryCode": "30", "address": "115 CHARLOTTE ST", "city": "SAINT JOHN", "province": "NB", "country": "CA", "postalCode": "E2L2J2", "twitter": "None", "instagram": "None", "facebook": "None", "youtube": "None", "website": "None", "summary": "None", "logo": "None", "latitude": 45.27239527837731, "longitude": -66.05852999169011}, "139651699RR0001": {"name": "THE CORPORATION OF THE ANGLICAN PARISH OF SALISBURY AND HAVELOCK", "designationCode": "C", "categoryCode": "30", "address": "62 CHURCH ST", "city": "PETITCODIAC", "province": "NB", "country": "CA", "postalCode": "E4Z3E7", "twitter": "None", "instagram": "None", "facebook": "None", "youtube": "None", "website": "None", "summary": "None", "logo": "None", "latitude": 45.92663002718, "longitude": -65.17618169882878}, "126899848RR0001": {"name": "THE CORPORATION OF THE ANGLICAN PARISH OF SHEDIAC", "designationCode": "C", "categoryCode": "30", "address": "3400 ROUTE 134", "city": "SHEDIAC CAPE", "province": "NB", "country": "CA", "postalCode": "E4P3J2", "twitter": "None", "instagram": "None", "facebook": "None", "youtube": "None", "website": "None", "summary": "None", "logo": "None", "latitude": 46.235148636915554, "longitude": -64.56647710051949}, "106702731RR0001": {"name": "THE CORPORATION OF THE ANGLICAN PARISH OF ST. ANDREWS", "designationCode": "C", "categoryCode": "30", "address": "77 KING ST", "city": "ST ANDREWS", "province": "NB", "country": "CA", "postalCode": "E5B1X7", "twitter": "None", "instagram": "None", "facebook": "None", "youtube": "None", "website": "None", "summary": "None", "logo": "None", "latitude": 45.07488657012309, "longitude": -67.0520063793863}, "886774793RR0001": {"name": "THE CORPORATION OF THE ANGLICAN PARISH OF ST. ANDREWS, SUNNY BRAE", "designationCode": "C", "categoryCode": "30", "address": "26 STANLEY CRESCENT", "city": "MONCTON", "province": "NB", "country": "CA", "postalCode": "E1A4Z4", "twitter": "None", "instagram": "None", "facebook": "None", "youtube": "None", "website": "None", "summary": "None", "logo": "None", "latitude": 46.11983738412488, "longitude": -64.7891491623866}, "119078517RR0001": {"name": "THE CORPORATION OF THE ANGLICAN PARISH OF ST. DAVID AND ST. PATRICK", "designationCode": "C", "categoryCode": "30", "address": "6 BASSWOOD RIDGE CROSS RD.", "city": "BASSWOOD RIDGE", "province": "NB", "country": "CA", "postalCode": "E3L4Z8", "twitter": "None", "instagram": "None", "facebook": "None", "youtube": "None", "website": "None", "summary": "None", "logo": "None", "latitude": 45.31775126698033, "longitude": -67.35631034846303}, "132186883RR0001": {"name": "THE CORPORATION OF THE ANGLICAN PARISH OF ST. GEORGE", "designationCode": "C", "categoryCode": "30", "address": "28 MAIN STREET", "city": "ST GEORGE", "province": "NB", "country": "CA", "postalCode": "E5C3J2", "twitter": "None", "instagram": "None", "facebook": "None", "youtube": "None", "website": "None", "summary": "None", "logo": "None", "latitude": 45.13016218122808, "longitude": -66.823212829996}, "108020629RR0001": {"name": "THE CORPORATION OF THE ANGLICAN PARISH OF ST. JAMES, MONCTON", "designationCode": "C", "categoryCode": "30", "address": "101 FAIRVIEW DRIVE", "city": "MONCTON", "province": "NB", "country": "CA", "postalCode": "E1E3C9", "twitter": "None", "instagram": "None", "facebook": "None", "youtube": "None", "website": "None", "summary": "None", "logo": "None", "latitude": 46.08662902859366, "longitude": -64.80185559016701}, "131766917RR0001": {"name": "THE CORPORATION OF THE ANGLICAN PARISH OF ST. MARGARETS", "designationCode": "C", "categoryCode": "30", "address": "775 FOREST HILL", "city": "FREDERICTON", "province": "NB", "country": "CA", "postalCode": "E3B4K9", "twitter": "None", "instagram": "None", "facebook": "None", "youtube": "None", "website": "None", "summary": "None", "logo": "None", "latitude": 45.93278425561203, "longitude": -66.62975516154988}, "119181584RR0001": {"name": "THE CORPORATION OF THE ANGLICAN PARISH OF ST. MARK, SAINT JOHN", "designationCode": "C", "categoryCode": "30", "address": "87 CARLETON STREET", "city": "SAINT JOHN", "province": "NB", "country": "CA", "postalCode": "E2L2Z2", "twitter": "None", "instagram": "None", "facebook": "None", "youtube": "None", "website": "None", "summary": "None", "logo": "None", "latitude": 45.27590631447276, "longitude": -66.0615158186277}, "119188373RR0001": {"name": "THE CORPORATION OF THE ANGLICAN PARISH OF ST. MARY", "designationCode": "C", "categoryCode": "30", "address": "780 MCEVOY STREET", "city": "FREDERICTON", "province": "NB", "country": "CA", "postalCode": "E3A3B7", "twitter": "None", "instagram": "None", "facebook": "None", "youtube": "None", "website": "None", "summary": "None", "logo": "None", "latitude": 45.967675613705964, "longitude": -66.61715200436176}, "119228674RR0001": {"name": "THE CORPORATION OF THE ANGLICAN PARISH OF ST. PETER, FREDERICTON", "designationCode": "C", "categoryCode": "30", "address": "54 MAYFLOWER ST", "city": "FREDERICTON", "province": "NB", "country": "CA", "postalCode": "E3C1L5", "twitter": "None", "instagram": "None", "facebook": "None", "youtube": "None", "website": "None", "summary": "None", "logo": "None", "latitude": 45.965822543424395, "longitude": -66.72550506272721}, "108039553RR0001": {"name": "THE CORPORATION OF THE ANGLICAN PARISH OF ST. PHILIPS, MONCTON", "designationCode": "C", "categoryCode": "30", "address": "30 LYNCH ST", "city": "MONCTON", "province": "NB", "country": "CA", "postalCode": "E1C3L6", "twitter": "None", "instagram": "None", "facebook": "None", "youtube": "None", "website": "None", "summary": "None", "logo": "None", "latitude": 46.10064078377299, "longitude": -64.80306773812688}, "118787043RR0001": {"name": "THE CORPORATION OF THE ANGLICAN PARISH OF ST. STEPHEN", "designationCode": "C", "categoryCode": "30", "address": "30 PRINCE WILLIAM STREET", "city": "ST STEPHEN", "province": "NB", "country": "CA", "postalCode": "E3L1S1", "twitter": "None", "instagram": "None", "facebook": "None", "youtube": "None", "website": "None", "summary": "None", "logo": "None", "latitude": 45.19368532168614, "longitude": -67.27204851373423}, "118876945RR0001": {"name": "THE CORPORATION OF THE ANGLICAN PARISH OF STANLEY", "designationCode": "C", "categoryCode": "30", "address": "69 MAIN ST", "city": "STANLEY", "province": "NB", "country": "CA", "postalCode": "E6B1A7", "twitter": "None", "instagram": "None", "facebook": "None", "youtube": "None", "website": "None", "summary": "None", "logo": "None", "latitude": 46.278639536253124, "longitude": -66.7432593626188}, "119269462RR0001": {"name": "THE CORPORATION OF THE ANGLICAN PARISH OF SUSSEX", "designationCode": "C", "categoryCode": "30", "address": "24 BROADVIEW AVE", "city": "SUSSEX", "province": "NB", "country": "CA", "postalCode": "E4E1B3", "twitter": "None", "instagram": "None", "facebook": "None", "youtube": "None", "website": "None", "summary": "None", "logo": "None", "latitude": 45.727339263402314, "longitude": -65.52180776325808}, "119212686RR0001": {"name": "THE CORPORATION OF THE ANGLICAN PARISH OF TOBIQUE", "designationCode": "C", "categoryCode": "30", "address": "31 ROUTE 395", "city": "THREE BROOKS", "province": "NB", "country": "CA", "postalCode": "E7G3T5", "twitter": "None", "instagram": "None", "facebook": "None", "youtube": "None", "website": "None", "summary": "None", "logo": "None", "latitude": 46.87432046315864, "longitude": -67.44024565227272}, "831579404RR0001": {"name": "THE CORPORATION OF THE ANGLICAN PARISH OF UPHAM", "designationCode": "C", "categoryCode": "30", "address": "86 MYRON RD", "city": "UPHAM", "province": "NB", "country": "CA", "postalCode": "E5N7Z7", "twitter": "None", "instagram": "None", "facebook": "None", "youtube": "None", "website": "None", "summary": "None", "logo": "None", "latitude": 45.4815589612131, "longitude": -65.64302991036469}, "129214938RR0001": {"name": "THE CORPORATION OF THE ANGLICAN PARISH OF UPPER KENNEBECASIS", "designationCode": "C", "categoryCode": "30", "address": "317 BULLMOOSE ROAD", "city": "BELLEISLE CREEK", "province": "NB", "country": "CA", "postalCode": "E5P1L6", "twitter": "None", "instagram": "None", "facebook": "None", "youtube": "None", "website": "None", "summary": "None", "logo": "None", "latitude": 45.7226736190482, "longitude": -65.76841756136902}, "119079960RR0001": {"name": "THE CORPORATION OF THE ANGLICAN PARISH OF WATERFORD & ST. MARKS", "designationCode": "C", "categoryCode": "30", "address": "4 NEDDLE ST", "city": "SUSSEX CORNER", "province": "NB", "country": "CA", "postalCode": "E4E2Z4", "twitter": "None", "instagram": "None", "facebook": "None", "youtube": "None", "website": "None", "summary": "None", "logo": "None", "latitude": 45.71061989370416, "longitude": -65.4812781778812}, "106713712RR0001": {"name": "THE CORPORATION OF THE ANGLICAN PARISH OF WESTMORLAND", "designationCode": "C", "categoryCode": "30", "address": "210 ROUTE #16", "city": "AULAC", "province": "NB", "country": "CA", "postalCode": "E4L2M5", "twitter": "None", "instagram": "None", "facebook": "None", "youtube": "None", "website": "None", "summary": "None", "logo": "None", "latitude": 45.88335294266324, "longitude": -64.26020435665842}, "118787100RR0001": {"name": "THE CORPORATION OF THE ANGLICAN PARISH OF WICKLOW, WILMOT, PEEL AND ABERDEEN", "designationCode": "C", "categoryCode": "30", "address": "8772 MAIN ST", "city": "FLORENCEVILLE-BRISTOL", "province": "NB", "country": "CA", "postalCode": "E7L3G3", "twitter": "None", "instagram": "None", "facebook": "None", "youtube": "None", "website": "None", "summary": "None", "logo": "None", "latitude": 46.44348182997558, "longitude": -67.61849075912914}, "129133526RR0001": {"name": "THE CORPORATION OF THE ANGLICAN PARISH OF WOODSTOCK", "designationCode": "C", "categoryCode": "30", "address": "104 CHURCH STREET", "city": "WOODSTOCK", "province": "NB", "country": "CA", "postalCode": "E7M5Z7", "twitter": "None", "instagram": "None", "facebook": "None", "youtube": "None", "website": "None", "summary": "None", "logo": "None", "latitude": 46.151714257997185, "longitude": -67.57235509870738}, "119228708RR0001": {"name": "THE CORPORATION OF THE DISTRICT OF OAK BAY EMPLOYEES CHARITABLE FUND", "designationCode": "C", "categoryCode": "75", "address": "2167 OAK BAY AVENUE", "city": "VICTORIA", "province": "BC", "country": "CA", "postalCode": "V8R1G2", "twitter": "None", "instagram": "None", "facebook": "None", "youtube": "None", "website": "None", "summary": "None", "logo": "None", "latitude": 48.42643891488778, "longitude": -123.31736608511221}, "132079716RR0001": {"name": "THE CORPORATION OF THE HOLY FAMILY CATHOLIC COMMUNITY", "designationCode": "C", "categoryCode": "38", "address": "7355 RUE LAJEUNESSE", "city": "MONTREAL", "province": "QC", "country": "CA", "postalCode": "H2R2H6", "twitter": "None", "instagram": "None", "facebook": "None", "youtube": "None", "website": "None", "summary": "None", "logo": "None", "latitude": 45.54042593202133, "longitude": -73.6167033502511}, "130348022RR0001": {"name": "THE CORPORATION OF THE LEEDS, GRENVILLE AND LANARK DISTRICT", "designationCode": "C", "categoryCode": "11", "address": "458 LAURIER BOULEVARD", "city": "BROCKVILLE", "province": "ON", "country": "CA", "postalCode": "K6V7A3", "twitter": "None", "instagram": "None", "facebook": "None", "youtube": "None", "website": "None", "summary": "None", "logo": "None", "latitude": 44.61506963155814, "longitude": -75.7030698496143}, "889698361RR0001": {"name": "THE CORPORATION OF THE TOWNSHIP OF HORNEPAYNE PUBLIC LIBRARY BOARD", "designationCode": "C", "categoryCode": "50", "address": "68 FRONT STREET, BOX 539", "city": "HORNEPAYNE", "province": "ON", "country": "CA", "postalCode": "P0M1Z0", "twitter": "None", "instagram": "None", "facebook": "None", "youtube": "None", "website": "None", "summary": "None", "logo": "None", "latitude": 49.21795483753506, "longitude": -84.77488678321772}, "119228716RR0001": {"name": "THE CORRA FOUNDATION", "designationCode": "B", "categoryCode": "03", "address": "900-400 BURRARD ST", "city": "VANCOUVER", "province": "BC", "country": "CA", "postalCode": "V6C3B7", "twitter": "None", "instagram": "None", "facebook": "None", "youtube": "None", "website": "None", "summary": "None", "logo": "None", "latitude": 49.28681362779169, "longitude": -123.11738784399004}, "827732140RR0001": {"name": "THE COSTELLO COMMUNITY CARE CENTRE", "designationCode": "C", "categoryCode": "59", "address": "PO BOX 172", "city": "TIMMINS", "province": "ON", "country": "CA", "postalCode": "P4N1C9", "twitter": "None", "instagram": "None", "facebook": "None", "youtube": "None", "website": "None", "summary": "None", "logo": "None", "latitude": 48.474897000000055, "longitude": -81.32906149999994}, "119228765RR0001": {"name": "THE COSTUME SOCIETY OF ONTARIO", "designationCode": "C", "categoryCode": "50", "address": "1207 NORTHGATE CRESC", "city": "OSHAWA", "province": "ON", "country": "CA", "postalCode": "L1G7C4", "twitter": "None", "instagram": "None", "facebook": "None", "youtube": "None", "website": "None", "summary": "None", "logo": "None", "latitude": 43.927675933089205, "longitude": -78.88554460032323}, "868476680RR0001": {"name": "THE COTTON TRUST FOR RURAL BEAUTIFICATION", "designationCode": "B", "categoryCode": "55", "address": "380 WELLINGTON ST             12TH FLOOR", "city": "LONDON", "province": "ON", "country": "CA", "postalCode": "N6A5B5", "twitter": "None", "instagram": "None", "facebook": "None", "youtube": "None", "website": "None", "summary": "None", "logo": "None", "latitude": 42.98403487844074, "longitude": -81.24475227780037}, "890282049RR0001": {"name": "THE COTTON TRUST FOR THE CONFEDERATION LIBRARY AND GALLERY", "designationCode": "B", "categoryCode": "55", "address": "380 WELLINGTON ST             12TH FLOOR", "city": "LONDON", "province": "ON", "country": "CA", "postalCode": "N6A5B5", "twitter": "None", "instagram": "None", "facebook": "None", "youtube": "None", "website": "None", "summary": "None", "logo": "None", "latitude": 42.98403487844074, "longitude": -81.24475227780037}, "140706532RR0001": {"name": "THE COTTON TRUST FOR VOCATIONAL STUDENTS AND PUBLIC PARKS", "designationCode": "B", "categoryCode": "55", "address": "380 WELLINGTON ST             12TH FLOOR", "city": "LONDON", "province": "ON", "country": "CA", "postalCode": "N6A5B5", "twitter": "None", "instagram": "None", "facebook": "None", "youtube": "None", "website": "None", "summary": "None", "logo": "None", "latitude": 42.98403487844074, "longitude": -81.24475227780037}, "119228781RR0001": {"name": "THE COTTONWOOD-GORDON AGRICULTURAL SOCIETY", "designationCode": "C", "categoryCode": "56", "address": "3005 TOWNSHIP RD 352", "city": "RED DEER COUNTY", "province": "AB", "country": "CA", "postalCode": "T4G0K6", "twitter": "None", "instagram": "None", "facebook": "None", "youtube": "None", "website": "None", "summary": "None", "logo": "None", "latitude": 51.998966531738986, "longitude": -114.2902935}, "139725030RR0001": {"name": "THE COUCHICHING CONSERVANCY", "designationCode": "C", "categoryCode": "52", "address": "PO BOX 704 STN MAIN", "city": "ORILLIA", "province": "ON", "country": "CA", "postalCode": "L3V6K7", "twitter": "None", "instagram": "None", "facebook": "None", "youtube": "None", "website": "None", "summary": "None", "logo": "None", "latitude": 44.58482747647954, "longitude": -79.42452845126093}, "119228815RR0001": {"name": "THE COUNCIL OF ISLAMIC GUIDANCE INC.", "designationCode": "C", "categoryCode": "60", "address": "510 CONCESSION 3 ROAD", "city": "PICKERING", "province": "ON", "country": "CA", "postalCode": "L1X2R4", "twitter": "None", "instagram": "None", "facebook": "None", "youtube": "None", "website": "None", "summary": "None", "logo": "None", "latitude": 43.8541140969181, "longitude": -79.14094758231849}, "865893390RR0001": {"name": "THE COUNCIL OF KOREAN-CANADIAN CHURCH MUSIC", "designationCode": "C", "categoryCode": "47", "address": "2 PYLON PLACE", "city": "ETOBICOKE", "province": "ON", "country": "CA", "postalCode": "M9W2P3", "twitter": "None", "instagram": "None", "facebook": "None", "youtube": "None", "website": "None", "summary": "None", "logo": "None", "latitude": 43.71751641661366, "longitude": -79.54847115736628}, "824007744RR0001": {"name": "THE COUNCIL OF LIFT NON-PROFIT HOUSING CORPORATION", "designationCode": "C", "categoryCode": "09", "address": "203-747 HYDE PARK ROAD", "city": "LONDON", "province": "ON", "country": "CA", "postalCode": "N6H3S3", "twitter": "None", "instagram": "None", "facebook": "None", "youtube": "None", "website": "None", "summary": "None", "logo": "None", "latitude": 42.97722896032652, "longitude": -81.32103844956471}, "119228807RR0001": {"name": "THE COUNCIL OF ONTARIO DRAMA AND DANCE EDUCATORS", "designationCode": "C", "categoryCode": "22", "address": "49 BOND ST W", "city": "LINDSAY", "province": "ON", "country": "CA", "postalCode": "K9V3P9", "twitter": "None", "instagram": "None", "facebook": "None", "youtube": "None", "website": "None", "summary": "None", "logo": "None", "latitude": 44.357453060368414, "longitude": -78.74348427887936}, "108022039RR0001": {"name": "THE COUNCIL OF THE NORTHWEST TERRITORIES (NT) AND NUNAVUT (NU) ORDER OF ST. JOHN (ST. JOHN AMBULANCE)", "designationCode": "C", "categoryCode": "11", "address": "5023 51 STREET", "city": "YELLOWKNIFE", "province": "NT", "country": "CA", "postalCode": "X1A1S5", "twitter": "None", "instagram": "None", "facebook": "None", "youtube": "None", "website": "None", "summary": "None", "logo": "None", "latitude": 62.4533461382748, "longitude": -114.3724525278666}, "876351271RR0001": {"name": "THE COUNCIL OF UKRAINIAN ORTHODOX CHURCHES OF EDMONTON", "designationCode": "C", "categoryCode": "59", "address": "20303 MERIDIAN ST NE", "city": "EDMONTON", "province": "AB", "country": "CA", "postalCode": "T5Y6E6", "twitter": "None", "instagram": "None", "facebook": "None", "youtube": "None", "website": "None", "summary": "None", "logo": "None", "latitude": 53.66597288926078, "longitude": -113.34421661850179}, "131344889RR0001": {"name": "THE COUNCIL ON AGING OF OTTAWA/LE CONSEIL SUR LE VIEILLISSEMENT D'OTTAWA", "designationCode": "C", "categoryCode": "59", "address": "101-1247 KILBORN PLACE", "city": "OTTAWA", "province": "ON", "country": "CA", "postalCode": "K1H6K9", "twitter": "None", "instagram": "None", "facebook": "None", "youtube": "None", "website": "None", "summary": "None", "logo": "None", "latitude": 45.38617910467131, "longitude": -75.67189246282967}, "119228864RR0002": {"name": "THE COUNTRY DAY SCHOOL", "designationCode": "C", "categoryCode": "20", "address": "13415 DUFFERIN ST", "city": "KING CITY", "province": "ON", "country": "CA", "postalCode": "L7B1K5", "twitter": "None", "instagram": "None", "facebook": "None", "youtube": "None", "website": "None", "summary": "None", "logo": "None", "latitude": 43.9428131029776, "longitude": -79.50699613564022}, "868346966RR0001": {"name": "THE COUNTRY DAY SCHOOL FOUNDATION", "designationCode": "A", "categoryCode": "20", "address": "13415 DUFFERIN STREET", "city": "KING", "province": "ON", "country": "CA", "postalCode": "L7B1K5", "twitter": "None", "instagram": "None", "facebook": "None", "youtube": "None", "website": "None", "summary": "None", "logo": "None", "latitude": 43.9428131029776, "longitude": -79.50699613564022}, "893502922RR0001": {"name": "THE COUNTRY GOSPEL CHURCH", "designationCode": "C", "categoryCode": "36", "address": "PO BOX 453", "city": "DUNDALK", "province": "ON", "country": "CA", "postalCode": "N0C1B0", "twitter": "None", "instagram": "None", "facebook": "None", "youtube": "None", "website": "None", "summary": "None", "logo": "None", "latitude": 44.16787539880879, "longitude": -80.39404277157527}, "869096396RR0001": {"name": "THE COUNTRY PARSON MINISTRIES", "designationCode": "C", "categoryCode": "49", "address": "UNIT D-155 BRANTWOOD PARK RD", "city": "BRANTFORD", "province": "ON", "country": "CA", "postalCode": "N3P1Y1", "twitter": "None", "instagram": "None", "facebook": "None", "youtube": "None", "website": "None", "summary": "None", "logo": "None", "latitude": 43.18374809521969, "longitude": -80.23979668812586}, "108079278RR0001": {"name": "THE COUNTRYSIDE PRE-SCHOOL", "designationCode": "C", "categoryCode": "20", "address": "7921 ST. STEPHENS RD", "city": "SAANICHTON", "province": "BC", "country": "CA", "postalCode": "V8M1S2", "twitter": "None", "instagram": "None", "facebook": "None", "youtube": "None", "website": "None", "summary": "None", "logo": "None", "latitude": 48.598540891521246, "longitude": -123.45616235633332}, "874039167RR0001": {"name": "THE COUNTY OF PRINCE EDWARD PUBLIC LIBRARY", "designationCode": "C", "categoryCode": "50", "address": "208 MAIN STREET", "city": "PICTON", "province": "ON", "country": "CA", "postalCode": "K0K2T0", "twitter": "None", "instagram": "None", "facebook": "None", "youtube": "None", "website": "None", "summary": "None", "logo": "None", "latitude": 44.19272262196331, "longitude": -77.05379170508985}, "855170437RR0001": {"name": "THE COUNTY THEATRE GROUP INC.", "designationCode": "C", "categoryCode": "22", "address": "P.O. BOX 336", "city": "BLOOMFIELD", "province": "ON", "country": "CA", "postalCode": "K0K1G0", "twitter": "None", "instagram": "None", "facebook": "None", "youtube": "None", "website": "None", "summary": "None", "logo": "None", "latitude": 44.066016000000005, "longitude": -77.86520099999998}, "894220086RR0001": {"name": "THE COURTENAY YOUTH MUSIC CENTRE SOCIETY ENDOWMENT FUND", "designationCode": "B", "categoryCode": "25", "address": "418-650 WEST GEORGIA STREET   PO BOX 11602", "city": "VANCOUVER", "province": "BC", "country": "CA", "postalCode": "V6B4N9", "twitter": "None", "instagram": "None", "facebook": "None", "youtube": "None", "website": "None", "summary": "None", "logo": "None", "latitude": 49.28012307167682, "longitude": -123.11442679241839}, "886383603RR0001": {"name": "THE COURTNALL CELEBRITY CLASSIC SOCIETY", "designationCode": "A", "categoryCode": "03", "address": "220 - 355 BURRARD ST", "city": "VANCOUVER", "province": "BC", "country": "CA", "postalCode": "V6C2G8", "twitter": "None", "instagram": "None", "facebook": "None", "youtube": "None", "website": "None", "summary": "None", "logo": "None", "latitude": 49.287312051358924, "longitude": -123.11674798600596}, "119228898RR0001": {"name": "THE COURVAL COMMUNITY CO-OPERATIVE ASSOCIATION LIMITED", "designationCode": "C", "categoryCode": "56", "address": "BOX 68", "city": "COURVAL", "province": "SK", "country": "CA", "postalCode": "S0H1A0", "twitter": "None", "instagram": "None", "facebook": "None", "youtube": "None", "website": "None", "summary": "None", "logo": "None", "latitude": 50.15831000000003, "longitude": -106.25551999999999}, "844648394RR0001": {"name": "THE COVE GUEST HOME FOUNDATION", "designationCode": "A", "categoryCode": "03", "address": "320 ALEXANDRA ST", "city": "SYDNEY", "province": "NS", "country": "CA", "postalCode": "B1S2G1", "twitter": "None", "instagram": "None", "facebook": "None", "youtube": "None", "website": "None", "summary": "None", "logo": "None", "latitude": 46.12107467704339, "longitude": -60.19768136987371}, "862134913RR0001": {"name": "THE COWAL-MCBRIDE CEMETERY ASSOCIATION", "designationCode": "C", "categoryCode": "59", "address": "31980 DUFF LINE               RR#1", "city": "IONA STATION", "province": "ON", "country": "CA", "postalCode": "N0L1P0", "twitter": "None", "instagram": "None", "facebook": "None", "youtube": "None", "website": "None", "summary": "None", "logo": "None", "latitude": 42.73949648626577, "longitude": -81.50106066126142}, "890508591RR0001": {"name": "THE COWICHAN MUSIC FESTIVAL COMMITTEE", "designationCode": "C", "categoryCode": "22", "address": "6041 HYACINTH PL", "city": "DUNCAN", "province": "BC", "country": "CA", "postalCode": "V9L3Y8", "twitter": "None", "instagram": "None", "facebook": "None", "youtube": "None", "website": "None", "summary": "None", "logo": "None", "latitude": 48.78966039330014, "longitude": -123.6856000893303}, "855738126RR0001": {"name": "THE COWICHAN SPIRITUALIST CHURCH OF HEALING AND LIGHT SOCIETY", "designationCode": "C", "categoryCode": "39", "address": "5934 DEUCHARS DR", "city": "DUNCAN", "province": "BC", "country": "CA", "postalCode": "V9L1L4", "twitter": "None", "instagram": "None", "facebook": "None", "youtube": "None", "website": "None", "summary": "None", "logo": "None", "latitude": 48.78585554342439, "longitude": -123.72889090882336}, "119228922RR0001": {"name": "THE COWICHAN SYMPHONY SOCIETY", "designationCode": "C", "categoryCode": "22", "address": "1221 WILDER RD", "city": "COBBLE HILL", "province": "BC", "country": "CA", "postalCode": "V0R1L4", "twitter": "None", "instagram": "None", "facebook": "None", "youtube": "None", "website": "None", "summary": "None", "logo": "None", "latitude": 48.70814355266529, "longitude": -123.58162403743157}, "119228948RR0001": {"name": "THE CRAIG STEWART ESPLEN FAMILY FOUNDATION", "designationCode": "B", "categoryCode": "03", "address": "1650 THE QUEENSWAY", "city": "TORONTO", "province": "ON", "country": "CA", "postalCode": "M8Z1X1", "twitter": "None", "instagram": "None", "facebook": "None", "youtube": "None", "website": "None", "summary": "None", "logo": "None", "latitude": 43.61633115188369, "longitude": -79.54723627704963}, "108079310RR0001": {"name": "THE CRAIGDARROCH CASTLE HISTORICAL MUSEUM SOCIETY", "designationCode": "C", "categoryCode": "52", "address": "1050 JOAN CRES", "city": "VICTORIA", "province": "BC", "country": "CA", "postalCode": "V8S3L5", "twitter": "None", "instagram": "None", "facebook": "None", "youtube": "None", "website": "None", "summary": "None", "logo": "None", "latitude": 48.42248097279133, "longitude": -123.34323713203261}, "125105825RR0001": {"name": "THE CRANBROOK ARCHIVES MUSEUM AND LANDMARK FOUNDATION", "designationCode": "C", "categoryCode": "50", "address": "PO BOX 400 STN MAIN", "city": "CRANBROOK", "province": "BC", "country": "CA", "postalCode": "V1C4H9", "twitter": "None", "instagram": "None", "facebook": "None", "youtube": "None", "website": "None", "summary": "None", "logo": "None", "latitude": 49.513515000000055, "longitude": -115.76875399999994}, "119228971RR0001": {"name": "THE CRANDALL COMMUNITY CHARITABLE APPEAL", "designationCode": "C", "categoryCode": "05", "address": "BOX 66", "city": "CRANDALL", "province": "MB", "country": "CA", "postalCode": "R0M0H0", "twitter": "None", "instagram": "None", "facebook": "None", "youtube": "None", "website": "None", "summary": "None", "logo": "None", "latitude": 50.14928000000003, "longitude": -100.78278999999998}, "119228989RR0001": {"name": "THE CRB FOUNDATION-LA FOUNDATION CRB", "designationCode": "A", "categoryCode": "23", "address": "800-1170 RUE PEEL", "city": "MONTR\u00c9AL", "province": "QC", "country": "CA", "postalCode": "H3B4P2", "twitter": "None", "instagram": "None", "facebook": "None", "youtube": "None", "website": "None", "summary": "None", "logo": "None", "latitude": 45.49919599330624, "longitude": -73.57126662118391}, "123350886RR0001": {"name": "THE CREATIVE CENTRE FOR LEARNING AND DEVELOPMENT", "designationCode": "C", "categoryCode": "56", "address": "6727 SOUTH CHIPPAWA RD.", "city": "WELLANPORT", "province": "ON", "country": "CA", "postalCode": "L0R2J0", "twitter": "None", "instagram": "None", "facebook": "None", "youtube": "None", "website": "None", "summary": "None", "logo": "None", "latitude": 42.99697770994284, "longitude": -79.56580451241959}, "822391744RR0001": {"name": "THE CREEK FOUNDATION", "designationCode": "B", "categoryCode": "03", "address": "2411 RIVER RD", "city": "MANOTICK", "province": "ON", "country": "CA", "postalCode": "K4M1B4", "twitter": "None", "instagram": "None", "facebook": "None", "youtube": "None", "website": "None", "summary": "None", "logo": "None", "latitude": 45.1811718915398, "longitude": -75.62647760722133}, "106992506RR0001": {"name": "THE CREMONA AND DISTRICT AGRICULTURAL SOCIETY", "designationCode": "C", "categoryCode": "56", "address": "BOX 219", "city": "CREMONA", "province": "AB", "country": "CA", "postalCode": "T0M0R0", "twitter": "None", "instagram": "None", "facebook": "None", "youtube": "None", "website": "None", "summary": "None", "logo": "None", "latitude": 51.55010000000004, "longitude": -114.48530999999997}, "890256175RR0001": {"name": "THE CREMONA AND DISTRICT COMMUNITY CHEST", "designationCode": "A", "categoryCode": "03", "address": "BOX 274", "city": "CREMONA", "province": "AB", "country": "CA", "postalCode": "T0M0R0", "twitter": "None", "instagram": "None", "facebook": "None", "youtube": "None", "website": "None", "summary": "None", "logo": "None", "latitude": 51.55010000000004, "longitude": -114.48530999999997}, "119229045RR0001": {"name": "THE CRESCENT BEACH SWIMMING CLUB", "designationCode": "C", "categoryCode": "56", "address": "BOX 45020 OCEAN PARK P.O.     12851 16 AVE.", "city": "WHITE ROCK", "province": "BC", "country": "CA", "postalCode": "V4A9L1", "twitter": "None", "instagram": "None", "facebook": "None", "youtube": "None", "website": "None", "summary": "None", "logo": "None"}, "119229052RR0001": {"name": "THE CRESCENT SCHOOL", "designationCode": "C", "categoryCode": "20", "address": "2365 BAYVIEW AVE", "city": "NORTH YORK", "province": "ON", "country": "CA", "postalCode": "M2L1A2", "twitter": "None", "instagram": "None", "facebook": "None", "youtube": "None", "website": "None", "summary": "None", "logo": "None", "latitude": 43.73295555620634, "longitude": -79.38119503725117}, "108079419RR0001": {"name": "THE CRIDGE CENTRE FOR THE FAMILY", "designationCode": "C", "categoryCode": "01", "address": "1307 HILLSIDE AVE.", "city": "VICTORIA", "province": "BC", "country": "CA", "postalCode": "V8T0A2", "twitter": "None", "instagram": "None", "facebook": "None", "youtube": "None", "website": "None", "summary": "None", "logo": "None", "latitude": 48.44051229310316, "longitude": -123.3504147213895}, "871161006RR0001": {"name": "THE CROCHET CLUB OF LONDON", "designationCode": "C", "categoryCode": "09", "address": "38 GLENBURNIE COURT", "city": "LONDON", "province": "ON", "country": "CA", "postalCode": "N5X2A4", "twitter": "None", "instagram": "None", "facebook": "None", "youtube": "None", "website": "None", "summary": "None", "logo": "None", "latitude": 43.04057453263301, "longitude": -81.23041609325409}, "119229078RR0001": {"name": "THE CROCKER FOUNDATION", "designationCode": "B", "categoryCode": "15", "address": "130 KING ST WEST, 20TH FLOOR  BOX 430 STN FIRST CANADIAN PL", "city": "TORONTO", "province": "ON", "country": "CA", "postalCode": "M5X1K1", "twitter": "None", "instagram": "None", "facebook": "None", "youtube": "None", "website": "None", "summary": "None", "logo": "None"}, "857415806RR0001": {"name": "THE CROSBIE HOUSE SOCIETY", "designationCode": "C", "categoryCode": "57", "address": "113 CORNWALLIS AVE", "city": "NEW MINAS", "province": "NS", "country": "CA", "postalCode": "B4N3M9", "twitter": "None", "instagram": "None", "facebook": "None", "youtube": "None", "website": "None", "summary": "None", "logo": "None", "latitude": 45.07309197584977, "longitude": -64.44545812034718}, "860303395RR0001": {"name": "THE CROSS CURRENT", "designationCode": "C", "categoryCode": "39", "address": "P.O. BOX 35032", "city": "LONDON", "province": "ON", "country": "CA", "postalCode": "N5W5Z6", "twitter": "None", "instagram": "None", "facebook": "None", "youtube": "None", "website": "None", "summary": "None", "logo": "None", "latitude": 42.98689500000006, "longitude": -81.24624349999993}, "119819258RR0001": {"name": "THE CROSS OF FREEDOM, INC", "designationCode": "C", "categoryCode": "50", "address": "PO BOX 183 STN MAIN", "city": "DAUPHIN", "province": "MB", "country": "CA", "postalCode": "R7N2V1", "twitter": "None", "instagram": "None", "facebook": "None", "youtube": "None", "website": "None", "summary": "None", "logo": "None", "latitude": 51.15237227291329, "longitude": -100.04667768863382}, "108114034RR0001": {"name": "THE CROSS-CULTURAL COMMUNITY SERVICES ASSOCIATION", "designationCode": "C", "categoryCode": "59", "address": "60 EMBLEM CRT", "city": "SCARBOROUGH", "province": "ON", "country": "CA", "postalCode": "M1S1B1", "twitter": "None", "instagram": "None", "facebook": "None", "youtube": "None", "website": "None", "summary": "None", "logo": "None", "latitude": 43.77852419848207, "longitude": -79.27737874023302}, "890981970RR0001": {"name": "THE CROSSROADS CONGREGATIONAL CHURCH", "designationCode": "C", "categoryCode": "39", "address": "222 CONCESSION 10             R.R.3", "city": "HARLEY", "province": "ON", "country": "CA", "postalCode": "N0E1E0", "twitter": "None", "instagram": "None", "facebook": "None", "youtube": "None", "website": "None", "summary": "None", "logo": "None", "latitude": 43.05784432439329, "longitude": -80.4790912581207}, "885691733RR0001": {"name": "THE CROW'S NEST MILITARY ARTIFACTS ASSOCIATION INC.", "designationCode": "C", "categoryCode": "50", "address": "PO BOX 23161", "city": "ST. JOHN'S", "province": "NL", "country": "CA", "postalCode": "A1B4J9", "twitter": "None", "instagram": "None", "facebook": "None", "youtube": "None", "website": "None", "summary": "None", "logo": "None", "latitude": 47.56938900000006, "longitude": -52.78609699999993}, "119229144RR0001": {"name": "THE CROWN OF LIFE MEDITATION SOCIETY OF CANADA", "designationCode": "C", "categoryCode": "39", "address": "540 232ND ST", "city": "LANGLEY", "province": "BC", "country": "CA", "postalCode": "V2Z2W2", "twitter": "None", "instagram": "None", "facebook": "None", "youtube": "None", "website": "None", "summary": "None", "logo": "None", "latitude": 49.011569371083134, "longitude": -122.58169190844895}, "136668126RR0001": {"name": "THE CROWN OF LIFE MEDITATION SOCIETY-EDMONTON SATSANG", "designationCode": "C", "categoryCode": "39", "address": "23 NYMAN CRESCENT", "city": "RED DEER", "province": "AB", "country": "CA", "postalCode": "T4P1Z5", "twitter": "None", "instagram": "None", "facebook": "None", "youtube": "None", "website": "None", "summary": "None", "logo": "None", "latitude": 52.2968284773503, "longitude": -113.81750291756595}, "132359860RR0001": {"name": "THE CROWNSNEST PASS WOMEN'S RESOURCE AND CRISIS CENTRE SOCIETY", "designationCode": "C", "categoryCode": "09", "address": "BOX 1207", "city": "BLAIRMORE", "province": "AB", "country": "CA", "postalCode": "T0K0E0", "twitter": "None", "instagram": "None", "facebook": "None", "youtube": "None", "website": "None", "summary": "None", "logo": "None", "latitude": 49.491268008524564, "longitude": -113.94719278131039}}