{"855380762RR0001": {"name": "KRIVOSHEIN OSCAR LAKE HERITAGE", "designationCode": "C", "categoryCode": "52", "address": "BOX 193", "city": "HAFFORD", "province": "SK", "country": "CA", "postalCode": "S0J1A0", "twitter": "None", "instagram": "None", "facebook": "None", "youtube": "None", "website": "None", "summary": "None", "logo": "None", "latitude": 52.71682000000004, "longitude": -107.35123999999996}, "729240291RR0001": {"name": "KROEGER CLOCKS HERITAGE FOUNDATION", "designationCode": "C", "categoryCode": "50", "address": "2600 - 160 ELGIN ST", "city": "OTTAWA", "province": "ON", "country": "CA", "postalCode": "K2P3C3", "twitter": "None", "instagram": "None", "facebook": "None", "youtube": "None", "website": "None", "summary": "None", "logo": "None", "latitude": 45.41721007516714, "longitude": -75.68981744564597}, "723644092RR0001": {"name": "KROGSETH FOUNDATION", "designationCode": "B", "categoryCode": "03", "address": "1250-1500 GEORGIA W ST", "city": "VANCOUVER", "province": "BC", "country": "CA", "postalCode": "V6G2Z6", "twitter": "None", "instagram": "None", "facebook": "None", "youtube": "None", "website": "None", "summary": "None", "logo": "None", "latitude": 49.290187500000016, "longitude": -123.130035}, "897886883RR0001": {"name": "KRONAU BETHLEHEM HERITAGE SOCIETY INC.", "designationCode": "C", "categoryCode": "52", "address": "BOX 235", "city": "KRONAU", "province": "SK", "country": "CA", "postalCode": "S0G2T0", "twitter": "None", "instagram": "None", "facebook": "None", "youtube": "None", "website": "None", "summary": "None", "logo": "None", "latitude": 50.30688562344445, "longitude": -104.29520987087477}, "873492045RR0001": {"name": "KRUG INC. EMPLOYEE CHARITY TRUST", "designationCode": "B", "categoryCode": "75", "address": "421 MANITOU DRIVE", "city": "KITCHENER", "province": "ON", "country": "CA", "postalCode": "N2C1L5", "twitter": "None", "instagram": "None", "facebook": "None", "youtube": "None", "website": "None", "summary": "None", "logo": "None", "latitude": 43.403794083530585, "longitude": -80.44828025965047}, "118987460RR0001": {"name": "KRYDOR NEW HORIZONS CENTRE INC.", "designationCode": "C", "categoryCode": "56", "address": "BOX 92", "city": "KRYDOR", "province": "SK", "country": "CA", "postalCode": "S0J1K0", "twitter": "None", "instagram": "None", "facebook": "None", "youtube": "None", "website": "None", "summary": "None", "logo": "None", "latitude": 52.78341000000006, "longitude": -107.06789999999995}, "842666752RR0001": {"name": "KRYSKO FAMILY FOUNDATION", "designationCode": "B", "categoryCode": "03", "address": "1 - 911 BORDEN AVENUE", "city": "KELOWNA", "province": "BC", "country": "CA", "postalCode": "V1Y6A5", "twitter": "None", "instagram": "None", "facebook": "None", "youtube": "None", "website": "None", "summary": "None", "logo": "None"}, "118987478RR0001": {"name": "KSAN HOUSE SOCIETY", "designationCode": "C", "categoryCode": "09", "address": "4838 LAZELLE AVE", "city": "TERRACE", "province": "BC", "country": "CA", "postalCode": "V8G1T4", "twitter": "None", "instagram": "None", "facebook": "None", "youtube": "None", "website": "None", "summary": "None", "logo": "None", "latitude": 54.51788551933147, "longitude": -128.60355222300768}, "795149699RR0001": {"name": "KSBK Charitable Foundation", "designationCode": "B", "categoryCode": "03", "address": "166 - 918 16 AVE NW", "city": "CALGARY", "province": "AB", "country": "CA", "postalCode": "T2M0K3", "twitter": "None", "instagram": "None", "facebook": "None", "youtube": "None", "website": "None", "summary": "None", "logo": "None", "latitude": 51.067089888947955, "longitude": -114.082371}, "830401261RR0001": {"name": "KSKS Kids Foundation / Fondation pour l'enfance KSKS", "designationCode": "B", "categoryCode": "21", "address": "2 STEWART AVENUE", "city": "POINTE-CLAIRE", "province": "QC", "country": "CA", "postalCode": "H9S5T5", "twitter": "None", "instagram": "None", "facebook": "None", "youtube": "None", "website": "None", "summary": "None", "logo": "None", "latitude": 45.43570727808884, "longitude": -73.8061762236715}, "893674721RR0001": {"name": "KUGLUKTUK PENTECOSTAL CHURCH", "designationCode": "C", "categoryCode": "36", "address": "12140 103 ST NW", "city": "EDMONTON", "province": "AB", "country": "CA", "postalCode": "T5G2J9", "twitter": "None", "instagram": "None", "facebook": "None", "youtube": "None", "website": "None", "summary": "None", "logo": "None", "latitude": 53.575749, "longitude": -113.49743926319982}, "880248216RR0001": {"name": "KULUTA BUDDHIST CENTRE", "designationCode": "C", "categoryCode": "35", "address": "182 WELLINGTON STREET", "city": "KINGSTON", "province": "ON", "country": "CA", "postalCode": "K7L3E4", "twitter": "None", "instagram": "None", "facebook": "None", "youtube": "None", "website": "None", "summary": "None", "logo": "None", "latitude": 44.23114864946043, "longitude": -76.48264712934956}, "891897381RR0001": {"name": "KUNTZ ELECTROPLATING INC EMPLOYEES CHARITABLE DEDUCTION TRUST", "designationCode": "B", "categoryCode": "75", "address": "851 WILSON AVENUE", "city": "KITCHENER", "province": "ON", "country": "CA", "postalCode": "N2C1J1", "twitter": "None", "instagram": "None", "facebook": "None", "youtube": "None", "website": "None", "summary": "None", "logo": "None", "latitude": 43.412852074932246, "longitude": -80.44246141170798}, "889004966RR0001": {"name": "KUNUWANIMANO CHILD & FAMILY SERVICES", "designationCode": "C", "categoryCode": "09", "address": "120 - 38 PINE ST N", "city": "TIMMINS", "province": "ON", "country": "CA", "postalCode": "P4N6K6", "twitter": "None", "instagram": "None", "facebook": "None", "youtube": "None", "website": "None", "summary": "None", "logo": "None", "latitude": 48.47718571831126, "longitude": -81.32828226335806}, "810175273RR0001": {"name": "KUPAS HACHESED MEOROTH", "designationCode": "C", "categoryCode": "09", "address": "5685 JEANNE MANCE", "city": "MONTREAL", "province": "QC", "country": "CA", "postalCode": "H2V4K7", "twitter": "None", "instagram": "None", "facebook": "None", "youtube": "None", "website": "None", "summary": "None", "logo": "None", "latitude": 45.52395634139296, "longitude": -73.60385012946513}, "118987494RR0001": {"name": "KUPATH RAMBAN CANADA", "designationCode": "C", "categoryCode": "09", "address": "14 BRETT AVE", "city": "TORONTO", "province": "ON", "country": "CA", "postalCode": "M3H2W6", "twitter": "None", "instagram": "None", "facebook": "None", "youtube": "None", "website": "None", "summary": "None", "logo": "None", "latitude": 43.742769925616024, "longitude": -79.45088620442601}, "782713119RR0001": {"name": "KURDYAK FAMILY FOUNDATION", "designationCode": "B", "categoryCode": "03", "address": "7 BRIARLY LANE", "city": "ETOBICOKE", "province": "ON", "country": "CA", "postalCode": "M9A5E7", "twitter": "None", "instagram": "None", "facebook": "None", "youtube": "None", "website": "None", "summary": "None", "logo": "None", "latitude": 43.65325183847878, "longitude": -79.5235185113683}, "107770968RR0001": {"name": "KUROKI NEW LIFE COMMUNITY CHURCH INC.", "designationCode": "C", "categoryCode": "47", "address": "BOX 146", "city": "KUROKI", "province": "SK", "country": "CA", "postalCode": "S0A1Y0", "twitter": "None", "instagram": "None", "facebook": "None", "youtube": "None", "website": "None", "summary": "None", "logo": "None", "latitude": 51.87283000000008, "longitude": -103.48882999999995}, "876536806RR0001": {"name": "KUSISTO-SEXTON FOUNDATION INC.", "designationCode": "B", "categoryCode": "03", "address": "200 BROWNSTONE PLAZA          1275 BROAD STREET", "city": "REGINA", "province": "SK", "country": "CA", "postalCode": "S4R1Y2", "twitter": "None", "instagram": "None", "facebook": "None", "youtube": "None", "website": "None", "summary": "None", "logo": "None", "latitude": 50.458716251457105, "longitude": -104.60626931040473}, "891274037RR0001": {"name": "KUTENAI ART THERAPY INSTITUTE ASSOCIATION", "designationCode": "C", "categoryCode": "20", "address": "2ND FL-191 BAKER ST", "city": "NELSON", "province": "BC", "country": "CA", "postalCode": "V1L4H1", "twitter": "None", "instagram": "None", "facebook": "None", "youtube": "None", "website": "None", "summary": "None", "logo": "None", "latitude": 49.4904578987755, "longitude": -117.29824075647956}, "897696993RR0001": {"name": "KUU-US CRISIS LINE SOCIETY", "designationCode": "C", "categoryCode": "59", "address": "PO BOX 294", "city": "PORT ALBERNI", "province": "BC", "country": "CA", "postalCode": "V9Y7M7", "twitter": "None", "instagram": "None", "facebook": "None", "youtube": "None", "website": "None", "summary": "None", "logo": "None", "latitude": 49.23443400000005, "longitude": -124.80757099999994}, "107916314RR0001": {"name": "KV ASSOCIATION FOR COMMUNITY LIVING INC.", "designationCode": "C", "categoryCode": "11", "address": "PO BOX 4616", "city": "ROTHESAY", "province": "NB", "country": "CA", "postalCode": "E2E5X3", "twitter": "None", "instagram": "None", "facebook": "None", "youtube": "None", "website": "None", "summary": "None", "logo": "None", "latitude": 45.380919929916686, "longitude": -65.99681338202436}, "856162680RR0001": {"name": "KW ANTIOCH PRESBYTERIAN CHURCH", "designationCode": "C", "categoryCode": "39", "address": "39 HIGHBARRY CRES", "city": "KITCHENER", "province": "ON", "country": "CA", "postalCode": "N2N3P6", "twitter": "None", "instagram": "None", "facebook": "None", "youtube": "None", "website": "None", "summary": "None", "logo": "None", "latitude": 43.43196765474057, "longitude": -80.55151671605412}, "894396340RR0001": {"name": "KW ISLAMIC ASSOCIATION", "designationCode": "C", "categoryCode": "60", "address": "PO BOX 33028 450 ERB STREET W", "city": "WATERLOO", "province": "ON", "country": "CA", "postalCode": "N2T2M9", "twitter": "None", "instagram": "None", "facebook": "None", "youtube": "None", "website": "None", "summary": "None", "logo": "None", "latitude": 43.45188467897678, "longitude": -80.55525913800521}, "872998521RR0001": {"name": "KWADACHA EDUCATION SOCIETY", "designationCode": "C", "categoryCode": "20", "address": "497 3RD AVE", "city": "PRINCE GEORGE", "province": "BC", "country": "CA", "postalCode": "V2L3C1", "twitter": "None", "instagram": "None", "facebook": "None", "youtube": "None", "website": "None", "summary": "None", "logo": "None", "latitude": 53.913282066567284, "longitude": -122.73325979348219}, "888990991RR0001": {"name": "KWANG MYOUNG BAPTIST CHURCH", "designationCode": "C", "categoryCode": "31", "address": "77 FALLINGDALE CRES,NORTH YORK", "city": "TORONTO", "province": "ON", "country": "CA", "postalCode": "M3J1C4", "twitter": "None", "instagram": "None", "facebook": "None", "youtube": "None", "website": "None", "summary": "None", "logo": "None", "latitude": 43.75508067805408, "longitude": -79.49231123824245}, "866883523RR0001": {"name": "KWANG SUNG PRESBYTERIAN CHURCH", "designationCode": "C", "categoryCode": "39", "address": "16 UNION ST                   PO BOX 35", "city": "GORMLEY", "province": "ON", "country": "CA", "postalCode": "L0H1G0", "twitter": "None", "instagram": "None", "facebook": "None", "youtube": "None", "website": "None", "summary": "None", "logo": "None", "latitude": 43.93970010990252, "longitude": -79.38050808679054}, "133064154RR0001": {"name": "KWANGLIM METHODIST CHURCH IN CANADA", "designationCode": "C", "categoryCode": "39", "address": "15688-106A AVE", "city": "SURREY", "province": "BC", "country": "CA", "postalCode": "V4N1K4", "twitter": "None", "instagram": "None", "facebook": "None", "youtube": "None", "website": "None", "summary": "None", "logo": "None", "latitude": 49.1960825106758, "longitude": -122.78777319317328}, "877591362RR0001": {"name": "KWANGYA PRESBYTERIAN CHURCH", "designationCode": "C", "categoryCode": "39", "address": "14219-88 AVE", "city": "SURREY", "province": "BC", "country": "CA", "postalCode": "V3W3L5", "twitter": "None", "instagram": "None", "facebook": "None", "youtube": "None", "website": "None", "summary": "None", "logo": "None", "latitude": 49.16290045268047, "longitude": -122.82842152553522}, "107579633RR0001": {"name": "KWANTLEN Polytechnic University", "designationCode": "C", "categoryCode": "20", "address": "12666 72 AVE", "city": "SURREY", "province": "BC", "country": "CA", "postalCode": "V3W2M8", "twitter": "None", "instagram": "None", "facebook": "None", "youtube": "None", "website": "None", "summary": "None", "logo": "None", "latitude": 49.13383148124546, "longitude": -122.87132019317329}, "861562924RR0001": {"name": "KWANTLEN POLYTECHNIC UNIVERSITY FOUNDATION", "designationCode": "C", "categoryCode": "23", "address": "12666 72ND AVE", "city": "SURREY", "province": "BC", "country": "CA", "postalCode": "V3W2M8", "twitter": "None", "instagram": "None", "facebook": "None", "youtube": "None", "website": "None", "summary": "None", "logo": "None", "latitude": 49.13383148124546, "longitude": -122.87132019317329}, "118929215RR0001": {"name": "KWITKO FAMILY FOUNDATION/FONDATION FAMILLE KWITKO", "designationCode": "B", "categoryCode": "13", "address": "3800 DE RAMEZAY", "city": "MONTREAL", "province": "QC", "country": "CA", "postalCode": "H3Y3K1", "twitter": "None", "instagram": "None", "facebook": "None", "youtube": "None", "website": "None", "summary": "None", "logo": "None", "latitude": 45.49244626256559, "longitude": -73.59489912949378}, "892487448RR0001": {"name": "KYLE & DISTRICT HEALTH CARE FOUNDATION INC", "designationCode": "C", "categoryCode": "10", "address": "P.O. BOX 153", "city": "KYLE", "province": "SK", "country": "CA", "postalCode": "S0L1T0", "twitter": "None", "instagram": "None", "facebook": "None", "youtube": "None", "website": "None", "summary": "None", "logo": "None", "latitude": 50.834280000000035, "longitude": -108.03957999999994}, "141048579RR0001": {"name": "KYLE CHARITABLE TRUST", "designationCode": "B", "categoryCode": "39", "address": "50-1ST AVE NE", "city": "SWIFT CURRENT", "province": "SK", "country": "CA", "postalCode": "S9H4W4", "twitter": "None", "instagram": "None", "facebook": "None", "youtube": "None", "website": "None", "summary": "None", "logo": "None", "latitude": 50.282664378132, "longitude": -107.79863205289816}, "102897881RR0001": {"name": "KYLE LUTHERAN PARISH INC.", "designationCode": "C", "categoryCode": "32", "address": "PO BOX 276", "city": "KYLE", "province": "SK", "country": "CA", "postalCode": "S0L1T0", "twitter": "None", "instagram": "None", "facebook": "None", "youtube": "None", "website": "None", "summary": "None", "logo": "None", "latitude": 50.834280000000035, "longitude": -108.03957999999994}, "853213742RR0001": {"name": "KYLE STUART MEMORIAL FOUNDATION", "designationCode": "C", "categoryCode": "21", "address": "1100-500 4TH AVENUE           SOUTH WEST", "city": "CALGARY", "province": "AB", "country": "CA", "postalCode": "T2P2V6", "twitter": "None", "instagram": "None", "facebook": "None", "youtube": "None", "website": "None", "summary": "None", "logo": "None", "latitude": 51.04962600000006, "longitude": -114.07165549999993}, "890602048RR0001": {"name": "KYLE UNITED CHURCH", "designationCode": "C", "categoryCode": "44", "address": "BOX 1", "city": "KYLE", "province": "SK", "country": "CA", "postalCode": "S0L1T0", "twitter": "None", "instagram": "None", "facebook": "None", "youtube": "None", "website": "None", "summary": "None", "logo": "None", "latitude": 50.832774, "longitude": -108.03810313981978}, "886066919RR0001": {"name": "KYRIOS CULTURE ASSOCIATION", "designationCode": "C", "categoryCode": "49", "address": "6060 THETIS PLACE", "city": "RICHMOND", "province": "BC", "country": "CA", "postalCode": "V6C2N3", "twitter": "None", "instagram": "None", "facebook": "None", "youtube": "None", "website": "None", "summary": "None", "logo": "None", "latitude": 49.16991201832186, "longitude": -123.15654943669587}, "806405759RR0001": {"name": "K2 Foundation", "designationCode": "C", "categoryCode": "11", "address": "3-8118 NORTH FRASER WAY", "city": "BURNABY", "province": "BC", "country": "CA", "postalCode": "V5J0E5", "twitter": "None", "instagram": "None", "facebook": "None", "youtube": "None", "website": "None", "summary": "None", "logo": "None", "latitude": 49.19034254006326, "longitude": -122.97763622182552}, "839146081RR0001": {"name": "K9resQ Dog Adoption Services", "designationCode": "C", "categoryCode": "54", "address": "328 COMMISSIONERS RD W        PO BOX 1008", "city": "LONDON", "province": "ON", "country": "CA", "postalCode": "N6J1Y3", "twitter": "None", "instagram": "None", "facebook": "None", "youtube": "None", "website": "None", "summary": "None", "logo": "None", "latitude": 42.95587554674262, "longitude": -81.27795083513189}, "107597668RR0001": {"name": "L ARCHE GREATER VANCOUVER", "designationCode": "C", "categoryCode": "01", "address": "7401 SUSSEX AVENUE", "city": "BURNABY", "province": "BC", "country": "CA", "postalCode": "V5J3V6", "twitter": "None", "instagram": "None", "facebook": "None", "youtube": "None", "website": "None", "summary": "None", "logo": "None", "latitude": 49.21680482653355, "longitude": -123.00500400949238}, "855638433RR0001": {"name": "L H M FAMILY WORSHIP CENTRE SOCIETY", "designationCode": "C", "categoryCode": "39", "address": "37 DUCHESS AVENUE             BOX 1423", "city": "TRENTON", "province": "NS", "country": "CA", "postalCode": "B0K1X2", "twitter": "None", "instagram": "None", "facebook": "None", "youtube": "None", "website": "None", "summary": "None", "logo": "None", "latitude": 45.619078483495805, "longitude": -62.63223162808014}, "867131351RR0001": {"name": "L I F E RECOVERY ASSOCIATION", "designationCode": "C", "categoryCode": "57", "address": "BOX 2652", "city": "ABBOTSFORD", "province": "BC", "country": "CA", "postalCode": "V2T6R4", "twitter": "None", "instagram": "None", "facebook": "None", "youtube": "None", "website": "None", "summary": "None", "logo": "None", "latitude": 49.05161700000005, "longitude": -122.32930399999994}, "889594321RR0001": {"name": "L I N C (LONGTERM INMATES NOW IN THE COMMUNITY)", "designationCode": "C", "categoryCode": "59", "address": "33270 14TH AVE", "city": "MISSION", "province": "BC", "country": "CA", "postalCode": "V2V4Z7", "twitter": "None", "instagram": "None", "facebook": "None", "youtube": "None", "website": "None", "summary": "None", "logo": "None", "latitude": 49.147352466818724, "longitude": -122.3026940083672}, "134667112RR0001": {"name": "L K C S BOOSTER CLUB", "designationCode": "A", "categoryCode": "25", "address": "231 ST. GEORGE STREET,", "city": "DRESDEN", "province": "ON", "country": "CA", "postalCode": "N0P1M0", "twitter": "None", "instagram": "None", "facebook": "None", "youtube": "None", "website": "None", "summary": "None", "logo": "None", "latitude": 42.59521782837178, "longitude": -82.17931308223307}, "885372755RR0001": {"name": "L M MONTGOMERY LAND TRUST INC", "designationCode": "C", "categoryCode": "52", "address": "5 MCCARVILLE DRIVE", "city": "KENSINGTON", "province": "PE", "country": "CA", "postalCode": "C0B1M0", "twitter": "None", "instagram": "None", "facebook": "None", "youtube": "None", "website": "None", "summary": "None", "logo": "None", "latitude": 46.26338063336693, "longitude": -63.69693355365849}, "865062418RR0001": {"name": "L.A.D.K. (LES AMIS DE KRISHNA)", "designationCode": "C", "categoryCode": "39", "address": "3990 ST-ANDRE #174", "city": "MONTREAL", "province": "QC", "country": "CA", "postalCode": "H2L3V1", "twitter": "None", "instagram": "None", "facebook": "None", "youtube": "None", "website": "None", "summary": "None", "logo": "None", "latitude": 45.522805851780326, "longitude": -73.57269620872518}, "119004810RR0001": {"name": "L.A.M.P. - LUTHERAN ASSOCIATION OF MISSIONARIES AND PILOTS INC. L.A.M.P.- L'ASSOCIATION LUTHERIENNE DES MISSIONAIRES ET AVIATEURS INC.", "designationCode": "C", "categoryCode": "47", "address": "4966-92 AVE NW", "city": "EDMONTON", "province": "AB", "country": "CA", "postalCode": "T6B2V4", "twitter": "None", "instagram": "None", "facebook": "None", "youtube": "None", "website": "None", "summary": "None", "logo": "None", "latitude": 53.526760457152534, "longitude": -113.41611980682671}, "104455019RR0001": {"name": "L.A.S.T.U.S.E. DU SAGUENAY (LIEU D'ACTIONS ET DE SERVICES TRAVAILLANT DANS L'UNITE AVEC LES SANS-EMPLOI)", "designationCode": "C", "categoryCode": "09", "address": "94 RUE JACQUES CARTIER EST    BUREAU 101", "city": "CHICOUTIMI", "province": "QC", "country": "CA", "postalCode": "G7H1Y3", "twitter": "None", "instagram": "None", "facebook": "None", "youtube": "None", "website": "None", "summary": "None", "logo": "None", "latitude": 48.42650151067581, "longitude": -71.06559341909515}, "137201331RR0001": {"name": "L.C.I.CHAMBER CHOIR PARENTS ASSOCIATION", "designationCode": "C", "categoryCode": "22", "address": "1114 CAMERON RD S", "city": "LETHBRIDGE", "province": "AB", "country": "CA", "postalCode": "T1K4B3", "twitter": "None", "instagram": "None", "facebook": "None", "youtube": "None", "website": "None", "summary": "None", "logo": "None", "latitude": 49.68129650291419, "longitude": -112.78142591690211}, "836429514RR0001": {"name": "L.E.A.F. (Living Earth Awareness Foundation)", "designationCode": "C", "categoryCode": "59", "address": "3555 DON MILLS ROAD           SUITE 18-824", "city": "TORONTO", "province": "ON", "country": "CA", "postalCode": "M2H3N3", "twitter": "None", "instagram": "None", "facebook": "None", "youtube": "None", "website": "None", "summary": "None", "logo": "None", "latitude": 43.794065355011625, "longitude": -79.3550458426633}, "815745427RR0001": {"name": "L.E.A.P. Ministries Retreat Society", "designationCode": "C", "categoryCode": "49", "address": "74 HAMILTON CRT", "city": "SPRUCE GROVE", "province": "AB", "country": "CA", "postalCode": "T7X0K4", "twitter": "None", "instagram": "None", "facebook": "None", "youtube": "None", "website": "None", "summary": "None", "logo": "None", "latitude": 53.562393851806675, "longitude": -113.9482999715006}, "829216258RR0001": {"name": "L.I.B. International Fair Trade and Development Foundation", "designationCode": "C", "categoryCode": "09", "address": "BOX 10 SITE 15                RR 2 STN MAIN", "city": "OKOTOKS", "province": "AB", "country": "CA", "postalCode": "T1S1A2", "twitter": "None", "instagram": "None", "facebook": "None", "youtube": "None", "website": "None", "summary": "None", "logo": "None", "latitude": 50.72589600000006, "longitude": -113.97494149999994}, "862081783RR0001": {"name": "L.I.F.E. ASSOCIATION LA VIE EST POUR TOUT LE MONDE/L.I.F.E. LIVING IS FOR EVERYONE ASSOCIATION", "designationCode": "C", "categoryCode": "09", "address": "332 ROUTE 299", "city": "CASCAPEDIA-ST-JULES", "province": "QC", "country": "CA", "postalCode": "G0C1T0", "twitter": "None", "instagram": "None", "facebook": "None", "youtube": "None", "website": "None", "summary": "None", "logo": "None", "latitude": 48.25904386372554, "longitude": -65.8925842911879}, "817183502RR0001": {"name": "L.I.T.E International Center/International Centre D.I.F.E", "designationCode": "C", "categoryCode": "09", "address": "80 BOUL DEGUIRE", "city": "MONTREAL", "province": "QC", "country": "CA", "postalCode": "H4N1N4", "twitter": "None", "instagram": "None", "facebook": "None", "youtube": "None", "website": "None", "summary": "None", "logo": "None", "latitude": 45.53103961613492, "longitude": -73.67219330988513}, "853884682RR0001": {"name": "L.T.C. - A.T.U. - 741 E.C.C.O. FUND", "designationCode": "A", "categoryCode": "03", "address": "450 HIGHBURY AVENUE NORTH", "city": "LONDON", "province": "ON", "country": "CA", "postalCode": "N5W5L2", "twitter": "None", "instagram": "None", "facebook": "None", "youtube": "None", "website": "None", "summary": "None", "logo": "None", "latitude": 42.98820161771105, "longitude": -81.19971264292569}, "891934762RR0002": {"name": "L'\u00e9glise \u00e9vang\u00e9lique Baptiste L'\u00c9liatha", "designationCode": "C", "categoryCode": "39", "address": "6336 AV PAPINEAU", "city": "MONTREAL", "province": "QC", "country": "CA", "postalCode": "H2G2W9", "twitter": "None", "instagram": "None", "facebook": "None", "youtube": "None", "website": "None", "summary": "None", "logo": "None", "latitude": 45.542401858993685, "longitude": -73.59508528533087}, "816159107RR0001": {"name": "L'\u00e9glise chr\u00e9tienne Formosa de Montr\u00e9al/Formosa Christian Church of Montr\u00e9al", "designationCode": "C", "categoryCode": "39", "address": "501 5E AVENUE", "city": "VERDUN", "province": "QC", "country": "CA", "postalCode": "H4G2Z2", "twitter": "None", "instagram": "None", "facebook": "None", "youtube": "None", "website": "None", "summary": "None", "logo": "None"}, "838904878RR0001": {"name": "L'\u00e9glise polonaise du plein \u00e9vangile / Polish Full Gospel Church", "designationCode": "C", "categoryCode": "36", "address": "121, RUE LEO-GRAVELLE", "city": "VAUDREUIL-DORION", "province": "QC", "country": "CA", "postalCode": "J7V0B1", "twitter": "None", "instagram": "None", "facebook": "None", "youtube": "None", "website": "None", "summary": "None", "logo": "None", "latitude": 45.39277379822836, "longitude": -74.04483088484602}, "888385515RR0001": {"name": "L'\u00e9lan, centre d'aide et de lutte contre les agressions \u00e0 caract\u00e8re sexuel.", "designationCode": "C", "categoryCode": "09", "address": "C.P. 301", "city": "MONT-LAURIER", "province": "QC", "country": "CA", "postalCode": "J9L1S9", "twitter": "None", "instagram": "None", "facebook": "None", "youtube": "None", "website": "None", "summary": "None", "logo": "None", "latitude": 46.55660100000006, "longitude": -75.49402399999994}, "804179232RR0001": {"name": "L'\u00e9piCentre du quartier", "designationCode": "C", "categoryCode": "09", "address": "1885 CHEMIN DE LA CANARDI\u00c8RE", "city": "QU\u00c9BEC", "province": "QC", "country": "CA", "postalCode": "G1J2E5", "twitter": "None", "instagram": "None", "facebook": "None", "youtube": "None", "website": "None", "summary": "None", "logo": "None", "latitude": 46.83901141468041, "longitude": -71.22153530985553}, "866284110RR0001": {"name": "L'\u00e9tape Normandie / Rivi\u00e8re-du-Loup", "designationCode": "C", "categoryCode": "59", "address": "30 RUE DELAGE", "city": "RIVIERE-DU-LOUP", "province": "QC", "country": "CA", "postalCode": "G5R1N8", "twitter": "None", "instagram": "None", "facebook": "None", "youtube": "None", "website": "None", "summary": "None", "logo": "None", "latitude": 47.824462813751616, "longitude": -69.53173698017758}, "822711578RR0001": {"name": "L'\u00e9toffe du succ\u00e8s Montr\u00e9al / Dress for Success Montr\u00e9al", "designationCode": "C", "categoryCode": "09", "address": "3945 RUE SAINT-DENIS", "city": "MONTREAL", "province": "QC", "country": "CA", "postalCode": "H2W2M4", "twitter": "None", "instagram": "None", "facebook": "None", "youtube": "None", "website": "None", "summary": "None", "logo": "None", "latitude": 45.52028116654156, "longitude": -73.57476102441004}, "137105532RR0001": {"name": "L'\u00c9chelon des Pays d'en Haut Inc.", "designationCode": "C", "categoryCode": "09", "address": "168, RUE DE LA VALL\u00c9E-DU-GOLF", "city": "STE-AD\u00c8LE", "province": "QC", "country": "CA", "postalCode": "J8B1P5", "twitter": "None", "instagram": "None", "facebook": "None", "youtube": "None", "website": "None", "summary": "None", "logo": "None", "latitude": 45.94568320694249, "longitude": -74.12174560742011}, "119015303RR0001": {"name": "L'\u00c9cole des femmes", "designationCode": "C", "categoryCode": "59", "address": "401 - 469 RUE JEAN-TALON O", "city": "MONTREAL", "province": "QC", "country": "CA", "postalCode": "H3N1R4", "twitter": "None", "instagram": "None", "facebook": "None", "youtube": "None", "website": "None", "summary": "None", "logo": "None", "latitude": 45.52880036291907, "longitude": -73.62317347366287}, "107280158RR0001": {"name": "L'\u00c9cole sup\u00e9rieure de ballet du Qu\u00e9bec", "designationCode": "C", "categoryCode": "22", "address": "4816 RUE RIVARD", "city": "MONTREAL", "province": "QC", "country": "CA", "postalCode": "H2J2N6", "twitter": "None", "instagram": "None", "facebook": "None", "youtube": "None", "website": "None", "summary": "None", "logo": "None", "latitude": 45.5264037352127, "longitude": -73.58675557092153}, "107591596RR0001": {"name": "L'\u00c9glise \u00c9vang\u00e9lique du bord du lac / Lakeshore Evangelical Church", "designationCode": "C", "categoryCode": "36", "address": "470 BROOKHAVEN AVE", "city": "DORVAL", "province": "QC", "country": "CA", "postalCode": "H9S2N7", "twitter": "None", "instagram": "None", "facebook": "None", "youtube": "None", "website": "None", "summary": "None", "logo": "None", "latitude": 45.448453498470805, "longitude": -73.77028958370346}, "848241204RR0001": {"name": "L'\u00c9glise copte orthodoxe de la Vierge Marie, Saint-Mina et Pape Cyrille", "designationCode": "C", "categoryCode": "39", "address": "CP 36053 - 2450 BLVD LAURIER", "city": "QU\u00c9BEC", "province": "QC", "country": "CA", "postalCode": "G1V4W7", "twitter": "None", "instagram": "None", "facebook": "None", "youtube": "None", "website": "None", "summary": "None", "logo": "None", "latitude": 46.77378437601176, "longitude": -71.27594667206753}, "824640643RR0001": {"name": "L'\u00c9glise dans Lanaudi\u00e8re", "designationCode": "C", "categoryCode": "39", "address": "162, AVENUE DU PARC", "city": "L'ASSOMPTION", "province": "QC", "country": "CA", "postalCode": "J5W2Z3", "twitter": "None", "instagram": "None", "facebook": "None", "youtube": "None", "website": "None", "summary": "None", "logo": "None", "latitude": 45.82888950262574, "longitude": -73.41875149613352}, "118782630RR0026": {"name": "L'\u00c9glise de l'Alliance source de vie de Montr\u00e9al / Montreal Living Spring Alliance Church", "designationCode": "C", "categoryCode": "39", "address": "220 HYMAN DRIVE", "city": "DOLLARD-DES-ORMEAUX", "province": "QC", "country": "CA", "postalCode": "H9B1L8", "twitter": "None", "instagram": "None", "facebook": "None", "youtube": "None", "website": "None", "summary": "None", "logo": "None", "latitude": 45.495312640602286, "longitude": -73.7931103729008}, "838007656RR0001": {"name": "L'\u00c9glise de Dieu \u00e0 Montr\u00e9al / The Church of God in Montr\u00e9al", "designationCode": "C", "categoryCode": "39", "address": "315 RUE GILBERTE-DUB\u00c9", "city": "VERDUN", "province": "QC", "country": "CA", "postalCode": "H4G3B4", "twitter": "None", "instagram": "None", "facebook": "None", "youtube": "None", "website": "None", "summary": "None", "logo": "None", "latitude": 45.47133966945574, "longitude": -73.56448138966479}, "836129445RR0001": {"name": "L'\u00c9glise de J\u00e9sus Christ (Apostolique) de la victoire / Victory Church of Jesus Christ (Apostolic)", "designationCode": "C", "categoryCode": "39", "address": "2725 RUE SPRINGLAND", "city": "MONTREAL", "province": "QC", "country": "CA", "postalCode": "H4E2G9", "twitter": "None", "instagram": "None", "facebook": "None", "youtube": "None", "website": "None", "summary": "None", "logo": "None", "latitude": 45.45339124897559, "longitude": -73.59804687261234}, "790776124RR0001": {"name": "L'\u00c9glise de Sainte-Sophie de Dieu de la Communaut\u00e9 Grecque des Authentiques Chr\u00e9tiens Orthodoxes/Greek Community of Genuine Orthodox Christians God's Saint Sophia Church", "designationCode": "C", "categoryCode": "39", "address": "7838 AV WISEMAN", "city": "MONTREAL", "province": "QC", "country": "CA", "postalCode": "H3N2N9", "twitter": "None", "instagram": "None", "facebook": "None", "youtube": "None", "website": "None", "summary": "None", "logo": "None", "latitude": 45.528131002481516, "longitude": -73.63330765696224}, "822693784RR0001": {"name": "L'\u00c9glise du Plein \u00c9vangile la Parole de Vie", "designationCode": "C", "categoryCode": "39", "address": "2 - 4825 AV DE COURTRAI", "city": "MONTREAL", "province": "QC", "country": "CA", "postalCode": "H3W0A2", "twitter": "None", "instagram": "None", "facebook": "None", "youtube": "None", "website": "None", "summary": "None", "logo": "None", "latitude": 45.49707441049681, "longitude": -73.64600654123134}, "847085008RR0001": {"name": "L'\u00c9glise presbyt\u00e9rienne seokwang de Montr\u00e9al / The Seokwang Presbyterian Church of Montr\u00e9al", "designationCode": "C", "categoryCode": "37", "address": "4520 PLAMONDON", "city": "MONTR\u00c9AL", "province": "QC", "country": "CA", "postalCode": "H3S1M2", "twitter": "None", "instagram": "None", "facebook": "None", "youtube": "None", "website": "None", "summary": "None", "logo": "None", "latitude": 45.4979180754805, "longitude": -73.63849880027718}, "835062159RR0001": {"name": "L'\u00c9glise renaissance", "designationCode": "C", "categoryCode": "39", "address": "322 RUE DE L'ETALE", "city": "LEVIS", "province": "QC", "country": "CA", "postalCode": "G7A3A3", "twitter": "None", "instagram": "None", "facebook": "None", "youtube": "None", "website": "None", "summary": "None", "logo": "None", "latitude": 46.73457517568815, "longitude": -71.3105275022217}, "866865116RR0001": {"name": "L'\u00c9glise Apostolique de J\u00e9sus Christ du Grand Montr\u00e9al Apostolic Church of Jesus Christ of Greater Montr\u00e9al", "designationCode": "C", "categoryCode": "39", "address": "202 - 103 RUE ANGORA", "city": "DOLLARD-DES-ORMEAUX", "province": "QC", "country": "CA", "postalCode": "H9B1W6", "twitter": "None", "instagram": "None", "facebook": "None", "youtube": "None", "website": "None", "summary": "None", "logo": "None", "latitude": 45.4941374784755, "longitude": -73.79338761783703}, "855526026RR0001": {"name": "L'\u00c9glise Greater Grace de Montr\u00e9al / Greater Grace Church of Montr\u00e9al", "designationCode": "C", "categoryCode": "39", "address": "5060 RUE SIR-GEORGE-SIMPSON", "city": "LACHINE", "province": "QC", "country": "CA", "postalCode": "H8T1E7", "twitter": "None", "instagram": "None", "facebook": "None", "youtube": "None", "website": "None", "summary": "None", "logo": "None", "latitude": 45.447773467684115, "longitude": -73.71510338773155}, "780791893RR0001": {"name": "L'\u00c9glise Orthodoxe \"Saint-Pantelimon\" Biserica Orthodoxa \"Sfantul Pantelimon\"", "designationCode": "C", "categoryCode": "39", "address": "367 RUE GODARD", "city": "SAINT-EUSTACHE", "province": "QC", "country": "CA", "postalCode": "J7P3V2", "twitter": "None", "instagram": "None", "facebook": "None", "youtube": "None", "website": "None", "summary": "None", "logo": "None", "latitude": 45.579319794621696, "longitude": -73.86314749875925}, "811144088RR0001": {"name": "L'\u00c9glise Orthodoxe Roumaine de la Protection de la M\u00e8re de Dieu, Pierrefonds & Ouest-de-l'\u00cele/Biserica Orthodoxa Romana Acoperamantul Maicii Domnului, Pierrefonds, & West Isla", "designationCode": "C", "categoryCode": "39", "address": "912 RUE DU RUISSEAU", "city": "DEUX-MONTAGNES", "province": "QC", "country": "CA", "postalCode": "J7R5Z3", "twitter": "None", "instagram": "None", "facebook": "None", "youtube": "None", "website": "None", "summary": "None", "logo": "None", "latitude": 45.54973527670386, "longitude": -73.90635483484344}, "118782630RR0027": {"name": "L'\u00c9glise Par la foi", "designationCode": "C", "categoryCode": "47", "address": "1349 SAINT-ZOTIQUES EST", "city": "MONTR\u00c9AL", "province": "QC", "country": "CA", "postalCode": "H2G1G6", "twitter": "None", "instagram": "None", "facebook": "None", "youtube": "None", "website": "None", "summary": "None", "logo": "None", "latitude": 45.5420792087252, "longitude": -73.60261362741632}, "791302722RR0001": {"name": "L'\u00c9glise Primitive de la Foi Chr\u00e9tienne", "designationCode": "C", "categoryCode": "39", "address": "6920, RUE SAINT-ANDR\u00c9", "city": "MONTREAL", "province": "QC", "country": "CA", "postalCode": "H2S2M7", "twitter": "None", "instagram": "None", "facebook": "None", "youtube": "None", "website": "None", "summary": "None", "logo": "None", "latitude": 45.53935119930131, "longitude": -73.60919337401809}, "804765402RR0001": {"name": "L'\u00c9lan des Jeunes", "designationCode": "C", "categoryCode": "09", "address": "155 RUE DE GASP\u00c9 E", "city": "CH\u00c2TEAUGUAY", "province": "QC", "country": "CA", "postalCode": "J6J2N9", "twitter": "None", "instagram": "None", "facebook": "None", "youtube": "None", "website": "None", "summary": "None", "logo": "None", "latitude": 45.36060759059972, "longitude": -73.72691356134223}, "859208159RR0001": {"name": "L'\u00c9lyme des sables", "designationCode": "C", "categoryCode": "01", "address": "985 ARNAUD", "city": "SEPT-ILES", "province": "QC", "country": "CA", "postalCode": "G4R3C6", "twitter": "None", "instagram": "None", "facebook": "None", "youtube": "None", "website": "None", "summary": "None", "logo": "None", "latitude": 50.21688360499777, "longitude": -66.40430854019215}, "783341092RR0001": {"name": "L'\u00c9picurien et Moi", "designationCode": "C", "categoryCode": "59", "address": "1021A RUE PRINCIPALE", "city": "PREVOST", "province": "QC", "country": "CA", "postalCode": "J0R1T0", "twitter": "None", "instagram": "None", "facebook": "None", "youtube": "None", "website": "None", "summary": "None", "logo": "None", "latitude": 45.86152736706553, "longitude": -74.0746881330169}, "892273368RR0001": {"name": "L'\u00c9quipe d'accompagnement Au Diapason", "designationCode": "C", "categoryCode": "09", "address": "50, RUE DU DIAPASON", "city": "BROMONT", "province": "QC", "country": "CA", "postalCode": "J2L0G1", "twitter": "None", "instagram": "None", "facebook": "None", "youtube": "None", "website": "None", "summary": "None", "logo": "None", "latitude": 45.30292628620022, "longitude": -72.70088400789119}, "822939237RR0001": {"name": "L'\u00c9toile de Pacho - R\u00e9seau d'entraide pour parent d'enfant handicap\u00e9", "designationCode": "C", "categoryCode": "09", "address": "CP 97528 CSP WELLINGTON", "city": "VERDUN", "province": "QC", "country": "CA", "postalCode": "H4G3M6", "twitter": "None", "instagram": "None", "facebook": "None", "youtube": "None", "website": "None", "summary": "None", "logo": "None", "latitude": 45.463755148459605, "longitude": -73.566948559938}, "840971261RR0001": {"name": "L'\u00c9toile, p\u00e9diatrie sociale en communaut\u00e9 du Haut-Richelieu", "designationCode": "C", "categoryCode": "11", "address": "212 RUE SAINT-JACQUES", "city": "SAINT-JEAN-SUR-RICHELIEU", "province": "QC", "country": "CA", "postalCode": "J3B2K7", "twitter": "None", "instagram": "None", "facebook": "None", "youtube": "None", "website": "None", "summary": "None", "logo": "None", "latitude": 45.306080488458804, "longitude": -73.258074}, "869482299RR0001": {"name": "L'\u00c9COLE ET LES ARTS", "designationCode": "C", "categoryCode": "22", "address": "1905 CADILLAC", "city": "MONTREAL", "province": "QC", "country": "CA", "postalCode": "H1N2T4", "twitter": "None", "instagram": "None", "facebook": "None", "youtube": "None", "website": "None", "summary": "None", "logo": "None", "latitude": 45.57051278602336, "longitude": -73.52746302746846}, "880135553RR0001": {"name": "L'\u00c9COLE FRAN\u00c7AISE INTERNATIONALE DE VANCOUVER SOCIETY", "designationCode": "C", "categoryCode": "20", "address": "3657 FROMME RD", "city": "NORTH VANCOUVER", "province": "BC", "country": "CA", "postalCode": "V7K2E6", "twitter": "None", "instagram": "None", "facebook": "None", "youtube": "None", "website": "None", "summary": "None", "logo": "None", "latitude": 49.342758474609, "longitude": -123.04360305233891}, "118896323RR0001": {"name": "L'\u00c9GLISE \u00c9VANGELISTE COR\u00c9ENNE DE MONTR\u00c9AL / THE KOREAN FULL GOSPEL CHURCH OF GREATER MONTREAL", "designationCode": "C", "categoryCode": "39", "address": "3480 DECARIE BLVD", "city": "MONTREAL", "province": "QC", "country": "CA", "postalCode": "H4A3J5", "twitter": "None", "instagram": "None", "facebook": "None", "youtube": "None", "website": "None", "summary": "None", "logo": "None", "latitude": 45.474997789601375, "longitude": -73.61043285180898}, "118895200RR0001": {"name": "L'\u00c9GLISE BAPTISTE \u00c9VANG\u00c9LIQUE DE TERREBONNE-MASCOUCHE", "designationCode": "C", "categoryCode": "31", "address": "693 CHEMIN DES ANGLAIS", "city": "MASCOUCHE", "province": "QC", "country": "CA", "postalCode": "J7L3R5", "twitter": "None", "instagram": "None", "facebook": "None", "youtube": "None", "website": "None", "summary": "None", "logo": "None", "latitude": 45.73962679680869, "longitude": -73.6485267277982}, "118895218RR0001": {"name": "L'\u00c9GLISE BAPTISTE \u00c9VANG\u00c9LIQUE DE TROIS-RIVI\u00c8RES", "designationCode": "C", "categoryCode": "31", "address": "8305 BOUL.DES FORGES", "city": "TROIS-RIVIERES", "province": "QC", "country": "CA", "postalCode": "G8Y1Z5", "twitter": "None", "instagram": "None", "facebook": "None", "youtube": "None", "website": "None", "summary": "None", "logo": "None", "latitude": 46.38027470601348, "longitude": -72.62618921567875}, "141590364RR0001": {"name": "L'\u00c9GLISE BAPTISTE CENTRALE DE LAVAL", "designationCode": "C", "categoryCode": "31", "address": "1566 BOULEVARD DES LAURENTIDES", "city": "LAVAL", "province": "QC", "country": "CA", "postalCode": "H7M2N8", "twitter": "None", "instagram": "None", "facebook": "None", "youtube": "None", "website": "None", "summary": "None", "logo": "None", "latitude": 45.59148062891686, "longitude": -73.71612073273121}, "118964717RR0001": {"name": "L'\u00c9GLISE BAPTISTE COMMUNAUTAIRE DE HUDSON / HUDSON COMMUNIT Y BAPTIST CHURCH", "designationCode": "C", "categoryCode": "31", "address": "3141 COTE ST-CHARLES", "city": "ST-LAZARE", "province": "QC", "country": "CA", "postalCode": "J7T2H8", "twitter": "None", "instagram": "None", "facebook": "None", "youtube": "None", "website": "None", "summary": "None", "logo": "None", "latitude": 45.444749217871795, "longitude": -74.16855202302506}, "867300758RR0001": {"name": "L'\u00c9GLISE BIBLIQUE BAPTISTE DE RIVI\u00c8RE-DU-LOUP", "designationCode": "C", "categoryCode": "39", "address": "29 C\u00d4TE ST-JACQUES", "city": "RIVI\u00c8RE-DU-LOUP", "province": "QC", "country": "CA", "postalCode": "G5R2N9", "twitter": "None", "instagram": "None", "facebook": "None", "youtube": "None", "website": "None", "summary": "None", "logo": "None", "latitude": 47.842682657510515, "longitude": -69.53886466469521}, "128438108RR0001": {"name": "L'\u00c9GLISE CHR\u00c9TIENNE LA GRANDE ENVOL\u00c9E", "designationCode": "C", "categoryCode": "39", "address": "7, RUE VALADE", "city": "SAINT-CONSTANT", "province": "QC", "country": "CA", "postalCode": "J5A1P4", "twitter": "None", "instagram": "None", "facebook": "None", "youtube": "None", "website": "None", "summary": "None", "logo": "None", "latitude": 45.383337995008354, "longitude": -73.5880938773442}, "864342209RR0001": {"name": "L'\u00c9GLISE COPTE ORTHODOXE DE L'ARCHANGE MICHEL ET D'ABOU SEIFEIN/ COPTIC ORTHODOX CHURCH OF ARCHANGEL MICHAEL AND ABOU SAINFAIN", "designationCode": "C", "categoryCode": "39", "address": "3299 7EME RUE", "city": "LAVAL", "province": "QC", "country": "CA", "postalCode": "H7V1N4", "twitter": "None", "instagram": "None", "facebook": "None", "youtube": "None", "website": "None", "summary": "None", "logo": "None", "latitude": 45.54359029698762, "longitude": -73.73547240801531}, "813643152RR0001": {"name": "L'\u00c9GLISE DE CHRIST VICTORIEUX / CHRIST VICTORIOUS CHURCH", "designationCode": "C", "categoryCode": "36", "address": "4605 MACKENZIE", "city": "MONTREAL", "province": "QC", "country": "CA", "postalCode": "H3W1B2", "twitter": "None", "instagram": "None", "facebook": "None", "youtube": "None", "website": "None", "summary": "None", "logo": "None", "latitude": 45.499150716919516, "longitude": -73.64276711549975}, "140789249RR0001": {"name": "L'\u00c9GLISE DE L'\u00ceLE J\u00c9SUS CHR\u00c9TIENNE \u00c9VANG\u00c9LIQUE BAPTISTE", "designationCode": "C", "categoryCode": "31", "address": "P.O. BOX 1513, ST-MARTIN", "city": "LAVAL", "province": "QC", "country": "CA", "postalCode": "H7V3P7", "twitter": "None", "instagram": "None", "facebook": "None", "youtube": "None", "website": "None", "summary": "None", "logo": "None", "latitude": 45.54904937902584, "longitude": -73.75376691935055}}