{"107777955RR0001": {"name": "Norfolk Little People's Day Care Inc.", "designationCode": "C", "categoryCode": "01", "address": "30 B ALBERT STREET", "city": "LANGTON", "province": "ON", "country": "CA", "postalCode": "N0E1G0", "twitter": "None", "instagram": "None", "facebook": "None", "youtube": "None", "website": "None", "summary": "None", "logo": "None", "latitude": 42.73979435581968, "longitude": -80.58285276547979}, "823065370RR0001": {"name": "Norfolk Pregnancy Centre Inc.", "designationCode": "C", "categoryCode": "09", "address": "37 ROBINSON ST", "city": "SIMCOE", "province": "ON", "country": "CA", "postalCode": "N3Y1W5", "twitter": "None", "instagram": "None", "facebook": "None", "youtube": "None", "website": "None", "summary": "None", "logo": "None", "latitude": 42.83704927782905, "longitude": -80.30535829600666}, "780007886RR0001": {"name": "Norma & Ernie Casselman Foundation", "designationCode": "B", "categoryCode": "05", "address": "350 7TH AVE SW", "city": "CALGARY", "province": "AB", "country": "CA", "postalCode": "T2P3N9", "twitter": "None", "instagram": "None", "facebook": "None", "youtube": "None", "website": "None", "summary": "None", "logo": "None", "latitude": 51.046676474897474, "longitude": -114.06982963627445}, "782411888RR0001": {"name": "Norma McLean Charitable Fund", "designationCode": "B", "categoryCode": "05", "address": "1500 - 200 KING ST W", "city": "TORONTO", "province": "ON", "country": "CA", "postalCode": "M5H3T4", "twitter": "None", "instagram": "None", "facebook": "None", "youtube": "None", "website": "None", "summary": "None", "logo": "None", "latitude": 43.64813467004466, "longitude": -79.38254906728791}, "888725546RR0001": {"name": "Norman Wells Community Library", "designationCode": "C", "categoryCode": "50", "address": "POST OFFICE BOX 97", "city": "NORMAN WELLS", "province": "NT", "country": "CA", "postalCode": "X0E0V0", "twitter": "None", "instagram": "None", "facebook": "None", "youtube": "None", "website": "None", "summary": "None", "logo": "None", "latitude": 65.28363000000007, "longitude": -126.85679999999996}, "119058824RR0001": {"name": "Norquay Health Centre Auxiliary Inc.", "designationCode": "C", "categoryCode": "19", "address": "PO BOX 119", "city": "NORQUAY", "province": "SK", "country": "CA", "postalCode": "S0A2V0", "twitter": "None", "instagram": "None", "facebook": "None", "youtube": "None", "website": "None", "summary": "None", "logo": "None", "latitude": 51.88199000000003, "longitude": -102.08761999999996}, "835668229RR0001": {"name": "Norrep Foundation", "designationCode": "B", "categoryCode": "05", "address": "STE 430, 1015-4TH STREET SW", "city": "CALGARY", "province": "AB", "country": "CA", "postalCode": "T2R1J4", "twitter": "None", "instagram": "None", "facebook": "None", "youtube": "None", "website": "None", "summary": "None", "logo": "None", "latitude": 51.042924, "longitude": -114.0716151852961}, "871320065RR0001": {"name": "Norris Arm Heritage Society Inc.", "designationCode": "C", "categoryCode": "50", "address": "202 CITIZEN'S DRIVE           P.O. BOX 89", "city": "NORRIS ARM", "province": "NL", "country": "CA", "postalCode": "A0G3M0", "twitter": "None", "instagram": "None", "facebook": "None", "youtube": "None", "website": "None", "summary": "None", "logo": "None", "latitude": 49.090459540818586, "longitude": -55.262467114900986}, "841055619RR0001": {"name": "Norris Family Foundation", "designationCode": "B", "categoryCode": "03", "address": "2019 BRIAR CRES NW", "city": "CALGARY", "province": "AB", "country": "CA", "postalCode": "T2N3V6", "twitter": "None", "instagram": "None", "facebook": "None", "youtube": "None", "website": "None", "summary": "None", "logo": "None", "latitude": 51.06144853621105, "longitude": -114.10912361518264}, "119288918RR1458": {"name": "Norte Congregation of Jehovah's Witnesses, Edmonton, Alberta", "designationCode": "C", "categoryCode": "61", "address": "8608 173 AVE NW", "city": "EDMONTON", "province": "AB", "country": "CA", "postalCode": "T5Z3W4", "twitter": "None", "instagram": "None", "facebook": "None", "youtube": "None", "website": "None", "summary": "None", "logo": "None", "latitude": 53.635479358329846, "longitude": -113.47255494142773}, "781980321RR0001": {"name": "North of Smokey Food Bank Association", "designationCode": "C", "categoryCode": "09", "address": "POST OFFICE BOX 266", "city": "INGONISH", "province": "NS", "country": "CA", "postalCode": "B0C1K0", "twitter": "None", "instagram": "None", "facebook": "None", "youtube": "None", "website": "None", "summary": "None", "logo": "None", "latitude": 46.69308600000005, "longitude": -60.36474499999993}, "119244705RR0001": {"name": "North of Superior Healthcare Group", "designationCode": "C", "categoryCode": "10", "address": "20B CARTIER RD", "city": "TERRACE BAY", "province": "ON", "country": "CA", "postalCode": "P0T2W0", "twitter": "None", "instagram": "None", "facebook": "None", "youtube": "None", "website": "None", "summary": "None", "logo": "None", "latitude": 48.780645709827354, "longitude": -87.10476583770024}, "806055695RR0001": {"name": "North American Alevi Charity Inc.", "designationCode": "C", "categoryCode": "39", "address": "101 TORO ROAD                 UNIT 56", "city": "TORONTO", "province": "ON", "country": "CA", "postalCode": "M3J2Z1", "twitter": "None", "instagram": "None", "facebook": "None", "youtube": "None", "website": "None", "summary": "None", "logo": "None", "latitude": 43.76147043851355, "longitude": -79.48267656382373}, "119109817RR0109": {"name": "North American Martyrs Parish", "designationCode": "C", "categoryCode": "38", "address": "P.O. BOX 40 9 ALICE STREET", "city": "THAMESVILLE", "province": "ON", "country": "CA", "postalCode": "N0P2K0", "twitter": "None", "instagram": "None", "facebook": "None", "youtube": "None", "website": "None", "summary": "None", "logo": "None", "latitude": 42.550439522880836, "longitude": -81.97729937388175}, "876163361RR0001": {"name": "North Battleford Day Care Centre Inc.", "designationCode": "C", "categoryCode": "20", "address": "1312 99TH STREET", "city": "NORTH BATTLEFORD", "province": "SK", "country": "CA", "postalCode": "S9A0P8", "twitter": "None", "instagram": "None", "facebook": "None", "youtube": "None", "website": "None", "summary": "None", "logo": "None", "latitude": 52.77675731414541, "longitude": -108.30045409992596}, "855389656RR0001": {"name": "North Bay & District Multicultural Centre", "designationCode": "C", "categoryCode": "59", "address": "100 MAIN STREET EAST", "city": "NORTH BAY", "province": "ON", "country": "CA", "postalCode": "P1B1A8", "twitter": "None", "instagram": "None", "facebook": "None", "youtube": "None", "website": "None", "summary": "None", "logo": "None", "latitude": 46.31031815044139, "longitude": -79.46393946070188}, "840573133RR0001": {"name": "North Bay Christian School Society", "designationCode": "C", "categoryCode": "20", "address": "2522 ALEXANDER ROAD", "city": "NORTH BAY", "province": "ON", "country": "CA", "postalCode": "P1B8A1", "twitter": "None", "instagram": "None", "facebook": "None", "youtube": "None", "website": "None", "summary": "None", "logo": "None", "latitude": 46.32121493923471, "longitude": -79.43336151777359}, "119059285RR0001": {"name": "North Bay Food Bank Inc.", "designationCode": "C", "categoryCode": "09", "address": "1016 FISHER ST", "city": "NORTH BAY", "province": "ON", "country": "CA", "postalCode": "P1B2G4", "twitter": "None", "instagram": "None", "facebook": "None", "youtube": "None", "website": "None", "summary": "None", "logo": "None", "latitude": 46.30987534860632, "longitude": -79.45235142881867}, "835613035RR0001": {"name": "North Brampton Church of God", "designationCode": "C", "categoryCode": "39", "address": "14 ODEON STREET", "city": "BRAMPTON", "province": "ON", "country": "CA", "postalCode": "L6P1V6", "twitter": "None", "instagram": "None", "facebook": "None", "youtube": "None", "website": "None", "summary": "None", "logo": "None", "latitude": 43.79639509074395, "longitude": -79.74588915211483}, "805979614RR0001": {"name": "North Colchester River Restoration Association", "designationCode": "C", "categoryCode": "52", "address": "P.O. BOX 351", "city": "TATAMAGOUCHE", "province": "NS", "country": "CA", "postalCode": "B0K1V0", "twitter": "None", "instagram": "None", "facebook": "None", "youtube": "None", "website": "None", "summary": "None", "logo": "None", "latitude": 45.71288526208159, "longitude": -63.415849046616174}, "107780785RR0001": {"name": "North Douglas Pentecostal Church", "designationCode": "C", "categoryCode": "36", "address": "675 JOLLY PLACE", "city": "VICTORIA", "province": "BC", "country": "CA", "postalCode": "V8Z6R9", "twitter": "None", "instagram": "None", "facebook": "None", "youtube": "None", "website": "None", "summary": "None", "logo": "None", "latitude": 48.467087615558015, "longitude": -123.38357889909986}, "118977693RR0001": {"name": "North East Association for Community Living/Association pour integration communautaire du nord est", "designationCode": "C", "categoryCode": "11", "address": "12 KIMBERLY DR", "city": "KAPUSKASING", "province": "ON", "country": "CA", "postalCode": "P5N1L5", "twitter": "None", "instagram": "None", "facebook": "None", "youtube": "None", "website": "None", "summary": "None", "logo": "None", "latitude": 49.4242719072066, "longitude": -82.43360770570314}, "872867064RR0001": {"name": "North East Family Connections Society", "designationCode": "C", "categoryCode": "09", "address": "95 FALSHIRE DR NE", "city": "CALGARY", "province": "AB", "country": "CA", "postalCode": "T3J1P7", "twitter": "None", "instagram": "None", "facebook": "None", "youtube": "None", "website": "None", "summary": "None", "logo": "None", "latitude": 51.105254543424394, "longitude": -113.946264}, "833718950RR0001": {"name": "North East Grey Health Clinics Inc.", "designationCode": "C", "categoryCode": "11", "address": "1 - 730 SYKES ST N", "city": "MEAFORD", "province": "ON", "country": "CA", "postalCode": "N4L1L9", "twitter": "None", "instagram": "None", "facebook": "None", "youtube": "None", "website": "None", "summary": "None", "logo": "None", "latitude": 44.60967000000005, "longitude": -80.59281999999996}, "801296088RR0001": {"name": "North East Society for the Prevention of Cruelty to Animals Inc.", "designationCode": "C", "categoryCode": "54", "address": "POST OFFICE BOX 189", "city": "MELFORT", "province": "SK", "country": "CA", "postalCode": "S0E1A0", "twitter": "None", "instagram": "None", "facebook": "None", "youtube": "None", "website": "None", "summary": "None", "logo": "None", "latitude": 52.85637, "longitude": -104.63436225000001}, "139315352RR0001": {"name": "North East Sportsplex Society", "designationCode": "C", "categoryCode": "56", "address": "5206 68 ST NE", "city": "CALGARY", "province": "AB", "country": "CA", "postalCode": "T3J3P8", "twitter": "None", "instagram": "None", "facebook": "None", "youtube": "None", "website": "None", "summary": "None", "logo": "None", "latitude": 51.10179826219557, "longitude": -113.93500623270124}, "863157566RR0001": {"name": "North Eastern Ontario Family and Children's Services / services \u00e0 la famille et \u00e0 l'enfance du Nord-Est de l'Ontario", "designationCode": "A", "categoryCode": "11", "address": "29 KOLB AVE", "city": "KAPUSKASING", "province": "ON", "country": "CA", "postalCode": "P5N1G2", "twitter": "None", "instagram": "None", "facebook": "None", "youtube": "None", "website": "None", "summary": "None", "logo": "None", "latitude": 49.415419111362986, "longitude": -82.42239245393495}, "887127223RR0001": {"name": "North End Community Renewal Corporation", "designationCode": "C", "categoryCode": "09", "address": "509 SELKIRK AVE", "city": "WINNIPEG", "province": "MB", "country": "CA", "postalCode": "R2W2M6", "twitter": "None", "instagram": "None", "facebook": "None", "youtube": "None", "website": "None", "summary": "None", "logo": "None", "latitude": 49.91581591369946, "longitude": -97.14538451206079}, "858315450RR0001": {"name": "North End Family Centre Corporation", "designationCode": "C", "categoryCode": "09", "address": "1344 MAIN ST", "city": "WINNIPEG", "province": "MB", "country": "CA", "postalCode": "R2W3T6", "twitter": "None", "instagram": "None", "facebook": "None", "youtube": "None", "website": "None", "summary": "None", "logo": "None", "latitude": 49.92369389009748, "longitude": -97.12639294243733}, "868392911RR0001": {"name": "North End Recreation Centre", "designationCode": "C", "categoryCode": "56", "address": "P.O. BOX 393", "city": "NEW GLASGOW", "province": "NS", "country": "CA", "postalCode": "B2H5E5", "twitter": "None", "instagram": "None", "facebook": "None", "youtube": "None", "website": "None", "summary": "None", "logo": "None", "latitude": 45.591837000000055, "longitude": -62.643414499999935}, "801258104RR0001": {"name": "North Frontenac Food Bank", "designationCode": "C", "categoryCode": "09", "address": "PO BOX 151", "city": "SHARBOT LAKE", "province": "ON", "country": "CA", "postalCode": "K0H2P0", "twitter": "None", "instagram": "None", "facebook": "None", "youtube": "None", "website": "None", "summary": "None", "logo": "None", "latitude": 44.77155000000005, "longitude": -76.68740999999994}, "815318134RR0001": {"name": "North Halton Kitten Rescue", "designationCode": "C", "categoryCode": "54", "address": "13448 22ND SIDE ROAD", "city": "GEORGETOWN", "province": "ON", "country": "CA", "postalCode": "L7G4S4", "twitter": "None", "instagram": "None", "facebook": "None", "youtube": "None", "website": "None", "summary": "None", "logo": "None", "latitude": 43.66060759396375, "longitude": -79.95377521968625}, "836089292RR0001": {"name": "North Harvest Community Church", "designationCode": "C", "categoryCode": "36", "address": "1201-1ST STREET EAST", "city": "PRINCE ALBERT", "province": "SK", "country": "CA", "postalCode": "S6V0E2", "twitter": "None", "instagram": "None", "facebook": "None", "youtube": "None", "website": "None", "summary": "None", "logo": "None", "latitude": 53.20990157949121, "longitude": -105.71450474300298}, "862354891RR0001": {"name": "North Hastings Family Health Community Clinic", "designationCode": "C", "categoryCode": "11", "address": "1P MANOR LANE                 BOX 418", "city": "BANCROFT", "province": "ON", "country": "CA", "postalCode": "K0L1C0", "twitter": "None", "instagram": "None", "facebook": "None", "youtube": "None", "website": "None", "summary": "None", "logo": "None", "latitude": 45.05526609233665, "longitude": -77.86336121545213}, "119288918RR0131": {"name": "North Hill Congregation of Jehovah's Witnesses, Red Deer, Alberta", "designationCode": "C", "categoryCode": "61", "address": "135 KIRTON CLOSE", "city": "RED DEER", "province": "AB", "country": "CA", "postalCode": "T4P0A4", "twitter": "None", "instagram": "None", "facebook": "None", "youtube": "None", "website": "None", "summary": "None", "logo": "None", "latitude": 52.312099473224016, "longitude": -113.82099006284278}, "119288918RR1569": {"name": "North Hills Spanish Congregation of Jehovah's Witnesses, Calgary, Alberta", "designationCode": "C", "categoryCode": "61", "address": "105 EVANSTON SQ NW", "city": "CALGARY", "province": "AB", "country": "CA", "postalCode": "T3P0G9", "twitter": "None", "instagram": "None", "facebook": "None", "youtube": "None", "website": "None", "summary": "None", "logo": "None", "latitude": 51.17280928598843, "longitude": -114.11591675039948}, "839210358RR0001": {"name": "North Huron Family Health Team", "designationCode": "C", "categoryCode": "11", "address": "271 FRANCES STREET            PO BOX 208", "city": "WINGHAM", "province": "ON", "country": "CA", "postalCode": "N0G2W0", "twitter": "None", "instagram": "None", "facebook": "None", "youtube": "None", "website": "None", "summary": "None", "logo": "None", "latitude": 43.88512926604914, "longitude": -81.3088687806685}, "852460500RR0001": {"name": "North Island Choral Society", "designationCode": "C", "categoryCode": "22", "address": "1447 VALLEY VIEW DR", "city": "COURTENAY", "province": "BC", "country": "CA", "postalCode": "V9N8T3", "twitter": "None", "instagram": "None", "facebook": "None", "youtube": "None", "website": "None", "summary": "None", "logo": "None", "latitude": 49.692135394944906, "longitude": -124.96755869652016}, "119288918RR0490": {"name": "North Island Congregation of Jehovah's Witnesses", "designationCode": "C", "categoryCode": "61", "address": "2651 MINE RD.                 BOX 287", "city": "PORT MCNEILL", "province": "BC", "country": "CA", "postalCode": "V0N2R0", "twitter": "None", "instagram": "None", "facebook": "None", "youtube": "None", "website": "None", "summary": "None", "logo": "None", "latitude": 50.57933002706101, "longitude": -127.07071503975378}, "860034925RR0001": {"name": "North Island Dragon Boat Society", "designationCode": "C", "categoryCode": "11", "address": "533 ALDER ST S", "city": "CAMPBELL RIVER", "province": "BC", "country": "CA", "postalCode": "V9W5V2", "twitter": "None", "instagram": "None", "facebook": "None", "youtube": "None", "website": "None", "summary": "None", "logo": "None", "latitude": 49.99799311296093, "longitude": -125.23793604302037}, "119060630RR0001": {"name": "North Lambton Lodge Auxiliary", "designationCode": "C", "categoryCode": "19", "address": "4 WELLINGTON STREET WEST", "city": "FOREST", "province": "ON", "country": "CA", "postalCode": "N0N1J0", "twitter": "None", "instagram": "None", "facebook": "None", "youtube": "None", "website": "None", "summary": "None", "logo": "None", "latitude": 43.0996535600503, "longitude": -82.00090014855921}, "821361631RR0001": {"name": "North London Islamic Center", "designationCode": "C", "categoryCode": "60", "address": "1560-3 DUNDAS STREET", "city": "LONDON", "province": "ON", "country": "CA", "postalCode": "N5W3C1", "twitter": "None", "instagram": "None", "facebook": "None", "youtube": "None", "website": "None", "summary": "None", "logo": "None", "latitude": 42.99978891038124, "longitude": -81.19353906261163}, "119288918RR1681": {"name": "North Meadows Iloko Congregation of Jehovah's Witnesses, Winnipeg, Manitoba", "designationCode": "C", "categoryCode": "61", "address": "1877 INKSTER BLVD", "city": "WINNIPEG", "province": "MB", "country": "CA", "postalCode": "R2R2A6", "twitter": "None", "instagram": "None", "facebook": "None", "youtube": "None", "website": "None", "summary": "None", "logo": "None", "latitude": 49.94606753043998, "longitude": -97.19686349999999}, "821656626RR0001": {"name": "North Mountain Animal Sanctuary Society", "designationCode": "C", "categoryCode": "54", "address": "2732 MCNALLY ROAD             R.R.# 5", "city": "BERWICK", "province": "NS", "country": "CA", "postalCode": "B0P1E0", "twitter": "None", "instagram": "None", "facebook": "None", "youtube": "None", "website": "None", "summary": "None", "logo": "None", "latitude": 45.118595687691624, "longitude": -64.85841594766015}, "825995616RR0001": {"name": "North Mountain Cultural and Recreation Association", "designationCode": "C", "categoryCode": "56", "address": "RR#1 MARBLE MOUNTAIN", "city": "WEST BAY", "province": "NS", "country": "CA", "postalCode": "B0E3K0", "twitter": "None", "instagram": "None", "facebook": "None", "youtube": "None", "website": "None", "summary": "None", "logo": "None", "latitude": 45.77698592675341, "longitude": -61.1235041464932}, "897227500RR0001": {"name": "North Nova Educational Charitable Foundation", "designationCode": "A", "categoryCode": "20", "address": "343 PARK STREET", "city": "NEW GLASGOW", "province": "NS", "country": "CA", "postalCode": "B2H6B2", "twitter": "None", "instagram": "None", "facebook": "None", "youtube": "None", "website": "None", "summary": "None", "logo": "None", "latitude": 45.567336715160074, "longitude": -62.633131579865626}, "829052042RR0001": {"name": "North Oakville Catholic Knights Charities Inc.", "designationCode": "A", "categoryCode": "43", "address": "2745 NORTH RIDGE TRAIL", "city": "OAKVILLE", "province": "ON", "country": "CA", "postalCode": "L6H7A3", "twitter": "None", "instagram": "None", "facebook": "None", "youtube": "None", "website": "None", "summary": "None", "logo": "None", "latitude": 43.488662059957264, "longitude": -79.71261182030115}, "876103417RR0001": {"name": "North Okanagan Artists Alternative", "designationCode": "C", "categoryCode": "50", "address": "102 - 3105 28 AVE", "city": "VERNON", "province": "BC", "country": "CA", "postalCode": "V1T8Y4", "twitter": "None", "instagram": "None", "facebook": "None", "youtube": "None", "website": "None", "summary": "None", "logo": "None", "latitude": 50.26228469146606, "longitude": -119.27272629873086}, "744990722RR0001": {"name": "North Peace Bread of Life Church", "designationCode": "C", "categoryCode": "39", "address": "POST OFFICE BOX 85", "city": "KEG RIVER", "province": "AB", "country": "CA", "postalCode": "T0H2G0", "twitter": "None", "instagram": "None", "facebook": "None", "youtube": "None", "website": "None", "summary": "None", "logo": "None", "latitude": 58.506901631117465, "longitude": -119.39316330585784}, "859763591RR0001": {"name": "North Perth Family Health Team", "designationCode": "C", "categoryCode": "11", "address": "185 INKERMAN STREET EAST", "city": "LISTOWEL", "province": "ON", "country": "CA", "postalCode": "N4W2N1", "twitter": "None", "instagram": "None", "facebook": "None", "youtube": "None", "website": "None", "summary": "None", "logo": "None", "latitude": 43.73208353116122, "longitude": -80.95116324294686}, "842178998RR0001": {"name": "North Point School for Boys", "designationCode": "C", "categoryCode": "20", "address": "2445 23 AVE SW", "city": "CALGARY", "province": "AB", "country": "CA", "postalCode": "T2T0W3", "twitter": "None", "instagram": "None", "facebook": "None", "youtube": "None", "website": "None", "summary": "None", "logo": "None"}, "816030936RR0001": {"name": "North Queens Ground Search & Rescue Team Association", "designationCode": "C", "categoryCode": "59", "address": "POST OFFICE BOX 151", "city": "CALEDONIA", "province": "NS", "country": "CA", "postalCode": "B0T1B0", "twitter": "None", "instagram": "None", "facebook": "None", "youtube": "None", "website": "None", "summary": "None", "logo": "None", "latitude": 44.3565241005682, "longitude": -65.135905969237}, "809126030RR0001": {"name": "North River Road Gospel Hall", "designationCode": "C", "categoryCode": "39", "address": "1087 NORTH RIVER ROAD", "city": "OTTAWA", "province": "ON", "country": "CA", "postalCode": "K1K3W1", "twitter": "None", "instagram": "None", "facebook": "None", "youtube": "None", "website": "None", "summary": "None", "logo": "None", "latitude": 45.42344993672454, "longitude": -75.66547110433393}, "890908841RR0001": {"name": "North Saskatchewan Regiment Fund Inc.", "designationCode": "A", "categoryCode": "53", "address": "930 IDYLWYLD DR NORTH", "city": "SASKATOON", "province": "SK", "country": "CA", "postalCode": "S7L0Z6", "twitter": "None", "instagram": "None", "facebook": "None", "youtube": "None", "website": "None", "summary": "None", "logo": "None", "latitude": 52.139297038939176, "longitude": -106.67007906396644}, "890443419RR0001": {"name": "North Saskatchewan Watershed Alliance Society", "designationCode": "C", "categoryCode": "59", "address": "202 - 9440 49 ST NW", "city": "EDMONTON", "province": "AB", "country": "CA", "postalCode": "T6B2M9", "twitter": "None", "instagram": "None", "facebook": "None", "youtube": "None", "website": "None", "summary": "None", "logo": "None", "latitude": 53.53580202907843, "longitude": -113.41421707966244}, "858113814RR0001": {"name": "North Shore Christian Fellowship", "designationCode": "C", "categoryCode": "39", "address": "389 MAIN STREET               POST OFFICE BOX 70", "city": "TATAMAGOUCHE", "province": "NS", "country": "CA", "postalCode": "B0K1V0", "twitter": "None", "instagram": "None", "facebook": "None", "youtube": "None", "website": "None", "summary": "None", "logo": "None", "latitude": 45.70730124008878, "longitude": -63.284448993594694}, "805465515RR0001": {"name": "North Shore Dragon Busters Society", "designationCode": "C", "categoryCode": "11", "address": "2497 MARINE DRIVE", "city": "WEST VANCOUVER", "province": "BC", "country": "CA", "postalCode": "V7V1L3", "twitter": "None", "instagram": "None", "facebook": "None", "youtube": "None", "website": "None", "summary": "None", "logo": "None", "latitude": 49.335000726561375, "longitude": -123.1822559507825}, "804603165RR0001": {"name": "North Shore Eldercollege Society", "designationCode": "C", "categoryCode": "20", "address": "PO BOX 30087 RPO PARKGATE VLG", "city": "NORTH VANCOUVER", "province": "BC", "country": "CA", "postalCode": "V7H2Y8", "twitter": "None", "instagram": "None", "facebook": "None", "youtube": "None", "website": "None", "summary": "None", "logo": "None", "latitude": 49.3174752080322, "longitude": -122.97382911744121}, "861954998RR0001": {"name": "North Shore Health Network / R\u00e9seau sant\u00e9 Rive Nord", "designationCode": "C", "categoryCode": "10", "address": "525 CAUSLEY STREET            P.O. BOX 970", "city": "BLIND RIVER", "province": "ON", "country": "CA", "postalCode": "P0R1B0", "twitter": "None", "instagram": "None", "facebook": "None", "youtube": "None", "website": "None", "summary": "None", "logo": "None", "latitude": 46.186043394444184, "longitude": -82.92336576881038}, "867524928RR0002": {"name": "North Shore Health Network Auxiliary / Auxiliaire du R\u00e9seau Sant\u00e9 Rive Nord", "designationCode": "A", "categoryCode": "15", "address": "525 CAUSLEY STREET            P O BOX 970", "city": "BLIND RIVER", "province": "ON", "country": "CA", "postalCode": "P0R1B0", "twitter": "None", "instagram": "None", "facebook": "None", "youtube": "None", "website": "None", "summary": "None", "logo": "None", "latitude": 46.186043394444184, "longitude": -82.92336576881038}, "875908717RR0001": {"name": "North Shore Health Network Foundation / Fondation du R\u00e9seau Sant\u00e9 Rive Nord", "designationCode": "A", "categoryCode": "13", "address": "525 CAUSLEY STREET            P.O. BOX 970", "city": "BLIND RIVER", "province": "ON", "country": "CA", "postalCode": "P0R1B0", "twitter": "None", "instagram": "None", "facebook": "None", "youtube": "None", "website": "None", "summary": "None", "logo": "None", "latitude": 46.186043394444184, "longitude": -82.92336576881038}, "130565963RR0024": {"name": "North Shore Iranian Church", "designationCode": "C", "categoryCode": "39", "address": "201 EAST 23RD STREET", "city": "NORTH VANCOUVER", "province": "BC", "country": "CA", "postalCode": "V7L3E4", "twitter": "None", "instagram": "None", "facebook": "None", "youtube": "None", "website": "None", "summary": "None", "logo": "None", "latitude": 49.330181495672186, "longitude": -123.0684734701656}, "830783627RR0001": {"name": "North Shore Japanese Church", "designationCode": "C", "categoryCode": "39", "address": "1317 E 17TH ST.", "city": "NORTH VANCOUVER", "province": "BC", "country": "CA", "postalCode": "V7J1L9", "twitter": "None", "instagram": "None", "facebook": "None", "youtube": "None", "website": "None", "summary": "None", "logo": "None", "latitude": 49.32376146681873, "longitude": -123.0380102514571}, "861287951RR0001": {"name": "North Shore Light Opera Society", "designationCode": "C", "categoryCode": "22", "address": "1312 WEST 23RD STREET", "city": "NORTH VANCOUVER", "province": "BC", "country": "CA", "postalCode": "V7P2H7", "twitter": "None", "instagram": "None", "facebook": "None", "youtube": "None", "website": "None", "summary": "None", "logo": "None", "latitude": 49.33111746047076, "longitude": -123.11059113918864}, "825306657RR0001": {"name": "North Shore Pacific Grace Mandarin Church", "designationCode": "C", "categoryCode": "34", "address": "515 WEST WINDSOR ROAD", "city": "NORTH VANCOUVER", "province": "BC", "country": "CA", "postalCode": "V7N2N7", "twitter": "None", "instagram": "None", "facebook": "None", "youtube": "None", "website": "None", "summary": "None", "logo": "None", "latitude": 49.338321539529254, "longitude": -123.08296058381903}, "812208023RR0001": {"name": "North Shore Potter's House CFM Society", "designationCode": "C", "categoryCode": "39", "address": "7520 SUN VALLEY RD", "city": "KELOWNA", "province": "BC", "country": "CA", "postalCode": "V1P1H4", "twitter": "None", "instagram": "None", "facebook": "None", "youtube": "None", "website": "None", "summary": "None", "logo": "None", "latitude": 49.87438493366611, "longitude": -119.23142807063306}, "874951361RR0001": {"name": "North Shore War Memorial", "designationCode": "C", "categoryCode": "50", "address": "43020 CABOT TRAIL             RR#1", "city": "ENGLISHTOWN", "province": "NS", "country": "CA", "postalCode": "B0C1H0", "twitter": "None", "instagram": "None", "facebook": "None", "youtube": "None", "website": "None", "summary": "None", "logo": "None", "latitude": 46.49405022704706, "longitude": -60.44271454708839}, "847036308RR0001": {"name": "North Shuswap Health Centre Society", "designationCode": "C", "categoryCode": "11", "address": "2-3874 SQUILAX-ANGLEMONT RD", "city": "SCOTCH CREEK", "province": "BC", "country": "CA", "postalCode": "V0E1M5", "twitter": "None", "instagram": "None", "facebook": "None", "youtube": "None", "website": "None", "summary": "None", "logo": "None", "latitude": 50.910714537836014, "longitude": -119.45639416387846}, "823816590RR0001": {"name": "North Star Hospice Society", "designationCode": "C", "categoryCode": "01", "address": "1250-1500 GEORGIA W ST        BOX 62", "city": "VANCOUVER", "province": "BC", "country": "CA", "postalCode": "V6G2Z6", "twitter": "None", "instagram": "None", "facebook": "None", "youtube": "None", "website": "None", "summary": "None", "logo": "None", "latitude": 49.290187500000016, "longitude": -123.130035}, "800778318RR0001": {"name": "North Thompson Valley Hospice House Society", "designationCode": "C", "categoryCode": "01", "address": "BOX 1", "city": "LITTLE FORT", "province": "BC", "country": "CA", "postalCode": "V0E1C0", "twitter": "None", "instagram": "None", "facebook": "None", "youtube": "None", "website": "None", "summary": "None", "logo": "None", "latitude": 51.42700000000008, "longitude": -120.20428999999996}, "813146958RR0001": {"name": "North Vancouver Christ Church", "designationCode": "C", "categoryCode": "39", "address": "51 - 10836 152 ST", "city": "SURREY", "province": "BC", "country": "CA", "postalCode": "V3R4H2", "twitter": "None", "instagram": "None", "facebook": "None", "youtube": "None", "website": "None", "summary": "None", "logo": "None", "latitude": 49.19952536081135, "longitude": -122.8007894733396}, "817811185RR0001": {"name": "North Vancouver City Firefighters Local 296 Foundation", "designationCode": "A", "categoryCode": "09", "address": "165 13TH E ST", "city": "NORTH VANCOUVER", "province": "BC", "country": "CA", "postalCode": "V7L2L3", "twitter": "None", "instagram": "None", "facebook": "None", "youtube": "None", "website": "None", "summary": "None", "logo": "None", "latitude": 49.31987078746186, "longitude": -123.07050697989766}, "825753452RR0001": {"name": "North Vancouver Islaamic Association", "designationCode": "C", "categoryCode": "60", "address": "1398 WEST 15TH STREET", "city": "NORTH VANCOUVER", "province": "BC", "country": "CA", "postalCode": "V7P1N2", "twitter": "None", "instagram": "None", "facebook": "None", "youtube": "None", "website": "None", "summary": "None", "logo": "None", "latitude": 49.322192679774965, "longitude": -123.11332793246223}, "840131320RR0001": {"name": "North Victory Baptist Church", "designationCode": "C", "categoryCode": "31", "address": "1067 GLENCAIRN AVE", "city": "NORTH YORK", "province": "ON", "country": "CA", "postalCode": "M6B2B1", "twitter": "None", "instagram": "None", "facebook": "None", "youtube": "None", "website": "None", "summary": "None", "logo": "None", "latitude": 43.70664582373493, "longitude": -79.45565443559936}, "107797383RR0132": {"name": "North West Brampton Seventh-Day Adventist Church", "designationCode": "C", "categoryCode": "41", "address": "BOX 70069                     10661 CHINGUACOUSY ROAD", "city": "BRAMPTON", "province": "ON", "country": "CA", "postalCode": "L7A0N5", "twitter": "None", "instagram": "None", "facebook": "None", "youtube": "None", "website": "None", "summary": "None", "logo": "None", "latitude": 43.69768722485402, "longitude": -79.82385393721547}, "839163128RR0001": {"name": "North West Piano Ensemble Society", "designationCode": "C", "categoryCode": "22", "address": "109 40TH AVE E", "city": "VANCOUVER", "province": "BC", "country": "CA", "postalCode": "V5W1L6", "twitter": "None", "instagram": "None", "facebook": "None", "youtube": "None", "website": "None", "summary": "None", "logo": "None", "latitude": 49.23454250432783, "longitude": -123.10348016472386}, "889931044RR0001": {"name": "North Wind Concerts", "designationCode": "C", "categoryCode": "22", "address": "316 CONCORD AVE", "city": "TORONTO", "province": "ON", "country": "CA", "postalCode": "M6H2P6", "twitter": "None", "instagram": "None", "facebook": "None", "youtube": "None", "website": "None", "summary": "None", "logo": "None", "latitude": 43.662545706907515, "longitude": -79.42721452236124}, "107396905RR0084": {"name": "North York (Everlasting Life) Foursquare Gospel Church", "designationCode": "C", "categoryCode": "39", "address": "940 CALEDONIA ROAD            SUITE 502", "city": "TORONTO", "province": "ON", "country": "CA", "postalCode": "M6B3Y4", "twitter": "None", "instagram": "None", "facebook": "None", "youtube": "None", "website": "None", "summary": "None", "logo": "None", "latitude": 43.706512058283806, "longitude": -79.46536644491884}, "780923892RR0001": {"name": "North York Arts", "designationCode": "C", "categoryCode": "22", "address": "5040 YONGE STREET,", "city": "TORONTO", "province": "ON", "country": "CA", "postalCode": "M2N6R8", "twitter": "None", "instagram": "None", "facebook": "None", "youtube": "None", "website": "None", "summary": "None", "logo": "None", "latitude": 43.76646996528952, "longitude": -79.41220943023139}, "850947813RR0001": {"name": "North York Family Health Team Inc.", "designationCode": "C", "categoryCode": "11", "address": "301 - 240 DUNCAN MILL ROAD", "city": "NORTH YORK", "province": "ON", "country": "CA", "postalCode": "M3B3S6", "twitter": "None", "instagram": "None", "facebook": "None", "youtube": "None", "website": "None", "summary": "None", "logo": "None", "latitude": 43.76198319862531, "longitude": -79.35361230904856}, "807833884RR0001": {"name": "North York Korean Church", "designationCode": "C", "categoryCode": "39", "address": "53 ETTRICK CRES", "city": "NORTH YORK", "province": "ON", "country": "CA", "postalCode": "M9N2K7", "twitter": "None", "instagram": "None", "facebook": "None", "youtube": "None", "website": "None", "summary": "None", "logo": "None", "latitude": 43.711682574788, "longitude": -79.51063433917126}, "847631058RR0001": {"name": "North York Korean Community Church", "designationCode": "C", "categoryCode": "39", "address": "1087 LILLIAN ST.", "city": "NORTH YORK", "province": "ON", "country": "CA", "postalCode": "M2M3G1", "twitter": "None", "instagram": "None", "facebook": "None", "youtube": "None", "website": "None", "summary": "None", "logo": "None", "latitude": 43.79829664475723, "longitude": -79.41117848410231}, "107465676RR0001": {"name": "North York Korean United Church", "designationCode": "C", "categoryCode": "39", "address": "255 FINCH AVE W", "city": "NORTH YORK", "province": "ON", "country": "CA", "postalCode": "M2R1M8", "twitter": "None", "instagram": "None", "facebook": "None", "youtube": "None", "website": "None", "summary": "None", "logo": "None", "latitude": 43.77478891087219, "longitude": -79.43777473131756}, "819984790RR0001": {"name": "North York Muslim Association", "designationCode": "C", "categoryCode": "60", "address": "1 NICKLAUS DRIVE,", "city": "AURORA", "province": "ON", "country": "CA", "postalCode": "L4G7Y9", "twitter": "None", "instagram": "None", "facebook": "None", "youtube": "None", "website": "None", "summary": "None", "logo": "None", "latitude": 44.00878457008482, "longitude": -79.43767006867117}, "874991193RR0001": {"name": "North York Suzuki School of Music", "designationCode": "C", "categoryCode": "22", "address": "15 LESMILL ROAD UNIT 6", "city": "TORONTO", "province": "ON", "country": "CA", "postalCode": "M3B2T3", "twitter": "None", "instagram": "None", "facebook": "None", "youtube": "None", "website": "None", "summary": "None", "logo": "None", "latitude": 43.75581134416292, "longitude": -79.35244757588451}, "807624523RR0001": {"name": "North York Vietnamese Alliance Church of The Christian And Missionary Alliance in Canada", "designationCode": "C", "categoryCode": "39", "address": "114 - 1055 CANADIAN PLACE", "city": "MISSISSAUGA", "province": "ON", "country": "CA", "postalCode": "L4W0C2", "twitter": "None", "instagram": "None", "facebook": "None", "youtube": "None", "website": "None", "summary": "None", "logo": "None", "latitude": 43.62671187457425, "longitude": -79.6273813054704}, "830770285RR0001": {"name": "Northbow Educational Foundation", "designationCode": "C", "categoryCode": "49", "address": "2435 27 AVE NW", "city": "CALGARY", "province": "AB", "country": "CA", "postalCode": "T2M2K1", "twitter": "None", "instagram": "None", "facebook": "None", "youtube": "None", "website": "None", "summary": "None", "logo": "None", "latitude": 51.07691453952926, "longitude": -114.11738116763806}, "890152978RR0001": {"name": "Northeast BC Crime Stoppers Society", "designationCode": "C", "categoryCode": "59", "address": "PO BOX 6369 STN MAIN", "city": "FORT ST. JOHN", "province": "BC", "country": "CA", "postalCode": "V1J4H8", "twitter": "None", "instagram": "None", "facebook": "None", "youtube": "None", "website": "None", "summary": "None", "logo": "None", "latitude": 56.25253500000005, "longitude": -120.84748099999993}, "858211477RR0001": {"name": "Northeast Christian Fellowship (Edmonton)", "designationCode": "C", "categoryCode": "39", "address": "PO BOX 50139                  RPO CLAREVIEW", "city": "EDMONTON", "province": "AB", "country": "CA", "postalCode": "T5Y2M9", "twitter": "None", "instagram": "None", "facebook": "None", "youtube": "None", "website": "None", "summary": "None", "logo": "None", "latitude": 53.601255263457006, "longitude": -113.41135038668773}, "820831097RR0001": {"name": "Northern Animal Rescue Inc.", "designationCode": "C", "categoryCode": "54", "address": "PO BOX 1984", "city": "LA RONGE", "province": "SK", "country": "CA", "postalCode": "S0J1L0", "twitter": "None", "instagram": "None", "facebook": "None", "youtube": "None", "website": "None", "summary": "None", "logo": "None", "latitude": 55.104968852218384, "longitude": -105.2789552305204}, "859877466RR0001": {"name": "Northern Association for Fetal Alcohol Spectrum Disorder", "designationCode": "C", "categoryCode": "11", "address": "BOX 3334", "city": "HIGH PRAIRIE", "province": "AB", "country": "CA", "postalCode": "T0G1E0", "twitter": "None", "instagram": "None", "facebook": "None", "youtube": "None", "website": "None", "summary": "None", "logo": "None", "latitude": 55.43123005496565, "longitude": -116.49809993060764}, "843645185RR0001": {"name": "Northern Brain Injury Association", "designationCode": "C", "categoryCode": "11", "address": "1070 4TH AVE", "city": "PRINCE GEORGE", "province": "BC", "country": "CA", "postalCode": "V2L3J1", "twitter": "None", "instagram": "None", "facebook": "None", "youtube": "None", "website": "None", "summary": "None", "logo": "None", "latitude": 53.91524202691266, "longitude": -122.74282840203263}, "719665291RR0001": {"name": "Northern Bridge Community Partnership", "designationCode": "C", "categoryCode": "09", "address": "485 WINDERMERE ROAD", "city": "LONDON", "province": "ON", "country": "CA", "postalCode": "N5X2T1", "twitter": "None", "instagram": "None", "facebook": "None", "youtube": "None", "website": "None", "summary": "None", "logo": "None", "latitude": 43.01818794362078, "longitude": -81.26582712917667}, "890551443RR0001": {"name": "Northern BC Children and Families Hearing Society", "designationCode": "C", "categoryCode": "11", "address": "507-1600 3RD AVENUE", "city": "PRINCE GEORGE", "province": "BC", "country": "CA", "postalCode": "V2L3G6", "twitter": "None", "instagram": "None", "facebook": "None", "youtube": "None", "website": "None", "summary": "None", "logo": "None", "latitude": 53.91866787050817, "longitude": -122.75158176464869}, "136481116RR0001": {"name": "Northern Connections Adult Learning Centres", "designationCode": "C", "categoryCode": "20", "address": "P.O. BOX 413,24719 HWY", "city": "SHARBOT LAKE", "province": "ON", "country": "CA", "postalCode": "K0H2P0", "twitter": "None", "instagram": "None", "facebook": "None", "youtube": "None", "website": "None", "summary": "None", "logo": "None", "latitude": 44.77155000000005, "longitude": -76.68740999999994}, "801455528RR0001": {"name": "Northern Critters in Need (NCIN)", "designationCode": "C", "categoryCode": "54", "address": "122 WILLOW PLACE              PO BOX 1023", "city": "IGNACE", "province": "ON", "country": "CA", "postalCode": "P0T1T0", "twitter": "None", "instagram": "None", "facebook": "None", "youtube": "None", "website": "None", "summary": "None", "logo": "None", "latitude": 49.41155022158389, "longitude": -91.65427945411871}, "849322516RR0001": {"name": "Northern Dawn Counselling Association", "designationCode": "B", "categoryCode": "09", "address": "PO BOX 670", "city": "FAIRVIEW", "province": "AB", "country": "CA", "postalCode": "T0H1L0", "twitter": "None", "instagram": "None", "facebook": "None", "youtube": "None", "website": "None", "summary": "None", "logo": "None", "latitude": 56.06862000000007, "longitude": -118.39200999999997}, "812860971RR0001": {"name": "Northern Health Foundation Inc.", "designationCode": "A", "categoryCode": "03", "address": "84 CHURCH STREET", "city": "FLIN FLON", "province": "MB", "country": "CA", "postalCode": "R8A1L8", "twitter": "None", "instagram": "None", "facebook": "None", "youtube": "None", "website": "None", "summary": "None", "logo": "None", "latitude": 54.76713264020549, "longitude": -101.87828392253816}, "886284116RR0001": {"name": "Northern Healthy Connections Society", "designationCode": "C", "categoryCode": "11", "address": "33 PLEASANT STREET", "city": "TRURO", "province": "NS", "country": "CA", "postalCode": "B2N3R5", "twitter": "None", "instagram": "None", "facebook": "None", "youtube": "None", "website": "None", "summary": "None", "logo": "None", "latitude": 45.36395084263372, "longitude": -63.28263584941439}, "840564223RR0001": {"name": "Northern Lighthouse Ministries", "designationCode": "C", "categoryCode": "39", "address": "P.O. BOX 1502", "city": "IQALUIT", "province": "NU", "country": "CA", "postalCode": "X0A0H0", "twitter": "None", "instagram": "None", "facebook": "None", "youtube": "None", "website": "None", "summary": "None", "logo": "None", "latitude": 62.81090700000006, "longitude": -92.08155949999994}}