{"107463887RR0001": {"name": "PITT MEADOWS UNITED CHURCH", "designationCode": "C", "categoryCode": "44", "address": "12109 HARRIS ROAD", "city": "PITT MEADOWS", "province": "BC", "country": "CA", "postalCode": "V3Y2B6", "twitter": "None", "instagram": "None", "facebook": "None", "youtube": "None", "website": "None", "summary": "None", "logo": "None", "latitude": 49.22263752844941, "longitude": -122.68964407441264}, "130082530RR0001": {"name": "PIVOT CENTRE-DU-QU\u00c9BEC", "designationCode": "C", "categoryCode": "09", "address": "795 RUE CORMIER", "city": "DRUMMONDVILLE", "province": "QC", "country": "CA", "postalCode": "J2C6P7", "twitter": "None", "instagram": "None", "facebook": "None", "youtube": "None", "website": "None", "summary": "None", "logo": "None", "latitude": 45.8875521784828, "longitude": -72.51435636385523}, "894510502RR0001": {"name": "PIVOT FOUNDATION", "designationCode": "A", "categoryCode": "03", "address": "121 HEATLEY AVENUE", "city": "VANCOUVER", "province": "BC", "country": "CA", "postalCode": "V6A3E9", "twitter": "None", "instagram": "None", "facebook": "None", "youtube": "None", "website": "None", "summary": "None", "logo": "None", "latitude": 49.2848877163127, "longitude": -123.08945266312688}, "135441947RR0001": {"name": "PIVOT-FAMILLE MITIS", "designationCode": "C", "categoryCode": "09", "address": "1564 JACQUES CARTIER          C.P 447", "city": "MONT-JOLI", "province": "QC", "country": "CA", "postalCode": "G5H3L2", "twitter": "None", "instagram": "None", "facebook": "None", "youtube": "None", "website": "None", "summary": "None", "logo": "None", "latitude": 48.58685737243947, "longitude": -68.18929567961194}, "852683853RR0001": {"name": "PKD Foundation of Canada / Fondation canadienne de la MPR", "designationCode": "C", "categoryCode": "11", "address": "3-1750 THE QUEENSWAY", "city": "ETOBICOKE", "province": "ON", "country": "CA", "postalCode": "M9C5H5", "twitter": "None", "instagram": "None", "facebook": "None", "youtube": "None", "website": "None", "summary": "None", "logo": "None", "latitude": 43.61429248773673, "longitude": -79.55743385221301}, "834299554RR0001": {"name": "PKM CHARITABLE TRUST", "designationCode": "B", "categoryCode": "05", "address": "1920-1177 HASTINGS ST W", "city": "VANCOUVER", "province": "BC", "country": "CA", "postalCode": "V6E2K3", "twitter": "None", "instagram": "None", "facebook": "None", "youtube": "None", "website": "None", "summary": "None", "logo": "None", "latitude": 49.288649048588965, "longitude": -123.1221220732588}, "131986622RR0001": {"name": "PLACE DES AINES DE LAVAL", "designationCode": "C", "categoryCode": "56", "address": "435 BOUL CURE-LABELLE", "city": "CHOMEDEY", "province": "QC", "country": "CA", "postalCode": "H7V2S8", "twitter": "None", "instagram": "None", "facebook": "None", "youtube": "None", "website": "None", "summary": "None", "logo": "None", "latitude": 45.538152060851274, "longitude": -73.73770064019826}, "889939294RR0001": {"name": "PLACE DES JEUNES DE SQUATEC", "designationCode": "C", "categoryCode": "09", "address": "59A, RUE ST-JOSEPH            C.P. 357", "city": "SQUATEC", "province": "QC", "country": "CA", "postalCode": "G0L4H0", "twitter": "None", "instagram": "None", "facebook": "None", "youtube": "None", "website": "None", "summary": "None", "logo": "None", "latitude": 47.881122428710555, "longitude": -68.72897071352185}, "118898378RR0001": {"name": "PLACE OF GRACE", "designationCode": "C", "categoryCode": "39", "address": "1040 BEACH AVENUE", "city": "WINNIPEG", "province": "MB", "country": "CA", "postalCode": "R2L1E6", "twitter": "None", "instagram": "None", "facebook": "None", "youtube": "None", "website": "None", "summary": "None", "logo": "None", "latitude": 49.9021886488835, "longitude": -97.07467525604473}, "816168942RR0001": {"name": "PLACE OF PRAISE & CULTURAL CENTRE", "designationCode": "C", "categoryCode": "31", "address": "850 TAPSCOTT RD               UNIT 26", "city": "TORONTO", "province": "ON", "country": "CA", "postalCode": "M1X1N4", "twitter": "None", "instagram": "None", "facebook": "None", "youtube": "None", "website": "None", "summary": "None", "logo": "None", "latitude": 43.82110009074393, "longitude": -79.24111552060087}, "816453815RR0001": {"name": "PLACE OF RESCUE FOUNDATION", "designationCode": "C", "categoryCode": "03", "address": "128 TUSCANY HILLS CIRCLE NW", "city": "CALGARY", "province": "AB", "country": "CA", "postalCode": "T3L2E5", "twitter": "None", "instagram": "None", "facebook": "None", "youtube": "None", "website": "None", "summary": "None", "logo": "None", "latitude": 51.12149985541565, "longitude": -114.24058109394659}, "104230990RR0001": {"name": "PLACE VERMEIL INC.", "designationCode": "C", "categoryCode": "09", "address": "2600 RUE ONTARIO EST SUITE 206", "city": "MONTREAL", "province": "QC", "country": "CA", "postalCode": "H2K4K4", "twitter": "None", "instagram": "None", "facebook": "None", "youtube": "None", "website": "None", "summary": "None", "logo": "None", "latitude": 45.53367495865309, "longitude": -73.55202335945596}, "107847568RR0001": {"name": "PLACEMENT POTENTIEL INC / PLACEMENT POTENTIAL INC.", "designationCode": "C", "categoryCode": "09", "address": "111 DONEGANI", "city": "POINTE CLAIRE", "province": "QC", "country": "CA", "postalCode": "H9R2W3", "twitter": "None", "instagram": "None", "facebook": "None", "youtube": "None", "website": "None", "summary": "None", "logo": "None", "latitude": 45.450077467684125, "longitude": -73.79088586525474}, "888409877RR0001": {"name": "PLACID FOUNDATION", "designationCode": "C", "categoryCode": "01", "address": "3 ST VITAL AVE", "city": "ST. ALBERT", "province": "AB", "country": "CA", "postalCode": "T8N1K1", "twitter": "None", "instagram": "None", "facebook": "None", "youtube": "None", "website": "None", "summary": "None", "logo": "None", "latitude": 53.63881221680394, "longitude": -113.6294569953541}, "107848103RR0001": {"name": "PLADEC DAY CARE CENTRE", "designationCode": "C", "categoryCode": "20", "address": "671 INNOVATION DR", "city": "KINGSTON", "province": "ON", "country": "CA", "postalCode": "K7K7E7", "twitter": "None", "instagram": "None", "facebook": "None", "youtube": "None", "website": "None", "summary": "None", "logo": "None", "latitude": 44.27169153563411, "longitude": -76.44382036066712}, "106712870RR0001": {"name": "PLAIN & VALLEY PARISH", "designationCode": "C", "categoryCode": "30", "address": "BOX 538", "city": "LUMSDEN", "province": "SK", "country": "CA", "postalCode": "S0G3C0", "twitter": "None", "instagram": "None", "facebook": "None", "youtube": "None", "website": "None", "summary": "None", "logo": "None", "latitude": 50.64512000000008, "longitude": -104.86806999999999}, "894394089RR0001": {"name": "PLAIN LAKE CHARITABLE TRUST", "designationCode": "B", "categoryCode": "39", "address": "3425 2 AVE S", "city": "LETHBRIDGE", "province": "AB", "country": "CA", "postalCode": "T1J4V1", "twitter": "None", "instagram": "None", "facebook": "None", "youtube": "None", "website": "None", "summary": "None", "logo": "None", "latitude": 49.696839530439966, "longitude": -112.78914308381903}, "869707331RR0001": {"name": "PLAIN SIGHT MINISTRIES", "designationCode": "C", "categoryCode": "47", "address": "5489 DESSON AVE.", "city": "NIAGARA FALLS", "province": "ON", "country": "CA", "postalCode": "L2G3S9", "twitter": "None", "instagram": "None", "facebook": "None", "youtube": "None", "website": "None", "summary": "None", "logo": "None", "latitude": 43.09488740743839, "longitude": -79.08289954097155}, "107848129RR0001": {"name": "PLAINFIELD COMMUNITY HOMES", "designationCode": "C", "categoryCode": "11", "address": "91 MILLENNIUM PKY             RR 5", "city": "BELLEVILLE", "province": "ON", "country": "CA", "postalCode": "K8N4Z5", "twitter": "None", "instagram": "None", "facebook": "None", "youtube": "None", "website": "None", "summary": "None", "logo": "None", "latitude": 44.192341705616066, "longitude": -77.4065677350198}, "119094340RR0001": {"name": "PLAINS CONSERVATIVE MENNONITE CHURCH INC.", "designationCode": "C", "categoryCode": "34", "address": "DEACON GEORGE FRIESEN         BOX 111", "city": "MARTENSVILLE", "province": "SK", "country": "CA", "postalCode": "S0K2T0", "twitter": "None", "instagram": "None", "facebook": "None", "youtube": "None", "website": "None", "summary": "None", "logo": "None", "latitude": 52.28721900000001, "longitude": -106.64982377230979}, "119094373RR0001": {"name": "PLAINS SUNSET LODGE INC.", "designationCode": "C", "categoryCode": "01", "address": "BOX 272", "city": "GILBERT PLAINS", "province": "MB", "country": "CA", "postalCode": "R0L0X0", "twitter": "None", "instagram": "None", "facebook": "None", "youtube": "None", "website": "None", "summary": "None", "logo": "None", "latitude": 51.144900000000064, "longitude": -100.48893999999996}, "888573292RR0001": {"name": "PLAINVIEW CHARITABLE TRUST", "designationCode": "B", "categoryCode": "39", "address": "600 - 400 4 AVE S", "city": "LETHBRIDGE", "province": "AB", "country": "CA", "postalCode": "T1J4E1", "twitter": "None", "instagram": "None", "facebook": "None", "youtube": "None", "website": "None", "summary": "None", "logo": "None", "latitude": 49.69414437897621, "longitude": -112.8416383481493}, "889851598RR0001": {"name": "PLAINVIEW CHARITABLE TRUST", "designationCode": "B", "categoryCode": "39", "address": "1401 PRINCESS AVENUE", "city": "BRANDON", "province": "MB", "country": "CA", "postalCode": "R7A7L7", "twitter": "None", "instagram": "None", "facebook": "None", "youtube": "None", "website": "None", "summary": "None", "logo": "None", "latitude": 49.84694947489748, "longitude": -99.957294}, "888614625RR0001": {"name": "PLAMONDON AND DISTRICT MUSEUM SOCIETY", "designationCode": "C", "categoryCode": "50", "address": "P.O. BOX 412, LAND LOCATION   NE-34-067-16-4-8-10-9921594", "city": "PLAMONDON", "province": "AB", "country": "CA", "postalCode": "T0A2T0", "twitter": "None", "instagram": "None", "facebook": "None", "youtube": "None", "website": "None", "summary": "None", "logo": "None", "latitude": 54.84977700000006, "longitude": -112.34450149999994}, "899531644RR0001": {"name": "PLAMONDON AND WANDERING RIVER COMMUNITY RESOURCE SOCIETY", "designationCode": "C", "categoryCode": "09", "address": "BOX 149", "city": "WANDERING RIVER", "province": "AB", "country": "CA", "postalCode": "T0A3M0", "twitter": "None", "instagram": "None", "facebook": "None", "youtube": "None", "website": "None", "summary": "None", "logo": "None", "latitude": 33.56307220900455, "longitude": -117.59393198230757}, "897382917RR0001": {"name": "PLAMONDON ST.ISIDORE PARISH MAINTENANCE SOCIETY", "designationCode": "C", "categoryCode": "47", "address": "BOX 118", "city": "PLAMONDON", "province": "AB", "country": "CA", "postalCode": "T0A2T0", "twitter": "None", "instagram": "None", "facebook": "None", "youtube": "None", "website": "None", "summary": "None", "logo": "None", "latitude": 54.84978000000007, "longitude": -112.34449999999998}, "872151394RR0001": {"name": "PLAN FOR THE FUTURE FOUNDATION", "designationCode": "A", "categoryCode": "03", "address": "260-3665 KINGSWAY", "city": "VANCOUVER", "province": "BC", "country": "CA", "postalCode": "V5R5W2", "twitter": "None", "instagram": "None", "facebook": "None", "youtube": "None", "website": "None", "summary": "None", "logo": "None", "latitude": 49.232301482687745, "longitude": -123.02414490758262}, "885903526RR0001": {"name": "PLAN INSTITUTE FOR CITIZENSHIP AND DISABILITY", "designationCode": "C", "categoryCode": "09", "address": "260 - 3665 KINGSWAY", "city": "VANCOUVER", "province": "BC", "country": "CA", "postalCode": "V5R5W2", "twitter": "None", "instagram": "None", "facebook": "None", "youtube": "None", "website": "None", "summary": "None", "logo": "None", "latitude": 49.232301482687745, "longitude": -123.02414490758262}, "118928993RR0001": {"name": "PLAN INTERNATIONAL CANADA INC.", "designationCode": "C", "categoryCode": "09", "address": "300-245 EGLINTON AVE EAST", "city": "TORONTO", "province": "ON", "country": "CA", "postalCode": "M4P0B3", "twitter": "None", "instagram": "None", "facebook": "None", "youtube": "None", "website": "None", "summary": "None", "logo": "None", "latitude": 43.70851077266449, "longitude": -79.38958832194592}, "831892955RR0001": {"name": "PLANET IN FOCUS FOUNDATION", "designationCode": "C", "categoryCode": "22", "address": "192 SPADINA AVE #407", "city": "TORONTO", "province": "ON", "country": "CA", "postalCode": "M5T2C2", "twitter": "None", "instagram": "None", "facebook": "None", "youtube": "None", "website": "None", "summary": "None", "logo": "None", "latitude": 43.64988011824106, "longitude": -79.39794091545983}, "874244817RR0001": {"name": "PLANET INDIE SOCIETY TRUST", "designationCode": "C", "categoryCode": "22", "address": "1 - 125 TRADERS BLVD E", "city": "MISSISSAUGA", "province": "ON", "country": "CA", "postalCode": "L4Z2H3", "twitter": "None", "instagram": "None", "facebook": "None", "youtube": "None", "website": "None", "summary": "None", "logo": "None", "latitude": 43.6252611771018, "longitude": -79.67175202224566}, "131516320RR0001": {"name": "PLANNED LIFETIME ADVOCACY NETWORK", "designationCode": "C", "categoryCode": "09", "address": "260 3665 KINGSWAY", "city": "VANCOUVER", "province": "BC", "country": "CA", "postalCode": "V5R5W2", "twitter": "None", "instagram": "None", "facebook": "None", "youtube": "None", "website": "None", "summary": "None", "logo": "None", "latitude": 49.232301482687745, "longitude": -123.02414490758262}, "892254418RR0001": {"name": "PLANNED LIFETIME NETWORKS (WATERLOO-WELLINGTON-OXFORD)", "designationCode": "C", "categoryCode": "11", "address": "65 HANSON AVE", "city": "KITCHENER", "province": "ON", "country": "CA", "postalCode": "N2C2H6", "twitter": "None", "instagram": "None", "facebook": "None", "youtube": "None", "website": "None", "summary": "None", "logo": "None", "latitude": 43.42534500885816, "longitude": -80.4717904158056}, "119094449RR0001": {"name": "PLANNED PARENTHOOD OF TORONTO", "designationCode": "C", "categoryCode": "11", "address": "36B PRINCE ARTHUR AVE", "city": "TORONTO", "province": "ON", "country": "CA", "postalCode": "M5R1A9", "twitter": "None", "instagram": "None", "facebook": "None", "youtube": "None", "website": "None", "summary": "None", "logo": "None", "latitude": 43.669471856364375, "longitude": -79.39711583050862}, "123987430RR0001": {"name": "PLANNED PARENTHOOD OTTAWA-CARLETON/PLANNING DES NAISSANCES D'OTTAWA-CARLETON", "designationCode": "C", "categoryCode": "11", "address": "404 - 222 SOMERSET ST W", "city": "OTTAWA", "province": "ON", "country": "CA", "postalCode": "K2P2G3", "twitter": "None", "instagram": "None", "facebook": "None", "youtube": "None", "website": "None", "summary": "None", "logo": "None", "latitude": 45.417272596428084, "longitude": -75.69174283706514}, "107848426RR0001": {"name": "PLANNED PARENTHOOD REGINA INC.", "designationCode": "C", "categoryCode": "09", "address": "1920B FRANCIS ST", "city": "REGINA", "province": "SK", "country": "CA", "postalCode": "S4N6B3", "twitter": "None", "instagram": "None", "facebook": "None", "youtube": "None", "website": "None", "summary": "None", "logo": "None", "latitude": 50.44838549985361, "longitude": -104.57936563679257}, "886507524RR0001": {"name": "PLANT POOL RECREATION ASSOCIATION", "designationCode": "C", "categoryCode": "56", "address": "930 SOMERSET ST. WEST", "city": "OTTAWA", "province": "ON", "country": "CA", "postalCode": "K1R6R9", "twitter": "None", "instagram": "None", "facebook": "None", "youtube": "None", "website": "None", "summary": "None", "logo": "None", "latitude": 45.40813510678677, "longitude": -75.71490486840007}, "119087864RR0001": {"name": "PLASP CHILD CARE SERVICES", "designationCode": "C", "categoryCode": "09", "address": "5 - 60 COURTNEYPARK DR W", "city": "MISSISSAUGA", "province": "ON", "country": "CA", "postalCode": "L5W0B3", "twitter": "None", "instagram": "None", "facebook": "None", "youtube": "None", "website": "None", "summary": "None", "logo": "None", "latitude": 43.63657074490755, "longitude": -79.69487178619717}, "119094613RR0001": {"name": "PLAST - UKRAINIAN YOUTH ASSOCIATION OF CANADA", "designationCode": "C", "categoryCode": "29", "address": "10148 79 ST NW", "city": "EDMONTON", "province": "AB", "country": "CA", "postalCode": "T6A3G3", "twitter": "None", "instagram": "None", "facebook": "None", "youtube": "None", "website": "None", "summary": "None", "logo": "None", "latitude": 53.542827335276144, "longitude": -113.4493377292974}, "870908555RR0001": {"name": "PLAST OTTAWA", "designationCode": "C", "categoryCode": "29", "address": "913 CARLING AVENUE", "city": "OTTAWA", "province": "ON", "country": "CA", "postalCode": "K1Y4E3", "twitter": "None", "instagram": "None", "facebook": "None", "youtube": "None", "website": "None", "summary": "None", "logo": "None", "latitude": 45.39578333807475, "longitude": -75.71202489996523}, "119094605RR0003": {"name": "PLAST UKRAINIAN YOUTH ASSOCIATION OF CANADA (1978) - LOCAL GROUP OF CALGARY", "designationCode": "C", "categoryCode": "29", "address": "BOX 52128                     EDMONTON TRAIL RPO", "city": "CALGARY", "province": "AB", "country": "CA", "postalCode": "T2E8K9", "twitter": "None", "instagram": "None", "facebook": "None", "youtube": "None", "website": "None", "summary": "None", "logo": "None", "latitude": 51.07181492607277, "longitude": -114.0562368497271}, "888546447RR0001": {"name": "PLAST UKRAINIAN YOUTH ASSOCIATION OF CANADA (1978) ASSOCIATIO DE LA JEUNESSE UKRAINIENNE DE CANADA PLAST (1978)", "designationCode": "C", "categoryCode": "22", "address": "516 THE KINGSWAY", "city": "TORONTO", "province": "ON", "country": "CA", "postalCode": "M9A3W6", "twitter": "None", "instagram": "None", "facebook": "None", "youtube": "None", "website": "None", "summary": "None", "logo": "None", "latitude": 43.67378267441875, "longitude": -79.5481974328294}, "119094597RR0001": {"name": "PLAST UKRAINIAN YOUTH ASSOCIATION OF MANITOBA", "designationCode": "C", "categoryCode": "09", "address": "623 FLORA AVE", "city": "WINNIPEG", "province": "MB", "country": "CA", "postalCode": "R2W2S4", "twitter": "None", "instagram": "None", "facebook": "None", "youtube": "None", "website": "None", "summary": "None", "logo": "None", "latitude": 49.916470964769914, "longitude": -97.15025201927416}, "107848566RR0001": {"name": "PLAST UKRAINIAN YOUTH ASSOCIATION OF ONTARIO, TORONTO BRANCH", "designationCode": "C", "categoryCode": "29", "address": "516 THE KINGSWAY", "city": "TORONTO", "province": "ON", "country": "CA", "postalCode": "M9A3W6", "twitter": "None", "instagram": "None", "facebook": "None", "youtube": "None", "website": "None", "summary": "None", "logo": "None", "latitude": 43.67378267441875, "longitude": -79.5481974328294}, "119094548RR0001": {"name": "PLASTER ROCK PUBLIC SCHOOL LIBRARY", "designationCode": "C", "categoryCode": "50", "address": "290A MAIN STREET", "city": "PLASTER ROCK", "province": "NB", "country": "CA", "postalCode": "E7G2C6", "twitter": "None", "instagram": "None", "facebook": "None", "youtube": "None", "website": "None", "summary": "None", "logo": "None", "latitude": 46.9131056160487, "longitude": -67.39277076448423}, "123437915RR0001": {"name": "PLASTER ROCK UNITED BAPTIST CHURCH,", "designationCode": "C", "categoryCode": "31", "address": "251 MAIN STREET", "city": "PLASTER ROCK", "province": "NB", "country": "CA", "postalCode": "E7G2G4", "twitter": "None", "instagram": "None", "facebook": "None", "youtube": "None", "website": "None", "summary": "None", "logo": "None", "latitude": 46.90920267805408, "longitude": -67.39512458413614}, "883530511RR0001": {"name": "PLATEAU PERSPECTIVES", "designationCode": "C", "categoryCode": "99", "address": "27 MICMAC PL W", "city": "LETHBRIDGE", "province": "AB", "country": "CA", "postalCode": "T1K5H6", "twitter": "None", "instagram": "None", "facebook": "None", "youtube": "None", "website": "None", "summary": "None", "logo": "None", "latitude": 49.6860608123953, "longitude": -112.88676136317729}, "122973258RR0001": {"name": "PLATFORM 9 THEATRE (TORONTO)", "designationCode": "C", "categoryCode": "22", "address": "793 EUCLID AVE", "city": "TORONTO", "province": "ON", "country": "CA", "postalCode": "M6G2V3", "twitter": "None", "instagram": "None", "facebook": "None", "youtube": "None", "website": "None", "summary": "None", "logo": "None", "latitude": 43.66707178434992, "longitude": -79.41581936245612}, "108082330RR0001": {"name": "PLATFORM: CENTRE FOR PHOTOGRAPHIC & DIGITAL ARTS INC.", "designationCode": "C", "categoryCode": "50", "address": "218-100 ARTHUR ST", "city": "WINNIPEG", "province": "MB", "country": "CA", "postalCode": "R3B1H3", "twitter": "None", "instagram": "None", "facebook": "None", "youtube": "None", "website": "None", "summary": "None", "logo": "None", "latitude": 49.897593000000015, "longitude": -97.1406225}, "132464421RR0001": {"name": "PLATTSVILLE CHRISTIAN SCHOOL", "designationCode": "C", "categoryCode": "20", "address": "19 ALBERT ST                  BOX 69", "city": "PLATTSVILLE", "province": "ON", "country": "CA", "postalCode": "N0J1S0", "twitter": "None", "instagram": "None", "facebook": "None", "youtube": "None", "website": "None", "summary": "None", "logo": "None", "latitude": 42.99005805828381, "longitude": -80.5972885402504}, "119042414RR0001": {"name": "PLATTSVILLE EVANGELICAL MISSIONARY CHURCH", "designationCode": "C", "categoryCode": "39", "address": "19 ALBERT ST E", "city": "PLATTSVILLE", "province": "ON", "country": "CA", "postalCode": "N0J1S0", "twitter": "None", "instagram": "None", "facebook": "None", "youtube": "None", "website": "None", "summary": "None", "logo": "None", "latitude": 43.30352845376796, "longitude": -80.61923920846544}, "896369584RR0001": {"name": "PLAY FAIR DAYCARE INC.", "designationCode": "C", "categoryCode": "01", "address": "BOX 1055                      913 GORDON ST", "city": "MOOSOMIN", "province": "SK", "country": "CA", "postalCode": "S0G3N0", "twitter": "None", "instagram": "None", "facebook": "None", "youtube": "None", "website": "None", "summary": "None", "logo": "None", "latitude": 50.14250323056076, "longitude": -101.67053923205397}, "893753376RR0001": {"name": "PLAY SCHOOL INC.", "designationCode": "C", "categoryCode": "20", "address": "223 A MAIN STREET", "city": "SACKVILLE", "province": "NB", "country": "CA", "postalCode": "E4L3A7", "twitter": "None", "instagram": "None", "facebook": "None", "youtube": "None", "website": "None", "summary": "None", "logo": "None", "latitude": 45.91133968563477, "longitude": -64.37291165628058}, "107821506RR0001": {"name": "PLAYCARE CHILDREN'S SERVICES INC.", "designationCode": "C", "categoryCode": "01", "address": "BOX 2323", "city": "KINDERSLEY", "province": "SK", "country": "CA", "postalCode": "S0L1S0", "twitter": "None", "instagram": "None", "facebook": "None", "youtube": "None", "website": "None", "summary": "None", "logo": "None", "latitude": 51.46791900000005, "longitude": -109.15522999999993}, "119094647RR0001": {"name": "PLAYERS' GUILD OF HAMILTON INC.", "designationCode": "C", "categoryCode": "22", "address": "80 QUEEN STREET SOUTH", "city": "HAMILTON", "province": "ON", "country": "CA", "postalCode": "L8P3R8", "twitter": "None", "instagram": "None", "facebook": "None", "youtube": "None", "website": "None", "summary": "None", "logo": "None", "latitude": 43.256833815713506, "longitude": -79.87986313561062}, "895738292RR0001": {"name": "PLAYHOUSE CHILDCARE CENTRE INC.", "designationCode": "C", "categoryCode": "01", "address": "15 GREENLAND RD", "city": "TORONTO", "province": "ON", "country": "CA", "postalCode": "M3C1N1", "twitter": "None", "instagram": "None", "facebook": "None", "youtube": "None", "website": "None", "summary": "None", "logo": "None", "latitude": 43.73404292529891, "longitude": -79.33868570578234}, "119094662RR0001": {"name": "PLAYHOUSE 66", "designationCode": "C", "categoryCode": "22", "address": "25 EAGLEWOOD BLVD", "city": "MISSISSAUGA", "province": "ON", "country": "CA", "postalCode": "L5G1V5", "twitter": "None", "instagram": "None", "facebook": "None", "youtube": "None", "website": "None", "summary": "None", "logo": "None", "latitude": 43.55940298141834, "longitude": -79.58609334987574}, "803305242RR0001": {"name": "PLAYING 4 A PURPOSE FOUNDATION INC.", "designationCode": "C", "categoryCode": "03", "address": "301 - 3939 QUADRA ST", "city": "VICTORIA", "province": "BC", "country": "CA", "postalCode": "V8X1J5", "twitter": "None", "instagram": "None", "facebook": "None", "youtube": "None", "website": "None", "summary": "None", "logo": "None", "latitude": 48.46542162588711, "longitude": -123.36082482800545}, "859006132RR0001": {"name": "PLAYMAKERS! THEATRE SCHOOL", "designationCode": "C", "categoryCode": "22", "address": "438 DOWNIE ST", "city": "STRATFORD", "province": "ON", "country": "CA", "postalCode": "N5A1X7", "twitter": "None", "instagram": "None", "facebook": "None", "youtube": "None", "website": "None", "summary": "None", "logo": "None", "latitude": 43.362963199549924, "longitude": -80.97798197504169}, "107849002RR0001": {"name": "PLAYSHARE PRE-SCHOOL SOCIETY", "designationCode": "C", "categoryCode": "20", "address": "696 MAIN STREET", "city": "PENTICTON", "province": "BC", "country": "CA", "postalCode": "V2A5C8", "twitter": "None", "instagram": "None", "facebook": "None", "youtube": "None", "website": "None", "summary": "None", "logo": "None", "latitude": 49.49416434332622, "longitude": -119.59006059518734}, "119094712RR0001": {"name": "PLAYTIME CO-OPERATIVE CHILDCARE LTD.", "designationCode": "C", "categoryCode": "20", "address": "BOX 905", "city": "BATTLEFORD", "province": "SK", "country": "CA", "postalCode": "S0M0E0", "twitter": "None", "instagram": "None", "facebook": "None", "youtube": "None", "website": "None", "summary": "None", "logo": "None", "latitude": 52.736037700209145, "longitude": -108.26411792034625}, "119814721RR0001": {"name": "PLAYTIME NURSERY INC", "designationCode": "C", "categoryCode": "20", "address": "BOX 285", "city": "WHITEMOUTH", "province": "MB", "country": "CA", "postalCode": "R0E2G0", "twitter": "None", "instagram": "None", "facebook": "None", "youtube": "None", "website": "None", "summary": "None", "logo": "None", "latitude": 49.95072450000001, "longitude": -95.9638005}, "895386258RR0001": {"name": "PLAYWRIGHTS ATLANTIC RESOURCE CENTRE (ASSOCIATION) PARC", "designationCode": "C", "categoryCode": "22", "address": "PO BOX 33038                  QUINPOOL RPO", "city": "HALIFAX", "province": "NS", "country": "CA", "postalCode": "B3L4T6", "twitter": "None", "instagram": "None", "facebook": "None", "youtube": "None", "website": "None", "summary": "None", "logo": "None", "latitude": 44.64315378607501, "longitude": -63.60487969293097}, "119094738RR0001": {"name": "PLAYWRIGHTS' WORKSHOP MONTREAL INCORPORATED", "designationCode": "C", "categoryCode": "22", "address": "103 - 7250 RUE CLARK", "city": "MONTREAL", "province": "QC", "country": "CA", "postalCode": "H2R2Y3", "twitter": "None", "instagram": "None", "facebook": "None", "youtube": "None", "website": "None", "summary": "None", "logo": "None", "latitude": 45.534592866207056, "longitude": -73.62006627811749}, "107810467RR0001": {"name": "PLEA COMMUNITY SERVICES SOCIETY OF BRITISH COLUMBIA", "designationCode": "C", "categoryCode": "59", "address": "3894 COMMERCIAL STREET", "city": "VANCOUVER", "province": "BC", "country": "CA", "postalCode": "V5N4G2", "twitter": "None", "instagram": "None", "facebook": "None", "youtube": "None", "website": "None", "summary": "None", "logo": "None", "latitude": 49.250455292255765, "longitude": -123.0680290676902}, "119094746RR0001": {"name": "PLEASANT BAY BIBLE CONFERENCE GROUNDS INC.", "designationCode": "C", "categoryCode": "56", "address": "19 ROWE ST", "city": "ORONO", "province": "ON", "country": "CA", "postalCode": "L0B1M0", "twitter": "None", "instagram": "None", "facebook": "None", "youtube": "None", "website": "None", "summary": "None", "logo": "None", "latitude": 43.9749733827399, "longitude": -78.61153133415095}, "892796962RR0001": {"name": "PLEASANT BAY FIRST RESPONSE TEAM", "designationCode": "C", "categoryCode": "19", "address": "23302 CABOT TRAIL", "city": "PLEASANT BAY", "province": "NS", "country": "CA", "postalCode": "B0E2P0", "twitter": "None", "instagram": "None", "facebook": "None", "youtube": "None", "website": "None", "summary": "None", "logo": "None", "latitude": 46.82486157559606, "longitude": -60.81395758367481}, "119094753RR0001": {"name": "PLEASANT BAY Voluntary FIRE DEPARTMENT", "designationCode": "C", "categoryCode": "55", "address": "353 RED RIVER ROAD", "city": "PLEASANT BAY", "province": "NS", "country": "CA", "postalCode": "B0E2P0", "twitter": "None", "instagram": "None", "facebook": "None", "youtube": "None", "website": "None", "summary": "None", "logo": "None", "latitude": 45.440098683722155, "longitude": -64.72730162032586}, "101072098RR0001": {"name": "PLEASANT CHILD CARE OF NORTH YORK, INC.", "designationCode": "C", "categoryCode": "01", "address": "288 PLEASANT AVE", "city": "NORTH YORK", "province": "ON", "country": "CA", "postalCode": "M2R2R1", "twitter": "None", "instagram": "None", "facebook": "None", "youtube": "None", "website": "None", "summary": "None", "logo": "None", "latitude": 43.78950013298491, "longitude": -79.43443965211482}, "893767467RR0001": {"name": "PLEASANT HEIGHTS AFTER SCHOOL CARE ASSOCIATION", "designationCode": "C", "categoryCode": "01", "address": "PO BOX 75022                  CAMBRIAN POSTAL OUTLET,NW", "city": "CALGARY", "province": "AB", "country": "CA", "postalCode": "T2K6B8", "twitter": "None", "instagram": "None", "facebook": "None", "youtube": "None", "website": "None", "summary": "None", "logo": "None", "latitude": 51.08109775084339, "longitude": -114.08952153420422}, "119094803RR0001": {"name": "PLEASANT LAKE UNITED BAPTIST CHURCH", "designationCode": "C", "categoryCode": "31", "address": "33 MOOD RD", "city": "PLEASANT LAKE", "province": "NS", "country": "CA", "postalCode": "B5A5J4", "twitter": "None", "instagram": "None", "facebook": "None", "youtube": "None", "website": "None", "summary": "None", "logo": "None", "latitude": 43.85558684318199, "longitude": -66.01378176077658}, "119094811RR0001": {"name": "PLEASANT MANOR RETIREMENT VILLAGE", "designationCode": "C", "categoryCode": "01", "address": "15 ELDEN STREET               P.O. BOX 500", "city": "VIRGIL", "province": "ON", "country": "CA", "postalCode": "L0S1T0", "twitter": "None", "instagram": "None", "facebook": "None", "youtube": "None", "website": "None", "summary": "None", "logo": "None", "latitude": 43.22700222093021, "longitude": -79.12101089107843}, "119094837RR0001": {"name": "PLEASANT PARK BAPTIST CHURCH", "designationCode": "C", "categoryCode": "31", "address": "414 PLEASANT PARK ROAD", "city": "OTTAWA", "province": "ON", "country": "CA", "postalCode": "K1H5N1", "twitter": "None", "instagram": "None", "facebook": "None", "youtube": "None", "website": "None", "summary": "None", "logo": "None", "latitude": 45.39356951009889, "longitude": -75.65471861212421}, "107849333RR0001": {"name": "PLEASANT POINT MENNONITE CHURCH", "designationCode": "C", "categoryCode": "34", "address": "BOX 160", "city": "CLAVET", "province": "SK", "country": "CA", "postalCode": "S0K0Y0", "twitter": "None", "instagram": "None", "facebook": "None", "youtube": "None", "website": "None", "summary": "None", "logo": "None", "latitude": 52.00008000000008, "longitude": -106.38449999999995}, "119094852RR0001": {"name": "PLEASANT POINT UNION CHURCH", "designationCode": "C", "categoryCode": "39", "address": "26 ADELAIDE ST S", "city": "LINDSAY", "province": "ON", "country": "CA", "postalCode": "K9V3J5", "twitter": "None", "instagram": "None", "facebook": "None", "youtube": "None", "website": "None", "summary": "None", "logo": "None", "latitude": 44.350234021651175, "longitude": -78.74689184410526}, "119094878RR0001": {"name": "PLEASANT RIVER LAKEVIEW CEMETERY SOCIETY INC.", "designationCode": "C", "categoryCode": "59", "address": "RR#1", "city": "SOUTH BROOKFIELD", "province": "NS", "country": "CA", "postalCode": "B0T1X0", "twitter": "None", "instagram": "None", "facebook": "None", "youtube": "None", "website": "None", "summary": "None", "logo": "None", "latitude": 44.37838000000005, "longitude": -64.96909999999997}, "892125576RR0001": {"name": "PLEASANT VALE UNITED CHURCH", "designationCode": "C", "categoryCode": "44", "address": "348 PLEASANT VALE RD.", "city": "ELGIN", "province": "NB", "country": "CA", "postalCode": "E4Z2C3", "twitter": "None", "instagram": "None", "facebook": "None", "youtube": "None", "website": "None", "summary": "None", "logo": "None", "latitude": 45.8400679726767, "longitude": -65.00424506604169}, "140767922RR0001": {"name": "PLEASANT VALLEY CHARITABLE TRUST", "designationCode": "B", "categoryCode": "39", "address": "3425-22ND AVENUE SOUTH", "city": "LETHBRIDGE", "province": "AB", "country": "CA", "postalCode": "T1J4V1", "twitter": "None", "instagram": "None", "facebook": "None", "youtube": "None", "website": "None", "summary": "None", "logo": "None", "latitude": 49.687771117460315, "longitude": -112.81000296303124}, "107849382RR0001": {"name": "PLEASANT VALLEY CHURCH OF GOD ASSOCIATION", "designationCode": "C", "categoryCode": "39", "address": "6161 PLEASANT VALLEY RD", "city": "VERNON", "province": "BC", "country": "CA", "postalCode": "V1B3L6", "twitter": "None", "instagram": "None", "facebook": "None", "youtube": "None", "website": "None", "summary": "None", "logo": "None", "latitude": 50.29372577906978, "longitude": -119.25333056653638}, "889880126RR0001": {"name": "PLEASANT VALLEY COMMUNITY BAPTIST CHURCH", "designationCode": "C", "categoryCode": "39", "address": "P.O. BOX 25005                WEST BRANT", "city": "BRANTFORD", "province": "ON", "country": "CA", "postalCode": "N3T6K5", "twitter": "None", "instagram": "None", "facebook": "None", "youtube": "None", "website": "None", "summary": "None", "logo": "None", "latitude": 43.14300920844691, "longitude": -80.26710173448376}, "119288918RR0759": {"name": "PLEASANT VALLEY CONGREGATION OF JEVOHAH'S WITNESSES", "designationCode": "C", "categoryCode": "61", "address": "78 - 5854 TURNER RD", "city": "NANAIMO", "province": "BC", "country": "CA", "postalCode": "V9T2N6", "twitter": "None", "instagram": "None", "facebook": "None", "youtube": "None", "website": "None", "summary": "None", "logo": "None", "latitude": 49.22355252178432, "longitude": -124.04045256272721}, "107849432RR0001": {"name": "PLEASANT VIEW HOUSING SOCIETY 1980", "designationCode": "C", "categoryCode": "01", "address": "ANNETTE CONDON, ADMINISTRATOR 7530 HURD ST", "city": "MISSION", "province": "BC", "country": "CA", "postalCode": "V2V3H9", "twitter": "None", "instagram": "None", "facebook": "None", "youtube": "None", "website": "None", "summary": "None", "logo": "None", "latitude": 49.13809158090484, "longitude": -122.33268052599752}, "107849473RR0001": {"name": "PLEASANTVIEW UNITED CHURCH", "designationCode": "C", "categoryCode": "44", "address": "7909 82 AVENUE NW", "city": "EDMONTON", "province": "AB", "country": "CA", "postalCode": "T6C0Y1", "twitter": "None", "instagram": "None", "facebook": "None", "youtube": "None", "website": "None", "summary": "None", "logo": "None", "latitude": 53.517871499567306, "longitude": -113.44980149999999}, "119094928RR0001": {"name": "PLEASANTVILLE AND DISTRICT FIRE DEPARTMENT", "designationCode": "C", "categoryCode": "59", "address": "RR 1", "city": "PLEASANTVILLE", "province": "NS", "country": "CA", "postalCode": "B0R1G0", "twitter": "None", "instagram": "None", "facebook": "None", "youtube": "None", "website": "None", "summary": "None", "logo": "None", "latitude": 44.337180000000046, "longitude": -64.44206999999994}, "134271378RR0001": {"name": "PLEASANTVILLE BAPTIST CHURCH", "designationCode": "C", "categoryCode": "31", "address": "292 GLEN ALLAN DRIVE", "city": "BRIDGEWATER", "province": "NS", "country": "CA", "postalCode": "B4V4A4", "twitter": "None", "instagram": "None", "facebook": "None", "youtube": "None", "website": "None", "summary": "None", "logo": "None", "latitude": 44.38028862228044, "longitude": -64.5079742875239}, "119094944RR0001": {"name": "PLEASINGTON HISTORICAL SOCIETY", "designationCode": "C", "categoryCode": "52", "address": "PO BOX 277", "city": "FORESTBURG", "province": "AB", "country": "CA", "postalCode": "T0B1N0", "twitter": "None", "instagram": "None", "facebook": "None", "youtube": "None", "website": "None", "summary": "None", "logo": "None", "latitude": 52.58134386913628, "longitude": -112.05738493950088}, "141210716RR0001": {"name": "PLEIN AIR A PLEIN COEUR PROJET POUR ENFANTS ET ADOLESCENTS DE LA REGION DE MONTREAL", "designationCode": "C", "categoryCode": "09", "address": "3690, RUE BROADWAY", "city": "LACHINE", "province": "QC", "country": "CA", "postalCode": "H8T1T3", "twitter": "None", "instagram": "None", "facebook": "None", "youtube": "None", "website": "None", "summary": "None", "logo": "None", "latitude": 45.43706946047076, "longitude": -73.69802433680535}, "129341202RR0001": {"name": "PLEIN AIR VILLE-JOIE", "designationCode": "C", "categoryCode": "56", "address": "11441 RUE NOTRE-DAME OUEST", "city": "TROIS-RIVIERES", "province": "QC", "country": "CA", "postalCode": "G9B6W5", "twitter": "None", "instagram": "None", "facebook": "None", "youtube": "None", "website": "None", "summary": "None", "logo": "None", "latitude": 46.28503462724342, "longitude": -72.67885565098963}, "898260195RR0001": {"name": "PLEIN MILIEU", "designationCode": "C", "categoryCode": "09", "address": "4677 RUE ST DENIS", "city": "MONTREAL", "province": "QC", "country": "CA", "postalCode": "H2J2L5", "twitter": "None", "instagram": "None", "facebook": "None", "youtube": "None", "website": "None", "summary": "None", "logo": "None", "latitude": 45.52500519207677, "longitude": -73.58508835677198}, "120394721RR0001": {"name": "PLEIN SUD, CENTRE D'EXPOSITION ET D'ANIMATION EN ART ACTUEL A LONGUEUIL", "designationCode": "C", "categoryCode": "22", "address": "150 RUE DE GENTILLY EST       LOCAL D 0626", "city": "LONGUEUIL", "province": "QC", "country": "CA", "postalCode": "J4H4A9", "twitter": "None", "instagram": "None", "facebook": "None", "youtube": "None", "website": "None", "summary": "None", "logo": "None", "latitude": 45.536957507944294, "longitude": -73.49536555127759}, "131549354RR0001": {"name": "PLEINS DROITS DE LANAUDIERE INC", "designationCode": "C", "categoryCode": "59", "address": "718 BOUL.MANSEAU", "city": "JOLIETTE", "province": "QC", "country": "CA", "postalCode": "J6E3E9", "twitter": "None", "instagram": "None", "facebook": "None", "youtube": "None", "website": "None", "summary": "None", "logo": "None", "latitude": 46.0221698437589, "longitude": -73.44404700141364}, "865859946RR0001": {"name": "PLENTY & DISTRICT MUSEUM INC.", "designationCode": "C", "categoryCode": "50", "address": "BOX 118", "city": "PLENTY", "province": "SK", "country": "CA", "postalCode": "S0L2R0", "twitter": "None", "instagram": "None", "facebook": "None", "youtube": "None", "website": "None", "summary": "None", "logo": "None", "latitude": 51.78341000000006, "longitude": -108.63472999999999}, "119094969RR0001": {"name": "PLENTY CANADA", "designationCode": "C", "categoryCode": "09", "address": "266 PLENTY LANE", "city": "LANARK", "province": "ON", "country": "CA", "postalCode": "K0G1K0", "twitter": "None", "instagram": "None", "facebook": "None", "youtube": "None", "website": "None", "summary": "None", "logo": "None", "latitude": 44.978015697622475, "longitude": -76.46649679769683}, "119094985RR0001": {"name": "PLENTY UNITED CHURCH", "designationCode": "C", "categoryCode": "44", "address": "BOX 62", "city": "RUTHILDA", "province": "SK", "country": "CA", "postalCode": "S0K3S0", "twitter": "None", "instagram": "None", "facebook": "None", "youtube": "None", "website": "None", "summary": "None", "logo": "None", "latitude": 51.90011000000004, "longitude": -108.46811999999994}, "132003500RR0001": {"name": "PLOVER LAKE BIBLE CAMP", "designationCode": "C", "categoryCode": "56", "address": "BOX 93", "city": "YOUNGSTOWN", "province": "AB", "country": "CA", "postalCode": "T0J3P0", "twitter": "None", "instagram": "None", "facebook": "None", "youtube": "None", "website": "None", "summary": "None", "logo": "None", "latitude": 51.52899000000008, "longitude": -111.20751999999999}, "119095016RR0001": {"name": "PLUG-IN INC", "designationCode": "C", "categoryCode": "50", "address": "1 460 PORTAGE AVE", "city": "WINNIPEG", "province": "MB", "country": "CA", "postalCode": "R3C0E8", "twitter": "None", "instagram": "None", "facebook": "None", "youtube": "None", "website": "None", "summary": "None", "logo": "None", "latitude": 49.890556322754, "longitude": -97.15168130235466}, "119095040RR0001": {"name": "PLUM BLOSSOM CHILD CARE SOCIETY", "designationCode": "C", "categoryCode": "01", "address": "204 - 2929 COMMERCIAL DR", "city": "VANCOUVER", "province": "BC", "country": "CA", "postalCode": "V5N4C8", "twitter": "None", "instagram": "None", "facebook": "None", "youtube": "None", "website": "None", "summary": "None", "logo": "None", "latitude": 49.258437666828826, "longitude": -123.06990279375918}, "865842462RR0001": {"name": "PLUM COULEE COMMUNITY FOUNDATION INC.", "designationCode": "A", "categoryCode": "03", "address": "BOX 36", "city": "PLUM COULEE", "province": "MB", "country": "CA", "postalCode": "R0G1R0", "twitter": "None", "instagram": "None", "facebook": "None", "youtube": "None", "website": "None", "summary": "None", "logo": "None", "latitude": 49.19050000000004, "longitude": -97.75855999999999}, "119095024RR0001": {"name": "PLUMAS COMMUNITY HALL INC.", "designationCode": "C", "categoryCode": "56", "address": "PO BOX 184", "city": "PLUMAS", "province": "MB", "country": "CA", "postalCode": "R0J1P0", "twitter": "None", "instagram": "None", "facebook": "None", "youtube": "None", "website": "None", "summary": "None", "logo": "None", "latitude": 50.381487082446405, "longitude": -99.0863749508334}, "119890499RR0001": {"name": "PLUMAS SENIOR CITIZENS' CLUB INC", "designationCode": "C", "categoryCode": "56", "address": "BOX 126", "city": "PLUMAS", "province": "MB", "country": "CA", "postalCode": "R0J1P0", "twitter": "None", "instagram": "None", "facebook": "None", "youtube": "None", "website": "None", "summary": "None", "logo": "None", "latitude": 50.381487082446405, "longitude": -99.0863749508334}}