{"887624898RR0001": {"name": "THE PERLIN FAMILY TRUST", "designationCode": "B", "categoryCode": "25", "address": "56 BONAVENTURE AVENUE", "city": "ST.JOHN'S", "province": "NL", "country": "CA", "postalCode": "A1C3Z6", "twitter": "None", "instagram": "None", "facebook": "None", "youtube": "None", "website": "None", "summary": "None", "logo": "None", "latitude": 47.57008447489746, "longitude": -52.717473387731545}, "874462112RR0001": {"name": "THE PERTH AND DISTRICT COMMUNITY FOUNDATION", "designationCode": "A", "categoryCode": "03", "address": "33 LEWIS STREET", "city": "PERTH", "province": "ON", "country": "CA", "postalCode": "K7H2R4", "twitter": "None", "instagram": "None", "facebook": "None", "youtube": "None", "website": "None", "summary": "None", "logo": "None", "latitude": 44.900645615326866, "longitude": -76.25512414542105}, "130782030RR0001": {"name": "THE PERTH COUNTY ADVISORY GROUP FOR FAMILY SERVICES", "designationCode": "C", "categoryCode": "01", "address": "177 FRANCES STREET", "city": "MITCHELL", "province": "ON", "country": "CA", "postalCode": "N0K1N0", "twitter": "None", "instagram": "None", "facebook": "None", "youtube": "None", "website": "None", "summary": "None", "logo": "None", "latitude": 43.47338602467892, "longitude": -81.18550547945557}, "865325773RR0001": {"name": "THE PET PATROL (ELMIRA) INC", "designationCode": "C", "categoryCode": "54", "address": "P.O. BOX 31", "city": "WALLENSTEIN", "province": "ON", "country": "CA", "postalCode": "N0B2S0", "twitter": "None", "instagram": "None", "facebook": "None", "youtube": "None", "website": "None", "summary": "None", "logo": "None", "latitude": 43.59964000000008, "longitude": -80.63424999999995}, "119250975RR0001": {"name": "THE PETAWAWA CIVIC CENTRE FUND RAISING COMMITTEE", "designationCode": "C", "categoryCode": "56", "address": "16 CIVIC CENTRE RD", "city": "PETAWAWA", "province": "ON", "country": "CA", "postalCode": "K8H3H5", "twitter": "None", "instagram": "None", "facebook": "None", "youtube": "None", "website": "None", "summary": "None", "logo": "None", "latitude": 45.89227641549571, "longitude": -77.25931525082514}, "107837643RR0001": {"name": "THE PETER & CATHARINE WHYTE FOUNDATION", "designationCode": "C", "categoryCode": "03", "address": "BOX 160", "city": "BANFF", "province": "AB", "country": "CA", "postalCode": "T1L1A3", "twitter": "None", "instagram": "None", "facebook": "None", "youtube": "None", "website": "None", "summary": "None", "logo": "None", "latitude": 51.17577900000006, "longitude": -115.57274299999993}, "888881869RR0001": {"name": "THE PETER AND ELEANOR DANIELS FOUNDATION", "designationCode": "B", "categoryCode": "05", "address": "2345 YONGE STREET             SUITE 700", "city": "TORONTO", "province": "ON", "country": "CA", "postalCode": "M4P2E5", "twitter": "None", "instagram": "None", "facebook": "None", "youtube": "None", "website": "None", "summary": "None", "logo": "None", "latitude": 43.70885846961736, "longitude": -79.39875583894106}, "135562411RR0001": {"name": "THE PETER AND MELANIE MUNK CHARITABLE FOUNDATION", "designationCode": "B", "categoryCode": "53", "address": "2150-120 ADELAIDE ST W", "city": "TORONTO", "province": "ON", "country": "CA", "postalCode": "M5H1T1", "twitter": "None", "instagram": "None", "facebook": "None", "youtube": "None", "website": "None", "summary": "None", "logo": "None", "latitude": 43.649477136880044, "longitude": -79.38292947726339}, "835070327RR0001": {"name": "THE PETER GILGAN FOUNDATION", "designationCode": "B", "categoryCode": "03", "address": "2360 BRISTOL CIRCLE", "city": "OAKVILLE", "province": "ON", "country": "CA", "postalCode": "L6H6M5", "twitter": "None", "instagram": "None", "facebook": "None", "youtube": "None", "website": "None", "summary": "None", "logo": "None", "latitude": 43.51792439327147, "longitude": -79.67738041369947}, "838421261RR0001": {"name": "THE PETER KINGMA FAMILY FOUNDATION", "designationCode": "B", "categoryCode": "03", "address": "300-32988 SOUTH FRASER WAY", "city": "ABBOTSFORD", "province": "BC", "country": "CA", "postalCode": "V2S2A8", "twitter": "None", "instagram": "None", "facebook": "None", "youtube": "None", "website": "None", "summary": "None", "logo": "None", "latitude": 49.0506258238304, "longitude": -122.30613459581247}, "850340969RR0001": {"name": "THE PETER YOUNG FOUNDATION", "designationCode": "B", "categoryCode": "05", "address": "1701 - 1166 ALBERNI ST", "city": "VANCOUVER", "province": "BC", "country": "CA", "postalCode": "V6E3Z3", "twitter": "None", "instagram": "None", "facebook": "None", "youtube": "None", "website": "None", "summary": "None", "logo": "None", "latitude": 49.286152466176894, "longitude": -123.12528575074712}, "884065921RR0001": {"name": "THE PETERBOROUGH CHRISTIAN REVIVAL CENTRE CORPORATION", "designationCode": "C", "categoryCode": "39", "address": "1010 FAIRBAIRN STREET", "city": "PETERBOROUGH", "province": "ON", "country": "CA", "postalCode": "K9K1C2", "twitter": "None", "instagram": "None", "facebook": "None", "youtube": "None", "website": "None", "summary": "None", "logo": "None", "latitude": 44.3213053364013, "longitude": -78.35067814859504}, "873208730RR0001": {"name": "THE PETERBOROUGH COUNTY BOARD OF EDUCATION CHARITABLE TRUST", "designationCode": "C", "categoryCode": "25", "address": "PO BOX 719", "city": "PETERBOROUGH", "province": "ON", "country": "CA", "postalCode": "K9J7A1", "twitter": "None", "instagram": "None", "facebook": "None", "youtube": "None", "website": "None", "summary": "None", "logo": "None", "latitude": 44.30591700000005, "longitude": -78.31950199999993}, "890501141RR0001": {"name": "THE PETERBOROUGH FAMILY Y M C A FOUNDATION", "designationCode": "A", "categoryCode": "03", "address": "123 AYLMER STREET S", "city": "PETERBOROUGH", "province": "ON", "country": "CA", "postalCode": "K9J3H8", "twitter": "None", "instagram": "None", "facebook": "None", "youtube": "None", "website": "None", "summary": "None", "logo": "None", "latitude": 44.29002745899208, "longitude": -78.32094080458187}, "119251031RR0001": {"name": "THE PETERBOROUGH FOUNDATION", "designationCode": "B", "categoryCode": "03", "address": "362 QUEEN STREET", "city": "PETERBOROUGH", "province": "ON", "country": "CA", "postalCode": "K9H3J6", "twitter": "None", "instagram": "None", "facebook": "None", "youtube": "None", "website": "None", "summary": "None", "logo": "None", "latitude": 44.304931959201326, "longitude": -78.31780434344178}, "887068591RR0001": {"name": "THE PETERBOROUGH HEARING HANDICAPPED GROUP HOME SOCIETY", "designationCode": "C", "categoryCode": "21", "address": "PO BOX 2078", "city": "PETERBOROUGH", "province": "ON", "country": "CA", "postalCode": "K9H7Y4", "twitter": "None", "instagram": "None", "facebook": "None", "youtube": "None", "website": "None", "summary": "None", "logo": "None", "latitude": 44.328790000000026, "longitude": -78.33074300093045}, "119251056RR0001": {"name": "THE PETERBOROUGH HUMANE SOCIETY", "designationCode": "C", "categoryCode": "54", "address": "385 LANSDOWNE ST E", "city": "PETERBOROUGH", "province": "ON", "country": "CA", "postalCode": "K9L2A3", "twitter": "None", "instagram": "None", "facebook": "None", "youtube": "None", "website": "None", "summary": "None", "logo": "None", "latitude": 44.2918453641237, "longitude": -78.29008334394697}, "886450907RR0001": {"name": "THE PETERBOROUGH K. M. HUNTER CHARITABLE FOUNDATON", "designationCode": "C", "categoryCode": "03", "address": "166 - 301 CARNEGIE AVE", "city": "PETERBOROUGH", "province": "ON", "country": "CA", "postalCode": "K9L0G1", "twitter": "None", "instagram": "None", "facebook": "None", "youtube": "None", "website": "None", "summary": "None", "logo": "None", "latitude": 44.3476898323169, "longitude": -78.31126353772378}, "119092054RR0001": {"name": "THE PETERBOROUGH SUZUKI SCHOOL OF MUSIC", "designationCode": "C", "categoryCode": "22", "address": "2435 SHERBROOKE ST W", "city": "CAVAN MONAGHAN", "province": "ON", "country": "CA", "postalCode": "K9J0E5", "twitter": "None", "instagram": "None", "facebook": "None", "youtube": "None", "website": "None", "summary": "None", "logo": "None", "latitude": 44.28200380297433, "longitude": -78.40487944038897}, "870478310RR0001": {"name": "THE PETERSON CHARITABLE FOUNDATION", "designationCode": "B", "categoryCode": "03", "address": "130 KING STREET W.            SUITE 1800, THE EXCHANGE TOWER", "city": "TORONTO", "province": "ON", "country": "CA", "postalCode": "M5X1E3", "twitter": "None", "instagram": "None", "facebook": "None", "youtube": "None", "website": "None", "summary": "None", "logo": "None", "latitude": 43.64813860283339, "longitude": -79.38360976573959}, "890607047RR0001": {"name": "THE PETERSON SCHOOL SCHOLARSHIP SOCIETY", "designationCode": "B", "categoryCode": "23", "address": "9313-162 STREET", "city": "EDMONTON", "province": "AB", "country": "CA", "postalCode": "T5R2M8", "twitter": "None", "instagram": "None", "facebook": "None", "youtube": "None", "website": "None", "summary": "None", "logo": "None", "latitude": 53.52926358090485, "longitude": -113.60124578570623}, "119251072RR0001": {"name": "THE PETITCODIAC BOYS & GIRLS CLUB INC", "designationCode": "C", "categoryCode": "09", "address": "45 COREY AVENUE", "city": "PETITCODIAC", "province": "NB", "country": "CA", "postalCode": "E4Z4G3", "twitter": "None", "instagram": "None", "facebook": "None", "youtube": "None", "website": "None", "summary": "None", "logo": "None", "latitude": 45.93227783873064, "longitude": -65.18183428742489}, "805763349RR0001": {"name": "THE PETMAN FOUNDATION", "designationCode": "B", "categoryCode": "03", "address": "43 GLEN ELM AVENUE", "city": "TORONTO", "province": "ON", "country": "CA", "postalCode": "M4T1V1", "twitter": "None", "instagram": "None", "facebook": "None", "youtube": "None", "website": "None", "summary": "None", "logo": "None", "latitude": 43.69167693698432, "longitude": -79.39303572508516}, "119251080RR0001": {"name": "THE PETRO JACYK EDUCATION FOUNDATION", "designationCode": "B", "categoryCode": "23", "address": "5080 TIMBERLEA BLVD           SUITE 201", "city": "MISSISSAUGA", "province": "ON", "country": "CA", "postalCode": "L4W4M2", "twitter": "None", "instagram": "None", "facebook": "None", "youtube": "None", "website": "None", "summary": "None", "logo": "None", "latitude": 43.62566906598811, "longitude": -79.63638329104461}, "827331349RR0001": {"name": "THE PETROLIA & ENNISKILLEN DISTRICT AGRICULTURAL SOCIETY", "designationCode": "C", "categoryCode": "56", "address": "REAR 4065 DUFFERIN AVE.", "city": "PETROLIA", "province": "ON", "country": "CA", "postalCode": "N0N1R0", "twitter": "None", "instagram": "None", "facebook": "None", "youtube": "None", "website": "None", "summary": "None", "logo": "None", "latitude": 42.87897453116205, "longitude": -82.15551118887412}, "119251098RR0001": {"name": "THE PETROLIA DISCOVERY FOUNDATION INC", "designationCode": "C", "categoryCode": "50", "address": "4281 DISCOVERY LINE", "city": "PETROLIA", "province": "ON", "country": "CA", "postalCode": "N0N1R0", "twitter": "None", "instagram": "None", "facebook": "None", "youtube": "None", "website": "None", "summary": "None", "logo": "None", "latitude": 42.894064542847474, "longitude": -82.14265158243406}, "119251106RR0001": {"name": "THE PHELP COMMUNITY SOCIETY", "designationCode": "C", "categoryCode": "56", "address": "8990 WRIGHT STREET", "city": "LANGLEY", "province": "BC", "country": "CA", "postalCode": "V1M3T2", "twitter": "None", "instagram": "None", "facebook": "None", "youtube": "None", "website": "None", "summary": "None", "logo": "None", "latitude": 49.166298932829406, "longitude": -122.59357382566819}, "890036544RR0001": {"name": "THE PHI GAMMA DELTA FOUNDATION OF CANADA", "designationCode": "C", "categoryCode": "21", "address": "20 RAINTREE PATH", "city": "ETOBICOKE", "province": "ON", "country": "CA", "postalCode": "M9C5A9", "twitter": "None", "instagram": "None", "facebook": "None", "youtube": "None", "website": "None", "summary": "None", "logo": "None", "latitude": 43.64272504469381, "longitude": -79.58745905190716}, "119251114RR0001": {"name": "THE PHILIP SMITH FOUNDATION", "designationCode": "A", "categoryCode": "03", "address": "1136-3 CENTRE STREET          SUITE 378", "city": "THORNHILL", "province": "ON", "country": "CA", "postalCode": "L4J3M8", "twitter": "None", "instagram": "None", "facebook": "None", "youtube": "None", "website": "None", "summary": "None", "logo": "None", "latitude": 43.81622009283627, "longitude": -79.42462790513068}, "868828732RR0001": {"name": "THE PHILIPPINE-CANADIAN CENTRE OF MANITOBA, INCORPORATED", "designationCode": "C", "categoryCode": "56", "address": "737 KEEWATIN ST", "city": "WINNIPEG", "province": "MB", "country": "CA", "postalCode": "R2X3B9", "twitter": "None", "instagram": "None", "facebook": "None", "youtube": "None", "website": "None", "summary": "None", "logo": "None", "latitude": 49.935617444630395, "longitude": -97.1949788515501}, "119019693RR0001": {"name": "THE PHILLIP LILKER CHARITABLE FOUNDATION", "designationCode": "B", "categoryCode": "03", "address": "19 AVA ROAD", "city": "TORONTO", "province": "ON", "country": "CA", "postalCode": "M5P1X8", "twitter": "None", "instagram": "None", "facebook": "None", "youtube": "None", "website": "None", "summary": "None", "logo": "None", "latitude": 43.6977448859139, "longitude": -79.41853403482605}, "119251148RR0001": {"name": "THE PHINEAS KURTZ FAMILY FOUNDATION", "designationCode": "B", "categoryCode": "03", "address": "6 REDDICK COURT", "city": "TORONTO", "province": "ON", "country": "CA", "postalCode": "M6B2S2", "twitter": "None", "instagram": "None", "facebook": "None", "youtube": "None", "website": "None", "summary": "None", "logo": "None", "latitude": 43.71524312519461, "longitude": -79.43683898058161}, "119251205RR0001": {"name": "THE PHOTOGRAPHIC HISTORICAL SOCIETY OF CANADA", "designationCode": "C", "categoryCode": "52", "address": "4335 BLOOR ST. WEST           #11703", "city": "TORONTO", "province": "ON", "country": "CA", "postalCode": "M9C2A5", "twitter": "None", "instagram": "None", "facebook": "None", "youtube": "None", "website": "None", "summary": "None", "logo": "None", "latitude": 43.631516591956036, "longitude": -79.57627106532428}, "119004414RR0001": {"name": "THE PHYLLIS LAMBERT FOUNDATION/LA FONDATION PHYLLIS LAMBERT", "designationCode": "B", "categoryCode": "03", "address": "1170 PEEL STREET 8TH FLOOR", "city": "MONTREAL", "province": "QC", "country": "CA", "postalCode": "H3B4P2", "twitter": "None", "instagram": "None", "facebook": "None", "youtube": "None", "website": "None", "summary": "None", "logo": "None", "latitude": 45.49919599330624, "longitude": -73.57126662118391}, "108084484RR0001": {"name": "THE PHYSICALLY HANDICAPPED CENTRE", "designationCode": "C", "categoryCode": "01", "address": "21 MERRYMEETING ROAD", "city": "ST JOHN'S", "province": "NL", "country": "CA", "postalCode": "A1C2V6", "twitter": "None", "instagram": "None", "facebook": "None", "youtube": "None", "website": "None", "summary": "None", "logo": "None", "latitude": 47.5658719330892, "longitude": -52.717116411449105}, "869644138RR0001": {"name": "THE PICKERING COMMUNITY CONCERT BAND", "designationCode": "C", "categoryCode": "22", "address": "97 ROLLO DR", "city": "AJAX", "province": "ON", "country": "CA", "postalCode": "L1S7B8", "twitter": "None", "instagram": "None", "facebook": "None", "youtube": "None", "website": "None", "summary": "None", "logo": "None", "latitude": 43.83246681819503, "longitude": -78.99947991268986}, "890448640RR0001": {"name": "THE PICKERING ROTARY MUSIC FESTIVAL TRUST", "designationCode": "C", "categoryCode": "22", "address": "PO BOX 7", "city": "PICKERING", "province": "ON", "country": "CA", "postalCode": "L1V2R2", "twitter": "None", "instagram": "None", "facebook": "None", "youtube": "None", "website": "None", "summary": "None", "logo": "None", "latitude": 43.837818000000055, "longitude": -79.08191449999994}, "842157471RR0001": {"name": "THE PILGRIM CHURCH", "designationCode": "C", "categoryCode": "39", "address": "6516 MAIN ST.                 PO BOX 158", "city": "COMBER", "province": "ON", "country": "CA", "postalCode": "N0P1J0", "twitter": "None", "instagram": "None", "facebook": "None", "youtube": "None", "website": "None", "summary": "None", "logo": "None", "latitude": 42.22894413044608, "longitude": -82.55285700579972}, "866893811RR0001": {"name": "THE PILLAR OF RESTORATION MINISTRIES", "designationCode": "C", "categoryCode": "39", "address": "609 - 717 BROADVIEW AVE", "city": "TORONTO", "province": "ON", "country": "CA", "postalCode": "M4K2P5", "twitter": "None", "instagram": "None", "facebook": "None", "youtube": "None", "website": "None", "summary": "None", "logo": "None", "latitude": 43.67498783348713, "longitude": -79.35769046361607}, "119251262RR0001": {"name": "THE PILLAR SENIOR CITIZENS SOCIETY", "designationCode": "C", "categoryCode": "01", "address": "9908-165 ST  NW", "city": "EDMONTON", "province": "AB", "country": "CA", "postalCode": "T5P4S3", "twitter": "None", "instagram": "None", "facebook": "None", "youtube": "None", "website": "None", "summary": "None", "logo": "None", "latitude": 53.53782467709332, "longitude": -113.60598754369474}, "119251270RR0001": {"name": "THE PILOT MOUND FELLOWSHIP CLUB", "designationCode": "C", "categoryCode": "56", "address": "BOX 475", "city": "PILOT MOUND", "province": "MB", "country": "CA", "postalCode": "R0G1P0", "twitter": "None", "instagram": "None", "facebook": "None", "youtube": "None", "website": "None", "summary": "None", "logo": "None", "latitude": 49.20280000000008, "longitude": -98.89433999999994}, "866802457RR0001": {"name": "THE PINCHER CREEK CHILDREN'S WORLD DAY CARE SOCIETY", "designationCode": "C", "categoryCode": "01", "address": "962 SCHOFIELD STREET          BOX 1567", "city": "PINCHER CREEK", "province": "AB", "country": "CA", "postalCode": "T0K1W0", "twitter": "None", "instagram": "None", "facebook": "None", "youtube": "None", "website": "None", "summary": "None", "logo": "None", "latitude": 49.48403049713136, "longitude": -113.93770046628978}, "119251288RR0001": {"name": "THE PINCHER CREEK COMMUNITY CENTRE HALL SOCIETY", "designationCode": "C", "categoryCode": "56", "address": "BOX 1178", "city": "PINCHER CREEK", "province": "AB", "country": "CA", "postalCode": "T0K1W0", "twitter": "None", "instagram": "None", "facebook": "None", "youtube": "None", "website": "None", "summary": "None", "logo": "None", "latitude": 49.48739000000006, "longitude": -113.9366800732874}, "890979644RR0001": {"name": "THE PINE GROVE CEMETERY COMPANY, (LIMITED)", "designationCode": "C", "categoryCode": "59", "address": "4 RUSSELL STREET", "city": "MIRAMICHI", "province": "NB", "country": "CA", "postalCode": "E1N4G4", "twitter": "None", "instagram": "None", "facebook": "None", "youtube": "None", "website": "None", "summary": "None", "logo": "None", "latitude": 47.07126625451552, "longitude": -65.38887241075662}, "104203138RR0001": {"name": "THE PINE LAKE CHRISTIAN CAMP ASSOCIATION", "designationCode": "C", "categoryCode": "49", "address": "5300 53 AVE NW", "city": "CALGARY", "province": "AB", "country": "CA", "postalCode": "T3A2G8", "twitter": "None", "instagram": "None", "facebook": "None", "youtube": "None", "website": "None", "summary": "None", "logo": "None", "latitude": 51.10203246768411, "longitude": -114.16175983236194}, "119251312RR0001": {"name": "THE PINE ORCHARD FRIENDS CEMETERY", "designationCode": "C", "categoryCode": "59", "address": "9 KING ST", "city": "MOUNT ALBERT", "province": "ON", "country": "CA", "postalCode": "L0G1M0", "twitter": "None", "instagram": "None", "facebook": "None", "youtube": "None", "website": "None", "summary": "None", "logo": "None", "latitude": 44.13177320566676, "longitude": -79.31505394944915}, "119251304RR0001": {"name": "THE PINEHILL CEMETARY TRUST", "designationCode": "C", "categoryCode": "59", "address": "P.O. BOX 17", "city": "THEDFORD", "province": "ON", "country": "CA", "postalCode": "N0M2N0", "twitter": "None", "instagram": "None", "facebook": "None", "youtube": "None", "website": "None", "summary": "None", "logo": "None", "latitude": 43.164100000000076, "longitude": -81.85481999999996}, "898090428RR0001": {"name": "THE PINES DEVELOPMENTALLY DISABLED ADULT CENTRE INC./THE PINES ADULT DAY CENTRE", "designationCode": "C", "categoryCode": "01", "address": "4130 LAWRENCE AVE EAST", "city": "SCARBOROUGH", "province": "ON", "country": "CA", "postalCode": "M1E2R8", "twitter": "None", "instagram": "None", "facebook": "None", "youtube": "None", "website": "None", "summary": "None", "logo": "None", "latitude": 43.767155157509585, "longitude": -79.19203723708769}, "119251338RR0001": {"name": "THE PINES MEMORIAL AND DEVELOPEMENT SOCIETY", "designationCode": "C", "categoryCode": "53", "address": "660 KNIGHTON ROAD", "city": "KIMBERLEY", "province": "BC", "country": "CA", "postalCode": "V1A1E2", "twitter": "None", "instagram": "None", "facebook": "None", "youtube": "None", "website": "None", "summary": "None", "logo": "None", "latitude": 49.67029359379286, "longitude": -115.96824646790247}, "863417598RR0001": {"name": "THE PINEVIEW FAMILY AUXILIARY", "designationCode": "C", "categoryCode": "19", "address": "1200A 24TH STREET WEST", "city": "PRINCE ALBERT", "province": "SK", "country": "CA", "postalCode": "S6V4N9", "twitter": "None", "instagram": "None", "facebook": "None", "youtube": "None", "website": "None", "summary": "None", "logo": "None", "latitude": 53.19165404380796, "longitude": -105.77263611686797}, "890501570RR0001": {"name": "THE PIPES AND DRUMS OF THUNDER BAY", "designationCode": "C", "categoryCode": "22", "address": "35 MARLBOROUGH ST", "city": "THUNDER BAY", "province": "ON", "country": "CA", "postalCode": "P7B4G2", "twitter": "None", "instagram": "None", "facebook": "None", "youtube": "None", "website": "None", "summary": "None", "logo": "None", "latitude": 48.438928698020725, "longitude": -89.24201105519673}, "838974202RR0001": {"name": "THE PIZZOLATO FAMILY CHARITABLE TRUST", "designationCode": "B", "categoryCode": "05", "address": "92 DENBIGH CRESCENT", "city": "TORONTO", "province": "ON", "country": "CA", "postalCode": "M3M2T5", "twitter": "None", "instagram": "None", "facebook": "None", "youtube": "None", "website": "None", "summary": "None", "logo": "None", "latitude": 43.737243190691785, "longitude": -79.48828837122736}, "107847741RR0001": {"name": "THE PLACENTIA AREA HISTORICAL SOCIETY", "designationCode": "C", "categoryCode": "52", "address": "P O BOX 233", "city": "PLACENTIA", "province": "NL", "country": "CA", "postalCode": "A0B2Y0", "twitter": "None", "instagram": "None", "facebook": "None", "youtube": "None", "website": "None", "summary": "None", "logo": "None", "latitude": 47.37525551180635, "longitude": -53.66363809550222}, "134970490RR0001": {"name": "THE PLAMONDON AND DISTRICT AGRICULTURAL SOCIETY", "designationCode": "C", "categoryCode": "56", "address": "BOX 471", "city": "PLAMONDON", "province": "AB", "country": "CA", "postalCode": "T0A2T0", "twitter": "None", "instagram": "None", "facebook": "None", "youtube": "None", "website": "None", "summary": "None", "logo": "None", "latitude": 54.84978000000007, "longitude": -112.34449999999998}, "119251379RR0001": {"name": "THE PLANETARY ASSOCIATION FOR CLEAN ENERGY INC", "designationCode": "C", "categoryCode": "59", "address": "100 BRONSON AVENUE 1001", "city": "OTTAWA", "province": "ON", "country": "CA", "postalCode": "K1R6G8", "twitter": "None", "instagram": "None", "facebook": "None", "youtube": "None", "website": "None", "summary": "None", "logo": "None", "latitude": 45.416637199549925, "longitude": -75.70881251751379}, "119251429RR0001": {"name": "THE PLEASANT VALLEY CEMETARY COMPANY", "designationCode": "C", "categoryCode": "59", "address": "P.O. BOX 40", "city": "AUBURN", "province": "NS", "country": "CA", "postalCode": "B0P1A0", "twitter": "None", "instagram": "None", "facebook": "None", "youtube": "None", "website": "None", "summary": "None", "logo": "None", "latitude": 45.01870663864359, "longitude": -64.87197981932181}, "119251437RR0001": {"name": "THE PLEIADE THEATRE INC.", "designationCode": "C", "categoryCode": "22", "address": "15 CASE GOODS LANE, STUDIO 311", "city": "TORONTO", "province": "ON", "country": "CA", "postalCode": "M5A3C4", "twitter": "None", "instagram": "None", "facebook": "None", "youtube": "None", "website": "None", "summary": "None", "logo": "None", "latitude": 43.649968882595665, "longitude": -79.3585262463212}, "871190294RR0001": {"name": "THE PLUNKETT FOUNDATION", "designationCode": "B", "categoryCode": "05", "address": "9282 ELVIAGE DRIVE", "city": "LONDON", "province": "ON", "country": "CA", "postalCode": "N6K4N5", "twitter": "None", "instagram": "None", "facebook": "None", "youtube": "None", "website": "None", "summary": "None", "logo": "None", "latitude": 42.946586031420935, "longitude": -81.36751969167273}, "837115765RR0001": {"name": "THE PLURALISM FUND", "designationCode": "B", "categoryCode": "03", "address": "175 CUMBERLAND STREET         SUITE 2009", "city": "TORONTO", "province": "ON", "country": "CA", "postalCode": "M5R3M9", "twitter": "None", "instagram": "None", "facebook": "None", "youtube": "None", "website": "None", "summary": "None", "logo": "None", "latitude": 43.66968775823778, "longitude": -79.39387707340302}, "815765128RR0001": {"name": "THE POINT CHURCH INC.", "designationCode": "C", "categoryCode": "31", "address": "582 KING GEORGE HWY", "city": "MIRAMICHI", "province": "NB", "country": "CA", "postalCode": "E1V1N5", "twitter": "None", "instagram": "None", "facebook": "None", "youtube": "None", "website": "None", "summary": "None", "logo": "None", "latitude": 47.003702665813606, "longitude": -65.56723334628889}, "119251460RR0001": {"name": "THE POINT GREY MINI SCHOOL SERVICES SOCIETY", "designationCode": "C", "categoryCode": "29", "address": "5350 EAST BOULEVARD", "city": "VANCOUVER", "province": "BC", "country": "CA", "postalCode": "V6M3V2", "twitter": "None", "instagram": "None", "facebook": "None", "youtube": "None", "website": "None", "summary": "None", "logo": "None", "latitude": 49.23729922009349, "longitude": -123.15482843381128}, "888901261RR0001": {"name": "THE POINT TUPPER HERITAGE ASSOCIATION", "designationCode": "C", "categoryCode": "52", "address": "165 HENRY PAINT STREET", "city": "POINT TUPPER", "province": "NS", "country": "CA", "postalCode": "B9A1Y7", "twitter": "None", "instagram": "None", "facebook": "None", "youtube": "None", "website": "None", "summary": "None", "logo": "None", "latitude": 45.60736138825116, "longitude": -61.362703260228315}, "889792016RR0001": {"name": "THE POLAR FOUNDATION", "designationCode": "B", "categoryCode": "23", "address": "1900-401 BAY ST               P O BOX 19", "city": "TORONTO", "province": "ON", "country": "CA", "postalCode": "M5H2Y4", "twitter": "None", "instagram": "None", "facebook": "None", "youtube": "None", "website": "None", "summary": "None", "logo": "None", "latitude": 43.651658304201, "longitude": -79.38148850259707}, "821168945RR0001": {"name": "THE POLE FOUNDATION", "designationCode": "B", "categoryCode": "03", "address": "14026 TOWNSHIP RD 264", "city": "ROCKY VIEW COUNTY", "province": "AB", "country": "CA", "postalCode": "T4B3L5", "twitter": "None", "instagram": "None", "facebook": "None", "youtube": "None", "website": "None", "summary": "None", "logo": "None", "latitude": 51.24160549336264, "longitude": -114.09640102553523}, "119251478RR0001": {"name": "THE POLISH APOSTOLATE", "designationCode": "C", "categoryCode": "38", "address": "29 FARRELL ST", "city": "DARTMOUTH", "province": "NS", "country": "CA", "postalCode": "B3A4B2", "twitter": "None", "instagram": "None", "facebook": "None", "youtube": "None", "website": "None", "summary": "None", "logo": "None", "latitude": 44.6782996408621, "longitude": -63.58921178908177}, "124539859RR0001": {"name": "THE POLISH COMBATANTS' ASSOCIATION IN CANADA, BRANCH 8, OTTAWA FOUNDATION", "designationCode": "C", "categoryCode": "59", "address": "379 WAVERLEY STREET", "city": "OTTAWA", "province": "ON", "country": "CA", "postalCode": "K2P0W4", "twitter": "None", "instagram": "None", "facebook": "None", "youtube": "None", "website": "None", "summary": "None", "logo": "None", "latitude": 45.41343646575088, "longitude": -75.69385472219962}, "870238433RR0001": {"name": "THE POLISH INSTITUTE OF ARTS AND SCIENCES IN CANADA AND THE POLISH LIBRARY - INSTITUT POLONAIS DES SCIENCES AU CANADA ET BIBLIOTHEQUE POLONAISE", "designationCode": "C", "categoryCode": "20", "address": "4220 RUE DROLET", "city": "MONTREAL", "province": "QC", "country": "CA", "postalCode": "H2W2L6", "twitter": "None", "instagram": "None", "facebook": "None", "youtube": "None", "website": "None", "summary": "None", "logo": "None", "latitude": 45.52145381903173, "longitude": -73.57929384791383}, "889794947RR0001": {"name": "THE POLISH-JEWISH HERITAGE FOUNDATION OF CANADA - LA FONDATION CANADIENNE DE TEMOIGNAGE JUIF-POLONAIS", "designationCode": "C", "categoryCode": "21", "address": "STATION COTE ST LUC           CP 284", "city": "MONTREAL", "province": "QC", "country": "CA", "postalCode": "H4V2Y4", "twitter": "None", "instagram": "None", "facebook": "None", "youtube": "None", "website": "None", "summary": "None", "logo": "None", "latitude": 45.468369533229854, "longitude": -73.65085268422894}, "853813129RR0001": {"name": "THE POLLARD FAMILY FOUNDATION INC.", "designationCode": "B", "categoryCode": "03", "address": "200 PORTAGE AVENUE            3RD FLOOR", "city": "WINNIPEG", "province": "MB", "country": "CA", "postalCode": "R3C3X2", "twitter": "None", "instagram": "None", "facebook": "None", "youtube": "None", "website": "None", "summary": "None", "logo": "None", "latitude": 49.895239140689206, "longitude": -97.13898320272392}, "108092701RR0001": {"name": "THE POLLUTION PROBE FOUNDATION", "designationCode": "C", "categoryCode": "53", "address": "208-150 FERRAND DR", "city": "TORONTO", "province": "ON", "country": "CA", "postalCode": "M3C3E5", "twitter": "None", "instagram": "None", "facebook": "None", "youtube": "None", "website": "None", "summary": "None", "logo": "None", "latitude": 43.72091063226375, "longitude": -79.33260828290761}, "890945793RR0001": {"name": "THE POMEGRANATE GUILD OF JUDAIC TEXTILES, TORONTO", "designationCode": "C", "categoryCode": "22", "address": "PO BOX 77502                  592 SHEPPARD AVENUE WEST", "city": "TORONTO", "province": "ON", "country": "CA", "postalCode": "M3H6A7", "twitter": "None", "instagram": "None", "facebook": "None", "youtube": "None", "website": "None", "summary": "None", "logo": "None", "latitude": 43.75539822731715, "longitude": -79.43948644761738}, "892665886RR0001": {"name": "THE POMERANTZ FOUNDATION/LA FONDATION POMERANTZ", "designationCode": "B", "categoryCode": "03", "address": "400 - 5151 RUE DE LA SAVANE", "city": "MONTREAL", "province": "QC", "country": "CA", "postalCode": "H4P1V1", "twitter": "None", "instagram": "None", "facebook": "None", "youtube": "None", "website": "None", "summary": "None", "logo": "None", "latitude": 45.499470663887145, "longitude": -73.65762806771886}, "829286095RR0001": {"name": "THE POND INLET LIBRARY AND ARCHIVES SOCIETY", "designationCode": "C", "categoryCode": "50", "address": "P.O. BOX 580                  BUILDING 215", "city": "POND INLET", "province": "NU", "country": "CA", "postalCode": "X0A0S0", "twitter": "None", "instagram": "None", "facebook": "None", "youtube": "None", "website": "None", "summary": "None", "logo": "None", "latitude": 72.69624600000006, "longitude": -77.72549299999993}, "893155044RR0001": {"name": "THE PONOKA JUBILEE LIBRARY BOARD", "designationCode": "C", "categoryCode": "50", "address": "PO BOX 4160", "city": "PONOKA", "province": "AB", "country": "CA", "postalCode": "T4J1R6", "twitter": "None", "instagram": "None", "facebook": "None", "youtube": "None", "website": "None", "summary": "None", "logo": "None", "latitude": 52.67526900000006, "longitude": -113.58076399999993}, "889294773RR0001": {"name": "THE PONOKA RISING SUN CLUBHOUSE SOCIETY", "designationCode": "C", "categoryCode": "11", "address": "PO BOX 4515", "city": "PONOKA", "province": "AB", "country": "CA", "postalCode": "T4J1S1", "twitter": "None", "instagram": "None", "facebook": "None", "youtube": "None", "website": "None", "summary": "None", "logo": "None", "latitude": 52.67526900000006, "longitude": -113.58076399999993}, "859941361RR0001": {"name": "THE PONTIFICAL INSTITUTE OF MEDIAEVAL STUDIES", "designationCode": "C", "categoryCode": "20", "address": "59 QUEEN'S PARK CRESCENT EAST", "city": "TORONTO", "province": "ON", "country": "CA", "postalCode": "M5S2C4", "twitter": "None", "instagram": "None", "facebook": "None", "youtube": "None", "website": "None", "summary": "None", "logo": "None", "latitude": 43.66557560450681, "longitude": -79.39141453271992}, "862569829RR0001": {"name": "THE POOL", "designationCode": "C", "categoryCode": "34", "address": "P.O. BOX 26036", "city": "MONCTON", "province": "NB", "country": "CA", "postalCode": "E1E4H9", "twitter": "None", "instagram": "None", "facebook": "None", "youtube": "None", "website": "None", "summary": "None", "logo": "None", "latitude": 46.08834900000005, "longitude": -64.77824149999994}, "870034014RR0001": {"name": "THE POPPY FUND", "designationCode": "B", "categoryCode": "03", "address": "15 BIRCH AVE", "city": "TORONTO", "province": "ON", "country": "CA", "postalCode": "M4V1E1", "twitter": "None", "instagram": "None", "facebook": "None", "youtube": "None", "website": "None", "summary": "None", "logo": "None", "latitude": 43.68123782763008, "longitude": -79.3920747053783}, "890061062RR0001": {"name": "THE PORCUPINE AND DISTRICT CHILDREN'S FOUNDATION", "designationCode": "A", "categoryCode": "03", "address": "707 ROSS AVE., EAST", "city": "TIMMINS", "province": "ON", "country": "CA", "postalCode": "P4N6R1", "twitter": "None", "instagram": "None", "facebook": "None", "youtube": "None", "website": "None", "summary": "None", "logo": "None", "latitude": 48.485920251340374, "longitude": -81.31401282359637}, "892082884RR0001": {"name": "THE PORT ALBERNI MARITIME HERITAGE SOCIETY", "designationCode": "C", "categoryCode": "50", "address": "4715 GERTRUDE ST", "city": "PORT ALBERNI", "province": "BC", "country": "CA", "postalCode": "V9Y6K4", "twitter": "None", "instagram": "None", "facebook": "None", "youtube": "None", "website": "None", "summary": "None", "logo": "None", "latitude": 49.260194218496046, "longitude": -124.81243274526658}, "850144288RR0001": {"name": "THE PORT ALBERNI YOUTH CENTRE SOCIETY", "designationCode": "C", "categoryCode": "56", "address": "4210 CEDARWOOD STREET", "city": "PORT ALBERNI", "province": "BC", "country": "CA", "postalCode": "V9Y4A6", "twitter": "None", "instagram": "None", "facebook": "None", "youtube": "None", "website": "None", "summary": "None", "logo": "None", "latitude": 49.25662448025675, "longitude": -124.79706014766366}, "832443675RR0001": {"name": "THE PORT COLBORNE OPERATIC SOCIETY", "designationCode": "C", "categoryCode": "22", "address": "P.O. BOX 383", "city": "PORT COLBORNE", "province": "ON", "country": "CA", "postalCode": "L3K1B7", "twitter": "None", "instagram": "None", "facebook": "None", "youtube": "None", "website": "None", "summary": "None", "logo": "None", "latitude": 42.88507800000005, "longitude": -79.25200099999994}, "119251577RR0001": {"name": "THE PORT COLBORNE SOCIAL & RECREATION CENTRE FOR SENIOR CITIZENS", "designationCode": "C", "categoryCode": "56", "address": "554 FIELDEN AVE", "city": "PORT COLBORNE", "province": "ON", "country": "CA", "postalCode": "L3K4V1", "twitter": "None", "instagram": "None", "facebook": "None", "youtube": "None", "website": "None", "summary": "None", "logo": "None", "latitude": 42.89346905245543, "longitude": -79.25740149105495}, "893267526RR0001": {"name": "THE PORT COQUITLAM HERITAGE AND CULTURAL SOCIETY", "designationCode": "C", "categoryCode": "50", "address": "150 - 2248 MCALLISTER AVE", "city": "PORT COQUITLAM", "province": "BC", "country": "CA", "postalCode": "V3C2A5", "twitter": "None", "instagram": "None", "facebook": "None", "youtube": "None", "website": "None", "summary": "None", "logo": "None", "latitude": 49.26212082340817, "longitude": -122.77974165335957}, "891188062RR0001": {"name": "THE PORT DALHOUSIE NURSERY SCHOOL INC", "designationCode": "C", "categoryCode": "20", "address": "507 GENEVA STREET", "city": "ST CATHARINES", "province": "ON", "country": "CA", "postalCode": "L2N2H7", "twitter": "None", "instagram": "None", "facebook": "None", "youtube": "None", "website": "None", "summary": "None", "logo": "None", "latitude": 43.19445788620235, "longitude": -79.24173962046181}, "119251601RR0001": {"name": "THE PORT HASTINGS VOLUNTEER FIRE DEPARTMENT", "designationCode": "C", "categoryCode": "59", "address": "15 OLD VICTORIA RD", "city": "PORT HASTINGS", "province": "NS", "country": "CA", "postalCode": "B9A1L2", "twitter": "None", "instagram": "None", "facebook": "None", "youtube": "None", "website": "None", "summary": "None", "logo": "None", "latitude": 45.647052925616045, "longitude": -61.40253249391182}, "119251627RR0001": {"name": "THE PORT HOPE AND DISTRICT HEALTH CARE FOUNDATION", "designationCode": "A", "categoryCode": "13", "address": "P O BOX 95", "city": "PORT HOPE", "province": "ON", "country": "CA", "postalCode": "L1A3V9", "twitter": "None", "instagram": "None", "facebook": "None", "youtube": "None", "website": "None", "summary": "None", "logo": "None", "latitude": 43.95010200000006, "longitude": -78.29160199999993}, "863856498RR0001": {"name": "THE PORT MOODY FILM SOCIETY", "designationCode": "C", "categoryCode": "22", "address": "2425 ST JOHNS ST", "city": "PORT MOODY", "province": "BC", "country": "CA", "postalCode": "V3H2B2", "twitter": "None", "instagram": "None", "facebook": "None", "youtube": "None", "website": "None", "summary": "None", "logo": "None", "latitude": 49.27669851788917, "longitude": -122.85714077699231}, "132351404RR0001": {"name": "THE PORT MOODY HERITAGE SOCIETY", "designationCode": "C", "categoryCode": "50", "address": "2734 MURRAY ST", "city": "PORT MOODY", "province": "BC", "country": "CA", "postalCode": "V3H1X2", "twitter": "None", "instagram": "None", "facebook": "None", "youtube": "None", "website": "None", "summary": "None", "logo": "None", "latitude": 49.27893754970037, "longitude": -122.8511429132069}, "890003460RR0001": {"name": "THE PORT STANLEY COMMUNITY POLICING COMMITTEE", "designationCode": "C", "categoryCode": "59", "address": "285 BRIDGE ST                 UNIT 2", "city": "PORT STANLEY", "province": "ON", "country": "CA", "postalCode": "N5L1C2", "twitter": "None", "instagram": "None", "facebook": "None", "youtube": "None", "website": "None", "summary": "None", "logo": "None", "latitude": 42.665814646979065, "longitude": -81.21297856113196}, "130318330RR0001": {"name": "THE PORT THEATRE SOCIETY", "designationCode": "C", "categoryCode": "56", "address": "125 FRONT STREET", "city": "NANAIMO", "province": "BC", "country": "CA", "postalCode": "V9R6Z4", "twitter": "None", "instagram": "None", "facebook": "None", "youtube": "None", "website": "None", "summary": "None", "logo": "None", "latitude": 49.166507771339006, "longitude": -123.93558408189206}, "119251510RR0001": {"name": "THE PORTAGE AND DISTRICT ARTS COUNCIL INC", "designationCode": "C", "categoryCode": "22", "address": "11-2ND ST N.E.", "city": "PORTAGE LA PRAIRIE", "province": "MB", "country": "CA", "postalCode": "R1N1R8", "twitter": "None", "instagram": "None", "facebook": "None", "youtube": "None", "website": "None", "summary": "None", "logo": "None", "latitude": 49.97312727095087, "longitude": -98.28782195144524}, "119251528RR0001": {"name": "THE PORTAGE DISTRICT GENERAL HOSPITAL FOUNDATION", "designationCode": "A", "categoryCode": "13", "address": "524 5TH ST SE", "city": "PORTAGE LA PRAIRIE", "province": "MB", "country": "CA", "postalCode": "R1N3A8", "twitter": "None", "instagram": "None", "facebook": "None", "youtube": "None", "website": "None", "summary": "None", "logo": "None", "latitude": 49.966471017651465, "longitude": -98.28367456329354}, "129151072RR0001": {"name": "THE PORTAGE FOUNDATION LA FONDATION PORTAGE", "designationCode": "C", "categoryCode": "53", "address": "865 SQUARE RICHMOND", "city": "MONTREAL", "province": "QC", "country": "CA", "postalCode": "H3J1V8", "twitter": "None", "instagram": "None", "facebook": "None", "youtube": "None", "website": "None", "summary": "None", "logo": "None", "latitude": 45.49185603398467, "longitude": -73.57274994790104}, "119096212RR0001": {"name": "THE PORTAGE INSTITUTE-L'INSTITUT PORTAGE", "designationCode": "C", "categoryCode": "57", "address": "865 SQUARE RICHMOND", "city": "MONTREAL", "province": "QC", "country": "CA", "postalCode": "H3J1V8", "twitter": "None", "instagram": "None", "facebook": "None", "youtube": "None", "website": "None", "summary": "None", "logo": "None", "latitude": 45.49185603398467, "longitude": -73.57274994790104}, "107613812RR0001": {"name": "THE PORTAGE PROGRAM FOR DRUG DEPENDENCIES INC./LE PROGRAMME DE PORTAGE RELATIF A LA DEPENDANCE DE LA DROGUE INC.", "designationCode": "C", "categoryCode": "57", "address": "865 RICHMOND SQUARE", "city": "MONTREAL", "province": "QC", "country": "CA", "postalCode": "H3J1V8", "twitter": "None", "instagram": "None", "facebook": "None", "youtube": "None", "website": "None", "summary": "None", "logo": "None", "latitude": 45.49185603398467, "longitude": -73.57274994790104}, "136586443RR0001": {"name": "THE POSITIVE WOMEN'S NETWORK SOCIETY", "designationCode": "C", "categoryCode": "09", "address": "6TH FL SUITE 614 1033 DAVIE ST", "city": "VANCOUVER", "province": "BC", "country": "CA", "postalCode": "V6E1M7", "twitter": "None", "instagram": "None", "facebook": "None", "youtube": "None", "website": "None", "summary": "None", "logo": "None", "latitude": 49.279768270067414, "longitude": -123.13020721729487}, "119251643RR0001": {"name": "THE POSLUNS FAMILY FOUNDATION", "designationCode": "B", "categoryCode": "03", "address": "30 ST CLAIR AVE. W. SUITE 900", "city": "TORONTO", "province": "ON", "country": "CA", "postalCode": "M4V3A1", "twitter": "None", "instagram": "None", "facebook": "None", "youtube": "None", "website": "None", "summary": "None", "logo": "None", "latitude": 43.68793341661366, "longitude": -79.39520235082801}, "884721515RR0001": {"name": "THE POTTER'S HOUSE CHRISTIAN FELLOWSHIP (SURREY)", "designationCode": "C", "categoryCode": "39", "address": "8464 JUDITH STREET", "city": "MISSION", "province": "BC", "country": "CA", "postalCode": "V2V5Y1", "twitter": "None", "instagram": "None", "facebook": "None", "youtube": "None", "website": "None", "summary": "None", "logo": "None", "latitude": 49.15589299417161, "longitude": -122.31033951604284}, "864375837RR0001": {"name": "THE POTTER'S HOUSE CHRISTIAN FELLOWSHIP - NORTH YORK", "designationCode": "C", "categoryCode": "39", "address": "69 TED WRAY CIR", "city": "NORTH YORK", "province": "ON", "country": "CA", "postalCode": "M3L0G7", "twitter": "None", "instagram": "None", "facebook": "None", "youtube": "None", "website": "None", "summary": "None", "logo": "None", "latitude": 43.729523328899504, "longitude": -79.52285776464306}}