{"867103459RR0001": {"name": "TIFERET ISRA\u00cbL", "designationCode": "C", "categoryCode": "42", "address": "2195 AV EKERS", "city": "MONT-ROYAL", "province": "QC", "country": "CA", "postalCode": "H3S1C6", "twitter": "None", "instagram": "None", "facebook": "None", "youtube": "None", "website": "None", "summary": "None", "logo": "None", "latitude": 45.51559824314721, "longitude": -73.62750419138428}, "848990412RR0001": {"name": "TIFERET ISRAEL CONGREGATION", "designationCode": "C", "categoryCode": "42", "address": "756 SHEPPARD AVENUE WEST", "city": "TORONTO", "province": "ON", "country": "CA", "postalCode": "M3H2S8", "twitter": "None", "instagram": "None", "facebook": "None", "youtube": "None", "website": "None", "summary": "None", "logo": "None", "latitude": 43.753760201800304, "longitude": -79.4469899222978}, "108109059RR0001": {"name": "TIFERETH BETH DAVID JERUSALEM SYNAGOGUE", "designationCode": "C", "categoryCode": "42", "address": "6519 BAILEY RD", "city": "MONTREAL", "province": "QC", "country": "CA", "postalCode": "H4V1A1", "twitter": "None", "instagram": "None", "facebook": "None", "youtube": "None", "website": "None", "summary": "None", "logo": "None", "latitude": 45.476936770750484, "longitude": -73.65539477049313}, "119264505RR0001": {"name": "TIFERETH CHARITABLE FOUNDATION", "designationCode": "C", "categoryCode": "29", "address": "109 TANGREEN CIRCLE", "city": "THORNHILL", "province": "ON", "country": "CA", "postalCode": "L4J5C9", "twitter": "None", "instagram": "None", "facebook": "None", "youtube": "None", "website": "None", "summary": "None", "logo": "None", "latitude": 43.80593426227714, "longitude": -79.44313217987174}, "891009649RR0001": {"name": "TIFERETH SHLOMO ORPHAN HOME OF JERUSALEM INC.", "designationCode": "C", "categoryCode": "21", "address": "205 - 2775 RUE MODUGNO", "city": "SAINT-LAURENT", "province": "QC", "country": "CA", "postalCode": "H4R1Z8", "twitter": "None", "instagram": "None", "facebook": "None", "youtube": "None", "website": "None", "summary": "None", "logo": "None", "latitude": 45.503593877892456, "longitude": -73.70282052319794}, "119264521RR0001": {"name": "TIGER GROUP - ALCOHOLICS ANONYMOUS", "designationCode": "C", "categoryCode": "57", "address": "25 IVYBRIDGE GATE, SUITE 335", "city": "WINNIPEG", "province": "MB", "country": "CA", "postalCode": "R3W0L5", "twitter": "None", "instagram": "None", "facebook": "None", "youtube": "None", "website": "None", "summary": "None", "logo": "None", "latitude": 49.902504474754046, "longitude": -97.04856078457608}, "119264539RR0001": {"name": "TIGER HILLS ARTS ASSOCIATION INC", "designationCode": "C", "categoryCode": "22", "address": "BOX 58", "city": "HOLLAND", "province": "MB", "country": "CA", "postalCode": "R0G0X0", "twitter": "None", "instagram": "None", "facebook": "None", "youtube": "None", "website": "None", "summary": "None", "logo": "None", "latitude": 49.7686281543147, "longitude": -97.632704369717}, "893253583RR0001": {"name": "TIGER HILLS COMMUNITY FOUNDATION INC.", "designationCode": "A", "categoryCode": "53", "address": "BOX 342", "city": "TREHERNE", "province": "MB", "country": "CA", "postalCode": "R0G2V0", "twitter": "None", "instagram": "None", "facebook": "None", "youtube": "None", "website": "None", "summary": "None", "logo": "None", "latitude": 49.635710000000074, "longitude": -98.69734999999997}, "889053641RR0001": {"name": "TIGER HILLS FESTIVAL OF THE ARTS", "designationCode": "C", "categoryCode": "22", "address": "PO BOX 188                    121 BARR STREET", "city": "HOLLAND", "province": "MB", "country": "CA", "postalCode": "R0G0X0", "twitter": "None", "instagram": "None", "facebook": "None", "youtube": "None", "website": "None", "summary": "None", "logo": "None", "latitude": 49.59444901362209, "longitude": -98.88125649276589}, "815167606RR0001": {"name": "TIGER HILLS TRANSIT INC.", "designationCode": "C", "categoryCode": "59", "address": "BOX 557", "city": "TREHERNE", "province": "MB", "country": "CA", "postalCode": "R0G2V0", "twitter": "None", "instagram": "None", "facebook": "None", "youtube": "None", "website": "None", "summary": "None", "logo": "None", "latitude": 49.635710000000074, "longitude": -98.69734999999997}, "119264562RR0001": {"name": "TIGER MOUNTAIN POOL INC", "designationCode": "C", "categoryCode": "56", "address": "BOX 56", "city": "TREHERNE", "province": "MB", "country": "CA", "postalCode": "R0G2V0", "twitter": "None", "instagram": "None", "facebook": "None", "youtube": "None", "website": "None", "summary": "None", "logo": "None", "latitude": 49.635710000000074, "longitude": -98.69734999999997}, "865122493RR0001": {"name": "TIGER PRINCESS DANCE PROJECTS", "designationCode": "C", "categoryCode": "22", "address": "476 PARLIAMENT STREET         SECOND FLOOR", "city": "TORONTO", "province": "ON", "country": "CA", "postalCode": "M4X1P2", "twitter": "None", "instagram": "None", "facebook": "None", "youtube": "None", "website": "None", "summary": "None", "logo": "None", "latitude": 43.66447262891686, "longitude": -79.3680932184487}, "862754348RR0001": {"name": "TIGNISH FIRE DEPARTMENT FUND RAISING COMMITTEE", "designationCode": "C", "categoryCode": "59", "address": "P.O. BOX 43", "city": "TIGNISH", "province": "PE", "country": "CA", "postalCode": "C0B2B0", "twitter": "None", "instagram": "None", "facebook": "None", "youtube": "None", "website": "None", "summary": "None", "logo": "None", "latitude": 46.95133000000004, "longitude": -64.03332999999998}, "891466641RR0002": {"name": "TIGNISH HEALTH CHARITABLE TRUST FUND", "designationCode": "C", "categoryCode": "09", "address": "BOX 118", "city": "TIGNISH", "province": "PE", "country": "CA", "postalCode": "C0B2B0", "twitter": "None", "instagram": "None", "facebook": "None", "youtube": "None", "website": "None", "summary": "None", "logo": "None", "latitude": 46.95133000000004, "longitude": -64.03332999999998}, "886679810RR0001": {"name": "TIGNISH SENIORS HOME CARE CO-OPERATIVE LTD", "designationCode": "C", "categoryCode": "09", "address": "193 DALTON AVENUE", "city": "TIGNISH", "province": "PE", "country": "CA", "postalCode": "C0B2B0", "twitter": "None", "instagram": "None", "facebook": "None", "youtube": "None", "website": "None", "summary": "None", "logo": "None", "latitude": 46.95055887141725, "longitude": -64.03187450133544}, "130005648RR0001": {"name": "TIKINAGAN CHILD AND FAMILY SERVICES", "designationCode": "C", "categoryCode": "01", "address": "63 KING STREET                P. O. BOX 627", "city": "SIOUX LOOKOUT", "province": "ON", "country": "CA", "postalCode": "P8T1B1", "twitter": "None", "instagram": "None", "facebook": "None", "youtube": "None", "website": "None", "summary": "None", "logo": "None", "latitude": 50.09900077871836, "longitude": -91.91820584436562}, "864065396RR0001": {"name": "TIKUN OLAM FOUNDATION", "designationCode": "A", "categoryCode": "03", "address": "5444 YONGE ST SUITE #2112", "city": "TORONTO", "province": "ON", "country": "CA", "postalCode": "M2N6J4", "twitter": "None", "instagram": "None", "facebook": "None", "youtube": "None", "website": "None", "summary": "None", "logo": "None", "latitude": 43.776596935310884, "longitude": -79.41472558058679}, "856498837RR0001": {"name": "TIKVA CHILDREN'S FOUNDATION/FONDATION POUR LES ENFANTS TIKVA", "designationCode": "C", "categoryCode": "09", "address": "650 LEBEAU STREET", "city": "ST. LAURENT", "province": "QC", "country": "CA", "postalCode": "H4N1R9", "twitter": "None", "instagram": "None", "facebook": "None", "youtube": "None", "website": "None", "summary": "None", "logo": "None", "latitude": 45.52704505571634, "longitude": -73.66305027078857}, "842562613RR0001": {"name": "TIKVA HOUSING SOCIETY", "designationCode": "C", "categoryCode": "09", "address": "200-950 WEST 41ST AVENUE", "city": "VANCOUVER", "province": "BC", "country": "CA", "postalCode": "V5Z2N7", "twitter": "None", "instagram": "None", "facebook": "None", "youtube": "None", "website": "None", "summary": "None", "logo": "None", "latitude": 49.23387050620376, "longitude": -123.12594479822836}, "119264596RR0001": {"name": "TILBURY & DISTRICT SENIOR ADULTS CENTRE ASSOCIATION", "designationCode": "C", "categoryCode": "09", "address": "BOX 1133                      10 CANAL STREET", "city": "TILBURY", "province": "ON", "country": "CA", "postalCode": "N0P2L0", "twitter": "None", "instagram": "None", "facebook": "None", "youtube": "None", "website": "None", "summary": "None", "logo": "None", "latitude": 42.25991642910714, "longitude": -82.4305601826417}, "119264588RR0001": {"name": "TILBURY COMBER ST GEORGES CEMETERY BOARD", "designationCode": "C", "categoryCode": "59", "address": "PO BOX 13", "city": "COMBER", "province": "ON", "country": "CA", "postalCode": "N0P1J0", "twitter": "None", "instagram": "None", "facebook": "None", "youtube": "None", "website": "None", "summary": "None", "logo": "None", "latitude": 42.23404000000005, "longitude": -82.55258999999995}, "108109307RR0001": {"name": "TILBURY REGULAR BAPTIST CHURCH", "designationCode": "C", "categoryCode": "31", "address": "PO BOX 2200", "city": "TILBURY", "province": "ON", "country": "CA", "postalCode": "N0P2L0", "twitter": "None", "instagram": "None", "facebook": "None", "youtube": "None", "website": "None", "summary": "None", "logo": "None", "latitude": 42.246438000000055, "longitude": -82.43606599999994}, "856100136RR0001": {"name": "TILLEY & DISTRICT FIRE ASSOCIATION", "designationCode": "C", "categoryCode": "59", "address": "BOX 175", "city": "TILLEY", "province": "AB", "country": "CA", "postalCode": "T0J3K0", "twitter": "None", "instagram": "None", "facebook": "None", "youtube": "None", "website": "None", "summary": "None", "logo": "None", "latitude": 50.451130000000035, "longitude": -111.65233999999998}, "119264653RR0001": {"name": "TILLEY PENTECOSTAL CHURCH", "designationCode": "C", "categoryCode": "36", "address": "13859 ROUTE 105", "city": "TILLEY", "province": "NB", "country": "CA", "postalCode": "E7H4A4", "twitter": "None", "instagram": "None", "facebook": "None", "youtube": "None", "website": "None", "summary": "None", "logo": "None", "latitude": 46.84422033779114, "longitude": -67.67610127590578}, "119264646RR0001": {"name": "TILLEY SENIORS SOCIETY", "designationCode": "C", "categoryCode": "56", "address": "237 CENTRE STREET             BOX 25", "city": "TILLEY", "province": "AB", "country": "CA", "postalCode": "T0J3K0", "twitter": "None", "instagram": "None", "facebook": "None", "youtube": "None", "website": "None", "summary": "None", "logo": "None", "latitude": 50.45148773189449, "longitude": -111.6519853662357}, "108109372RR0001": {"name": "TILLICUM LELUM ABORIGINAL SOCIETY", "designationCode": "C", "categoryCode": "56", "address": "927 HALIBURTON ST.", "city": "NANAIMO", "province": "BC", "country": "CA", "postalCode": "V9R6N4", "twitter": "None", "instagram": "None", "facebook": "None", "youtube": "None", "website": "None", "summary": "None", "logo": "None", "latitude": 49.14425559491707, "longitude": -123.92884063080353}, "129030086RR0001": {"name": "TILLSONBURG & DISTRICT MULTI SERVICE CENTRE", "designationCode": "C", "categoryCode": "09", "address": "96 TILLSON AVE", "city": "TILLSONBURG", "province": "ON", "country": "CA", "postalCode": "N4G3A1", "twitter": "None", "instagram": "None", "facebook": "None", "youtube": "None", "website": "None", "summary": "None", "logo": "None", "latitude": 42.865992646774245, "longitude": -80.72350308179514}, "132184508RR0001": {"name": "TILLSONBURG BIBLE CHAPEL", "designationCode": "C", "categoryCode": "39", "address": "63 QUEEN STREET", "city": "TILLSONBURG", "province": "ON", "country": "CA", "postalCode": "N4G3H1", "twitter": "None", "instagram": "None", "facebook": "None", "youtube": "None", "website": "None", "summary": "None", "logo": "None", "latitude": 42.86586736219633, "longitude": -80.72643809951515}, "108109448RR0001": {"name": "TILLSONBURG CHRISTIAN REFORMED CHURCH", "designationCode": "C", "categoryCode": "39", "address": "26 CHARLOTTE AVENUE", "city": "TILLSONBURG", "province": "ON", "country": "CA", "postalCode": "N4G4C2", "twitter": "None", "instagram": "None", "facebook": "None", "youtube": "None", "website": "None", "summary": "None", "logo": "None", "latitude": 42.861866322234384, "longitude": -80.7425152554678}, "108109463RR0001": {"name": "TILLSONBURG DISTICT MEMORIAL HOSPITAL TRUST", "designationCode": "C", "categoryCode": "10", "address": "167 ROLPH STREET", "city": "TILLSONBURG", "province": "ON", "country": "CA", "postalCode": "N4G3Y9", "twitter": "None", "instagram": "None", "facebook": "None", "youtube": "None", "website": "None", "summary": "None", "logo": "None", "latitude": 42.86320658950318, "longitude": -80.73469654261633}, "119264752RR0001": {"name": "TILLSONBURG DISTRICT CRAFT GUILD", "designationCode": "C", "categoryCode": "22", "address": "41 BRIDGE ST W", "city": "TILLSONBURG", "province": "ON", "country": "CA", "postalCode": "N4G5P2", "twitter": "None", "instagram": "None", "facebook": "None", "youtube": "None", "website": "None", "summary": "None", "logo": "None", "latitude": 42.86224243856267, "longitude": -80.73196455626618}, "105285019RR0001": {"name": "TILLSONBURG DISTRICT MEMORIAL HOSPITAL FOUNDATION", "designationCode": "A", "categoryCode": "13", "address": "167 ROLPH ST", "city": "TILLSONBURG", "province": "ON", "country": "CA", "postalCode": "N4G3Y9", "twitter": "None", "instagram": "None", "facebook": "None", "youtube": "None", "website": "None", "summary": "None", "logo": "None", "latitude": 42.86320658950318, "longitude": -80.73469654261633}, "130645104RR0001": {"name": "TILLSONBURG DISTRICT MEMORIAL HOSPITAL VOLUNTEER ASSOCIATION", "designationCode": "C", "categoryCode": "19", "address": "P. O. BOX 3100", "city": "TILLSONBURG", "province": "ON", "country": "CA", "postalCode": "N4G4J2", "twitter": "None", "instagram": "None", "facebook": "None", "youtube": "None", "website": "None", "summary": "None", "logo": "None", "latitude": 42.85710115426036, "longitude": -80.74255499999998}, "859345472RR0001": {"name": "TILLSONBURG HORTICULTURAL SOCIETY", "designationCode": "C", "categoryCode": "56", "address": "BOX 94", "city": "TILLSONBURG", "province": "ON", "country": "CA", "postalCode": "N4G4H3", "twitter": "None", "instagram": "None", "facebook": "None", "youtube": "None", "website": "None", "summary": "None", "logo": "None", "latitude": 42.86066100000005, "longitude": -80.72789299999994}, "119252310RR0001": {"name": "TILLSONBURG MEETING ROOM TRUST", "designationCode": "C", "categoryCode": "39", "address": "P.O. BOX 164                  67 BARKER ST.", "city": "TILLSONBURG", "province": "ON", "country": "CA", "postalCode": "N4G4H5", "twitter": "None", "instagram": "None", "facebook": "None", "youtube": "None", "website": "None", "summary": "None", "logo": "None", "latitude": 42.877145702384134, "longitude": -80.72058906406909}, "119264786RR0001": {"name": "TILLSONBURG PROPERTIES FOR COMMUNITY LIVING", "designationCode": "C", "categoryCode": "01", "address": "96 TILLSON AVE", "city": "TILLSONBURG", "province": "ON", "country": "CA", "postalCode": "N4G3A1", "twitter": "None", "instagram": "None", "facebook": "None", "youtube": "None", "website": "None", "summary": "None", "logo": "None", "latitude": 42.865992646774245, "longitude": -80.72350308179514}, "119264794RR0001": {"name": "TILLSONBURG SENIOR CENTRE", "designationCode": "C", "categoryCode": "56", "address": "45 HARDY AVE", "city": "TILLSONBURG", "province": "ON", "country": "CA", "postalCode": "N4G3W9", "twitter": "None", "instagram": "None", "facebook": "None", "youtube": "None", "website": "None", "summary": "None", "logo": "None", "latitude": 42.87139889546226, "longitude": -80.7359073254348}, "888613791RR0001": {"name": "TILSTON COMMUNITY CEMETERY", "designationCode": "C", "categoryCode": "59", "address": "BOX 54", "city": "TILSTON", "province": "MB", "country": "CA", "postalCode": "R0M2B0", "twitter": "None", "instagram": "None", "facebook": "None", "youtube": "None", "website": "None", "summary": "None", "logo": "None", "latitude": 49.394310000000075, "longitude": -101.31284999999997}, "871765269RR0001": {"name": "TIM HICKMAN MEMORIAL FUND", "designationCode": "C", "categoryCode": "09", "address": "50 SHERWOOD RD E", "city": "AJAX", "province": "ON", "country": "CA", "postalCode": "L1T2Y9", "twitter": "None", "instagram": "None", "facebook": "None", "youtube": "None", "website": "None", "summary": "None", "logo": "None", "latitude": 43.856614150729854, "longitude": -79.05126934139297}, "119264885RR0001": {"name": "TIM HORTON CHILDRENS FOUNDATION, INC.", "designationCode": "C", "categoryCode": "03", "address": "RR2                           264 GLEN MORRIS RD E", "city": "ST GEORGE", "province": "ON", "country": "CA", "postalCode": "N0E1N0", "twitter": "None", "instagram": "None", "facebook": "None", "youtube": "None", "website": "None", "summary": "None", "logo": "None", "latitude": 42.69630300000006, "longitude": -80.62644049999993}, "891254328RR0001": {"name": "TIM O'HERON CHARITABLE TRUST", "designationCode": "A", "categoryCode": "03", "address": "1402 - 1 KING ST W", "city": "HAMILTON", "province": "ON", "country": "CA", "postalCode": "L8P1A4", "twitter": "None", "instagram": "None", "facebook": "None", "youtube": "None", "website": "None", "summary": "None", "logo": "None", "latitude": 43.26019321073324, "longitude": -79.88135629363086}, "887178630RR0001": {"name": "TIM ROGERS MINISTRIES", "designationCode": "C", "categoryCode": "47", "address": "1930 - 155TH STREET", "city": "SURREY", "province": "BC", "country": "CA", "postalCode": "V4A7M9", "twitter": "None", "instagram": "None", "facebook": "None", "youtube": "None", "website": "None", "summary": "None", "logo": "None", "latitude": 49.03733549125744, "longitude": -122.79261913376429}, "119264844RR0001": {"name": "TIMBER RIVER PENTECOSTAL CHURCH INC", "designationCode": "C", "categoryCode": "36", "address": "2150 ROUTE 960 UPPER CAPE     P.O. BOX 1512", "city": "PORT ELGIN", "province": "NB", "country": "CA", "postalCode": "E4M3Y9", "twitter": "None", "instagram": "None", "facebook": "None", "youtube": "None", "website": "None", "summary": "None", "logo": "None"}, "119264828RR0001": {"name": "TIMBERLEA UNITED BAPTIST CHURCH,", "designationCode": "C", "categoryCode": "31", "address": "46 GREENWOOD AVE", "city": "TIMBERLEA", "province": "NS", "country": "CA", "postalCode": "B3T1E8", "twitter": "None", "instagram": "None", "facebook": "None", "youtube": "None", "website": "None", "summary": "None", "logo": "None", "latitude": 44.65543889895564, "longitude": -63.736024687085106}, "119264836RR0001": {"name": "TIMBERLINE RANCH", "designationCode": "C", "categoryCode": "56", "address": "22351 144 AVE", "city": "MAPLE RIDGE", "province": "BC", "country": "CA", "postalCode": "V4R2P8", "twitter": "None", "instagram": "None", "facebook": "None", "youtube": "None", "website": "None", "summary": "None", "logo": "None", "latitude": 49.264249700740635, "longitude": -122.60263346267276}, "884759242RR0001": {"name": "TIMBERS COMMUNITY CHURCH OF THE CHRISTIAN & MISSIONARY ALLIANCE IN CANADA", "designationCode": "C", "categoryCode": "47", "address": "1553 3RD AVE", "city": "PRINCE GEORGE", "province": "BC", "country": "CA", "postalCode": "V2L3G3", "twitter": "None", "instagram": "None", "facebook": "None", "youtube": "None", "website": "None", "summary": "None", "logo": "None", "latitude": 53.918065206664906, "longitude": -122.75007412805404}, "889072831RR0001": {"name": "TIME OUT FOR MOMS - CATHOLIC ENRICHMENT FOR WOMEN, INC", "designationCode": "C", "categoryCode": "49", "address": "411 BRIARVALE CRT", "city": "SASKATOON", "province": "SK", "country": "CA", "postalCode": "S7V1B8", "twitter": "None", "instagram": "None", "facebook": "None", "youtube": "None", "website": "None", "summary": "None", "logo": "None", "latitude": 52.10659421622701, "longitude": -106.56854769929012}, "119264869RR0001": {"name": "TIMES CHANGE WOMEN'S EMPLOYMENT SERVICE INC", "designationCode": "C", "categoryCode": "59", "address": "365 BLOOR ST. EAST            STE. 1003", "city": "TORONTO", "province": "ON", "country": "CA", "postalCode": "M4W3L4", "twitter": "None", "instagram": "None", "facebook": "None", "youtube": "None", "website": "None", "summary": "None", "logo": "None", "latitude": 43.67210477655963, "longitude": -79.37792678919733}, "869020131RR0001": {"name": "TIMES OF REFRESHING CHURCH OF MOOSE JAW, INC", "designationCode": "C", "categoryCode": "39", "address": "646 KEITH CRES", "city": "MOOSE JAW", "province": "SK", "country": "CA", "postalCode": "S6H5P9", "twitter": "None", "instagram": "None", "facebook": "None", "youtube": "None", "website": "None", "summary": "None", "logo": "None", "latitude": 50.37910643389767, "longitude": -105.55055586608755}, "882581317RR0001": {"name": "TIMES OF REFRESHING MINISTRIES", "designationCode": "C", "categoryCode": "39", "address": "102 WELLBROOK BLVD", "city": "WELLAND", "province": "ON", "country": "CA", "postalCode": "L3C5T4", "twitter": "None", "instagram": "None", "facebook": "None", "youtube": "None", "website": "None", "summary": "None", "logo": "None", "latitude": 42.99130560006342, "longitude": -79.27895001384981}, "888932233RR0001": {"name": "TIMISKAMING DISTRICT SECONDARY SCHOOL AWARDS FUND", "designationCode": "C", "categoryCode": "21", "address": "90 NIVEN STREET NORTH", "city": "NEW LISKEARD", "province": "ON", "country": "CA", "postalCode": "P0J1P0", "twitter": "None", "instagram": "None", "facebook": "None", "youtube": "None", "website": "None", "summary": "None", "logo": "None", "latitude": 47.51070903523956, "longitude": -79.6792398030601}, "856666078RR0001": {"name": "TIMISKAMING ELDER ABUSE TASK FORCE", "designationCode": "C", "categoryCode": "09", "address": "P.O.BOX 162", "city": "KIRKLAND LAKE", "province": "ON", "country": "CA", "postalCode": "P2N3M6", "twitter": "None", "instagram": "None", "facebook": "None", "youtube": "None", "website": "None", "summary": "None", "logo": "None", "latitude": 48.15028500000005, "longitude": -80.03540149999994}, "108109810RR0001": {"name": "TIMISKAMING HEALTH UNIT", "designationCode": "C", "categoryCode": "19", "address": "247 WHITEWOOD AVE, UNIT 43    BOX 1090", "city": "NEW LISKEARD", "province": "ON", "country": "CA", "postalCode": "P0J1P0", "twitter": "None", "instagram": "None", "facebook": "None", "youtube": "None", "website": "None", "summary": "None", "logo": "None", "latitude": 47.508645573058345, "longitude": -79.68093768639541}, "123985004RR0001": {"name": "TIMMINS & DISTRICT HOSPITAL AUXILIARY", "designationCode": "C", "categoryCode": "19", "address": "700 ROSS AVE E", "city": "TIMMINS", "province": "ON", "country": "CA", "postalCode": "P4N8P2", "twitter": "None", "instagram": "None", "facebook": "None", "youtube": "None", "website": "None", "summary": "None", "logo": "None", "latitude": 48.486089438737146, "longitude": -81.31468955472054}, "872466198RR0001": {"name": "TIMMINS & DISTRICT HUMANE SOCIETY", "designationCode": "C", "categoryCode": "54", "address": "BOX 640", "city": "TIMMINS", "province": "ON", "country": "CA", "postalCode": "P4N7G2", "twitter": "None", "instagram": "None", "facebook": "None", "youtube": "None", "website": "None", "summary": "None", "logo": "None"}, "893224840RR0001": {"name": "TIMMINS & DISTRICT VICTIM CRISIS ASSISTANCE REFERRAL SERVICE", "designationCode": "C", "categoryCode": "59", "address": "185 SPRUCE STREET SOUTH       (TIMMINS POLICE BUILDING)", "city": "TIMMINS", "province": "ON", "country": "CA", "postalCode": "P4N2M7", "twitter": "None", "instagram": "None", "facebook": "None", "youtube": "None", "website": "None", "summary": "None", "logo": "None", "latitude": 48.4726712607895, "longitude": -81.3270972191902}, "135071108RR0001": {"name": "TIMMINS AND AREA WOMEN IN CRISIS", "designationCode": "C", "categoryCode": "09", "address": "355 WILSON AVE", "city": "TIMMINS", "province": "ON", "country": "CA", "postalCode": "P4N2T7", "twitter": "None", "instagram": "None", "facebook": "None", "youtube": "None", "website": "None", "summary": "None", "logo": "None", "latitude": 48.47530883224343, "longitude": -81.34558266775656}, "119264927RR0001": {"name": "TIMMINS AND DISTRICT HOSPITAL FOUNDATION LA FONDATION DE L'HOPITAL DE TIMMINS ET DU DISTRICT", "designationCode": "A", "categoryCode": "13", "address": "700 ROSS AVENUE EAST", "city": "TIMMINS", "province": "ON", "country": "CA", "postalCode": "P4N8P2", "twitter": "None", "instagram": "None", "facebook": "None", "youtube": "None", "website": "None", "summary": "None", "logo": "None", "latitude": 48.486089438737146, "longitude": -81.31468955472054}, "105029763RR0001": {"name": "TIMMINS AND DISTRICT HOSPITAL/L'HOPITAL DE TIMMINS ET DU DISTRICT", "designationCode": "C", "categoryCode": "10", "address": "700 ROSS AVE EAST", "city": "TIMMINS", "province": "ON", "country": "CA", "postalCode": "P4N8P2", "twitter": "None", "instagram": "None", "facebook": "None", "youtube": "None", "website": "None", "summary": "None", "logo": "None", "latitude": 48.486089438737146, "longitude": -81.31468955472054}, "119288918RR0503": {"name": "TIMMINS CONGREGATION OF JEHOVAH'S WITNESSES, ONTARIO", "designationCode": "C", "categoryCode": "61", "address": "370 PINE STREET NORTH", "city": "TIMMINS", "province": "ON", "country": "CA", "postalCode": "P4N6L5", "twitter": "None", "instagram": "None", "facebook": "None", "youtube": "None", "website": "None", "summary": "None", "logo": "None", "latitude": 48.483644718743626, "longitude": -81.32827374362095}, "896084332RR0001": {"name": "TIMMINS FAMILY YMCA", "designationCode": "C", "categoryCode": "49", "address": "376 POPLAR AVE", "city": "TIMMINS", "province": "ON", "country": "CA", "postalCode": "P4N4S4", "twitter": "None", "instagram": "None", "facebook": "None", "youtube": "None", "website": "None", "summary": "None", "logo": "None", "latitude": 48.47692677256541, "longitude": -81.34655504456954}, "119264943RR0001": {"name": "TIMMINS FREE METHODIST CHURCH,", "designationCode": "C", "categoryCode": "39", "address": "294 BROUSSEAU AVENUE", "city": "TIMMINS", "province": "ON", "country": "CA", "postalCode": "P4N5Y7", "twitter": "None", "instagram": "None", "facebook": "None", "youtube": "None", "website": "None", "summary": "None", "logo": "None", "latitude": 48.48818245715253, "longitude": -81.326664}, "140525411RR0001": {"name": "TIMMINS GOSPEL HALL", "designationCode": "C", "categoryCode": "39", "address": "199 CLEMENT AVENUE", "city": "PORCUPINE", "province": "ON", "country": "CA", "postalCode": "P0N1K0", "twitter": "None", "instagram": "None", "facebook": "None", "youtube": "None", "website": "None", "summary": "None", "logo": "None", "latitude": 48.49333761423035, "longitude": -81.19935907060439}, "882739329RR0001": {"name": "TIMMINS HIGH & VOCATIONAL SCHOOL ALUMNI ASSOCIATION", "designationCode": "C", "categoryCode": "21", "address": "451 THERIAULT BOULEVARD", "city": "TIMMINS", "province": "ON", "country": "CA", "postalCode": "P4N8B2", "twitter": "None", "instagram": "None", "facebook": "None", "youtube": "None", "website": "None", "summary": "None", "logo": "None", "latitude": 48.48653998541207, "longitude": -81.34562710301157}, "108109976RR0001": {"name": "TIMMINS LEARNING CENTRE INC.", "designationCode": "C", "categoryCode": "21", "address": "208 THIRD AVE                 SECOND FLOOR", "city": "TIMMINS", "province": "ON", "country": "CA", "postalCode": "P4N1E1", "twitter": "None", "instagram": "None", "facebook": "None", "youtube": "None", "website": "None", "summary": "None", "logo": "None", "latitude": 48.47503116699454, "longitude": -81.32921612944747}, "119264950RR0001": {"name": "TIMMINS NATIVE FRIENDSHIP CENTRE", "designationCode": "C", "categoryCode": "09", "address": "179 KIRBY AVE", "city": "TIMMINS", "province": "ON", "country": "CA", "postalCode": "P4N1K1", "twitter": "None", "instagram": "None", "facebook": "None", "youtube": "None", "website": "None", "summary": "None", "logo": "None", "latitude": 48.470862839771264, "longitude": -81.33025085168471}, "119264968RR0001": {"name": "TIMMINS PENTECOSTAL CHURCH", "designationCode": "C", "categoryCode": "36", "address": "PO BOX 1414", "city": "TIMMINS", "province": "ON", "country": "CA", "postalCode": "P4N7N2", "twitter": "None", "instagram": "None", "facebook": "None", "youtube": "None", "website": "None", "summary": "None", "logo": "None", "latitude": 48.47611200000006, "longitude": -81.32891299999993}, "892910167RR0001": {"name": "TIMMINS PORCUPINE SEARCH & RESCUE INC.", "designationCode": "C", "categoryCode": "59", "address": "101 CEDAR ST S", "city": "TIMMINS", "province": "ON", "country": "CA", "postalCode": "P4N2G7", "twitter": "None", "instagram": "None", "facebook": "None", "youtube": "None", "website": "None", "summary": "None", "logo": "None", "latitude": 48.47451664036747, "longitude": -81.32960790855732}, "107797383RR0084": {"name": "TIMMINS SEVENTH-DAY ADVENTIST CHURCH", "designationCode": "C", "categoryCode": "41", "address": "257 CEDAR ST. N", "city": "TIMMINS", "province": "ON", "country": "CA", "postalCode": "P4N6J7", "twitter": "None", "instagram": "None", "facebook": "None", "youtube": "None", "website": "None", "summary": "None", "logo": "None", "latitude": 48.48126604824883, "longitude": -81.32962853793336}, "140783747RR0001": {"name": "TIMMINS THERAPEUTIC RIDING ASSOCIATION", "designationCode": "C", "categoryCode": "56", "address": "1625 MAHONEY RD", "city": "TIMMINS", "province": "ON", "country": "CA", "postalCode": "P4R0H5", "twitter": "None", "instagram": "None", "facebook": "None", "youtube": "None", "website": "None", "summary": "None", "logo": "None", "latitude": 48.50333402553148, "longitude": -81.44376145550774}, "817094741RR0001": {"name": "TIMMINS VICTORY CENTRE", "designationCode": "C", "categoryCode": "39", "address": "100 MONTGOMERY AVE", "city": "TIMMINS", "province": "ON", "country": "CA", "postalCode": "P4N3G4", "twitter": "None", "instagram": "None", "facebook": "None", "youtube": "None", "website": "None", "summary": "None", "logo": "None", "latitude": 48.468997264177304, "longitude": -81.3378572796057}, "859612970RR0001": {"name": "TIMOTHY C. KERR FAMILY FOUNDATION", "designationCode": "B", "categoryCode": "05", "address": "SUITE 280 -                   1090 WEST GEORGIAST.", "city": "VANCOUVER", "province": "BC", "country": "CA", "postalCode": "V6E3V7", "twitter": "None", "instagram": "None", "facebook": "None", "youtube": "None", "website": "None", "summary": "None", "logo": "None", "latitude": 49.28541748568885, "longitude": -123.12279712756055}, "889493649RR0001": {"name": "TIMOTHY CANADIAN REFORMED SCHOOL SOCIETY OF HAMILTON", "designationCode": "C", "categoryCode": "20", "address": "430 EAST 25TH STREET", "city": "HAMILTON", "province": "ON", "country": "CA", "postalCode": "L8V3B4", "twitter": "None", "instagram": "None", "facebook": "None", "youtube": "None", "website": "None", "summary": "None", "logo": "None", "latitude": 43.22644697739766, "longitude": -79.85425130436514}, "118799501RR0001": {"name": "TIMOTHY CHRISTIAN SCHOOL (BARRIE)", "designationCode": "C", "categoryCode": "20", "address": "750 ESSA ROADE", "city": "BARRIE", "province": "ON", "country": "CA", "postalCode": "L4N9E9", "twitter": "None", "instagram": "None", "facebook": "None", "youtube": "None", "website": "None", "summary": "None", "logo": "None", "latitude": 44.32392016818632, "longitude": -79.71748176100772}, "108110131RR0001": {"name": "TIMOTHY CHRISTIAN SCHOOL ASSOCIATION OF TORONTO", "designationCode": "C", "categoryCode": "20", "address": "28 ELMHURST DR", "city": "REXDALE", "province": "ON", "country": "CA", "postalCode": "M9W2J5", "twitter": "None", "instagram": "None", "facebook": "None", "youtube": "None", "website": "None", "summary": "None", "logo": "None", "latitude": 43.72317779349235, "longitude": -79.55900100686901}, "129933875RR0001": {"name": "TIMOTHY CHRISTIAN SCHOOL SOCIETY", "designationCode": "C", "categoryCode": "20", "address": "BOX 179, 12600 COUNTY RD 18", "city": "WILLIAMSBURG", "province": "ON", "country": "CA", "postalCode": "K0C2H0", "twitter": "None", "instagram": "None", "facebook": "None", "youtube": "None", "website": "None", "summary": "None", "logo": "None", "latitude": 44.98386477786519, "longitude": -75.22567260067179}, "108110180RR0001": {"name": "TIMOTHY EATON MEMORIAL CHURCH", "designationCode": "C", "categoryCode": "44", "address": "230 ST CLAIR AVE W", "city": "TORONTO", "province": "ON", "country": "CA", "postalCode": "M4V1R5", "twitter": "None", "instagram": "None", "facebook": "None", "youtube": "None", "website": "None", "summary": "None", "logo": "None", "latitude": 43.68590121680394, "longitude": -79.40554774023302}, "132564063RR0001": {"name": "TIMOTHY J.SABO MINISTRIES INCORPORATED", "designationCode": "B", "categoryCode": "47", "address": "5223 87 ST NW", "city": "EDMONTON", "province": "AB", "country": "CA", "postalCode": "T6E5L5", "twitter": "None", "instagram": "None", "facebook": "None", "youtube": "None", "website": "None", "summary": "None", "logo": "None", "latitude": 53.4894657485429, "longitude": -113.45701436115806}, "840270870RR0001": {"name": "TIMOTHY ROSE MEMORIAL FUND", "designationCode": "B", "categoryCode": "21", "address": "209 FORREST AVE E", "city": "NEW HAMBURG", "province": "ON", "country": "CA", "postalCode": "N3A1X8", "twitter": "None", "instagram": "None", "facebook": "None", "youtube": "None", "website": "None", "summary": "None", "logo": "None", "latitude": 43.38786509699492, "longitude": -80.71243519761883}, "108110412RR0001": {"name": "TINKER BELL NURSERY SCHOOL INCORPORATED", "designationCode": "C", "categoryCode": "20", "address": "1516 BOND ST", "city": "DAUPHIN", "province": "MB", "country": "CA", "postalCode": "R7N0K4", "twitter": "None", "instagram": "None", "facebook": "None", "youtube": "None", "website": "None", "summary": "None", "logo": "None", "latitude": 51.158296204830066, "longitude": -100.03682636519743}, "831939699RR0001": {"name": "TINTERN CHURCH OF CHRIST", "designationCode": "C", "categoryCode": "39", "address": "RR 1                          4359 SPRING CREEK ROAD", "city": "VINELAND", "province": "ON", "country": "CA", "postalCode": "L0R2C0", "twitter": "None", "instagram": "None", "facebook": "None", "youtube": "None", "website": "None", "summary": "None", "logo": "None", "latitude": 43.10478031952173, "longitude": -79.44037619444269}, "829423920RR0001": {"name": "TINY PAWS DOG RESCUE CANADA", "designationCode": "C", "categoryCode": "54", "address": "109 ROSS ST., PO BOX 232", "city": "EMBRO", "province": "ON", "country": "CA", "postalCode": "N0J1J0", "twitter": "None", "instagram": "None", "facebook": "None", "youtube": "None", "website": "None", "summary": "None", "logo": "None", "latitude": 43.15227913988114, "longitude": -80.9037013348721}, "892881871RR0001": {"name": "TINY TOTS CO-OPERATIVE NURSERY SCHOOL OF ALDBOROUGH INC.", "designationCode": "C", "categoryCode": "01", "address": "PO BOX 539                    217 FURNIVAL RD", "city": "RODNEY", "province": "ON", "country": "CA", "postalCode": "N0L2C0", "twitter": "None", "instagram": "None", "facebook": "None", "youtube": "None", "website": "None", "summary": "None", "logo": "None", "latitude": 42.56665692687748, "longitude": -81.6812618307944}, "119265064RR0001": {"name": "TINY TURTLE PLAYROOM INC", "designationCode": "C", "categoryCode": "01", "address": "BOX 997", "city": "BOISSEVAIN", "province": "MB", "country": "CA", "postalCode": "R0K0E0", "twitter": "None", "instagram": "None", "facebook": "None", "youtube": "None", "website": "None", "summary": "None", "logo": "None", "latitude": 49.23156000000006, "longitude": -100.05945999999994}, "119265072RR0001": {"name": "TIPPET FOUNDATION", "designationCode": "B", "categoryCode": "03", "address": "301-95 BARBER GREENE RD", "city": "NORTH YORK", "province": "ON", "country": "CA", "postalCode": "M3C3E9", "twitter": "None", "instagram": "None", "facebook": "None", "youtube": "None", "website": "None", "summary": "None", "logo": "None", "latitude": 43.72979423952202, "longitude": -79.34938440327338}, "810032540RR0001": {"name": "TIRPAK CHARITABLE FOUNDATION", "designationCode": "B", "categoryCode": "03", "address": "27 BIRCHCLIFF ROAD", "city": "BIRCHCLIFF", "province": "AB", "country": "CA", "postalCode": "T4S1R6", "twitter": "None", "instagram": "None", "facebook": "None", "youtube": "None", "website": "None", "summary": "None", "logo": "None", "latitude": 52.34980592526718, "longitude": -114.09840903538922}, "854062361RR0001": {"name": "TISARANA BUDDHIST MONASTERY", "designationCode": "C", "categoryCode": "35", "address": "1356 POWERS ROAD", "city": "PERTH", "province": "ON", "country": "CA", "postalCode": "K7H3C5", "twitter": "None", "instagram": "None", "facebook": "None", "youtube": "None", "website": "None", "summary": "None", "logo": "None", "latitude": 44.78447807355723, "longitude": -76.31758701010794}, "881345029RR0001": {"name": "TISDALE & DISTRICT GOLDEN AGE CENTRE INC", "designationCode": "C", "categoryCode": "56", "address": "PO BOX 1946", "city": "TISDALE", "province": "SK", "country": "CA", "postalCode": "S0E1T0", "twitter": "None", "instagram": "None", "facebook": "None", "youtube": "None", "website": "None", "summary": "None", "logo": "None", "latitude": 52.84785000000005, "longitude": -104.04749999999996}, "889427043RR0001": {"name": "TISDALE ALLIANCE CHURCH", "designationCode": "C", "categoryCode": "39", "address": "PO BOX 1827", "city": "TISDALE", "province": "SK", "country": "CA", "postalCode": "S0E1T0", "twitter": "None", "instagram": "None", "facebook": "None", "youtube": "None", "website": "None", "summary": "None", "logo": "None", "latitude": 52.84785000000005, "longitude": -104.04749999999996}, "866938772RR0001": {"name": "TISDALE AND AREA COMMUNITY ACTION CO-OPERATIVE LTD", "designationCode": "C", "categoryCode": "59", "address": "BOX 2842", "city": "TISDALE", "province": "SK", "country": "CA", "postalCode": "S0E1T0", "twitter": "None", "instagram": "None", "facebook": "None", "youtube": "None", "website": "None", "summary": "None", "logo": "None", "latitude": 52.84785000000005, "longitude": -104.04749999999996}, "119265098RR0001": {"name": "TISDALE ARTS COUNCIL INC", "designationCode": "C", "categoryCode": "22", "address": "P.O. BOX 37", "city": "TISDALE", "province": "SK", "country": "CA", "postalCode": "S0E1T0", "twitter": "None", "instagram": "None", "facebook": "None", "youtube": "None", "website": "None", "summary": "None", "logo": "None", "latitude": 52.84785000000005, "longitude": -104.04749999999996}, "858556434RR0001": {"name": "TISDALE COMMUNITY BIBLE CHURCH INC.", "designationCode": "C", "categoryCode": "39", "address": "BOX 986", "city": "TISDALE", "province": "SK", "country": "CA", "postalCode": "S0E1T0", "twitter": "None", "instagram": "None", "facebook": "None", "youtube": "None", "website": "None", "summary": "None", "logo": "None", "latitude": 52.84785000000005, "longitude": -104.04749999999996}, "119265106RR0001": {"name": "TISDALE HEALTH-CARE AUXILIARY", "designationCode": "C", "categoryCode": "19", "address": "PO BOX 784", "city": "TISDALE", "province": "SK", "country": "CA", "postalCode": "S0E1T0", "twitter": "None", "instagram": "None", "facebook": "None", "youtube": "None", "website": "None", "summary": "None", "logo": "None", "latitude": 52.84785000000005, "longitude": -104.04749999999996}, "130143795RR0001": {"name": "TISDALE PASTORAL CHARGE,", "designationCode": "C", "categoryCode": "44", "address": "PO BOX 116", "city": "TISDALE", "province": "SK", "country": "CA", "postalCode": "S0E1T0", "twitter": "None", "instagram": "None", "facebook": "None", "youtube": "None", "website": "None", "summary": "None", "logo": "None", "latitude": 52.84785000000005, "longitude": -104.04749999999996}, "107834483RR0001": {"name": "TISDALE PENTECOSTAL TABERNACLE", "designationCode": "C", "categoryCode": "36", "address": "BOX 939", "city": "TISDALE", "province": "SK", "country": "CA", "postalCode": "S0E1T0", "twitter": "None", "instagram": "None", "facebook": "None", "youtube": "None", "website": "None", "summary": "None", "logo": "None", "latitude": 52.84785000000005, "longitude": -104.04749999999996}, "119265155RR0001": {"name": "TISDALE UNITED APPEAL,", "designationCode": "C", "categoryCode": "05", "address": "BOX 2861", "city": "TISDALE", "province": "SK", "country": "CA", "postalCode": "S0E1T0", "twitter": "None", "instagram": "None", "facebook": "None", "youtube": "None", "website": "None", "summary": "None", "logo": "None", "latitude": 52.84785000000005, "longitude": -104.04749999999996}, "892773367RR0001": {"name": "TITAN FOUNDATION", "designationCode": "B", "categoryCode": "03", "address": "27010 24TH AVE", "city": "ALDERGROVE", "province": "BC", "country": "CA", "postalCode": "V4W2N4", "twitter": "None", "instagram": "None", "facebook": "None", "youtube": "None", "website": "None", "summary": "None", "logo": "None", "latitude": 49.04582154501187, "longitude": -122.47606252553523}, "898326178RR0001": {"name": "TITIAN MINISTRIES INTERNATIONAL, INC.", "designationCode": "C", "categoryCode": "47", "address": "455 COUNTY RD 34 W", "city": "ESSEX", "province": "ON", "country": "CA", "postalCode": "N8M2X5", "twitter": "None", "instagram": "None", "facebook": "None", "youtube": "None", "website": "None", "summary": "None", "logo": "None", "latitude": 42.1563804151427, "longitude": -82.78901557320053}, "119265163RR0001": {"name": "TITUS HILL CEMETERY COMPANY LIMITED", "designationCode": "C", "categoryCode": "59", "address": "1575 ROUTE 860", "city": "SMITHTOWN", "province": "NB", "country": "CA", "postalCode": "E5N3X1", "twitter": "None", "instagram": "None", "facebook": "None", "youtube": "None", "website": "None", "summary": "None", "logo": "None", "latitude": 45.48334199672318, "longitude": -65.77452082547137}, "119265189RR0001": {"name": "TIVERTON AGRICULTURAL SOCIETY", "designationCode": "C", "categoryCode": "56", "address": "945 CONC 2, R.R.2", "city": "TIVERTON", "province": "ON", "country": "CA", "postalCode": "N0G2T0", "twitter": "None", "instagram": "None", "facebook": "None", "youtube": "None", "website": "None", "summary": "None", "logo": "None", "latitude": 44.26299257608888, "longitude": -81.47959470026922}}