{"889824140RR0001": {"name": "QUESNEL RIVER WATERSHED ALLIANCE", "designationCode": "C", "categoryCode": "59", "address": "BOX 1098", "city": "150 MILE HOUSE", "province": "BC", "country": "CA", "postalCode": "V0K2G0", "twitter": "None", "instagram": "None", "facebook": "None", "youtube": "None", "website": "None", "summary": "None", "logo": "None", "latitude": 52.10566000000006, "longitude": -121.91515999999996}, "118818491RR0051": {"name": "QUESNEL SEVENTH-DAY ADVENTIST CHURCH", "designationCode": "C", "categoryCode": "41", "address": "PO 1000", "city": "ABBOTSFORD", "province": "BC", "country": "CA", "postalCode": "V2S4P5", "twitter": "None", "instagram": "None", "facebook": "None", "youtube": "None", "website": "None", "summary": "None", "logo": "None", "latitude": 49.03851300000005, "longitude": -122.29441549999993}, "119107795RR0001": {"name": "QUESNEL TILLICUM SOCIETY", "designationCode": "C", "categoryCode": "09", "address": "319 NORTH FRASER DR", "city": "QUESNEL", "province": "BC", "country": "CA", "postalCode": "V2J1Y9", "twitter": "None", "instagram": "None", "facebook": "None", "youtube": "None", "website": "None", "summary": "None", "logo": "None", "latitude": 52.97695254509785, "longitude": -122.50282325301497}, "108220047RR0001": {"name": "QUESNEL WOMEN'S RESOURCE CENTRE SOCIETY", "designationCode": "C", "categoryCode": "09", "address": "690 MCLEAN STREET", "city": "QUESNEL", "province": "BC", "country": "CA", "postalCode": "V2J2P6", "twitter": "None", "instagram": "None", "facebook": "None", "youtube": "None", "website": "None", "summary": "None", "logo": "None", "latitude": 52.98394827921401, "longitude": -122.49606705643747}, "802145755RR0001": {"name": "QUEST CHRISTIAN COMMUNITY", "designationCode": "C", "categoryCode": "39", "address": "3227 APPLEFORD AVE", "city": "NIAGARA FALLS", "province": "ON", "country": "CA", "postalCode": "L2J3N5", "twitter": "None", "instagram": "None", "facebook": "None", "youtube": "None", "website": "None", "summary": "None", "logo": "None", "latitude": 43.12551454371285, "longitude": -79.11798747157924}, "840116016RR0001": {"name": "QUEST COMMUNITY HEALTH CENTRE", "designationCode": "C", "categoryCode": "11", "address": "100 - 145 QUEENSTON ST", "city": "ST CATHARINES", "province": "ON", "country": "CA", "postalCode": "L2R2Z9", "twitter": "None", "instagram": "None", "facebook": "None", "youtube": "None", "website": "None", "summary": "None", "logo": "None", "latitude": 43.16309704195252, "longitude": -79.23046287480538}, "892880162RR0001": {"name": "QUEST FOUNDATION", "designationCode": "B", "categoryCode": "23", "address": "1500 GEORGIA STREET WEST      BOX 62  SUITE 1250", "city": "VANCOUVER", "province": "BC", "country": "CA", "postalCode": "V6G2Z6", "twitter": "None", "instagram": "None", "facebook": "None", "youtube": "None", "website": "None", "summary": "None", "logo": "None", "latitude": 49.29013479542975, "longitude": -123.1300069287031}, "107628497RR0001": {"name": "QUEST LIFE SKILLS INCORPORATION", "designationCode": "C", "categoryCode": "21", "address": "1 - 427 ELGIN ST N", "city": "CAMBRIDGE", "province": "ON", "country": "CA", "postalCode": "N1R8G4", "twitter": "None", "instagram": "None", "facebook": "None", "youtube": "None", "website": "None", "summary": "None", "logo": "None", "latitude": 43.392555, "longitude": -80.308008}, "137109807RR0001": {"name": "QUEST OUTREACH SOCIETY", "designationCode": "C", "categoryCode": "01", "address": "2020 DUNDAS ST", "city": "VANCOUVER", "province": "BC", "country": "CA", "postalCode": "V5L1J4", "twitter": "None", "instagram": "None", "facebook": "None", "youtube": "None", "website": "None", "summary": "None", "logo": "None", "latitude": 49.28486253563411, "longitude": -123.0627539701656}, "119072163RR0001": {"name": "QUEST THEATRE SOCIETY", "designationCode": "C", "categoryCode": "22", "address": "325 - 1721 29 AVE SW", "city": "CALGARY", "province": "AB", "country": "CA", "postalCode": "T2T6T7", "twitter": "None", "instagram": "None", "facebook": "None", "youtube": "None", "website": "None", "summary": "None", "logo": "None", "latitude": 51.02757615663481, "longitude": -114.10008167885952}, "864070859RR0001": {"name": "QUEST UNIVERSITY CANADA", "designationCode": "C", "categoryCode": "20", "address": "3200 UNIVERSITY BLVD", "city": "SQUAMISH", "province": "BC", "country": "CA", "postalCode": "V8B0N8", "twitter": "None", "instagram": "None", "facebook": "None", "youtube": "None", "website": "None", "summary": "None", "logo": "None", "latitude": 49.738168012507224, "longitude": -123.10036060135499}, "863160750RR0001": {"name": "QUICK AS A WINK THEATRE SOCIETY", "designationCode": "C", "categoryCode": "22", "address": "PO BOX 3062", "city": "WINDSOR", "province": "NS", "country": "CA", "postalCode": "B0N2T0", "twitter": "None", "instagram": "None", "facebook": "None", "youtube": "None", "website": "None", "summary": "None", "logo": "None", "latitude": 44.990170000000035, "longitude": -64.12904999999995}, "891033490RR0001": {"name": "QUICKIE COMMUNITY FOUNDATION - FONDATION COMMUNAUTAIRE QUICKIE", "designationCode": "A", "categoryCode": "03", "address": "201-2520 ST. LAURENT BOULEVARD", "city": "OTTAWA", "province": "ON", "country": "CA", "postalCode": "K1H1B1", "twitter": "None", "instagram": "None", "facebook": "None", "youtube": "None", "website": "None", "summary": "None", "logo": "None", "latitude": 45.37997746104765, "longitude": -75.63205124715793}, "814551669RR0001": {"name": "QUICKSTART - EARLY INTERVENTION FOR AUTISM / QUICKSTART - INTERVENTION PR\u00c9COCE POUR L'AUTISME", "designationCode": "A", "categoryCode": "13", "address": "23 EVANSHEN CRESCENT", "city": "KANATA", "province": "ON", "country": "CA", "postalCode": "K2K2Z6", "twitter": "None", "instagram": "None", "facebook": "None", "youtube": "None", "website": "None", "summary": "None", "logo": "None", "latitude": 45.31584462808015, "longitude": -75.91898625425571}, "126481530RR0001": {"name": "QUIDI VIDI/RENNIES RIVER DEVELOPMENT FOUNDATION", "designationCode": "C", "categoryCode": "52", "address": "5 NAGLE'S PLACE", "city": "ST JOHN'S", "province": "NL", "country": "CA", "postalCode": "A1B2Z2", "twitter": "None", "instagram": "None", "facebook": "None", "youtube": "None", "website": "None", "summary": "None", "logo": "None", "latitude": 47.580761948314084, "longitude": -52.728906168100885}, "863586400RR0001": {"name": "QUIGLEY HIGHLANDERS PIPES & DRUMS", "designationCode": "C", "categoryCode": "22", "address": "21122 COUNTY RD 24", "city": "DALKEITH", "province": "ON", "country": "CA", "postalCode": "K0B1E0", "twitter": "None", "instagram": "None", "facebook": "None", "youtube": "None", "website": "None", "summary": "None", "logo": "None", "latitude": 45.41632576530514, "longitude": -74.64182132647875}, "119288918RR0602": {"name": "QUILCHENA CONGREGATION OF JEHOVAH'S WITNESSES", "designationCode": "C", "categoryCode": "61", "address": "6031 CANIM PLACE", "city": "RICHMOND", "province": "BC", "country": "CA", "postalCode": "V7C3Z9", "twitter": "None", "instagram": "None", "facebook": "None", "youtube": "None", "website": "None", "summary": "None", "logo": "None", "latitude": 49.16922278100304, "longitude": -123.1573373154537}, "895625986RR0001": {"name": "QUILL LAKE CEMETERY ASSOCIATION", "designationCode": "C", "categoryCode": "59", "address": "BOX 443", "city": "QUILL LAKE", "province": "SK", "country": "CA", "postalCode": "S0A3E0", "twitter": "None", "instagram": "None", "facebook": "None", "youtube": "None", "website": "None", "summary": "None", "logo": "None", "latitude": 51.6962132372117, "longitude": -103.71097337442652}, "870123635RR0001": {"name": "QUILL LAKE CHARITABLE TRUST", "designationCode": "B", "categoryCode": "39", "address": "3425 2 AVE S", "city": "LETHBRIDGE", "province": "AB", "country": "CA", "postalCode": "T1J4V1", "twitter": "None", "instagram": "None", "facebook": "None", "youtube": "None", "website": "None", "summary": "None", "logo": "None", "latitude": 49.696839530439966, "longitude": -112.78914308381903}, "119107894RR0001": {"name": "QUILL LAKE EVANGELICAL FREE CHURCH", "designationCode": "C", "categoryCode": "39", "address": "BOX 357", "city": "QUILL LAKE", "province": "SK", "country": "CA", "postalCode": "S0A3E0", "twitter": "None", "instagram": "None", "facebook": "None", "youtube": "None", "website": "None", "summary": "None", "logo": "None", "latitude": 51.6962132372117, "longitude": -103.71097337442652}, "119030666RR0040": {"name": "QUILL LAKE SEVENTH-DAY ADVENTIST CHURCH", "designationCode": "C", "categoryCode": "41", "address": "1004 VICTORIA AVE", "city": "SASKATOON", "province": "SK", "country": "CA", "postalCode": "S7N0Z8", "twitter": "None", "instagram": "None", "facebook": "None", "youtube": "None", "website": "None", "summary": "None", "logo": "None", "latitude": 52.115409, "longitude": -106.66240826773014}, "119107944RR0001": {"name": "QUILL PLAINS MUSIC FESTIVAL", "designationCode": "C", "categoryCode": "22", "address": "BOX 1063", "city": "KELVINGTON", "province": "SK", "country": "CA", "postalCode": "S0A1W0", "twitter": "None", "instagram": "None", "facebook": "None", "youtube": "None", "website": "None", "summary": "None", "logo": "None", "latitude": 50.942659313471935, "longitude": -102.0486202158667}, "119107951RR0001": {"name": "QUILL PLAINS MUSIC FESTIVAL (WYNYARD BRANCH) INC.", "designationCode": "C", "categoryCode": "22", "address": "PO BOX 787", "city": "WYNYARD", "province": "SK", "country": "CA", "postalCode": "S0A4T0", "twitter": "None", "instagram": "None", "facebook": "None", "youtube": "None", "website": "None", "summary": "None", "logo": "None", "latitude": 51.76523000000003, "longitude": -104.18008999999995}, "119107936RR0001": {"name": "QUILL PLAINS MUSIC FESTIVAL FOAM LAKE BRANCH INC.", "designationCode": "C", "categoryCode": "22", "address": "PO BOX 54", "city": "FOAM LAKE", "province": "SK", "country": "CA", "postalCode": "S0A1A0", "twitter": "None", "instagram": "None", "facebook": "None", "youtube": "None", "website": "None", "summary": "None", "logo": "None", "latitude": 51.63984000000005, "longitude": -103.53940999999998}, "119107969RR0001": {"name": "QUILL PLAINS REGIONAL ARTS COUNCIL", "designationCode": "C", "categoryCode": "22", "address": "PO BOX 601", "city": "KELVINGTON", "province": "SK", "country": "CA", "postalCode": "S0A1W0", "twitter": "None", "instagram": "None", "facebook": "None", "youtube": "None", "website": "None", "summary": "None", "logo": "None", "latitude": 50.942659313471935, "longitude": -102.0486202158667}, "107869364RR0001": {"name": "QUILL VIEW ANGLICAN PARISH", "designationCode": "C", "categoryCode": "30", "address": "BOX 1658", "city": "WYNYARD", "province": "SK", "country": "CA", "postalCode": "S0A4T0", "twitter": "None", "instagram": "None", "facebook": "None", "youtube": "None", "website": "None", "summary": "None", "logo": "None", "latitude": 51.76523000000003, "longitude": -104.18008999999995}, "802946699RR0001": {"name": "QUILTS OF VALOUR - CANADA SOCIETY", "designationCode": "C", "categoryCode": "09", "address": "1351 DE PAPILLON PLACE", "city": "OTTAWA", "province": "ON", "country": "CA", "postalCode": "K4A1Y9", "twitter": "None", "instagram": "None", "facebook": "None", "youtube": "None", "website": "None", "summary": "None", "logo": "None", "latitude": 45.4843513544347, "longitude": -75.49550012750322}, "119107977RR0001": {"name": "QUIMBY FOUNDATION", "designationCode": "C", "categoryCode": "09", "address": "1203 - 2105 90 AVE SW", "city": "CALGARY", "province": "AB", "country": "CA", "postalCode": "T2V0X5", "twitter": "None", "instagram": "None", "facebook": "None", "youtube": "None", "website": "None", "summary": "None", "logo": "None", "latitude": 50.97214850346246, "longitude": -114.10907256939231}, "119107985RR0001": {"name": "QUINAN AND DISTRICT'S VOLUNTEER FIRE DEPARTMENT", "designationCode": "C", "categoryCode": "59", "address": "7081 HWY 308 RR#3", "city": "TUSKET", "province": "NS", "country": "CA", "postalCode": "B0W3M0", "twitter": "None", "instagram": "None", "facebook": "None", "youtube": "None", "website": "None", "summary": "None", "logo": "None", "latitude": 43.92097840911909, "longitude": -65.83395570306844}, "888807195RR0001": {"name": "QUINN UNITED CHURCH,", "designationCode": "C", "categoryCode": "44", "address": "27 CANAL STREET EAST,BOX 580", "city": "TILBURY", "province": "ON", "country": "CA", "postalCode": "N0P2L0", "twitter": "None", "instagram": "None", "facebook": "None", "youtube": "None", "website": "None", "summary": "None", "logo": "None", "latitude": 42.260565585319576, "longitude": -82.42874954036597}, "137769626RR0001": {"name": "QUINTE ACCESS TRANSPORTATION INC NON-PROFIT CORPORATION", "designationCode": "C", "categoryCode": "09", "address": "97 FRONT STREET", "city": "TRENTON", "province": "ON", "country": "CA", "postalCode": "K8V4N6", "twitter": "None", "instagram": "None", "facebook": "None", "youtube": "None", "website": "None", "summary": "None", "logo": "None", "latitude": 44.103241215101825, "longitude": -77.57764634318198}, "107869448RR0001": {"name": "QUINTE ARTS COUNCIL", "designationCode": "C", "categoryCode": "22", "address": "PO BOX 22113", "city": "BELLEVILLE", "province": "ON", "country": "CA", "postalCode": "K8N2Z5", "twitter": "None", "instagram": "None", "facebook": "None", "youtube": "None", "website": "None", "summary": "None", "logo": "None", "latitude": 44.16100800000005, "longitude": -77.38297999999993}, "119108058RR0001": {"name": "QUINTE BALLET SCHOOL OF CANADA", "designationCode": "C", "categoryCode": "22", "address": "196 PALMER RD", "city": "BELLEVILLE", "province": "ON", "country": "CA", "postalCode": "K8P4E1", "twitter": "None", "instagram": "None", "facebook": "None", "youtube": "None", "website": "None", "summary": "None", "logo": "None", "latitude": 44.158019187056446, "longitude": -77.40537282393647}, "873243364RR0001": {"name": "QUINTE BIBLE CHAPEL", "designationCode": "C", "categoryCode": "39", "address": "188 VICTORIA AVENUE", "city": "BELLEVILLE", "province": "ON", "country": "CA", "postalCode": "K8N2B8", "twitter": "None", "instagram": "None", "facebook": "None", "youtube": "None", "website": "None", "summary": "None", "logo": "None", "latitude": 44.16952029194631, "longitude": -77.37269924555595}, "119108033RR0001": {"name": "QUINTE CHRISTIAN EDUCATION SOCIETY", "designationCode": "C", "categoryCode": "20", "address": "RR 2                          138 WALLBRIDGE LOYALIST ROAD", "city": "BELLEVILLE", "province": "ON", "country": "CA", "postalCode": "K8N4Z2", "twitter": "None", "instagram": "None", "facebook": "None", "youtube": "None", "website": "None", "summary": "None", "logo": "None", "latitude": 44.1454349125743, "longitude": -77.43010029127481}, "132799941RR0001": {"name": "QUINTE COMMUNITY CHRISTIAN CHURCH", "designationCode": "C", "categoryCode": "39", "address": "161 MONTROSE ROAD", "city": "BELLEVILLE", "province": "ON", "country": "CA", "postalCode": "K8R1A4", "twitter": "None", "instagram": "None", "facebook": "None", "youtube": "None", "website": "None", "summary": "None", "logo": "None", "latitude": 44.13685121842004, "longitude": -77.45598329701627}, "878183029RR0001": {"name": "QUINTE CONSERVATION ASSOCIATION", "designationCode": "C", "categoryCode": "52", "address": "R.R. #2                       2061 OLD HIGHWAY #2", "city": "BELLEVILLE", "province": "ON", "country": "CA", "postalCode": "K8N4Z2", "twitter": "None", "instagram": "None", "facebook": "None", "youtube": "None", "website": "None", "summary": "None", "logo": "None", "latitude": 44.13847986000203, "longitude": -77.42975942796943}, "106903537RR0001": {"name": "QUINTE EDUCATIONAL MUSEUM AND ARCHIVES", "designationCode": "C", "categoryCode": "21", "address": "PO BOX 220", "city": "BLOOMFIELD", "province": "ON", "country": "CA", "postalCode": "K0K1G0", "twitter": "None", "instagram": "None", "facebook": "None", "youtube": "None", "website": "None", "summary": "None", "logo": "None", "latitude": 44.066016000000005, "longitude": -77.86520099999998}, "869232983RR0001": {"name": "QUINTE HARVEST CHURCH", "designationCode": "C", "categoryCode": "39", "address": "30 HUFF'S ISLAND ROAD         R R # 7", "city": "BELLEVILLE", "province": "ON", "country": "CA", "postalCode": "K8N4Z7", "twitter": "None", "instagram": "None", "facebook": "None", "youtube": "None", "website": "None", "summary": "None", "logo": "None", "latitude": 44.08688828974559, "longitude": -77.38112366997534}, "877927624RR0001": {"name": "QUINTE HEALTHCARE CORPORATION", "designationCode": "C", "categoryCode": "10", "address": "265 DUNDAS STREET EAST", "city": "BELLEVILLE", "province": "ON", "country": "CA", "postalCode": "K8N1E2", "twitter": "None", "instagram": "None", "facebook": "None", "youtube": "None", "website": "None", "summary": "None", "logo": "None", "latitude": 44.16384327615561, "longitude": -77.36444509686078}, "898381439RR0001": {"name": "QUINTE HUMANE SOCIETY", "designationCode": "C", "categoryCode": "54", "address": "527 AVONLOUGH RD              RR 2", "city": "BELLEVILLE", "province": "ON", "country": "CA", "postalCode": "K8N4Z2", "twitter": "None", "instagram": "None", "facebook": "None", "youtube": "None", "website": "None", "summary": "None", "logo": "None", "latitude": 44.16282443323344, "longitude": -77.42792252019684}, "119108090RR0001": {"name": "QUINTE LIVING CENTRE INC.", "designationCode": "C", "categoryCode": "01", "address": "370 FRONT ST", "city": "BELLEVILLE", "province": "ON", "country": "CA", "postalCode": "K8N5L9", "twitter": "None", "instagram": "None", "facebook": "None", "youtube": "None", "website": "None", "summary": "None", "logo": "None", "latitude": 44.16835532500435, "longitude": -77.38591916492541}, "872934716RR0001": {"name": "QUINTE REGION FOOD SHARING SHELTER INC.", "designationCode": "C", "categoryCode": "09", "address": "P.O. BOX 20029", "city": "BELLEVILLE", "province": "ON", "country": "CA", "postalCode": "K8N5V1", "twitter": "None", "instagram": "None", "facebook": "None", "youtube": "None", "website": "None", "summary": "None", "logo": "None", "latitude": 44.16104400000006, "longitude": -77.38183249999993}, "866753312RR0001": {"name": "QUINTE SAILABILITY DEVELOPMENT TRAINING", "designationCode": "C", "categoryCode": "56", "address": "591 GOODFELLOW RD", "city": "CODRINGTON", "province": "ON", "country": "CA", "postalCode": "K0K1R0", "twitter": "None", "instagram": "None", "facebook": "None", "youtube": "None", "website": "None", "summary": "None", "logo": "None", "latitude": 44.18731728507107, "longitude": -77.77666861255784}, "119108116RR0001": {"name": "QUINTE SENIOR CITIZENS HOMES", "designationCode": "C", "categoryCode": "09", "address": "193 NORTH PARK ST", "city": "BELLEVILLE", "province": "ON", "country": "CA", "postalCode": "K8P4P1", "twitter": "None", "instagram": "None", "facebook": "None", "youtube": "None", "website": "None", "summary": "None", "logo": "None", "latitude": 44.18690938331681, "longitude": -77.39312224802424}, "118890797RR0001": {"name": "QUINTE SYMPHONY", "designationCode": "C", "categoryCode": "22", "address": "PO BOX 22113", "city": "BELLEVILLE", "province": "ON", "country": "CA", "postalCode": "K8N2Z5", "twitter": "None", "instagram": "None", "facebook": "None", "youtube": "None", "website": "None", "summary": "None", "logo": "None", "latitude": 44.16100800000005, "longitude": -77.38297999999993}, "119108132RR0001": {"name": "QUINTE THERAPEUTIC RIDING ASSOCIATION", "designationCode": "C", "categoryCode": "56", "address": "173 MCGEE RD.                 RR#2", "city": "STIRLING", "province": "ON", "country": "CA", "postalCode": "K0K3E0", "twitter": "None", "instagram": "None", "facebook": "None", "youtube": "None", "website": "None", "summary": "None", "logo": "None", "latitude": 44.32959090914144, "longitude": -77.5188857239313}, "119108157RR0001": {"name": "QUINTE UNITED IMMIGRANT SERVICES", "designationCode": "C", "categoryCode": "09", "address": "BOX 22141", "city": "BELLEVILLE", "province": "ON", "country": "CA", "postalCode": "K8N5V7", "twitter": "None", "instagram": "None", "facebook": "None", "youtube": "None", "website": "None", "summary": "None", "logo": "None", "latitude": 44.16104400000006, "longitude": -77.38183249999993}, "106720378RR0001": {"name": "QUINTE VOCATIONAL SUPPORT SERVICES", "designationCode": "C", "categoryCode": "09", "address": "1 GREENLEAF CRT", "city": "BELLEVILLE", "province": "ON", "country": "CA", "postalCode": "K8N5T5", "twitter": "None", "instagram": "None", "facebook": "None", "youtube": "None", "website": "None", "summary": "None", "logo": "None", "latitude": 44.18851572191116, "longitude": -77.36481206281412}, "106926181RR0001": {"name": "QUINTE WEST CHURCH OF THE NAZARENE", "designationCode": "C", "categoryCode": "39", "address": "18148 TELEPHONE RD            RR #1", "city": "TRENTON", "province": "ON", "country": "CA", "postalCode": "K8V5P4", "twitter": "None", "instagram": "None", "facebook": "None", "youtube": "None", "website": "None", "summary": "None", "logo": "None", "latitude": 44.11259411855818, "longitude": -77.60260758953184}, "866104433RR0001": {"name": "QUINTE WEST GARDENS-GROWING COMMUNITY", "designationCode": "C", "categoryCode": "09", "address": "16232 TELEPHONE ROAD", "city": "BRIGHTON", "province": "ON", "country": "CA", "postalCode": "K0K1H0", "twitter": "None", "instagram": "None", "facebook": "None", "youtube": "None", "website": "None", "summary": "None", "logo": "None"}, "119268878RR0001": {"name": "QUINTE WEST PUBLIC LIBRARY", "designationCode": "C", "categoryCode": "50", "address": "7 CRESWELL DR", "city": "TRENTON", "province": "ON", "country": "CA", "postalCode": "K8V6X5", "twitter": "None", "instagram": "None", "facebook": "None", "youtube": "None", "website": "None", "summary": "None", "logo": "None", "latitude": 44.097562244477395, "longitude": -77.57595403207314}, "107869596RR0001": {"name": "QUINTE YOUTH FOR CHRIST", "designationCode": "C", "categoryCode": "49", "address": "PO BOX 233 STN MAIN", "city": "BELLEVILLE", "province": "ON", "country": "CA", "postalCode": "K8N5A2", "twitter": "None", "instagram": "None", "facebook": "None", "youtube": "None", "website": "None", "summary": "None", "logo": "None", "latitude": 44.16104400000006, "longitude": -77.38183249999993}, "899411425RR0001": {"name": "QUINTESSENCE FOUNDATION", "designationCode": "B", "categoryCode": "21", "address": "4411 W 2ND AVE.", "city": "VANCOUVER", "province": "BC", "country": "CA", "postalCode": "V6R1V6", "twitter": "None", "instagram": "None", "facebook": "None", "youtube": "None", "website": "None", "summary": "None", "logo": "None", "latitude": 49.271332493219326, "longitude": -123.20630983236194}, "868497389RR0001": {"name": "QUINTETTE A VENT ESTRIA/ESTRIA WOODWIND QUINTET", "designationCode": "C", "categoryCode": "22", "address": "4230 CHEMIN MAGOG", "city": "NORTH HATLEY", "province": "QC", "country": "CA", "postalCode": "J0B2C0", "twitter": "None", "instagram": "None", "facebook": "None", "youtube": "None", "website": "None", "summary": "None", "logo": "None", "latitude": 45.27547642829908, "longitude": -71.98449540911184}, "107869653RR0001": {"name": "QUISPAMSIS UNITED CHURCH", "designationCode": "C", "categoryCode": "44", "address": "22 COUNTRY CRESCENT", "city": "GONDOLA POINT", "province": "NB", "country": "CA", "postalCode": "E2E1T2", "twitter": "None", "instagram": "None", "facebook": "None", "youtube": "None", "website": "None", "summary": "None", "logo": "None", "latitude": 45.425509323071125, "longitude": -65.98866281542504}, "886557883RR0001": {"name": "QULIBIE GABRIEL CHURCH", "designationCode": "C", "categoryCode": "39", "address": "430 ELIZABETH ST", "city": "LONDON", "province": "ON", "country": "CA", "postalCode": "N5W3R7", "twitter": "None", "instagram": "None", "facebook": "None", "youtube": "None", "website": "None", "summary": "None", "logo": "None", "latitude": 42.990097703589306, "longitude": -81.22928061348053}, "119108215RR0001": {"name": "QUONTA DRAMA REGION", "designationCode": "C", "categoryCode": "22", "address": "30 FOREST AVE", "city": "SAULT STE MARIE", "province": "ON", "country": "CA", "postalCode": "P6B1A4", "twitter": "None", "instagram": "None", "facebook": "None", "youtube": "None", "website": "None", "summary": "None", "logo": "None", "latitude": 46.51042650764605, "longitude": -84.31659016763805}, "806786745RR0001": {"name": "QUOTA CHARITY OF BARRIE", "designationCode": "A", "categoryCode": "03", "address": "219 DUCKWORTH ST", "city": "BARRIE", "province": "ON", "country": "CA", "postalCode": "L4M3W8", "twitter": "None", "instagram": "None", "facebook": "None", "youtube": "None", "website": "None", "summary": "None", "logo": "None", "latitude": 44.400001075768955, "longitude": -79.67551276934627}, "888362068RR0001": {"name": "QUOTA INTERNATIONAL OF ORILLIA CHARITABLE ASSOCIATION", "designationCode": "C", "categoryCode": "09", "address": "P.O. BOX 2524", "city": "ORILLIA", "province": "ON", "country": "CA", "postalCode": "L3V7A3", "twitter": "None", "instagram": "None", "facebook": "None", "youtube": "None", "website": "None", "summary": "None", "logo": "None", "latitude": 44.60657100000006, "longitude": -79.41824449999993}, "119108231RR0001": {"name": "QUOTA TRUST FUND OF THE QUOTA CLUB OF WINNIPEG", "designationCode": "C", "categoryCode": "15", "address": "202 KINGSTON ROAD", "city": "WINNIPEG", "province": "MB", "country": "CA", "postalCode": "R2M0T4", "twitter": "None", "instagram": "None", "facebook": "None", "youtube": "None", "website": "None", "summary": "None", "logo": "None", "latitude": 49.853620542847494, "longitude": -97.1310524403312}, "119108256RR0001": {"name": "QUYON PASTORAL CHARGE", "designationCode": "C", "categoryCode": "44", "address": "BOX 274", "city": "QUYON", "province": "QC", "country": "CA", "postalCode": "J0X2V0", "twitter": "None", "instagram": "None", "facebook": "None", "youtube": "None", "website": "None", "summary": "None", "logo": "None", "latitude": 45.51949799999999, "longitude": -76.24085174999999}, "140319518RR0001": {"name": "QWF FEDERATION DES ECRIVAINES ET ECRIVAINS DU QUEBEC/QWF QUEBEC WRITERS' FEDERATION", "designationCode": "C", "categoryCode": "21", "address": "1200 ATWATER                  SUITE 3", "city": "WESTMOUNT", "province": "QC", "country": "CA", "postalCode": "H3Z1X4", "twitter": "None", "instagram": "None", "facebook": "None", "youtube": "None", "website": "None", "summary": "None", "logo": "None", "latitude": 45.48882355952457, "longitude": -73.58404112727209}, "892347444RR0001": {"name": "Q104/780KIXX CHILDREN'S TRUST FUND SOCIETY", "designationCode": "C", "categoryCode": "09", "address": "8 BASINVIEW DR", "city": "DARTMOUTH", "province": "NS", "country": "CA", "postalCode": "B3B1G4", "twitter": "None", "instagram": "None", "facebook": "None", "youtube": "None", "website": "None", "summary": "None", "logo": "None", "latitude": 44.70250437217965, "longitude": -63.61156584199855}, "829685312RR0001": {"name": "R & J STERN FAMILY FOUNDATION", "designationCode": "B", "categoryCode": "03", "address": "SUITE 2900  PO BOX 11583      650 WEST GEORGIA ST.", "city": "VANCOUVER", "province": "BC", "country": "CA", "postalCode": "V6B4N8", "twitter": "None", "instagram": "None", "facebook": "None", "youtube": "None", "website": "None", "summary": "None", "logo": "None", "latitude": 49.282095217179936, "longitude": -123.11767129779695}, "848868386RR0001": {"name": "R & M Eynhallow Foundation", "designationCode": "B", "categoryCode": "03", "address": "1500 WEST GEORGIA STREET      SUITE 1250, BOX 62", "city": "VANCOUVER", "province": "BC", "country": "CA", "postalCode": "V6G2Z6", "twitter": "None", "instagram": "None", "facebook": "None", "youtube": "None", "website": "None", "summary": "None", "logo": "None", "latitude": 49.2900638104334, "longitude": -123.12989899362336}, "129976379RR0001": {"name": "R C CHURCH OF SPRING VALLEY", "designationCode": "C", "categoryCode": "38", "address": "BOX 97", "city": "SPRING VALLEY", "province": "SK", "country": "CA", "postalCode": "S0H3X0", "twitter": "None", "instagram": "None", "facebook": "None", "youtube": "None", "website": "None", "summary": "None", "logo": "None", "latitude": 39.484079952865095, "longitude": -121.37975661639094}, "128136918RR0004": {"name": "R C EPISCOPAL CORPORATION OF KEEWATIN BISHOPS HOUSE", "designationCode": "C", "categoryCode": "38", "address": "BOX 270", "city": "THE PAS", "province": "MB", "country": "CA", "postalCode": "R9A1K4", "twitter": "None", "instagram": "None", "facebook": "None", "youtube": "None", "website": "None", "summary": "None", "logo": "None", "latitude": 53.81342700000006, "longitude": -101.25038149999993}, "128136918RR0014": {"name": "R C EPISCOPAL CORPORATION OF KEEWATIN ST ANN'S PARISH", "designationCode": "C", "categoryCode": "38", "address": "163 CENTRE ST", "city": "FLIN FLON", "province": "MB", "country": "CA", "postalCode": "R8A1R1", "twitter": "None", "instagram": "None", "facebook": "None", "youtube": "None", "website": "None", "summary": "None", "logo": "None", "latitude": 54.77057392449085, "longitude": -101.85015777321274}, "128136918RR0013": {"name": "R C EPISCOPAL CORPORATION SNOW LAKE CATHOLIC CHURCH", "designationCode": "C", "categoryCode": "38", "address": "P O BOX 455", "city": "SNOW LAKE", "province": "MB", "country": "CA", "postalCode": "R0B1M0", "twitter": "None", "instagram": "None", "facebook": "None", "youtube": "None", "website": "None", "summary": "None", "logo": "None", "latitude": 54.87465000000003, "longitude": -100.01448999999997}, "889095246RR0001": {"name": "R C FOUNDATION OF SOUTHERN ALBERTA", "designationCode": "B", "categoryCode": "43", "address": "120-17 AVENUE S.W.", "city": "CALGARY", "province": "AB", "country": "CA", "postalCode": "T2S2T2", "twitter": "None", "instagram": "None", "facebook": "None", "youtube": "None", "website": "None", "summary": "None", "logo": "None", "latitude": 51.03784552596791, "longitude": -114.06513149999999}, "867055741RR0001": {"name": "R C L LAST POST (ONTARIO #410) BRANCH-POPPY TRUST FUND", "designationCode": "C", "categoryCode": "05", "address": "310 GEORGE STREET", "city": "PORT STANLEY", "province": "ON", "country": "CA", "postalCode": "N5L1C5", "twitter": "None", "instagram": "None", "facebook": "None", "youtube": "None", "website": "None", "summary": "None", "logo": "None", "latitude": 42.66416949597526, "longitude": -81.21530633199174}, "887604460RR0001": {"name": "R C M P CHAPEL COMMITTEE", "designationCode": "C", "categoryCode": "39", "address": "P.O. BOX 6500", "city": "REGINA", "province": "SK", "country": "CA", "postalCode": "S4P3J7", "twitter": "None", "instagram": "None", "facebook": "None", "youtube": "None", "website": "None", "summary": "None", "logo": "None", "latitude": 50.448246000000054, "longitude": -104.59517299999993}, "131106098RR0002": {"name": "R C MISSION OF SHESHATSHIT", "designationCode": "C", "categoryCode": "38", "address": "PO BOX 770", "city": "HAPPY VALLEY-GOOSE BAY STN B", "province": "NL", "country": "CA", "postalCode": "A0P1E0", "twitter": "None", "instagram": "None", "facebook": "None", "youtube": "None", "website": "None", "summary": "None", "logo": "None", "latitude": 53.29581900000005, "longitude": -60.29593999999993}, "847156528RR0001": {"name": "R C PARISH OF HODGEVILLE", "designationCode": "C", "categoryCode": "38", "address": "P.O. BOX 99", "city": "HODGEVILLE", "province": "SK", "country": "CA", "postalCode": "S0H2B0", "twitter": "None", "instagram": "None", "facebook": "None", "youtube": "None", "website": "None", "summary": "None", "logo": "None", "latitude": 50.109860000000026, "longitude": -106.96109999999999}, "888562790RR0001": {"name": "R C PARISH OF SACRED HEART", "designationCode": "C", "categoryCode": "38", "address": "PO BOX 1824", "city": "MOOSOMIN", "province": "SK", "country": "CA", "postalCode": "S0G3N0", "twitter": "None", "instagram": "None", "facebook": "None", "youtube": "None", "website": "None", "summary": "None", "logo": "None", "latitude": 50.14728000000008, "longitude": -101.66300999999999}, "130331010RR0001": {"name": "R C PARISH OF SAINT BERNADETTE", "designationCode": "C", "categoryCode": "38", "address": "820 COTTONWOOD RD", "city": "WINNIPEG", "province": "MB", "country": "CA", "postalCode": "R2J1G1", "twitter": "None", "instagram": "None", "facebook": "None", "youtube": "None", "website": "None", "summary": "None", "logo": "None", "latitude": 49.860168772087576, "longitude": -97.08337678140705}, "131983850RR0001": {"name": "R C PARISH OF ST MARY", "designationCode": "C", "categoryCode": "38", "address": "BOX 9", "city": "MOOSOMIN", "province": "SK", "country": "CA", "postalCode": "S0G3N0", "twitter": "None", "instagram": "None", "facebook": "None", "youtube": "None", "website": "None", "summary": "None", "logo": "None", "latitude": 50.14728000000008, "longitude": -101.66300999999999}, "131928590RR0001": {"name": "R C PARISH OF ST SCHOLASTICA", "designationCode": "C", "categoryCode": "38", "address": "BOX 2578", "city": "HUMBOLDT", "province": "SK", "country": "CA", "postalCode": "S0K2A0", "twitter": "None", "instagram": "None", "facebook": "None", "youtube": "None", "website": "None", "summary": "None", "logo": "None", "latitude": 51.7871843348964, "longitude": -104.71638483007007}, "130632243RR0001": {"name": "R C PARISH OF THE ASSUMPTION", "designationCode": "C", "categoryCode": "38", "address": "10555 50A ST NW", "city": "EDMONTON", "province": "AB", "country": "CA", "postalCode": "T6A2C8", "twitter": "None", "instagram": "None", "facebook": "None", "youtube": "None", "website": "None", "summary": "None", "logo": "None", "latitude": 53.55079302527544, "longitude": -113.42009462663785}, "891086043RR0001": {"name": "R C PARISH OF THE HOLY ROSARY", "designationCode": "C", "categoryCode": "38", "address": "BOX 237", "city": "LEROY", "province": "SK", "country": "CA", "postalCode": "S0K2P0", "twitter": "None", "instagram": "None", "facebook": "None", "youtube": "None", "website": "None", "summary": "None", "logo": "None"}, "888642063RR0001": {"name": "R C PASTORAL CARE ADVISORY COMMITTEE FOR THE BURIN PENINSULA HEALTH CARE CENTRE", "designationCode": "C", "categoryCode": "49", "address": "P.O. BOX 368", "city": "MARYSTOWN", "province": "NL", "country": "CA", "postalCode": "A0E2M0", "twitter": "None", "instagram": "None", "facebook": "None", "youtube": "None", "website": "None", "summary": "None", "logo": "None", "latitude": 47.17724000000004, "longitude": -55.15096999999997}, "893304659RR0001": {"name": "R D D S (SHAWINIGAN) INC", "designationCode": "C", "categoryCode": "09", "address": "2513 AV ST-MARC APP. 2", "city": "SHAWINIGAN", "province": "QC", "country": "CA", "postalCode": "G9N2K2", "twitter": "None", "instagram": "None", "facebook": "None", "youtube": "None", "website": "None", "summary": "None", "logo": "None", "latitude": 46.55648267222569, "longitude": -72.73801764253552}, "892870585RR0001": {"name": "R H MCRAE FAMILY CHARITABLE FOUNDATION", "designationCode": "B", "categoryCode": "05", "address": "55 WATERFORD DR.", "city": "OTTAWA", "province": "ON", "country": "CA", "postalCode": "K2E7V4", "twitter": "None", "instagram": "None", "facebook": "None", "youtube": "None", "website": "None", "summary": "None", "logo": "None", "latitude": 45.325870627531884, "longitude": -75.70060304910855}, "128438660RR0001": {"name": "R H S CHILD CARE INC", "designationCode": "C", "categoryCode": "20", "address": "255 OAK STREET", "city": "WINNIPEG", "province": "MB", "country": "CA", "postalCode": "R3M3P7", "twitter": "None", "instagram": "None", "facebook": "None", "youtube": "None", "website": "None", "summary": "None", "logo": "None", "latitude": 49.87072057146977, "longitude": -97.18124279701628}, "890817141RR0001": {"name": "R L M O/A RESURRECTION LIFE MINISTRIES", "designationCode": "C", "categoryCode": "47", "address": "P.O. BOX 8000-714", "city": "ABBOTSFORD", "province": "BC", "country": "CA", "postalCode": "V2S6H1", "twitter": "None", "instagram": "None", "facebook": "None", "youtube": "None", "website": "None", "summary": "None", "logo": "None", "latitude": 49.03851300000005, "longitude": -122.29441549999993}, "893048579RR0001": {"name": "R M H NEW LIFE CHRISTIAN CENTRE", "designationCode": "C", "categoryCode": "39", "address": "BOX 2181", "city": "ROCKY MTN HOUSE", "province": "AB", "country": "CA", "postalCode": "T4T1B6", "twitter": "None", "instagram": "None", "facebook": "None", "youtube": "None", "website": "None", "summary": "None", "logo": "None", "latitude": 52.37758500000005, "longitude": -114.93030049999993}, "123912347RR0001": {"name": "R M OF PIPESTONE HANDIVAN", "designationCode": "C", "categoryCode": "09", "address": "BOX 157", "city": "RESTON", "province": "MB", "country": "CA", "postalCode": "R0M1X0", "twitter": "None", "instagram": "None", "facebook": "None", "youtube": "None", "website": "None", "summary": "None", "logo": "None", "latitude": 49.18753799999999, "longitude": -100.49400221363014}, "887979649RR0001": {"name": "R P S C PHILATELIC RESEARCH FOUNDATION", "designationCode": "C", "categoryCode": "23", "address": "10 SUMMERHILL AVENUE", "city": "TORONTO", "province": "ON", "country": "CA", "postalCode": "M4T1A8", "twitter": "None", "instagram": "None", "facebook": "None", "youtube": "None", "website": "None", "summary": "None", "logo": "None", "latitude": 43.683237219545234, "longitude": -79.39151607591317}, "861602126RR0001": {"name": "R R SMITH MEMORIAL FUND FOUNDATION", "designationCode": "A", "categoryCode": "21", "address": "100-550 W6TH AVENUE", "city": "VANCOUVER", "province": "BC", "country": "CA", "postalCode": "V5Z4P2", "twitter": "None", "instagram": "None", "facebook": "None", "youtube": "None", "website": "None", "summary": "None", "logo": "None", "latitude": 49.265817000000055, "longitude": -123.11570149999994}, "889209664RR0001": {"name": "R T ALDERMAN PARENTS ASSOCIATION", "designationCode": "C", "categoryCode": "21", "address": "725 MAPLETON DRIVE SE", "city": "CALGARY", "province": "AB", "country": "CA", "postalCode": "T2J1S1", "twitter": "None", "instagram": "None", "facebook": "None", "youtube": "None", "website": "None", "summary": "None", "logo": "None", "latitude": 50.96167657841026, "longitude": -114.04502263243205}, "856726625RR0001": {"name": "R 2 G CHILDREN'S FOUNDATION", "designationCode": "B", "categoryCode": "01", "address": "2 - 118 HAMPTON CIR", "city": "SASKATOON", "province": "SK", "country": "CA", "postalCode": "S7R0C9", "twitter": "None", "instagram": "None", "facebook": "None", "youtube": "None", "website": "None", "summary": "None", "logo": "None", "latitude": 52.15285370852364, "longitude": -106.72010413636043}, "119110542RR0001": {"name": "R. C. MacGILLIVRAY GUEST HOME SOCIETY", "designationCode": "C", "categoryCode": "01", "address": "25 XAVIER DR", "city": "SYDNEY", "province": "NS", "country": "CA", "postalCode": "B1S2R9", "twitter": "None", "instagram": "None", "facebook": "None", "youtube": "None", "website": "None", "summary": "None", "logo": "None", "latitude": 46.12334567473585, "longitude": -60.194515957787694}, "119118487RR0001": {"name": "R. Howard Webster Foundation / Fondation R. Howard Webster", "designationCode": "B", "categoryCode": "03", "address": "1155 RENE-LEVESQUE BLVD. W    SUITE 2912", "city": "MONTREAL", "province": "QC", "country": "CA", "postalCode": "H3B2L5", "twitter": "None", "instagram": "None", "facebook": "None", "youtube": "None", "website": "None", "summary": "None", "logo": "None", "latitude": 45.498612132119526, "longitude": -73.5705753094811}, "119208379RR0001": {"name": "R. TAIT MCKENZIE MEMORIAL TRUST", "designationCode": "B", "categoryCode": "55", "address": "10970 HIGHWAY 7", "city": "CARLETON PLACE", "province": "ON", "country": "CA", "postalCode": "K7C3P1", "twitter": "None", "instagram": "None", "facebook": "None", "youtube": "None", "website": "None", "summary": "None", "logo": "None", "latitude": 45.124730765623326, "longitude": -76.15185500433114}, "774837488RR0001": {"name": "R.A. MCMATH SECONDARY SCHOOL", "designationCode": "C", "categoryCode": "20", "address": "4251 GARRY STREET", "city": "RICHMOND", "province": "BC", "country": "CA", "postalCode": "V7E2T9", "twitter": "None", "instagram": "None", "facebook": "None", "youtube": "None", "website": "None", "summary": "None", "logo": "None", "latitude": 49.12929248211083, "longitude": -123.17789241618097}, "861210094RR0001": {"name": "R.A.F.A.L. (Regroupement Actions Familles \u00e0 Lac St-Charles)", "designationCode": "C", "categoryCode": "09", "address": "4 - 530 RUE DELAGE", "city": "QUEBEC", "province": "QC", "country": "CA", "postalCode": "G3G1J2", "twitter": "None", "instagram": "None", "facebook": "None", "youtube": "None", "website": "None", "summary": "None", "logo": "None", "latitude": 46.90689175627586, "longitude": -71.3785977795894}, "835633066RR0001": {"name": "R.A.P.P.J. (Regroupement d'aide aux proches de personnes judiciaris\u00e9es)", "designationCode": "B", "categoryCode": "59", "address": "1721, LAVOISIER", "city": "SAGUENAY", "province": "QC", "country": "CA", "postalCode": "G7S3L6", "twitter": "None", "instagram": "None", "facebook": "None", "youtube": "None", "website": "None", "summary": "None", "logo": "None", "latitude": 48.43595022038196, "longitude": -71.1783942764154}, "837756436RR0001": {"name": "R.A.S. R\u00e9seau-Autonomie-Sant\u00e9", "designationCode": "C", "categoryCode": "11", "address": "16 RUE DE LA CORMIERE", "city": "VICTORIAVILLE", "province": "QC", "country": "CA", "postalCode": "G6T1M9", "twitter": "None", "instagram": "None", "facebook": "None", "youtube": "None", "website": "None", "summary": "None", "logo": "None", "latitude": 46.05819238080667, "longitude": -72.02152140801532}, "897909917RR0001": {"name": "R.A.S.T.A. (RESCUE AND SANCTUARY FOR THREATENED ANIMALS)", "designationCode": "C", "categoryCode": "54", "address": "9233 CHEMAINUS RD", "city": "CHEMAINUS", "province": "BC", "country": "CA", "postalCode": "V0R1K5", "twitter": "None", "instagram": "None", "facebook": "None", "youtube": "None", "website": "None", "summary": "None", "logo": "None", "latitude": 48.90416383071716, "longitude": -123.70329901465787}}