{"846131019RR0001": {"name": "Rotary Club of Steveston-Richmond Charitable Society", "designationCode": "C", "categoryCode": "53", "address": "12111 - 3RD AVENUE", "city": "RICHMOND", "province": "BC", "country": "CA", "postalCode": "V7E3K1", "twitter": "None", "instagram": "None", "facebook": "None", "youtube": "None", "website": "None", "summary": "None", "logo": "None", "latitude": 49.125753943914, "longitude": -123.18582433302879}, "848589412RR0001": {"name": "Rotary Club of Tilbury Foundation", "designationCode": "C", "categoryCode": "09", "address": "PO BOX 958", "city": "TILBURY", "province": "ON", "country": "CA", "postalCode": "N0P2L0", "twitter": "None", "instagram": "None", "facebook": "None", "youtube": "None", "website": "None", "summary": "None", "logo": "None", "latitude": 42.246438000000055, "longitude": -82.43606599999994}, "825322373RR0001": {"name": "Rotary Club of Wellington Charitable Trust", "designationCode": "A", "categoryCode": "65", "address": "PO BOX 209", "city": "WELLINGTON", "province": "ON", "country": "CA", "postalCode": "K0K3L0", "twitter": "None", "instagram": "None", "facebook": "None", "youtube": "None", "website": "None", "summary": "None", "logo": "None", "latitude": 44.300473210135635, "longitude": -77.54765621199132}, "857131262RR0001": {"name": "Rotary Club of Winnipeg Assiniboine Charitable Foundation (RCWACF) Inc.", "designationCode": "A", "categoryCode": "03", "address": "1881 PORTAGE AVE              PO BOX 42106 RPO FERRY RD", "city": "WINNIPEG", "province": "MB", "country": "CA", "postalCode": "R3J3X7", "twitter": "None", "instagram": "None", "facebook": "None", "youtube": "None", "website": "None", "summary": "None", "logo": "None", "latitude": 49.87872745441124, "longitude": -97.21935118887411}, "889431045RR0001": {"name": "Rotary Club Of Cobourg Robert S. Scott Charitable Trust", "designationCode": "A", "categoryCode": "65", "address": "165 CHAPEL ST.", "city": "COBOURG", "province": "ON", "country": "CA", "postalCode": "K9A1J4", "twitter": "None", "instagram": "None", "facebook": "None", "youtube": "None", "website": "None", "summary": "None", "logo": "None", "latitude": 43.96300089255034, "longitude": -78.15989703814427}, "807529987RR0001": {"name": "Rotary Club Of Lions Gate Foundation", "designationCode": "C", "categoryCode": "63", "address": "#33-1925 INDIAN RIVER CRES", "city": "NORTH VANCOUVER", "province": "BC", "country": "CA", "postalCode": "V7G2P8", "twitter": "None", "instagram": "None", "facebook": "None", "youtube": "None", "website": "None", "summary": "None", "logo": "None", "latitude": 49.32415624528295, "longitude": -122.96257887411195}, "822159323RR0001": {"name": "Rotary Club Of West Ottawa Charitable Foundation", "designationCode": "A", "categoryCode": "03", "address": "99 - 1568 MERIVALE RD", "city": "NEPEAN", "province": "ON", "country": "CA", "postalCode": "K2G3J9", "twitter": "None", "instagram": "None", "facebook": "None", "youtube": "None", "website": "None", "summary": "None", "logo": "None", "latitude": 45.351826408534926, "longitude": -75.73418209608137}, "814713293RR0001": {"name": "Rothem Tree Church", "designationCode": "C", "categoryCode": "39", "address": "30 ATHABASKA AVE", "city": "TORONTO", "province": "ON", "country": "CA", "postalCode": "M2M2T7", "twitter": "None", "instagram": "None", "facebook": "None", "youtube": "None", "website": "None", "summary": "None", "logo": "None", "latitude": 43.79594119069178, "longitude": -79.41728703595122}, "126181320RR0001": {"name": "Round Lake Alcohol and Drug Treatment Society", "designationCode": "C", "categoryCode": "57", "address": "200 EMERY LOUIS RD", "city": "ARMSTRONG", "province": "BC", "country": "CA", "postalCode": "V0E1B5", "twitter": "None", "instagram": "None", "facebook": "None", "youtube": "None", "website": "None", "summary": "None", "logo": "None", "latitude": 50.4324648417283, "longitude": -119.33767607603286}, "888551868RR0001": {"name": "Routes Connecting Communities Inc.", "designationCode": "C", "categoryCode": "09", "address": "112B HIGH ST.,                P.O. BOX 160", "city": "SUTTON WEST", "province": "ON", "country": "CA", "postalCode": "L0E1R0", "twitter": "None", "instagram": "None", "facebook": "None", "youtube": "None", "website": "None", "summary": "None", "logo": "None", "latitude": 44.303608330241254, "longitude": -79.35845578217238}, "896196920RR0001": {"name": "Rovers Search & Rescue Inc.", "designationCode": "C", "categoryCode": "59", "address": "24 MCNAMARA DRIVE", "city": "PARADISE", "province": "NL", "country": "CA", "postalCode": "A1L0A6", "twitter": "None", "instagram": "None", "facebook": "None", "youtube": "None", "website": "None", "summary": "None", "logo": "None", "latitude": 47.525594847364054, "longitude": -52.870904935839796}, "899496707RR0001": {"name": "Rowan House Society", "designationCode": "C", "categoryCode": "09", "address": "BOX 5121", "city": "HIGH RIVER", "province": "AB", "country": "CA", "postalCode": "T1V1M3", "twitter": "None", "instagram": "None", "facebook": "None", "youtube": "None", "website": "None", "summary": "None", "logo": "None", "latitude": 50.57803500000006, "longitude": -113.85914299999993}, "847134038RR0001": {"name": "Roy and Cher's Rescue Farm", "designationCode": "C", "categoryCode": "54", "address": "POST OFFICE BOX 27", "city": "BAINSVILLE", "province": "ON", "country": "CA", "postalCode": "K0C1E0", "twitter": "None", "instagram": "None", "facebook": "None", "youtube": "None", "website": "None", "summary": "None", "logo": "None", "latitude": 45.17942025026486, "longitude": -74.41152677059777}, "817505324RR0001": {"name": "Roy and Roberta Barr Family Foundation", "designationCode": "B", "categoryCode": "03", "address": "350 7TH AVENUE SW             7TH FLOOR", "city": "CALGARY", "province": "AB", "country": "CA", "postalCode": "T2P3N9", "twitter": "None", "instagram": "None", "facebook": "None", "youtube": "None", "website": "None", "summary": "None", "logo": "None", "latitude": 51.046676474897474, "longitude": -114.06982963627445}, "807027404RR0001": {"name": "Roy-Bowman Foundation", "designationCode": "B", "categoryCode": "03", "address": "453 HEATH STREET EAST,", "city": "TORONTO", "province": "ON", "country": "CA", "postalCode": "M4G1B8", "twitter": "None", "instagram": "None", "facebook": "None", "youtube": "None", "website": "None", "summary": "None", "logo": "None", "latitude": 43.695005711062464, "longitude": -79.37070742700101}, "841684152RR0001": {"name": "Royal Arch Charitable Foundation", "designationCode": "C", "categoryCode": "03", "address": "5561 TURNER ROAD", "city": "NANAIMO", "province": "BC", "country": "CA", "postalCode": "V9R2X5", "twitter": "None", "instagram": "None", "facebook": "None", "youtube": "None", "website": "None", "summary": "None", "logo": "None", "latitude": 49.23258191035259, "longitude": -124.0299336382077}, "797259512RR0001": {"name": "Royal Believers In God International", "designationCode": "C", "categoryCode": "39", "address": "6 WINNERS CIRCLE,", "city": "BRAMPTON", "province": "ON", "country": "CA", "postalCode": "L7A1W1", "twitter": "None", "instagram": "None", "facebook": "None", "youtube": "None", "website": "None", "summary": "None", "logo": "None", "latitude": 43.70845799584507, "longitude": -79.81242387872918}, "866795255RR0006": {"name": "Royal Canadian Air Cadet Squadron #220", "designationCode": "C", "categoryCode": "29", "address": "969 ST MATTHEWS AVE", "city": "WINNIPEG", "province": "MB", "country": "CA", "postalCode": "R3G0J7", "twitter": "None", "instagram": "None", "facebook": "None", "youtube": "None", "website": "None", "summary": "None", "logo": "None", "latitude": 49.89038446826102, "longitude": -97.17888005966878}, "130387665RR0042": {"name": "Royal Canadian Air Cadets 758 Argus Brampton Squadron (Sponsoring Committee)", "designationCode": "C", "categoryCode": "29", "address": "PO BOX 339", "city": "BRAMPTON", "province": "ON", "country": "CA", "postalCode": "L6V2L3", "twitter": "None", "instagram": "None", "facebook": "None", "youtube": "None", "website": "None", "summary": "None", "logo": "None", "latitude": 43.68430500000005, "longitude": -79.75872349999993}, "828955245RR0001": {"name": "Royal Canadian Legion - Branch 551 Poppy Fund", "designationCode": "C", "categoryCode": "05", "address": "79 HAMILTON STREET NORTH      POST OFFICE BOX 754", "city": "WATERDOWN", "province": "ON", "country": "CA", "postalCode": "L0R2H0", "twitter": "None", "instagram": "None", "facebook": "None", "youtube": "None", "website": "None", "summary": "None", "logo": "None", "latitude": 43.33380169190388, "longitude": -79.89951066475253}, "816783500RR0001": {"name": "Royal Canadian Legion Branch #475 Poppy Trust Fund", "designationCode": "C", "categoryCode": "09", "address": "320 COUNTY ROAD #8            POST OFFICE BOX 21", "city": "TOLEDO", "province": "ON", "country": "CA", "postalCode": "K0E1Y0", "twitter": "None", "instagram": "None", "facebook": "None", "youtube": "None", "website": "None", "summary": "None", "logo": "None", "latitude": 44.74110233705443, "longitude": -75.99385661326428}, "842776031RR0001": {"name": "Royal Canadian Legion Branch 163 Pipes and Drums", "designationCode": "C", "categoryCode": "22", "address": "6 GRAHAM CRT", "city": "CALEDONIA", "province": "ON", "country": "CA", "postalCode": "N3W2N3", "twitter": "None", "instagram": "None", "facebook": "None", "youtube": "None", "website": "None", "summary": "None", "logo": "None", "latitude": 43.061834755428166, "longitude": -79.94474349173608}, "762274496RR0001": {"name": "Royal Canadian Legion Branch 218 Poppy Fund", "designationCode": "C", "categoryCode": "09", "address": "620 TURNBERRY STREET          POST OFFICE BOX 128", "city": "BRUSSELS", "province": "ON", "country": "CA", "postalCode": "N0G1H0", "twitter": "None", "instagram": "None", "facebook": "None", "youtube": "None", "website": "None", "summary": "None", "logo": "None", "latitude": 43.74204903332549, "longitude": -81.25155607276784}, "119127033RR0002": {"name": "Royal Canadian Legion Cold Lake #211 Branch Poppy Fund", "designationCode": "C", "categoryCode": "09", "address": "1007 7 AVE", "city": "COLD LAKE", "province": "AB", "country": "CA", "postalCode": "T9M0C4", "twitter": "None", "instagram": "None", "facebook": "None", "youtube": "None", "website": "None", "summary": "None", "logo": "None", "latitude": 54.46517187480537, "longitude": -110.1760730323159}, "817134513RR0001": {"name": "Royal Canadian Legion Pincher Creek Branch #43 Poppy Fund", "designationCode": "C", "categoryCode": "09", "address": "PO BOX 131", "city": "PINCHER CREEK", "province": "AB", "country": "CA", "postalCode": "T0K1W0", "twitter": "None", "instagram": "None", "facebook": "None", "youtube": "None", "website": "None", "summary": "None", "logo": "None", "latitude": 49.48739000000006, "longitude": -113.9366800732874}, "815236567RR0001": {"name": "Royal Canadian Legion Victory Branch #317 Poppy Trust Fund", "designationCode": "C", "categoryCode": "09", "address": "311 OAKLAND AVE", "city": "LONDON", "province": "ON", "country": "CA", "postalCode": "N5W4J5", "twitter": "None", "instagram": "None", "facebook": "None", "youtube": "None", "website": "None", "summary": "None", "logo": "None", "latitude": 42.992581954793906, "longitude": -81.20484944903833}, "107933483RR0001": {"name": "Royal Canadian Legion, MacDonald Branch 183 (Ontario) BranchPoppy Fund", "designationCode": "C", "categoryCode": "09", "address": "219 LAMBTON STREET", "city": "KINCARDINE", "province": "ON", "country": "CA", "postalCode": "N2Z2Y1", "twitter": "None", "instagram": "None", "facebook": "None", "youtube": "None", "website": "None", "summary": "None", "logo": "None", "latitude": 44.178779469645995, "longitude": -81.63763995986517}, "810063867RR0001": {"name": "Royal College Canada International (RCCI) / Coll\u00e8ge royal du Canada international (CRCI)", "designationCode": "C", "categoryCode": "19", "address": "774 ECHO DRIVE", "city": "OTTAWA", "province": "ON", "country": "CA", "postalCode": "K1S5N8", "twitter": "None", "instagram": "None", "facebook": "None", "youtube": "None", "website": "None", "summary": "None", "logo": "None", "latitude": 45.39591652337177, "longitude": -75.68336042048013}, "119030799RR0001": {"name": "Royal Manitoba Theatre Centre Inc.", "designationCode": "C", "categoryCode": "22", "address": "174 MARKET AVENUE", "city": "WINNIPEG", "province": "MB", "country": "CA", "postalCode": "R3B0P8", "twitter": "None", "instagram": "None", "facebook": "None", "youtube": "None", "website": "None", "summary": "None", "logo": "None", "latitude": 49.89883604965681, "longitude": -97.13688230157524}, "119129096RR0001": {"name": "Royal Military Colleges of Canada Foundation Inc.", "designationCode": "C", "categoryCode": "23", "address": "ROYAL MILITARY COLLEGE        P O BOX 17000 STN FORCES", "city": "KINGSTON", "province": "ON", "country": "CA", "postalCode": "K7K7B4", "twitter": "None", "instagram": "None", "facebook": "None", "youtube": "None", "website": "None", "summary": "None", "logo": "None", "latitude": 44.231250043857116, "longitude": -76.46608004616473}, "810424325RR0001": {"name": "Royal Oak Community School Inc.", "designationCode": "C", "categoryCode": "20", "address": "79 PRIDEAUX STREET            PO BOX 1385", "city": "NIAGARA-ON-THE-LAKE", "province": "ON", "country": "CA", "postalCode": "L0S1J0", "twitter": "None", "instagram": "None", "facebook": "None", "youtube": "None", "website": "None", "summary": "None", "logo": "None", "latitude": 43.25720418394571, "longitude": -79.07212200943567}, "810673525RR0001": {"name": "Royal Rouge Christian Ministries", "designationCode": "C", "categoryCode": "39", "address": "107 ROYAL ROUGE TRAIL", "city": "TORONTO", "province": "ON", "country": "CA", "postalCode": "M1B4V8", "twitter": "None", "instagram": "None", "facebook": "None", "youtube": "None", "website": "None", "summary": "None", "logo": "None", "latitude": 43.80310984511522, "longitude": -79.14317439451222}, "119129260RR0001": {"name": "Royal Victoria Regional Health Centre", "designationCode": "C", "categoryCode": "10", "address": "201 GEORGIAN DR", "city": "BARRIE", "province": "ON", "country": "CA", "postalCode": "L4M6M2", "twitter": "None", "instagram": "None", "facebook": "None", "youtube": "None", "website": "None", "summary": "None", "logo": "None", "latitude": 44.41574080930822, "longitude": -79.66401492838598}, "125249185RR0001": {"name": "Royal Victoria Regional Health Centre Foundation", "designationCode": "A", "categoryCode": "13", "address": "201 GEORGIAN DRIVE", "city": "BARRIE", "province": "ON", "country": "CA", "postalCode": "L4M6M2", "twitter": "None", "instagram": "None", "facebook": "None", "youtube": "None", "website": "None", "summary": "None", "logo": "None", "latitude": 44.41574080930822, "longitude": -79.66401492838598}, "844291104RR0001": {"name": "Royal Youth For Christ International Fellowship Inc.", "designationCode": "C", "categoryCode": "49", "address": "3417 JORIE CRESCENT", "city": "MISSISSAUGA", "province": "ON", "country": "CA", "postalCode": "L5M7G6", "twitter": "None", "instagram": "None", "facebook": "None", "youtube": "None", "website": "None", "summary": "None", "logo": "None", "latitude": 43.55362987647882, "longitude": -79.74840247097366}, "814623104RR0001": {"name": "Rozynski Centre for Fine Arts / Centre des beaux-arts Rozynski", "designationCode": "C", "categoryCode": "50", "address": "2133 WAY'S MILLS ROAD", "city": "AYER'S CLIFF", "province": "QC", "country": "CA", "postalCode": "J0B1C0", "twitter": "None", "instagram": "None", "facebook": "None", "youtube": "None", "website": "None", "summary": "None", "logo": "None", "latitude": 45.167732642665754, "longitude": -72.0398285836846}, "862286093RR0001": {"name": "Ruban en Route (2004)", "designationCode": "C", "categoryCode": "11", "address": "658 BEATTY", "city": "VERDUN", "province": "QC", "country": "CA", "postalCode": "H4H1X8", "twitter": "None", "instagram": "None", "facebook": "None", "youtube": "None", "website": "None", "summary": "None", "logo": "None", "latitude": 45.450776557851114, "longitude": -73.57382094754458}, "792154882RR0001": {"name": "Rudaina Foundation", "designationCode": "C", "categoryCode": "11", "address": "8805 VICTORIA ST", "city": "METCALFE", "province": "ON", "country": "CA", "postalCode": "K0A2P0", "twitter": "None", "instagram": "None", "facebook": "None", "youtube": "None", "website": "None", "summary": "None", "logo": "None", "latitude": 45.24972625209134, "longitude": -75.44034397051138}, "119105328RR0001": {"name": "Ruelle de l'avenir", "designationCode": "C", "categoryCode": "09", "address": "2040 ALEXANDRE DE SEVE", "city": "MONTREAL", "province": "QC", "country": "CA", "postalCode": "H2L2W4", "twitter": "None", "instagram": "None", "facebook": "None", "youtube": "None", "website": "None", "summary": "None", "logo": "None", "latitude": 45.52479373131756, "longitude": -73.56159524245473}, "829946037RR0001": {"name": "Run for Water Foundation", "designationCode": "A", "categoryCode": "03", "address": "201 - 2020 ABBOTSFORD WAY", "city": "ABBOTSFORD", "province": "BC", "country": "CA", "postalCode": "V2S6X8", "twitter": "None", "instagram": "None", "facebook": "None", "youtube": "None", "website": "None", "summary": "None", "logo": "None", "latitude": 49.03923058312654, "longitude": -122.2769224824862}, "840087068RR0001": {"name": "Rundle College Education Foundation", "designationCode": "A", "categoryCode": "23", "address": "7379 17 AVE SW", "city": "CALGARY", "province": "AB", "country": "CA", "postalCode": "T3H3W5", "twitter": "None", "instagram": "None", "facebook": "None", "youtube": "None", "website": "None", "summary": "None", "logo": "None", "latitude": 51.03758616842829, "longitude": -114.19369138115835}, "832611016RR0001": {"name": "Running Rabbit Farm Rabbit Rescue Sanctuary and Education Centre", "designationCode": "C", "categoryCode": "54", "address": "410 WATSON ROAD SOUTH", "city": "GUELPH", "province": "ON", "country": "CA", "postalCode": "N1L1C1", "twitter": "None", "instagram": "None", "facebook": "None", "youtube": "None", "website": "None", "summary": "None", "logo": "None", "latitude": 43.55314804912526, "longitude": -80.18936372682892}, "860932581RR0001": {"name": "Runnymede Healthcare Centre Charitable Corporation", "designationCode": "B", "categoryCode": "13", "address": "625 RUNNYMEDE ROAD", "city": "TORONTO", "province": "ON", "country": "CA", "postalCode": "M6S3A3", "twitter": "None", "instagram": "None", "facebook": "None", "youtube": "None", "website": "None", "summary": "None", "logo": "None", "latitude": 43.66410045351718, "longitude": -79.48144009752461}, "846235653RR0001": {"name": "Rupert's Land Caregiver Services Inc.", "designationCode": "C", "categoryCode": "11", "address": "168 WILTON STREET", "city": "WINNIPEG", "province": "MB", "country": "CA", "postalCode": "R3M3C3", "twitter": "None", "instagram": "None", "facebook": "None", "youtube": "None", "website": "None", "summary": "None", "logo": "None", "latitude": 49.86812852011087, "longitude": -97.16958811174885}, "820593416RR0001": {"name": "Rural Action International", "designationCode": "B", "categoryCode": "09", "address": "33 MCKINNON DRIVE", "city": "CHATHAM", "province": "ON", "country": "CA", "postalCode": "N7M1M5", "twitter": "None", "instagram": "None", "facebook": "None", "youtube": "None", "website": "None", "summary": "None", "logo": "None", "latitude": 42.39329257397994, "longitude": -82.20649768056424}, "802025775RR0001": {"name": "Rural Compassion Inc.", "designationCode": "C", "categoryCode": "09", "address": "13 DUSTER BAY", "city": "WINKLER", "province": "MB", "country": "CA", "postalCode": "R6W0B2", "twitter": "None", "instagram": "None", "facebook": "None", "youtube": "None", "website": "None", "summary": "None", "logo": "None", "latitude": 49.166767050708415, "longitude": -97.95125512296465}, "106742901RR0001": {"name": "Rural Faith United Church", "designationCode": "C", "categoryCode": "44", "address": "BOX 141", "city": "BALTIMORE", "province": "ON", "country": "CA", "postalCode": "K0K1C0", "twitter": "None", "instagram": "None", "facebook": "None", "youtube": "None", "website": "None", "summary": "None", "logo": "None", "latitude": 44.020822076724436, "longitude": -78.14816303836223}, "839867405RR0001": {"name": "Rural Healthcare Innovations", "designationCode": "C", "categoryCode": "09", "address": "566 LOUISE STREET,", "city": "WINCHESTER", "province": "ON", "country": "CA", "postalCode": "K0C2K0", "twitter": "None", "instagram": "None", "facebook": "None", "youtube": "None", "website": "None", "summary": "None", "logo": "None", "latitude": 45.088400946292104, "longitude": -75.35239579964524}, "119259802RR0001": {"name": "Rural Ottawa South Support Services/ Services de Soutien Pour le Secteur Rural Sud d'Ottawa", "designationCode": "C", "categoryCode": "09", "address": "POST OFFICE BOX 423           1128 MILL STREET", "city": "MANOTICK", "province": "ON", "country": "CA", "postalCode": "K4M1A4", "twitter": "None", "instagram": "None", "facebook": "None", "youtube": "None", "website": "None", "summary": "None", "logo": "None", "latitude": 45.22637087203541, "longitude": -75.68341457380706}, "841816085RR0001": {"name": "Rushing Wild Performing Arts Company Society", "designationCode": "C", "categoryCode": "22", "address": "6584 L & A RD", "city": "VERNON", "province": "BC", "country": "CA", "postalCode": "V1B3T1", "twitter": "None", "instagram": "None", "facebook": "None", "youtube": "None", "website": "None", "summary": "None", "logo": "None", "latitude": 50.30296800000005, "longitude": -119.23287199999993}, "854954393RR0001": {"name": "Ruskoka Foundation", "designationCode": "A", "categoryCode": "43", "address": "18 FERNALROY BOULEVARD", "city": "TORONTO", "province": "ON", "country": "CA", "postalCode": "M8Z3V8", "twitter": "None", "instagram": "None", "facebook": "None", "youtube": "None", "website": "None", "summary": "None", "logo": "None", "latitude": 43.63946037163141, "longitude": -79.51514269429846}, "874176308RR0001": {"name": "Russell Association for the Performing Arts", "designationCode": "C", "categoryCode": "22", "address": "PO BOX 375", "city": "RUSSELL", "province": "ON", "country": "CA", "postalCode": "K4R1C8", "twitter": "None", "instagram": "None", "facebook": "None", "youtube": "None", "website": "None", "summary": "None", "logo": "None", "latitude": 45.25810800000005, "longitude": -75.35879449999993}, "837677400RR0001": {"name": "Russell Community Concert Band", "designationCode": "C", "categoryCode": "22", "address": "3375 LEROY ST. PO BOX 285", "city": "OSGOODE", "province": "ON", "country": "CA", "postalCode": "K0A2W0", "twitter": "None", "instagram": "None", "facebook": "None", "youtube": "None", "website": "None", "summary": "None", "logo": "None", "latitude": 45.137525321686134, "longitude": -75.60749322574898}, "107944704RR0001": {"name": "Russell's Lots-A-Tots Inc.", "designationCode": "C", "categoryCode": "01", "address": "BOX 743", "city": "RUSSELL", "province": "MB", "country": "CA", "postalCode": "R0J1W0", "twitter": "None", "instagram": "None", "facebook": "None", "youtube": "None", "website": "None", "summary": "None", "logo": "None", "latitude": 50.69676379161792, "longitude": -101.40612232134879}, "806927000RR0001": {"name": "Russian Bible Church", "designationCode": "C", "categoryCode": "39", "address": "37-2450 LOBB AVE", "city": "PORT COQUITLAM", "province": "BC", "country": "CA", "postalCode": "V3C6G8", "twitter": "None", "instagram": "None", "facebook": "None", "youtube": "None", "website": "None", "summary": "None", "logo": "None", "latitude": 49.25323553827882, "longitude": -122.7858825872955}, "839905957RR0001": {"name": "Russian Canadian Cultural Heritage Foundation of Maria BlagoVeshchensky", "designationCode": "C", "categoryCode": "49", "address": "23 KING STREET", "city": "MOUNT ALBERT", "province": "ON", "country": "CA", "postalCode": "L0G1M0", "twitter": "None", "instagram": "None", "facebook": "None", "youtube": "None", "website": "None", "summary": "None", "logo": "None", "latitude": 44.13272720566677, "longitude": -79.31529589116533}, "119288918RR1534": {"name": "Russian Circuit 1 of Jehovah's Witnesses", "designationCode": "C", "categoryCode": "61", "address": "483 WILSON AVENUE, UNIT 1", "city": "TORONTO", "province": "ON", "country": "CA", "postalCode": "M3H1T9", "twitter": "None", "instagram": "None", "facebook": "None", "youtube": "None", "website": "None", "summary": "None", "logo": "None", "latitude": 43.73524579098636, "longitude": -79.44396818705644}, "119288918RR1572": {"name": "Russian Congregation of Jehovah's Witnesses, Mississauga, Ontario", "designationCode": "C", "categoryCode": "61", "address": "710 - 4470 TUCANA CRT", "city": "MISSISSAUGA", "province": "ON", "country": "CA", "postalCode": "L5R3K8", "twitter": "None", "instagram": "None", "facebook": "None", "youtube": "None", "website": "None", "summary": "None", "logo": "None", "latitude": 43.60186487007351, "longitude": -79.64838868656551}, "119288918RR1479": {"name": "Russian Congregation of Jehovah's Witnesses, Richmond Hill, Ontario", "designationCode": "C", "categoryCode": "61", "address": "247 ESTHER DR", "city": "BARRIE", "province": "ON", "country": "CA", "postalCode": "L4N0G3", "twitter": "None", "instagram": "None", "facebook": "None", "youtube": "None", "website": "None", "summary": "None", "logo": "None", "latitude": 44.34832235276127, "longitude": -79.65114421106246}, "847587854RR0001": {"name": "Russian School \"Svetlyachok\" Inc.", "designationCode": "C", "categoryCode": "20", "address": "122 ROUGEAU GARDEN DR", "city": "WINNIPEG", "province": "MB", "country": "CA", "postalCode": "R2C2Z7", "twitter": "None", "instagram": "None", "facebook": "None", "youtube": "None", "website": "None", "summary": "None", "logo": "None", "latitude": 49.89347266720539, "longitude": -97.05465475604473}, "107406316RR0053": {"name": "Rustle Free Methodist Church", "designationCode": "C", "categoryCode": "39", "address": "65 RUSSELL ST", "city": "KINGSTON", "province": "ON", "country": "CA", "postalCode": "K7K2E6", "twitter": "None", "instagram": "None", "facebook": "None", "youtube": "None", "website": "None", "summary": "None", "logo": "None", "latitude": 44.24438541661367, "longitude": -76.49027436816894}, "850626813RR0001": {"name": "Rustom Guiv Foundation (Ontario)", "designationCode": "C", "categoryCode": "39", "address": "3590 BAYVIEW AVENUE", "city": "TORONTO", "province": "ON", "country": "CA", "postalCode": "M2M3S6", "twitter": "None", "instagram": "None", "facebook": "None", "youtube": "None", "website": "None", "summary": "None", "logo": "None", "latitude": 43.80214224479199, "longitude": -79.39589806789176}, "706880929RR0001": {"name": "Rutherford Family Foundation", "designationCode": "B", "categoryCode": "03", "address": "251 QUEENS QUAY WEST          SUITE 207", "city": "TORONTO", "province": "ON", "country": "CA", "postalCode": "M5J2N6", "twitter": "None", "instagram": "None", "facebook": "None", "youtube": "None", "website": "None", "summary": "None", "logo": "None", "latitude": 43.63854852123605, "longitude": -79.38644743363744}, "805354933RR0001": {"name": "RuBarb Productions Inc.", "designationCode": "C", "categoryCode": "22", "address": "217 MAIN ST N", "city": "MOOSE JAW", "province": "SK", "country": "CA", "postalCode": "S6H0W1", "twitter": "None", "instagram": "None", "facebook": "None", "youtube": "None", "website": "None", "summary": "None", "logo": "None", "latitude": 50.39183588778486, "longitude": -105.53454387927476}, "805911518RR0001": {"name": "Rwanda Prefer Society", "designationCode": "C", "categoryCode": "09", "address": "23278 124A AVE", "city": "MAPLE RIDGE", "province": "BC", "country": "CA", "postalCode": "V2X1R6", "twitter": "None", "instagram": "None", "facebook": "None", "youtube": "None", "website": "None", "summary": "None", "logo": "None", "latitude": 49.22853332664914, "longitude": -122.57678266763807}, "855563391RR0001": {"name": "Rwanda Social Services and Family Counselling", "designationCode": "C", "categoryCode": "09", "address": "219 ARGYLE AVE", "city": "OTTAWA", "province": "ON", "country": "CA", "postalCode": "K2P2H4", "twitter": "None", "instagram": "None", "facebook": "None", "youtube": "None", "website": "None", "summary": "None", "logo": "None", "latitude": 45.41124338914519, "longitude": -75.6907610064053}, "823515572RR0001": {"name": "Rwanda Survivors Foundation", "designationCode": "C", "categoryCode": "21", "address": "115 RIVERWOOD PKY", "city": "ETOBICOKE", "province": "ON", "country": "CA", "postalCode": "M8Y4G3", "twitter": "None", "instagram": "None", "facebook": "None", "youtube": "None", "website": "None", "summary": "None", "logo": "None", "latitude": 43.645205734116175, "longitude": -79.49450597068521}, "832625388RR0001": {"name": "RxArt Canada", "designationCode": "C", "categoryCode": "11", "address": "B - 199 AVENUE RD", "city": "TORONTO", "province": "ON", "country": "CA", "postalCode": "M5R2J3", "twitter": "None", "instagram": "None", "facebook": "None", "youtube": "None", "website": "None", "summary": "None", "logo": "None", "latitude": 43.67572833833454, "longitude": -79.39699074490757}, "813902467RR0001": {"name": "Ryan's Bowl Food Program", "designationCode": "C", "categoryCode": "09", "address": "120-5130 PORTAGE ROAD", "city": "NIAGARA FALLS", "province": "ON", "country": "CA", "postalCode": "L2E6Z4", "twitter": "None", "instagram": "None", "facebook": "None", "youtube": "None", "website": "None", "summary": "None", "logo": "None", "latitude": 43.09996529199596, "longitude": -79.09117855179254}, "861507929RR0001": {"name": "Ryde Community Co-operative Inc.", "designationCode": "C", "categoryCode": "56", "address": "1624 BARKWAY ROAD RR3", "city": "GRAVENHURST", "province": "ON", "country": "CA", "postalCode": "P1P1R3", "twitter": "None", "instagram": "None", "facebook": "None", "youtube": "None", "website": "None", "summary": "None", "logo": "None", "latitude": 44.8795247946217, "longitude": -79.183894389405}, "107910259RR0225": {"name": "Ryerson Catholic Campus Ministry", "designationCode": "C", "categoryCode": "39", "address": "200 CHURCH STREET", "city": "TORONTO", "province": "ON", "country": "CA", "postalCode": "M5B1Z2", "twitter": "None", "instagram": "None", "facebook": "None", "youtube": "None", "website": "None", "summary": "None", "logo": "None", "latitude": 43.655508377459775, "longitude": -79.37675449252683}, "837386580RR0001": {"name": "Rylee Faith Foundation", "designationCode": "B", "categoryCode": "11", "address": "51 DECAROLIS CRES", "city": "ANGUS", "province": "ON", "country": "CA", "postalCode": "L0M1B4", "twitter": "None", "instagram": "None", "facebook": "None", "youtube": "None", "website": "None", "summary": "None", "logo": "None", "latitude": 44.32129269030702, "longitude": -79.86524318524849}, "119108264RR0001": {"name": "RAAG-MALA MUSIC SOCIETY OF TORONTO", "designationCode": "C", "categoryCode": "22", "address": "2 ALBEMARLE AVENUE", "city": "TORONTO", "province": "ON", "country": "CA", "postalCode": "M4K1H7", "twitter": "None", "instagram": "None", "facebook": "None", "youtube": "None", "website": "None", "summary": "None", "logo": "None", "latitude": 43.6727291579432, "longitude": -79.35023653926946}, "872767504RR0001": {"name": "RAAG-RUNG MUSIC CIRCLE", "designationCode": "C", "categoryCode": "22", "address": "494 RYERSON CRESCENT", "city": "THUNDER BAY", "province": "ON", "country": "CA", "postalCode": "P7C5R8", "twitter": "None", "instagram": "None", "facebook": "None", "youtube": "None", "website": "None", "summary": "None", "logo": "None", "latitude": 48.40053449737428, "longitude": -89.29055982711047}, "119108272RR0001": {"name": "RABBI MAIER BAAL HANESS KOLEL SIEBENBURGEN", "designationCode": "C", "categoryCode": "09", "address": "561 QUERBES AVE", "city": "MONTREAL", "province": "QC", "country": "CA", "postalCode": "H2V3W4", "twitter": "None", "instagram": "None", "facebook": "None", "youtube": "None", "website": "None", "summary": "None", "logo": "None", "latitude": 45.521450275895795, "longitude": -73.60663961114325}, "888371689RR0001": {"name": "RABBINICAL COLLEGE MESIFTA YOEL MOSHE OF CANADA", "designationCode": "C", "categoryCode": "39", "address": "5555 RUE HUTCHISON", "city": "MONTREAL", "province": "QC", "country": "CA", "postalCode": "H2V4B5", "twitter": "None", "instagram": "None", "facebook": "None", "youtube": "None", "website": "None", "summary": "None", "logo": "None", "latitude": 45.52164325757394, "longitude": -73.60297246182706}, "107869810RR0001": {"name": "RABBIT HILL BAPTIST CHURCH", "designationCode": "C", "categoryCode": "31", "address": "25439 A TWP 510", "city": "LEDUC COUNTY", "province": "AB", "country": "CA", "postalCode": "T9G0H6", "twitter": "None", "instagram": "None", "facebook": "None", "youtube": "None", "website": "None", "summary": "None", "logo": "None", "latitude": 53.3668294962491, "longitude": -113.62863158381903}, "884957846RR0001": {"name": "RABBIT LAKE HEALTH CARE CENTRE INC.", "designationCode": "C", "categoryCode": "11", "address": "PO BOX 157", "city": "RABBIT LAKE", "province": "SK", "country": "CA", "postalCode": "S0M2L0", "twitter": "None", "instagram": "None", "facebook": "None", "youtube": "None", "website": "None", "summary": "None", "logo": "None", "latitude": 53.13343000000003, "longitude": -107.76795999999996}, "119108355RR0001": {"name": "RABBIT LAKE SENIOR SUNRISE CIRCLE", "designationCode": "C", "categoryCode": "56", "address": "PO BOX 92", "city": "RABBIT LAKE", "province": "SK", "country": "CA", "postalCode": "S0M2L0", "twitter": "None", "instagram": "None", "facebook": "None", "youtube": "None", "website": "None", "summary": "None", "logo": "None", "latitude": 53.13343000000003, "longitude": -107.76795999999996}, "860959824RR0001": {"name": "RABBIT RESCUE INCORPORATED", "designationCode": "C", "categoryCode": "54", "address": "214 KERWOOD DR.", "city": "CAMBRIDGE", "province": "ON", "country": "CA", "postalCode": "N3C4M6", "twitter": "None", "instagram": "None", "facebook": "None", "youtube": "None", "website": "None", "summary": "None", "logo": "None", "latitude": 43.43233918067981, "longitude": -80.29382785348241}, "891215865RR0001": {"name": "RABBITTOWN COMMUNITY CENTRE INC", "designationCode": "C", "categoryCode": "56", "address": "26 GRAVES ST", "city": "ST. JOHN'S", "province": "NL", "country": "CA", "postalCode": "A1B3C5", "twitter": "None", "instagram": "None", "facebook": "None", "youtube": "None", "website": "None", "summary": "None", "logo": "None", "latitude": 47.56463425757394, "longitude": -52.732567991661455}, "889815866RR0001": {"name": "RABBITTOWN LEARNERS PROGRAM INC.", "designationCode": "C", "categoryCode": "20", "address": "P O BOX 23022                 CHURCHILL SQUARE", "city": "ST JOHNS", "province": "NL", "country": "CA", "postalCode": "A1B4J9", "twitter": "None", "instagram": "None", "facebook": "None", "youtube": "None", "website": "None", "summary": "None", "logo": "None", "latitude": 47.57470538694076, "longitude": -52.7226658486743}, "824684146RR0001": {"name": "RACE TRACK CHAPLAINCY OF CANADA", "designationCode": "C", "categoryCode": "39", "address": "P.O. BOX 156", "city": "REXDALE", "province": "ON", "country": "CA", "postalCode": "M9W5L2", "twitter": "None", "instagram": "None", "facebook": "None", "youtube": "None", "website": "None", "summary": "None", "logo": "None", "latitude": 43.718359616880875, "longitude": -79.60036247497096}, "119108397RR0001": {"name": "RACHEL BITTON CHARITABLE FOUNDATION", "designationCode": "B", "categoryCode": "21", "address": "55 HEFHILL CRT", "city": "THORNHILL", "province": "ON", "country": "CA", "postalCode": "L4J7L9", "twitter": "None", "instagram": "None", "facebook": "None", "youtube": "None", "website": "None", "summary": "None", "logo": "None", "latitude": 43.81061781239531, "longitude": -79.44087346139437}, "836872879RR0001": {"name": "RACHEL SHIP FOUNDATION", "designationCode": "B", "categoryCode": "03", "address": "ROYAL TRUST 1, P.V.M.         5TH FLOOR SOUTH", "city": "MONTREAL", "province": "QC", "country": "CA", "postalCode": "H3B2B2", "twitter": "None", "instagram": "None", "facebook": "None", "youtube": "None", "website": "None", "summary": "None", "logo": "None", "latitude": 45.49987500000006, "longitude": -73.56867649999994}, "785221680RR0001": {"name": "RADFORD GRELOWSKI FOUNDATION", "designationCode": "B", "categoryCode": "05", "address": "116 8 AVE SE", "city": "CALGARY", "province": "AB", "country": "CA", "postalCode": "T2G0K6", "twitter": "None", "instagram": "None", "facebook": "None", "youtube": "None", "website": "None", "summary": "None", "logo": "None", "latitude": 51.04551346378896, "longitude": -114.06208988773155}, "127968923RR0001": {"name": "RADHA MADHAV CULTURAL ASSOCIATION OF CALGARY", "designationCode": "C", "categoryCode": "39", "address": "313-4 STREET N.E.", "city": "CALGARY", "province": "AB", "country": "CA", "postalCode": "T2E3S3", "twitter": "None", "instagram": "None", "facebook": "None", "youtube": "None", "website": "None", "summary": "None", "logo": "None", "latitude": 51.05492681487681, "longitude": -114.05181738219163}, "809783145RR0001": {"name": "RADHA MADHAV SOCIETY", "designationCode": "C", "categoryCode": "48", "address": "280 SPADINA AVENUE            PO BOX 67512", "city": "TORONTO", "province": "ON", "country": "CA", "postalCode": "M5T3A5", "twitter": "None", "instagram": "None", "facebook": "None", "youtube": "None", "website": "None", "summary": "None", "logo": "None", "latitude": 43.652606668878825, "longitude": -79.39807321181226}, "892854167RR0001": {"name": "RADHA SOAMI SOCIETY BEAS CANADA", "designationCode": "C", "categoryCode": "49", "address": "6566 SIXTH LINE", "city": "MILTON", "province": "ON", "country": "CA", "postalCode": "L9E0X7", "twitter": "None", "instagram": "None", "facebook": "None", "youtube": "None", "website": "None", "summary": "None", "logo": "None", "latitude": 43.54072730407344, "longitude": -79.81228759072135}, "834245334RR0001": {"name": "RADIANT CHAPEL INTERNATIONAL A.K.A RADIANT BIBLE CHURCH INTERNATIONAL INC.", "designationCode": "C", "categoryCode": "39", "address": "4 MOUNT ALLISON BAY", "city": "WINNIPEG", "province": "MB", "country": "CA", "postalCode": "R3T3L5", "twitter": "None", "instagram": "None", "facebook": "None", "youtube": "None", "website": "None", "summary": "None", "logo": "None", "latitude": 49.787960093513895, "longitude": -97.15265213292757}, "853866044RR0001": {"name": "RADIANT LIFE COMMUNITY CHURCH", "designationCode": "C", "categoryCode": "39", "address": "1251 CYPRESS ST", "city": "CAMPBELL RIVER", "province": "BC", "country": "CA", "postalCode": "V9W2Z3", "twitter": "None", "instagram": "None", "facebook": "None", "youtube": "None", "website": "None", "summary": "None", "logo": "None", "latitude": 50.02724624562873, "longitude": -125.24849823007682}, "832233548RR0001": {"name": "RADIANT LIFE PLUS MINISTRIES", "designationCode": "C", "categoryCode": "09", "address": "18 DEERFIELD ROAD", "city": "SCARBOROUGH", "province": "ON", "country": "CA", "postalCode": "M1K4W9", "twitter": "None", "instagram": "None", "facebook": "None", "youtube": "None", "website": "None", "summary": "None", "logo": "None", "latitude": 43.74425923065374, "longitude": -79.25781501471518}, "106861511RR0001": {"name": "RADIATION SAFETY INSTITUTE OF CANADA/INSTITUT DE RADIOPROTECTION DU CANADA", "designationCode": "C", "categoryCode": "21", "address": "300-165 AVENUE RD.", "city": "TORONTO", "province": "ON", "country": "CA", "postalCode": "M5R3S4", "twitter": "None", "instagram": "None", "facebook": "None", "youtube": "None", "website": "None", "summary": "None", "logo": "None", "latitude": 43.674465498759254, "longitude": -79.39648888311527}, "876415621RR0001": {"name": "RADICALUS MONTESSORI SOCIETY", "designationCode": "C", "categoryCode": "20", "address": "102 - 15295 56 AVE", "city": "SURREY", "province": "BC", "country": "CA", "postalCode": "V3S0X9", "twitter": "None", "instagram": "None", "facebook": "None", "youtube": "None", "website": "None", "summary": "None", "logo": "None", "latitude": 49.10451247489748, "longitude": -122.79866366472388}, "895138105RR0001": {"name": "RADIO AMOUR INC.", "designationCode": "C", "categoryCode": "47", "address": "626 ROUTE DU SACTUAIRE", "city": "LAC-ETCHEMIN", "province": "QC", "country": "CA", "postalCode": "G0R1S0", "twitter": "None", "instagram": "None", "facebook": "None", "youtube": "None", "website": "None", "summary": "None", "logo": "None", "latitude": 46.38889625578277, "longitude": -70.50398658702751}, "130576903RR0001": {"name": "RADIO BEAUSEJOUR INC", "designationCode": "C", "categoryCode": "22", "address": "51 RUE CORNWALL               C.P. 5001", "city": "SH\u00c9DIAC", "province": "NB", "country": "CA", "postalCode": "E4P8T8", "twitter": "None", "instagram": "None", "facebook": "None", "youtube": "None", "website": "None", "summary": "None", "logo": "None", "latitude": 46.21502925339035, "longitude": -64.56443765926993}, "119108439RR0001": {"name": "RADIO CARLETON INC.", "designationCode": "C", "categoryCode": "21", "address": "ROOM #401 UNICENTRE           1125 COLONEL BY DR", "city": "OTTAWA", "province": "ON", "country": "CA", "postalCode": "K1S5B6", "twitter": "None", "instagram": "None", "facebook": "None", "youtube": "None", "website": "None", "summary": "None", "logo": "None", "latitude": 45.38847501361867, "longitude": -75.70004668749007}, "104378724RR0001": {"name": "RADIO CENTRE-VILLE SAINT-LOUIS", "designationCode": "C", "categoryCode": "09", "address": "5212, ST-LAURENT", "city": "MONTREAL", "province": "QC", "country": "CA", "postalCode": "H2T1S1", "twitter": "None", "instagram": "None", "facebook": "None", "youtube": "None", "website": "None", "summary": "None", "logo": "None", "latitude": 45.52397180792324, "longitude": -73.59489311047943}, "866500085RR0001": {"name": "RADIO CHALOM", "designationCode": "C", "categoryCode": "49", "address": "202 - 5796 RUE FERRIER", "city": "MONT-ROYAL", "province": "QC", "country": "CA", "postalCode": "H4P1M7", "twitter": "None", "instagram": "None", "facebook": "None", "youtube": "None", "website": "None", "summary": "None", "logo": "None", "latitude": 45.488109856223716, "longitude": -73.66918117678466}, "133915744RR0001": {"name": "RADIO COMMUNAUTAIRE FRANCOPHONE DE MONTREAL INC", "designationCode": "C", "categoryCode": "59", "address": "2, RUE STE-CATHERINE EST      SUITE 201", "city": "MONTREAL", "province": "QC", "country": "CA", "postalCode": "H2X1K4", "twitter": "None", "instagram": "None", "facebook": "None", "youtube": "None", "website": "None", "summary": "None", "logo": "None", "latitude": 45.510085917565966, "longitude": -73.56356677378967}}