{"131920399RR0001": {"name": "UKRAINIAN CATHOLIC EPISCOPAL CORPORATION OF SASKATCHEWAN ALL STS UKRAINIAN CATHOLIC CHURCH", "designationCode": "C", "categoryCode": "38", "address": "BOX 2997", "city": "HUMBOLDT", "province": "SK", "country": "CA", "postalCode": "S0K2A0", "twitter": "None", "instagram": "None", "facebook": "None", "youtube": "None", "website": "None", "summary": "None", "logo": "None", "latitude": 51.7871843348964, "longitude": -104.71638483007007}, "894312172RR0001": {"name": "UKRAINIAN CATHOLIC EPISCOPAL CORPORATION OF SASKATCHEWAN HOLY FAMILY UKRAINIAN CATHOLIC CHURCH", "designationCode": "C", "categoryCode": "38", "address": "BOX 98", "city": "TRIBUNE", "province": "SK", "country": "CA", "postalCode": "S0C2M0", "twitter": "None", "instagram": "None", "facebook": "None", "youtube": "None", "website": "None", "summary": "None", "logo": "None", "latitude": 49.24816000000004, "longitude": -103.82251999999994}, "129034831RR0001": {"name": "UKRAINIAN CATHOLIC EPISCOPAL CORPORATION OF SASKATCHEWAN SACRED HEART UKRAININAN CATHOLIC CHURCH", "designationCode": "C", "categoryCode": "38", "address": "BOX 340", "city": "ITUNA", "province": "SK", "country": "CA", "postalCode": "S0A1N0", "twitter": "None", "instagram": "None", "facebook": "None", "youtube": "None", "website": "None", "summary": "None", "logo": "None", "latitude": 51.17134000000004, "longitude": -103.49577999999997}, "892212143RR0001": {"name": "UKRAINIAN CATHOLIC EPISCOPAL CORPORATION OF SASKATCHEWAN ST VLADIMIR'S UKRAINIAN CATHOLIC CHURCH", "designationCode": "C", "categoryCode": "38", "address": "BOX 184", "city": "KELLIHER", "province": "SK", "country": "CA", "postalCode": "S0A1V0", "twitter": "None", "instagram": "None", "facebook": "None", "youtube": "None", "website": "None", "summary": "None", "logo": "None", "latitude": 51.26209000000006, "longitude": -103.73799999999994}, "108147901RR0001": {"name": "UKRAINIAN CATHOLIC EPISCOPAL CORPORATION OF SASKATCHEWAN ST. MICHAELS UKRAINIAN CATHOLIC CHURCH", "designationCode": "C", "categoryCode": "38", "address": "PO BOX 63", "city": "ALVENA", "province": "SK", "country": "CA", "postalCode": "S0K0E0", "twitter": "None", "instagram": "None", "facebook": "None", "youtube": "None", "website": "None", "summary": "None", "logo": "None", "latitude": 52.51840000000004, "longitude": -106.02072999999996}, "131450868RR0001": {"name": "UKRAINIAN CATHOLIC EPISCOPAL CORPORATION OF SASKATCHEWAN ST. PETER & PAULS UKRAINIAN CATHOLIC CHURCH", "designationCode": "C", "categoryCode": "38", "address": "PO BOX 397", "city": "MONTMARTRE", "province": "SK", "country": "CA", "postalCode": "S0G3M0", "twitter": "None", "instagram": "None", "facebook": "None", "youtube": "None", "website": "None", "summary": "None", "logo": "None", "latitude": 50.23335000000003, "longitude": -103.45104999999995}, "890163249RR0001": {"name": "UKRAINIAN CATHOLIC EPISCOPAL CORPORATION OF SASKATCHEWAN ST-BASIL'S UKRAINIAN CATHOLIC CHURCH", "designationCode": "C", "categoryCode": "38", "address": "1747 TORONTO STREET", "city": "REGINA", "province": "SK", "country": "CA", "postalCode": "S4P1M5", "twitter": "None", "instagram": "None", "facebook": "None", "youtube": "None", "website": "None", "summary": "None", "logo": "None", "latitude": 50.45117831891225, "longitude": -104.59908623831963}, "119273951RR0001": {"name": "UKRAINIAN CATHOLIC EPISCOPAL CORPORATION OF SASKATCHEWAN-SACRED HEART CHURCH", "designationCode": "C", "categoryCode": "38", "address": "PO BOX 674", "city": "LANIGAN", "province": "SK", "country": "CA", "postalCode": "S0K2M0", "twitter": "None", "instagram": "None", "facebook": "None", "youtube": "None", "website": "None", "summary": "None", "logo": "None", "latitude": 51.84617000000003, "longitude": -105.03797999999995}, "118960277RR0001": {"name": "UKRAINIAN CATHOLIC HOLY GHOST CHURCH", "designationCode": "C", "categoryCode": "38", "address": "1770 CENTRE STREET", "city": "MONTREAL", "province": "QC", "country": "CA", "postalCode": "H3K1H7", "twitter": "None", "instagram": "None", "facebook": "None", "youtube": "None", "website": "None", "summary": "None", "logo": "None", "latitude": 45.483131893675505, "longitude": -73.56169557712528}, "119273977RR0001": {"name": "UKRAINIAN CATHOLIC MISSION OF THE MOST HOLY REDEEMER", "designationCode": "C", "categoryCode": "38", "address": "250 JEFFERSON AVE", "city": "WINNIPEG", "province": "MB", "country": "CA", "postalCode": "R2V0M6", "twitter": "None", "instagram": "None", "facebook": "None", "youtube": "None", "website": "None", "summary": "None", "logo": "None", "latitude": 49.93454811457705, "longitude": -97.12222266726269}, "876837360RR0001": {"name": "UKRAINIAN CATHOLIC PARISH OF ALL SAINTS AT NORTH BATTLEFORD, SASKATCHEWAN OF THE UKRAINIAN CATHOLIC EPARCHY NORTH BATTLEFORD", "designationCode": "C", "categoryCode": "38", "address": "P. O. BOX 1693", "city": "NORTH BATTLEFORD", "province": "SK", "country": "CA", "postalCode": "S9A3W2", "twitter": "None", "instagram": "None", "facebook": "None", "youtube": "None", "website": "None", "summary": "None", "logo": "None", "latitude": 52.77640200000006, "longitude": -108.29903299999994}, "835838525RR0001": {"name": "UKRAINIAN CATHOLIC PARISH OF ASSUMPTION OF THE BLESSED VIRGIN MARY AT ROSE VALLEY, SASKATCHEWAN OF THE UKRAINIAN CATHOLIC EPARCHY OF SASKATOON", "designationCode": "C", "categoryCode": "38", "address": "PO BOX 7", "city": "ROSE VALLEY", "province": "SK", "country": "CA", "postalCode": "S0E1M0", "twitter": "None", "instagram": "None", "facebook": "None", "youtube": "None", "website": "None", "summary": "None", "logo": "None", "latitude": 52.59930444439391, "longitude": -103.257981}, "119274009RR0001": {"name": "UKRAINIAN CATHOLIC PARISH OF HOLY ASCENSION", "designationCode": "C", "categoryCode": "38", "address": "PO BOX 102", "city": "WINNIPEGOSIS", "province": "MB", "country": "CA", "postalCode": "R0L2G0", "twitter": "None", "instagram": "None", "facebook": "None", "youtube": "None", "website": "None", "summary": "None", "logo": "None", "latitude": 51.65289899999999, "longitude": -99.9405918859683}, "872988266RR0001": {"name": "UKRAINIAN CATHOLIC PARISH OF HOLY TRINITY", "designationCode": "C", "categoryCode": "39", "address": "6297 HENDERSON HWY", "city": "GONOR", "province": "MB", "country": "CA", "postalCode": "R1C0B9", "twitter": "None", "instagram": "None", "facebook": "None", "youtube": "None", "website": "None", "summary": "None", "logo": "None", "latitude": 50.06618831828193, "longitude": -96.95186993432993}, "862215712RR0001": {"name": "UKRAINIAN CATHOLIC PARISH OF SACRED HEART OF JESUS", "designationCode": "C", "categoryCode": "38", "address": "201 - 500 SPADINA CRES. EAST  PARKER QUINE CA'S", "city": "SASKATOON", "province": "SK", "country": "CA", "postalCode": "S7K4H9", "twitter": "None", "instagram": "None", "facebook": "None", "youtube": "None", "website": "None", "summary": "None", "logo": "None"}, "890649973RR0001": {"name": "UKRAINIAN CATHOLIC PARISH OF SAINT ELIAS AT GRANDVIEW IN THEPROVINCE OF MANITOBA", "designationCode": "C", "categoryCode": "39", "address": "BOX 41", "city": "GRANDVIEW", "province": "MB", "country": "CA", "postalCode": "R0L0Y0", "twitter": "None", "instagram": "None", "facebook": "None", "youtube": "None", "website": "None", "summary": "None", "logo": "None", "latitude": 51.17220000000003, "longitude": -100.69866999999994}, "129884334RR0001": {"name": "UKRAINIAN CATHOLIC PARISH OF SAINTS PETER AND PAUL", "designationCode": "C", "categoryCode": "38", "address": "1202 ELEVENTH ST EAST", "city": "SASKATOON", "province": "SK", "country": "CA", "postalCode": "S7H0G3", "twitter": "None", "instagram": "None", "facebook": "None", "youtube": "None", "website": "None", "summary": "None", "logo": "None", "latitude": 52.11877150288554, "longitude": -106.64116191618096}, "119274025RR0001": {"name": "UKRAINIAN CATHOLIC PARISH OF ST GEORGE", "designationCode": "C", "categoryCode": "38", "address": "2413 DEVONSHIRE CRESCENT", "city": "PRINCE GEORGE", "province": "BC", "country": "CA", "postalCode": "V2N1C7", "twitter": "None", "instagram": "None", "facebook": "None", "youtube": "None", "website": "None", "summary": "None", "logo": "None", "latitude": 53.89859844711189, "longitude": -122.7868194622311}, "119274033RR0001": {"name": "UKRAINIAN CATHOLIC PARISH OF ST JOHN THE APOSTLE,", "designationCode": "C", "categoryCode": "38", "address": "31 RIEL AVE", "city": "WINNIPEG", "province": "MB", "country": "CA", "postalCode": "R2M2M2", "twitter": "None", "instagram": "None", "facebook": "None", "youtube": "None", "website": "None", "summary": "None", "logo": "None", "latitude": 49.82610679381364, "longitude": -97.11595195770077}, "119274041RR0001": {"name": "UKRAINIAN CATHOLIC PARISH OF ST JOHN THE BAPTIST", "designationCode": "C", "categoryCode": "38", "address": "PO BOX 279", "city": "LAMONT", "province": "AB", "country": "CA", "postalCode": "T0B2R0", "twitter": "None", "instagram": "None", "facebook": "None", "youtube": "None", "website": "None", "summary": "None", "logo": "None", "latitude": 53.759960000000035, "longitude": -112.77838999999994}, "119274058RR0001": {"name": "UKRAINIAN CATHOLIC PARISH OF ST NICHOLAS", "designationCode": "C", "categoryCode": "38", "address": "9507 - AUSITIN O'BRIEN ROAD", "city": "EDMONTON", "province": "AB", "country": "CA", "postalCode": "T6B2C1", "twitter": "None", "instagram": "None", "facebook": "None", "youtube": "None", "website": "None", "summary": "None", "logo": "None", "latitude": 53.53525111766414, "longitude": -113.42819623754997}, "119274066RR0001": {"name": "UKRAINIAN CATHOLIC PARISH OF ST NICHOLAS,", "designationCode": "C", "categoryCode": "38", "address": "1112 CALEDONIA AVE", "city": "VICTORIA", "province": "BC", "country": "CA", "postalCode": "V8T1G1", "twitter": "None", "instagram": "None", "facebook": "None", "youtube": "None", "website": "None", "summary": "None", "logo": "None", "latitude": 48.43044747879261, "longitude": -123.3524498052975}, "119274082RR0001": {"name": "UKRAINIAN CATHOLIC PARISH OF ST VLADIMIR AND OLGA OF TWO HILLS ALBERTA", "designationCode": "C", "categoryCode": "38", "address": "BOX 572", "city": "TWO HILLS", "province": "AB", "country": "CA", "postalCode": "T0B4K0", "twitter": "None", "instagram": "None", "facebook": "None", "youtube": "None", "website": "None", "summary": "None", "logo": "None", "latitude": 53.122211624367885, "longitude": -112.9498217067482}, "131223760RR0001": {"name": "UKRAINIAN CATHOLIC PARISH OF ST VLADIMIR,", "designationCode": "C", "categoryCode": "38", "address": "12726 - 119 ST", "city": "EDMONTON", "province": "AB", "country": "CA", "postalCode": "T5E5M3", "twitter": "None", "instagram": "None", "facebook": "None", "youtube": "None", "website": "None", "summary": "None", "logo": "None", "latitude": 53.58564899999999, "longitude": -113.52686028483993}, "889780136RR0001": {"name": "UKRAINIAN CATHOLIC PARISH OF ST. BASIL THE GREAT", "designationCode": "C", "categoryCode": "39", "address": "875 PROVOST STREET", "city": "LACHINE", "province": "QC", "country": "CA", "postalCode": "H8S1M8", "twitter": "None", "instagram": "None", "facebook": "None", "youtube": "None", "website": "None", "summary": "None", "logo": "None", "latitude": 45.44195153952926, "longitude": -73.671633}, "890258676RR0001": {"name": "UKRAINIAN CATHOLIC PARISH OF ST. GEORGE", "designationCode": "C", "categoryCode": "39", "address": "751 14TH ST W", "city": "PRINCE ALBERT", "province": "SK", "country": "CA", "postalCode": "S6V3L9", "twitter": "None", "instagram": "None", "facebook": "None", "youtube": "None", "website": "None", "summary": "None", "logo": "None", "latitude": 53.20011657512145, "longitude": -105.77385408055518}, "835433525RR0001": {"name": "UKRAINIAN CATHOLIC PARISH OF ST. GEORGE AT MELVILLE, SASKATCHEWAN OF THE UKRAINIAN CATHOLIC EPARCHY AT SASKATOON", "designationCode": "C", "categoryCode": "38", "address": "BOX 2417", "city": "MELVILLE", "province": "SK", "country": "CA", "postalCode": "S0A2P0", "twitter": "None", "instagram": "None", "facebook": "None", "youtube": "None", "website": "None", "summary": "None", "logo": "None", "latitude": 50.87164886256234, "longitude": -103.09293300498788}, "108147885RR0001": {"name": "UKRAINIAN CATHOLIC PARISH OF ST. JOHN THE BAPTIST", "designationCode": "C", "categoryCode": "38", "address": "BOX 878", "city": "NEEPAWA", "province": "MB", "country": "CA", "postalCode": "R0J1H0", "twitter": "None", "instagram": "None", "facebook": "None", "youtube": "None", "website": "None", "summary": "None", "logo": "None", "latitude": 50.22581100000005, "longitude": -99.48963949999994}, "834963167RR0001": {"name": "UKRAINIAN CATHOLIC PARISH OF ST. JOHN THE BAPTIST AT SMUTS, SASKATCHEWAN OF THE UKRAINIAN CATHOLIC EPARCHY OF SASKATOON", "designationCode": "C", "categoryCode": "38", "address": "1508 LAURA AVE", "city": "SASKATOON", "province": "SK", "country": "CA", "postalCode": "S7N2S3", "twitter": "None", "instagram": "None", "facebook": "None", "youtube": "None", "website": "None", "summary": "None", "logo": "None", "latitude": 52.14424541909517, "longitude": -106.59738679326537}, "785860487RR0001": {"name": "UKRAINIAN CATHOLIC PARISH OF ST. VOLODYMYR THE GREAT AT LANIWCI, SASKATCHEWAN", "designationCode": "C", "categoryCode": "39", "address": "PO BOX 503", "city": "ABERDEEN", "province": "SK", "country": "CA", "postalCode": "S0K0A0", "twitter": "None", "instagram": "None", "facebook": "None", "youtube": "None", "website": "None", "summary": "None", "logo": "None", "latitude": 52.31678000000005, "longitude": -106.28447999999997}, "119274116RR0001": {"name": "UKRAINIAN CATHOLIC PARISH OF THE ASCENSION OF OUR LORD", "designationCode": "C", "categoryCode": "38", "address": "RR 1", "city": "SHORTDALE", "province": "MB", "country": "CA", "postalCode": "R0L1W0", "twitter": "None", "instagram": "None", "facebook": "None", "youtube": "None", "website": "None", "summary": "None", "logo": "None", "latitude": 51.225250000000074, "longitude": -101.03516999999994}, "106923063RR0001": {"name": "UKRAINIAN CATHOLIC PARISH OF THE ASSUMPTION", "designationCode": "C", "categoryCode": "38", "address": "PO BOX 1276", "city": "PORTAGE LA PRAIRIE", "province": "MB", "country": "CA", "postalCode": "R1N3L5", "twitter": "None", "instagram": "None", "facebook": "None", "youtube": "None", "website": "None", "summary": "None", "logo": "None", "latitude": 49.97301900000005, "longitude": -98.29058299999993}, "119274108RR0001": {"name": "UKRAINIAN CATHOLIC PARISH OF THE ASSUMPTION OF BLESSED VIRGIN MARY", "designationCode": "C", "categoryCode": "38", "address": "BOX 365", "city": "RUSSELL", "province": "MB", "country": "CA", "postalCode": "R0J1W0", "twitter": "None", "instagram": "None", "facebook": "None", "youtube": "None", "website": "None", "summary": "None", "logo": "None", "latitude": 50.69676379161792, "longitude": -101.40612232134879}, "889523643RR0001": {"name": "UKRAINIAN CATHOLIC PARISH OF THE ASSUMPTION OF THE B V M ,", "designationCode": "C", "categoryCode": "38", "address": "PO BOX 58", "city": "MYRNAM", "province": "AB", "country": "CA", "postalCode": "T0B3K0", "twitter": "None", "instagram": "None", "facebook": "None", "youtube": "None", "website": "None", "summary": "None", "logo": "None", "latitude": 53.66686000000004, "longitude": -111.23503999999997}, "119274132RR0001": {"name": "UKRAINIAN CATHOLIC PARISH OF THE ASSUMPTION OF THE BLESSED VIRGIN MARY", "designationCode": "C", "categoryCode": "39", "address": "PO BOX 42", "city": "ST. ADOLPHE", "province": "MB", "country": "CA", "postalCode": "R5A1A1", "twitter": "None", "instagram": "None", "facebook": "None", "youtube": "None", "website": "None", "summary": "None", "logo": "None", "latitude": 49.674977600490465, "longitude": -97.10658509643498}, "119274165RR0001": {"name": "UKRAINIAN CATHOLIC PARISH OF THE ASSUMPTION OF THE BLESSED VIRGIN MARY,", "designationCode": "C", "categoryCode": "38", "address": "729 6 ST NE", "city": "CALGARY", "province": "AB", "country": "CA", "postalCode": "T2E6X2", "twitter": "None", "instagram": "None", "facebook": "None", "youtube": "None", "website": "None", "summary": "None", "logo": "None", "latitude": 51.05807999999999, "longitude": -114.04838419582768}, "119274181RR0001": {"name": "UKRAINIAN CATHOLIC PARISH OF THE BLESSED VIRGIN MARY OF PROTECTION OF ROSSDALE", "designationCode": "C", "categoryCode": "38", "address": "530 DONALD RD.", "city": "LOCKPORT", "province": "MB", "country": "CA", "postalCode": "R1A3K4", "twitter": "None", "instagram": "None", "facebook": "None", "youtube": "None", "website": "None", "summary": "None", "logo": "None", "latitude": 50.100578888710345, "longitude": -97.01809429282903}, "119260107RR0001": {"name": "UKRAINIAN CATHOLIC PARISH OF THE EXALTATION OF THE HOLY CROSS", "designationCode": "C", "categoryCode": "38", "address": "LONDONDERRY, P. O. BOX 70029", "city": "EDMONTON", "province": "AB", "country": "CA", "postalCode": "T5C3R6", "twitter": "None", "instagram": "None", "facebook": "None", "youtube": "None", "website": "None", "summary": "None", "logo": "None", "latitude": 53.60943035462253, "longitude": -113.4432225}, "835277328RR0001": {"name": "UKRAINIAN CATHOLIC PARISH OF THE EXALTATION OF THE HOLY CROSS", "designationCode": "C", "categoryCode": "39", "address": "P.O. BOX 58", "city": "HUBBARD", "province": "SK", "country": "CA", "postalCode": "S0A1J0", "twitter": "None", "instagram": "None", "facebook": "None", "youtube": "None", "website": "None", "summary": "None", "logo": "None", "latitude": 51.13333000000006, "longitude": -103.36771999999996}, "893159848RR0001": {"name": "UKRAINIAN CATHOLIC PARISH OF THE HOLY ASCENSION", "designationCode": "C", "categoryCode": "39", "address": "P. O. BOX 1675", "city": "MINNEDOSA", "province": "MB", "country": "CA", "postalCode": "R0J1E0", "twitter": "None", "instagram": "None", "facebook": "None", "youtube": "None", "website": "None", "summary": "None", "logo": "None", "latitude": 50.35204290882316, "longitude": -100.20187636199029}, "828556365RR0001": {"name": "UKRAINIAN CATHOLIC PARISH OF THE HOLY EUCHARIST", "designationCode": "C", "categoryCode": "39", "address": "PO BOX 205", "city": "HUDSON BAY", "province": "SK", "country": "CA", "postalCode": "S0E0Y0", "twitter": "None", "instagram": "None", "facebook": "None", "youtube": "None", "website": "None", "summary": "None", "logo": "None", "latitude": 52.862685000000056, "longitude": -102.38924149999994}, "131581126RR0001": {"name": "UKRAINIAN CATHOLIC PARISH OF THE HOLY EUCHARIST,", "designationCode": "C", "categoryCode": "38", "address": "6425 120 AVE NW", "city": "EDMONTON", "province": "AB", "country": "CA", "postalCode": "T5W1M2", "twitter": "None", "instagram": "None", "facebook": "None", "youtube": "None", "website": "None", "summary": "None", "logo": "None", "latitude": 53.5735295323159, "longitude": -113.440293}, "119274207RR0001": {"name": "UKRAINIAN CATHOLIC PARISH OF THE HOLY GHOST,", "designationCode": "C", "categoryCode": "38", "address": "BOX 352", "city": "HOLDEN", "province": "AB", "country": "CA", "postalCode": "T0B2C0", "twitter": "None", "instagram": "None", "facebook": "None", "youtube": "None", "website": "None", "summary": "None", "logo": "None", "latitude": 53.232710000000054, "longitude": -112.23536999999999}, "119274231RR0001": {"name": "UKRAINIAN CATHOLIC PARISH OF THE PROTECTION OF THE BLESSED VIRGIN MARY,", "designationCode": "C", "categoryCode": "38", "address": "3635 116 AVE NW", "city": "EDMONTON", "province": "AB", "country": "CA", "postalCode": "T5W0W7", "twitter": "None", "instagram": "None", "facebook": "None", "youtube": "None", "website": "None", "summary": "None", "logo": "None", "latitude": 53.56854751399405, "longitude": -113.398731}, "122496045RR0001": {"name": "UKRAINIAN CATHOLIC PARISH OF THE RESURRECTION", "designationCode": "C", "categoryCode": "39", "address": "801 JACKSON ST", "city": "DAUPHIN", "province": "MB", "country": "CA", "postalCode": "R7N2N3", "twitter": "None", "instagram": "None", "facebook": "None", "youtube": "None", "website": "None", "summary": "None", "logo": "None", "latitude": 51.14147307799067, "longitude": -100.06320774588852}, "119274454RR0001": {"name": "UKRAINIAN CATHOLIC PARISH OF THE SACRED HEART OF JESUS", "designationCode": "C", "categoryCode": "38", "address": "P.O. BOX 547", "city": "BIRCH HILLS", "province": "SK", "country": "CA", "postalCode": "S0J0G0", "twitter": "None", "instagram": "None", "facebook": "None", "youtube": "None", "website": "None", "summary": "None", "logo": "None", "latitude": 56.325968466910076, "longitude": -103.2432009425047}, "813397346RR0001": {"name": "UKRAINIAN CATHOLIC PARISH OF THE SACRED HEART OF JESUS", "designationCode": "C", "categoryCode": "39", "address": "BOX 37", "city": "NORQUAY", "province": "SK", "country": "CA", "postalCode": "S0A2V0", "twitter": "None", "instagram": "None", "facebook": "None", "youtube": "None", "website": "None", "summary": "None", "logo": "None", "latitude": 51.88199000000003, "longitude": -102.08761999999996}, "119274249RR0001": {"name": "UKRAINIAN CATHOLIC PARISH OF TRANSFIGURATION OF ROUND HILL", "designationCode": "C", "categoryCode": "38", "address": "R.R. #1", "city": "OHATON", "province": "AB", "country": "CA", "postalCode": "T0B3P0", "twitter": "None", "instagram": "None", "facebook": "None", "youtube": "None", "website": "None", "summary": "None", "logo": "None", "latitude": 52.968900000000076, "longitude": -112.65945999999997}, "890545197RR0001": {"name": "UKRAINIAN CATHOLIC PARISH ST. MICHAEL THE ARCHANGEL, LIMESTONE LAKE, ALBERTA", "designationCode": "C", "categoryCode": "38", "address": "BOX 25", "city": "WOSTOK", "province": "AB", "country": "CA", "postalCode": "T0B4S0", "twitter": "None", "instagram": "None", "facebook": "None", "youtube": "None", "website": "None", "summary": "None", "logo": "None", "latitude": 53.84203000000008, "longitude": -112.45736999999997}, "893095174RR0001": {"name": "UKRAINIAN CATHOLIC PARISH, BORSCHIW OF ST JOHN THE BAPTIST", "designationCode": "C", "categoryCode": "38", "address": "P.O. BOX 1728", "city": "VEGREVILLE", "province": "AB", "country": "CA", "postalCode": "T9C1S8", "twitter": "None", "instagram": "None", "facebook": "None", "youtube": "None", "website": "None", "summary": "None", "logo": "None", "latitude": 53.49528600000005, "longitude": -112.05415249999993}, "119274256RR0001": {"name": "UKRAINIAN CATHOLIC PARISH, STS PETER & PAUL", "designationCode": "C", "categoryCode": "38", "address": "PO BOX 1137                   SS PETER & PAUL", "city": "CANORA", "province": "SK", "country": "CA", "postalCode": "S0A0L0", "twitter": "None", "instagram": "None", "facebook": "None", "youtube": "None", "website": "None", "summary": "None", "logo": "None", "latitude": 51.62535661313478, "longitude": -102.4443087080291}, "890332646RR0001": {"name": "UKRAINIAN CATHOLIC WOMEN'S LEAGUE OF TWO HILLS", "designationCode": "C", "categoryCode": "49", "address": "BOX 442", "city": "TWO HILLS", "province": "AB", "country": "CA", "postalCode": "T0B4K0", "twitter": "None", "instagram": "None", "facebook": "None", "youtube": "None", "website": "None", "summary": "None", "logo": "None", "latitude": 53.12059336830828, "longitude": -112.94762696933374}, "119274280RR0001": {"name": "UKRAINIAN CHEREMOSH SOCIETY", "designationCode": "C", "categoryCode": "22", "address": "4005-115 AVE NW", "city": "EDMONTON", "province": "AB", "country": "CA", "postalCode": "T5W0V5", "twitter": "None", "instagram": "None", "facebook": "None", "youtube": "None", "website": "None", "summary": "None", "logo": "None", "latitude": 53.56765553952925, "longitude": -113.40366291618096}, "119091429RR0001": {"name": "UKRAINIAN CHILDREN'S CHRISTIAN FUND", "designationCode": "C", "categoryCode": "47", "address": "10340 FRESHWATER DRIVE", "city": "RICHMOND", "province": "BC", "country": "CA", "postalCode": "V7E4H7", "twitter": "None", "instagram": "None", "facebook": "None", "youtube": "None", "website": "None", "summary": "None", "logo": "None", "latitude": 49.13906955631921, "longitude": -123.17189979566723}, "119274306RR0001": {"name": "UKRAINIAN COMMUNITY SOCIETY OF IVAN FRANKO", "designationCode": "C", "categoryCode": "56", "address": "5311 FRANCIS ROAD.", "city": "RICHMOND", "province": "BC", "country": "CA", "postalCode": "V7C1K2", "twitter": "None", "instagram": "None", "facebook": "None", "youtube": "None", "website": "None", "summary": "None", "logo": "None", "latitude": 49.14841449379627, "longitude": -123.165333}, "879167724RR0001": {"name": "UKRAINIAN CULTURAL AND EDUCATIONAL FOUNDATION INC", "designationCode": "A", "categoryCode": "23", "address": "440 DE LA SEIGNEURIE", "city": "WINNIPEG", "province": "MB", "country": "CA", "postalCode": "R3X2C6", "twitter": "None", "instagram": "None", "facebook": "None", "youtube": "None", "website": "None", "summary": "None", "logo": "None", "latitude": 49.82895820344506, "longitude": -97.05840738776021}, "105438758RR0001": {"name": "UKRAINIAN CULTURAL CENTRE TORONTO", "designationCode": "C", "categoryCode": "56", "address": "9 PLASTICS AVENUE", "city": "TORONTO", "province": "ON", "country": "CA", "postalCode": "M8Z4B6", "twitter": "None", "instagram": "None", "facebook": "None", "youtube": "None", "website": "None", "summary": "None", "logo": "None", "latitude": 43.62329980711517, "longitude": -79.50931150551126}, "889907978RR0001": {"name": "UKRAINIAN CULTURAL HERITAGE ASSOCIATION", "designationCode": "C", "categoryCode": "22", "address": "PO BOX 327", "city": "SANDY LAKE", "province": "MB", "country": "CA", "postalCode": "R0J1X0", "twitter": "None", "instagram": "None", "facebook": "None", "youtube": "None", "website": "None", "summary": "None", "logo": "None", "latitude": 50.52604802382196, "longitude": -100.17807618143935}, "120633086RR0001": {"name": "UKRAINIAN CULTURAL SOCIETY OF ST PAUL & DISTRICT", "designationCode": "C", "categoryCode": "22", "address": "PO BOX 4", "city": "VILNA", "province": "AB", "country": "CA", "postalCode": "T0A3L0", "twitter": "None", "instagram": "None", "facebook": "None", "youtube": "None", "website": "None", "summary": "None", "logo": "None", "latitude": 54.11403000000007, "longitude": -111.91908999999998}, "892586249RR0001": {"name": "UKRAINIAN EVANGELICAL BAPTIST ASSOCIATION OF EASTERN CANADA", "designationCode": "C", "categoryCode": "31", "address": "14 COULAS CRESCENT", "city": "WATERFORD", "province": "ON", "country": "CA", "postalCode": "N0E1Y0", "twitter": "None", "instagram": "None", "facebook": "None", "youtube": "None", "website": "None", "summary": "None", "logo": "None", "latitude": 42.92320171106246, "longitude": -80.28447623244273}, "119274397RR0001": {"name": "UKRAINIAN EVANGELICAL BAPTIST CHURCH", "designationCode": "C", "categoryCode": "31", "address": "148 TECUMSETH", "city": "TORONTO", "province": "ON", "country": "CA", "postalCode": "M6J2H6", "twitter": "None", "instagram": "None", "facebook": "None", "youtube": "None", "website": "None", "summary": "None", "logo": "None", "latitude": 43.6461667127359, "longitude": -79.40637726951915}, "891139941RR0001": {"name": "UKRAINIAN EVANGELICAL BAPTIST CHURCH OF PETERBOROUGH", "designationCode": "C", "categoryCode": "39", "address": "19 FIRE 69A", "city": "LAKEHURST", "province": "ON", "country": "CA", "postalCode": "K0L1J0", "twitter": "None", "instagram": "None", "facebook": "None", "youtube": "None", "website": "None", "summary": "None", "logo": "None", "latitude": 44.52968152793911, "longitude": -78.47980786568009}, "891698243RR0001": {"name": "UKRAINIAN EVANGELICAL BAPTIST CONVENTION OF CANADA, INC.", "designationCode": "C", "categoryCode": "31", "address": "118 FROBEL DR", "city": "ELLIOT LAKE", "province": "ON", "country": "CA", "postalCode": "P5A3A2", "twitter": "None", "instagram": "None", "facebook": "None", "youtube": "None", "website": "None", "summary": "None", "logo": "None", "latitude": 46.37033312955944, "longitude": -82.62325401887709}, "891189748RR0001": {"name": "UKRAINIAN FOUNDATION FOR COLLEGE EDUCATION TRUST", "designationCode": "C", "categoryCode": "21", "address": "12414 28 AVE NW", "city": "EDMONTON", "province": "AB", "country": "CA", "postalCode": "T6J4E4", "twitter": "None", "instagram": "None", "facebook": "None", "youtube": "None", "website": "None", "summary": "None", "logo": "None", "latitude": 53.45834819040333, "longitude": -113.54228568489206}, "875811929RR0001": {"name": "UKRAINIAN GREEK CATHOLIC CHURCH OF ST POKROWA", "designationCode": "C", "categoryCode": "38", "address": "BOX 87", "city": "BORDEN", "province": "SK", "country": "CA", "postalCode": "S0K0N0", "twitter": "None", "instagram": "None", "facebook": "None", "youtube": "None", "website": "None", "summary": "None", "logo": "None", "latitude": 52.37279920269652, "longitude": -107.14668130840676}, "108148032RR0001": {"name": "UKRAINIAN GREEK CATHOLIC PARISH OF ST. GEORGE", "designationCode": "C", "categoryCode": "38", "address": "11301 96 STR", "city": "EDMONTON", "province": "AB", "country": "CA", "postalCode": "T5G1T2", "twitter": "None", "instagram": "None", "facebook": "None", "youtube": "None", "website": "None", "summary": "None", "logo": "None", "latitude": 53.56284358673324, "longitude": -113.490105760171}, "119274330RR0001": {"name": "UKRAINIAN GREEK CATHOLIC PARISH OF ST-VLADIMIR AND OLGA", "designationCode": "C", "categoryCode": "38", "address": "BOX 297", "city": "INVERMAY", "province": "SK", "country": "CA", "postalCode": "S0A1M0", "twitter": "None", "instagram": "None", "facebook": "None", "youtube": "None", "website": "None", "summary": "None", "logo": "None", "latitude": 51.79999000000004, "longitude": -103.15097999999995}, "119274553RR0001": {"name": "UKRAINIAN GREEK ORTHODOX CHURCH OF ST MICHAELS", "designationCode": "C", "categoryCode": "39", "address": "BOX 86", "city": "SANDY LAKE", "province": "MB", "country": "CA", "postalCode": "R0J1X0", "twitter": "None", "instagram": "None", "facebook": "None", "youtube": "None", "website": "None", "summary": "None", "logo": "None", "latitude": 50.52604802382196, "longitude": -100.17807618143935}, "119274538RR0001": {"name": "UKRAINIAN GREEK ORTHODOX CHURCH OF ST VLADIMIR", "designationCode": "C", "categoryCode": "39", "address": "PO BOX 779", "city": "KENORA", "province": "ON", "country": "CA", "postalCode": "P9N4B5", "twitter": "None", "instagram": "None", "facebook": "None", "youtube": "None", "website": "None", "summary": "None", "logo": "None", "latitude": 49.77125700000006, "longitude": -94.48912249999994}, "108148263RR0138": {"name": "UKRAINIAN GREEK ORTHODOX CHURCH OF ST. MARY THE PROTECTRESS OF ST. JULIAN", "designationCode": "C", "categoryCode": "39", "address": "BOX 294", "city": "WAKAW", "province": "SK", "country": "CA", "postalCode": "S0K4P0", "twitter": "None", "instagram": "None", "facebook": "None", "youtube": "None", "website": "None", "summary": "None", "logo": "None", "latitude": 52.65295000000003, "longitude": -105.74270999999999}, "108148073RR0001": {"name": "UKRAINIAN GREEK ORTHODOX CHURCH OF ST. PETER & PAUL", "designationCode": "C", "categoryCode": "39", "address": "BOX 52", "city": "STORNOWAY", "province": "SK", "country": "CA", "postalCode": "S0A3Z0", "twitter": "None", "instagram": "None", "facebook": "None", "youtube": "None", "website": "None", "summary": "None", "logo": "None", "latitude": 51.293660000000045, "longitude": -102.03314999999998}, "891766842RR0001": {"name": "UKRAINIAN GREEK ORTHODOX CHURCH OF THE ASSUMPTION OF THE VIRGIN MARY", "designationCode": "C", "categoryCode": "39", "address": "BOX 14", "city": "DUFROST", "province": "MB", "country": "CA", "postalCode": "R0A0K0", "twitter": "None", "instagram": "None", "facebook": "None", "youtube": "None", "website": "None", "summary": "None", "logo": "None", "latitude": 49.35484000000008, "longitude": -97.02944999999994}, "887481992RR0001": {"name": "UKRAINIAN GREEK ORTHODOX CONGREGATION OF HOLY TRINITY AT KAHWIN ALBERTA", "designationCode": "A", "categoryCode": "39", "address": "BOX 420", "city": "ANDREW", "province": "AB", "country": "CA", "postalCode": "T0B0C0", "twitter": "None", "instagram": "None", "facebook": "None", "youtube": "None", "website": "None", "summary": "None", "logo": "None", "latitude": 53.88346000000007, "longitude": -112.35188999999997}, "869389544RR0001": {"name": "UKRAINIAN GREEK ORTHODOX CONGREGATION OF ST JOHN", "designationCode": "C", "categoryCode": "39", "address": "12125-46 STREET", "city": "EDMONTON", "province": "AB", "country": "CA", "postalCode": "T5W2W3", "twitter": "None", "instagram": "None", "facebook": "None", "youtube": "None", "website": "None", "summary": "None", "logo": "None", "latitude": 53.57611800000001, "longitude": -113.41218475627588}, "108148263RR0126": {"name": "UKRAINIAN GREEK ORTHODOX CONGREGATION OF ST. PETER AND ST PAUL", "designationCode": "C", "categoryCode": "39", "address": "GLORIA DMYTRYSHYN, TREASUERR  BOX 297", "city": "GLASLYN", "province": "SK", "country": "CA", "postalCode": "S0M0Y0", "twitter": "None", "instagram": "None", "facebook": "None", "youtube": "None", "website": "None", "summary": "None", "logo": "None", "latitude": 53.35997100000006, "longitude": -108.35242099999994}, "119274926RR0001": {"name": "UKRAINIAN GREEK ORTHODOX CULTURAL SOCIETY", "designationCode": "C", "categoryCode": "22", "address": "PO BOX 431", "city": "HUDSON BAY", "province": "SK", "country": "CA", "postalCode": "S0E0Y0", "twitter": "None", "instagram": "None", "facebook": "None", "youtube": "None", "website": "None", "summary": "None", "logo": "None", "latitude": 52.862685000000056, "longitude": -102.38924149999994}, "119274967RR0001": {"name": "UKRAINIAN GREEK-ORTHODOX PARISH OF ST JOHN AT FEDORAH", "designationCode": "C", "categoryCode": "39", "address": "23521 TWP RD 572", "city": "STURGEON COUNTY", "province": "AB", "country": "CA", "postalCode": "T0A0K1", "twitter": "None", "instagram": "None", "facebook": "None", "youtube": "None", "website": "None", "summary": "None", "logo": "None", "latitude": 53.92006951399404, "longitude": -113.4128925}, "119275014RR0001": {"name": "UKRAINIAN HOME FOR THE AGED", "designationCode": "C", "categoryCode": "01", "address": "3058 WINSTON CHURCHILL BLVD", "city": "MISSISSAUGA", "province": "ON", "country": "CA", "postalCode": "L5L3J1", "twitter": "None", "instagram": "None", "facebook": "None", "youtube": "None", "website": "None", "summary": "None", "logo": "None", "latitude": 43.52402096512197, "longitude": -79.68348455216997}, "119275063RR0001": {"name": "UKRAINIAN MUSEUM OF CANADA OF THE UKRAINIAN WOMEN'S ASSOCIATION OF CANADA", "designationCode": "C", "categoryCode": "50", "address": "910 SPADINA CRESCENT EAST", "city": "SASKATOON", "province": "SK", "country": "CA", "postalCode": "S7K3H5", "twitter": "None", "instagram": "None", "facebook": "None", "youtube": "None", "website": "None", "summary": "None", "logo": "None", "latitude": 52.13056890593784, "longitude": -106.65310985711776}, "885921817RR0001": {"name": "UKRAINIAN MUSEUM OF CANADA OF THE UKRAINIAN WOMEN'S ASSOCIATION OF CANADA, ONTARIO BRANCH", "designationCode": "C", "categoryCode": "50", "address": "620 SPADINA AVENUE", "city": "TORONTO", "province": "ON", "country": "CA", "postalCode": "M5S2H4", "twitter": "None", "instagram": "None", "facebook": "None", "youtube": "None", "website": "None", "summary": "None", "logo": "None", "latitude": 43.662010778233075, "longitude": -79.40183629173616}, "119275071RR0001": {"name": "UKRAINIAN MUSIC FESTIVAL", "designationCode": "C", "categoryCode": "22", "address": "209 RIVERSIDE DRIVE", "city": "TORONTO", "province": "ON", "country": "CA", "postalCode": "M6S4A8", "twitter": "None", "instagram": "None", "facebook": "None", "youtube": "None", "website": "None", "summary": "None", "logo": "None", "latitude": 43.64105831530948, "longitude": -79.4805461787179}, "119275089RR0001": {"name": "UKRAINIAN MUSIC SOCIETY OF ALBERTA", "designationCode": "C", "categoryCode": "22", "address": "5836 123 A AVE", "city": "EDMONTON", "province": "AB", "country": "CA", "postalCode": "T5W5G2", "twitter": "None", "instagram": "None", "facebook": "None", "youtube": "None", "website": "None", "summary": "None", "logo": "None", "latitude": 53.577935147809505, "longitude": -113.43062739952286}, "108148263RR0041": {"name": "UKRAINIAN ORTHODOX CATHEDRAL OF HOLY TRINITY, SASKATOON", "designationCode": "C", "categoryCode": "39", "address": "919 20TH ST W.", "city": "SASKATOON", "province": "SK", "country": "CA", "postalCode": "S7M0Y4", "twitter": "None", "instagram": "None", "facebook": "None", "youtube": "None", "website": "None", "summary": "None", "logo": "None", "latitude": 52.126088971992026, "longitude": -106.68327115037239}, "108148263RR0040": {"name": "UKRAINIAN ORTHODOX CATHEDRAL OF HOLY TRINITY, VANCOUVER", "designationCode": "C", "categoryCode": "39", "address": "154 10TH AVE. E", "city": "VANCOUVER", "province": "BC", "country": "CA", "postalCode": "V5T1Z4", "twitter": "None", "instagram": "None", "facebook": "None", "youtube": "None", "website": "None", "summary": "None", "logo": "None", "latitude": 49.26202449567217, "longitude": -123.10209297016561}, "119203966RR0001": {"name": "UKRAINIAN ORTHODOX CATHEDRAL OF ST IVAN SUCHAVSKY", "designationCode": "C", "categoryCode": "39", "address": "939 MAIN ST", "city": "WINNIPEG", "province": "MB", "country": "CA", "postalCode": "R2W3P2", "twitter": "None", "instagram": "None", "facebook": "None", "youtube": "None", "website": "None", "summary": "None", "logo": "None", "latitude": 49.911105447400345, "longitude": -97.13269328888022}, "108148263RR0072": {"name": "UKRAINIAN ORTHODOX CHURCH ASSUMPTION OF ST. MARY, WAKAW", "designationCode": "C", "categoryCode": "39", "address": "BOX 608", "city": "WAKAW", "province": "SK", "country": "CA", "postalCode": "S0K4P0", "twitter": "None", "instagram": "None", "facebook": "None", "youtube": "None", "website": "None", "summary": "None", "logo": "None", "latitude": 52.65295000000003, "longitude": -105.74270999999999}, "131314320RR0001": {"name": "UKRAINIAN ORTHODOX CHURCH CAMP CRYSTAL LAKE", "designationCode": "C", "categoryCode": "56", "address": "P.O. BOX 747", "city": "CANORA", "province": "SK", "country": "CA", "postalCode": "S0A0L0", "twitter": "None", "instagram": "None", "facebook": "None", "youtube": "None", "website": "None", "summary": "None", "logo": "None", "latitude": 51.62535661313478, "longitude": -102.4443087080291}, "108148263RR0094": {"name": "UKRAINIAN ORTHODOX CHURCH HOLY ASCENSION, ARRAN-KOBZAR, SK.", "designationCode": "C", "categoryCode": "39", "address": "PO BOX 3467", "city": "THE PAS", "province": "MB", "country": "CA", "postalCode": "R9A1S2", "twitter": "None", "instagram": "None", "facebook": "None", "youtube": "None", "website": "None", "summary": "None", "logo": "None", "latitude": 53.81342700000006, "longitude": -101.25038149999993}, "108148263RR0133": {"name": "UKRAINIAN ORTHODOX CHURCH OF ALL SAINTS", "designationCode": "C", "categoryCode": "39", "address": "RR#4", "city": "LLOYDMINSTER", "province": "AB", "country": "CA", "postalCode": "T9V2Z9", "twitter": "None", "instagram": "None", "facebook": "None", "youtube": "None", "website": "None", "summary": "None", "logo": "None", "latitude": 53.27803500000006, "longitude": -110.00671099999994}, "108148263RR0132": {"name": "UKRAINIAN ORTHODOX CHURCH OF ALL SAINTS OF MELFORT", "designationCode": "C", "categoryCode": "39", "address": "807 MAIN ST N                 BOX 1844", "city": "MELFORT", "province": "SK", "country": "CA", "postalCode": "S0E1A0", "twitter": "None", "instagram": "None", "facebook": "None", "youtube": "None", "website": "None", "summary": "None", "logo": "None", "latitude": 50.39699466924508, "longitude": -105.53456372574398}, "887400265RR0001": {"name": "UKRAINIAN ORTHODOX CHURCH OF ALL SAINTS OF RHEIN", "designationCode": "C", "categoryCode": "39", "address": "2C-54 ALLANBROOKE DRIVE", "city": "YORKTON", "province": "SK", "country": "CA", "postalCode": "S3N3G4", "twitter": "None", "instagram": "None", "facebook": "None", "youtube": "None", "website": "None", "summary": "None", "logo": "None", "latitude": 51.20139309769749, "longitude": -102.48548452859364}, "108148263RR0110": {"name": "UKRAINIAN ORTHODOX CHURCH OF ALL SAINTS, ENDEAVOUR", "designationCode": "C", "categoryCode": "39", "address": "GENERAL DELIVERY", "city": "ENDEAVOUR", "province": "SK", "country": "CA", "postalCode": "S0A0W0", "twitter": "None", "instagram": "None", "facebook": "None", "youtube": "None", "website": "None", "summary": "None", "logo": "None", "latitude": 52.15824600000006, "longitude": -102.65839099999994}, "108148263RR0134": {"name": "UKRAINIAN ORTHODOX CHURCH OF ALL SAINTS, KAMLOOPS", "designationCode": "C", "categoryCode": "39", "address": "1044 8TH ST", "city": "KAMLOOPS", "province": "BC", "country": "CA", "postalCode": "V2B2X8", "twitter": "None", "instagram": "None", "facebook": "None", "youtube": "None", "website": "None", "summary": "None", "logo": "None", "latitude": 50.70479925950718, "longitude": -120.36388164429589}, "108148263RR0077": {"name": "UKRAINIAN ORTHODOX CHURCH OF ALL SAINTS, KAMSACK", "designationCode": "C", "categoryCode": "39", "address": "BOX 1677", "city": "KAMSACK", "province": "SK", "country": "CA", "postalCode": "S0A1S0", "twitter": "None", "instagram": "None", "facebook": "None", "youtube": "None", "website": "None", "summary": "None", "logo": "None", "latitude": 51.63817289172365, "longitude": -101.65758543154911}, "108148263RR0022": {"name": "UKRAINIAN ORTHODOX CHURCH OF ALL SAINTS, LAC LA BICHE", "designationCode": "C", "categoryCode": "39", "address": "BOX 512", "city": "LAC LA BICHE", "province": "AB", "country": "CA", "postalCode": "T0A2C0", "twitter": "None", "instagram": "None", "facebook": "None", "youtube": "None", "website": "None", "summary": "None", "logo": "None", "latitude": 54.768200000000036, "longitude": -111.98244999999997}, "108148263RR0115": {"name": "UKRAINIAN ORTHODOX CHURCH OF ALL SAINTS, SANDY RAPIDS", "designationCode": "C", "categoryCode": "39", "address": "POST OFFICE BOX 5114", "city": "BONNYVILLE", "province": "AB", "country": "CA", "postalCode": "T9N2G3", "twitter": "None", "instagram": "None", "facebook": "None", "youtube": "None", "website": "None", "summary": "None", "logo": "None", "latitude": 54.267945000000054, "longitude": -110.75332399999994}, "108148263RR0089": {"name": "UKRAINIAN ORTHODOX CHURCH OF ALL SAINTS, SASKATOON", "designationCode": "C", "categoryCode": "39", "address": "358 COSTIGAN CR.", "city": "SASKATOON", "province": "SK", "country": "CA", "postalCode": "S7J3P3", "twitter": "None", "instagram": "None", "facebook": "None", "youtube": "None", "website": "None", "summary": "None", "logo": "None", "latitude": 52.10364549708581, "longitude": -106.60285577612693}, "108148263RR0011": {"name": "UKRAINIAN ORTHODOX CHURCH OF ALL SAINTS, WINNIPEG", "designationCode": "C", "categoryCode": "39", "address": "1500 DAY STREET", "city": "WINNIPEG", "province": "MB", "country": "CA", "postalCode": "R2C1E4", "twitter": "None", "instagram": "None", "facebook": "None", "youtube": "None", "website": "None", "summary": "None", "logo": "None", "latitude": 49.9050264970858, "longitude": -97.00248031331891}, "108148263RR0008": {"name": "UKRAINIAN ORTHODOX CHURCH OF ASCENSION OF JESUS CHRIST, SMOKY LAKE, ALBERTA", "designationCode": "C", "categoryCode": "39", "address": "BOX 357", "city": "SMOKY LAKE", "province": "AB", "country": "CA", "postalCode": "T0A3C0", "twitter": "None", "instagram": "None", "facebook": "None", "youtube": "None", "website": "None", "summary": "None", "logo": "None", "latitude": 54.113230000000044, "longitude": -112.47107999999997}, "108148263RR0084": {"name": "UKRAINIAN ORTHODOX CHURCH OF ASSUMPTION OF ST. MARY, VERNON", "designationCode": "C", "categoryCode": "39", "address": "BOX 873", "city": "VERNON", "province": "BC", "country": "CA", "postalCode": "V1T6M8", "twitter": "None", "instagram": "None", "facebook": "None", "youtube": "None", "website": "None", "summary": "None", "logo": "None", "latitude": 50.26567200000005, "longitude": -119.27378149999993}}