{"118968692RR0001": {"name": "INKERMAN UNITED CHURCH", "designationCode": "C", "categoryCode": "44", "address": "11505 QUEEN ST", "city": "INKERMAN", "province": "ON", "country": "CA", "postalCode": "K0E1J0", "twitter": "None", "instagram": "None", "facebook": "None", "youtube": "None", "website": "None", "summary": "None", "logo": "None", "latitude": 45.0350032825744, "longitude": -75.39513227433719}, "890165772RR0001": {"name": "INKERMAN WESLEYAN CHURCH", "designationCode": "C", "categoryCode": "39", "address": "11486 QUEEN ST.", "city": "INKERMAN", "province": "ON", "country": "CA", "postalCode": "K0E1J0", "twitter": "None", "instagram": "None", "facebook": "None", "youtube": "None", "website": "None", "summary": "None", "logo": "None", "latitude": 45.03366523750942, "longitude": -75.39523896279071}, "120099288RR0001": {"name": "INKSTER COMMUNITY CHILD CARE INC", "designationCode": "C", "categoryCode": "01", "address": "633 INKSTER BLVD", "city": "WINNIPEG", "province": "MB", "country": "CA", "postalCode": "R2W0L3", "twitter": "None", "instagram": "None", "facebook": "None", "youtube": "None", "website": "None", "summary": "None", "logo": "None", "latitude": 49.93306992870311, "longitude": -97.14123123838668}, "119288918RR0367": {"name": "INKSTER GARDENS CONGREGATION OF JEHOVAH'S WITNESSES, WINNIPEG, MANITOBA", "designationCode": "C", "categoryCode": "61", "address": "46 FINESTONE ST", "city": "WINNIPEG", "province": "MB", "country": "CA", "postalCode": "R2R1E5", "twitter": "None", "instagram": "None", "facebook": "None", "youtube": "None", "website": "None", "summary": "None", "logo": "None", "latitude": 49.93659958673322, "longitude": -97.21101517557257}, "130842651RR0001": {"name": "INLAND REFUGEE SOCIETY OF BRITISH COLUMBIA", "designationCode": "C", "categoryCode": "09", "address": "2610 VICTORIA DR", "city": "VANCOUVER", "province": "BC", "country": "CA", "postalCode": "V5N4L2", "twitter": "None", "instagram": "None", "facebook": "None", "youtube": "None", "website": "None", "summary": "None", "logo": "None", "latitude": 49.261066878989, "longitude": -123.06589849440276}, "856197967RR0001": {"name": "INN FROM THE COLD INC.", "designationCode": "C", "categoryCode": "09", "address": "510 PENROSE ST.", "city": "NEWMARKET", "province": "ON", "country": "CA", "postalCode": "L3Y1A2", "twitter": "None", "instagram": "None", "facebook": "None", "youtube": "None", "website": "None", "summary": "None", "logo": "None", "latitude": 44.04349153895233, "longitude": -79.45355973007682}, "870823648RR0001": {"name": "INN FROM THE COLD SOCIETY", "designationCode": "C", "categoryCode": "01", "address": "106-110 11TH AVE SE", "city": "CALGARY", "province": "AB", "country": "CA", "postalCode": "T2G0X5", "twitter": "None", "instagram": "None", "facebook": "None", "youtube": "None", "website": "None", "summary": "None", "logo": "None", "latitude": 51.04206521557619, "longitude": -114.0533801077881}, "130680531RR0001": {"name": "INNER CITY ANGELS", "designationCode": "C", "categoryCode": "22", "address": "10 CLUESON PARK", "city": "TORONTO", "province": "ON", "country": "CA", "postalCode": "M8Y2C3", "twitter": "None", "instagram": "None", "facebook": "None", "youtube": "None", "website": "None", "summary": "None", "logo": "None", "latitude": 43.63590909965939, "longitude": -79.50112017707312}, "892547902RR0001": {"name": "INNER CITY OUTREACH", "designationCode": "C", "categoryCode": "01", "address": "4545 JANE ST", "city": "TORONTO", "province": "ON", "country": "CA", "postalCode": "M3N2K7", "twitter": "None", "instagram": "None", "facebook": "None", "youtube": "None", "website": "None", "summary": "None", "logo": "None", "latitude": 43.768010240377265, "longitude": -79.52014523391557}, "107507378RR0001": {"name": "INNER CITY PASTORAL MINISTRY COMMITTEE", "designationCode": "C", "categoryCode": "47", "address": "10527 96ST NW", "city": "EDMONTON", "province": "AB", "country": "CA", "postalCode": "T5H2H6", "twitter": "None", "instagram": "None", "facebook": "None", "youtube": "None", "website": "None", "summary": "None", "logo": "None", "latitude": 53.54945573495292, "longitude": -113.48475581828193}, "132799495RR0001": {"name": "INNER CITY YOUTH ALIVE, INC", "designationCode": "C", "categoryCode": "01", "address": "418 ABERDEEN AVE", "city": "WINNIPEG", "province": "MB", "country": "CA", "postalCode": "R2W1V7", "twitter": "None", "instagram": "None", "facebook": "None", "youtube": "None", "website": "None", "summary": "None", "logo": "None", "latitude": 49.91870908630055, "longitude": -97.13873870664773}, "130917032RR0001": {"name": "INNER CITY YOUTH DEVELOPMENT ASSOCIATION", "designationCode": "C", "categoryCode": "09", "address": "PO BOX 11506", "city": "EDMONTON", "province": "AB", "country": "CA", "postalCode": "T5J3K7", "twitter": "None", "instagram": "None", "facebook": "None", "youtube": "None", "website": "None", "summary": "None", "logo": "None", "latitude": 53.54623500000005, "longitude": -113.49037249999994}, "835004557RR0001": {"name": "INNER HOPE YOUTH MINISTRIES SOCIETY", "designationCode": "C", "categoryCode": "09", "address": "PO BOX 74084                  HILLCREST PARK", "city": "VANCOUVER", "province": "BC", "country": "CA", "postalCode": "V5V5C8", "twitter": "None", "instagram": "None", "facebook": "None", "youtube": "None", "website": "None", "summary": "None", "logo": "None", "latitude": 49.24365000000006, "longitude": -123.10983999999996}, "891260184RR0001": {"name": "INNER-CITY HOME OF SUDBURY", "designationCode": "C", "categoryCode": "09", "address": "251 ELM STREET, WEST", "city": "SUDBURY", "province": "ON", "country": "CA", "postalCode": "P3C1V5", "twitter": "None", "instagram": "None", "facebook": "None", "youtube": "None", "website": "None", "summary": "None", "logo": "None", "latitude": 46.49301701434317, "longitude": -81.00516202254127}, "891447344RR0001": {"name": "INNER-CITY LIGHTHOUSE MINISTRIES OF EDMONTON", "designationCode": "C", "categoryCode": "39", "address": "BOX 474", "city": "TOFIELD", "province": "AB", "country": "CA", "postalCode": "T0B4J0", "twitter": "None", "instagram": "None", "facebook": "None", "youtube": "None", "website": "None", "summary": "None", "logo": "None", "latitude": 53.36988000000008, "longitude": -112.66557999999998}, "891713976RR0001": {"name": "INNER-CITY WOMEN'S INITIATIVES SOCIETY", "designationCode": "C", "categoryCode": "09", "address": "15148 VICTORIA AVE", "city": "WHITE ROCK", "province": "BC", "country": "CA", "postalCode": "V4B1G3", "twitter": "None", "instagram": "None", "facebook": "None", "youtube": "None", "website": "None", "summary": "None", "logo": "None", "latitude": 49.02104006466046, "longitude": -122.8023901670898}, "806565917RR0001": {"name": "INNERchamber Inc.", "designationCode": "C", "categoryCode": "22", "address": "134 PATRICIA ROAD", "city": "STRATFORD", "province": "ON", "country": "CA", "postalCode": "N5A1V4", "twitter": "None", "instagram": "None", "facebook": "None", "youtube": "None", "website": "None", "summary": "None", "logo": "None", "latitude": 43.3613940863292, "longitude": -81.00252481199126}, "857755581RR0001": {"name": "INNERCHANGE FOUNDATION", "designationCode": "A", "categoryCode": "03", "address": "1500 - 1040 GEORGIA ST W", "city": "VANCOUVER", "province": "BC", "country": "CA", "postalCode": "V6E4H8", "twitter": "None", "instagram": "None", "facebook": "None", "youtube": "None", "website": "None", "summary": "None", "logo": "None", "latitude": 49.28530146015363, "longitude": -123.12258915309577}, "118968783RR0001": {"name": "INNERKIP CEMETERY COMPANY", "designationCode": "C", "categoryCode": "59", "address": "BOX 28", "city": "INNERKIP", "province": "ON", "country": "CA", "postalCode": "N0J1M0", "twitter": "None", "instagram": "None", "facebook": "None", "youtube": "None", "website": "None", "summary": "None", "logo": "None", "latitude": 43.20965000000007, "longitude": -80.69663999999995}, "888646866RR0001": {"name": "INNERKIP FIREFIGHTERS ASSOCIATION", "designationCode": "C", "categoryCode": "59", "address": "PO BOX 401", "city": "INNERKIP", "province": "ON", "country": "CA", "postalCode": "N0J1M0", "twitter": "None", "instagram": "None", "facebook": "None", "youtube": "None", "website": "None", "summary": "None", "logo": "None", "latitude": 43.20965000000007, "longitude": -80.69663999999995}, "118968791RR0001": {"name": "INNERKIP SENIORS APARTMENTS INCORPORATED", "designationCode": "C", "categoryCode": "09", "address": "30 BALSAM ST", "city": "INNERKIP", "province": "ON", "country": "CA", "postalCode": "N0J1M0", "twitter": "None", "instagram": "None", "facebook": "None", "youtube": "None", "website": "None", "summary": "None", "logo": "None", "latitude": 43.20712624607377, "longitude": -80.69512694640792}, "107507402RR0001": {"name": "INNERKIP UNITED CHURCH", "designationCode": "C", "categoryCode": "44", "address": "PO BOX 137                    13 VINCENT", "city": "INNERKIP", "province": "ON", "country": "CA", "postalCode": "N0J1M0", "twitter": "None", "instagram": "None", "facebook": "None", "youtube": "None", "website": "None", "summary": "None", "logo": "None", "latitude": 43.20590314126612, "longitude": -80.6999700066651}, "895920866RR0001": {"name": "INNERVISIONS RECOVERY SOCIETY OF B.C.", "designationCode": "C", "categoryCode": "01", "address": "1937 PRAIRIE AVENUE", "city": "PORT COQUITLAM", "province": "BC", "country": "CA", "postalCode": "V3B1V5", "twitter": "None", "instagram": "None", "facebook": "None", "youtube": "None", "website": "None", "summary": "None", "logo": "None", "latitude": 49.27119546047076, "longitude": -122.767974}, "119071215RR0001": {"name": "INNIS POINT BIRD OBSERVATORY", "designationCode": "C", "categoryCode": "54", "address": "P.O. BOX 72137 RPO KANATA NORT", "city": "OTTAWA", "province": "ON", "country": "CA", "postalCode": "K2K2P4", "twitter": "None", "instagram": "None", "facebook": "None", "youtube": "None", "website": "None", "summary": "None", "logo": "None", "latitude": 45.301722000000055, "longitude": -75.90703399999994}, "132244302RR0001": {"name": "INNISFAIL (IMP'S) BAND PARENT'S ASSOCIATION", "designationCode": "C", "categoryCode": "22", "address": "4459 51 STREET", "city": "INNISFAIL", "province": "AB", "country": "CA", "postalCode": "T4G1A8", "twitter": "None", "instagram": "None", "facebook": "None", "youtube": "None", "website": "None", "summary": "None", "logo": "None", "latitude": 52.029166773489095, "longitude": -113.93873423228553}, "891569584RR0001": {"name": "INNISFAIL & AREA FOOD BANK", "designationCode": "C", "categoryCode": "09", "address": "P.O. BOX 6084", "city": "INNISFAIL", "province": "AB", "country": "CA", "postalCode": "T4G1S7", "twitter": "None", "instagram": "None", "facebook": "None", "youtube": "None", "website": "None", "summary": "None", "logo": "None", "latitude": 52.02931001226238, "longitude": -113.92857006059144}, "897064127RR0001": {"name": "INNISFAIL & DISTRICT HEALTH CARE AUXILIARY", "designationCode": "C", "categoryCode": "19", "address": "5023-42ND ST", "city": "INNISFAIL", "province": "AB", "country": "CA", "postalCode": "T4G1A9", "twitter": "None", "instagram": "None", "facebook": "None", "youtube": "None", "website": "None", "summary": "None", "logo": "None", "latitude": 52.020186480091624, "longitude": -113.9516235}, "843859968RR0001": {"name": "INNISFAIL & DISTRICT VICTIM SERVICES SOCIETY", "designationCode": "C", "categoryCode": "09", "address": "4904 - 45 AVENUE", "city": "INNISFAIL", "province": "AB", "country": "CA", "postalCode": "T4G1S6", "twitter": "None", "instagram": "None", "facebook": "None", "youtube": "None", "website": "None", "summary": "None", "logo": "None", "latitude": 52.02640867055226, "longitude": -113.94041532056094}, "134380617RR0001": {"name": "INNISFAIL ALBERTA CONGREGATION OF JEHOVAH'S WITNESSES", "designationCode": "C", "categoryCode": "61", "address": "3304 52 AVENUE", "city": "INNISFAIL", "province": "AB", "country": "CA", "postalCode": "T4G1E2", "twitter": "None", "instagram": "None", "facebook": "None", "youtube": "None", "website": "None", "summary": "None", "logo": "None", "latitude": 52.010019, "longitude": -113.95665739716661}, "141140384RR0001": {"name": "INNISFAIL ALLIANCE CHURCH", "designationCode": "C", "categoryCode": "39", "address": "25 4804-42 STREET", "city": "INNISFAIL", "province": "AB", "country": "CA", "postalCode": "T4G1T4", "twitter": "None", "instagram": "None", "facebook": "None", "youtube": "None", "website": "None", "summary": "None", "logo": "None", "latitude": 52.02012656564141, "longitude": -113.9451035029142}, "118968866RR0001": {"name": "INNISFAIL AND DISTRICT CHRISTMAS BUREAU", "designationCode": "C", "categoryCode": "59", "address": "BOX 6005", "city": "INNISFAIL", "province": "AB", "country": "CA", "postalCode": "T4G1S7", "twitter": "None", "instagram": "None", "facebook": "None", "youtube": "None", "website": "None", "summary": "None", "logo": "None", "latitude": 52.02931001226238, "longitude": -113.92857006059144}, "118968874RR0001": {"name": "INNISFAIL AND DISTRICT HISTORICAL SOCIETY", "designationCode": "C", "categoryCode": "50", "address": "5139 42 ST", "city": "INNISFAIL", "province": "AB", "country": "CA", "postalCode": "T4G1K2", "twitter": "None", "instagram": "None", "facebook": "None", "youtube": "None", "website": "None", "summary": "None", "logo": "None", "latitude": 52.02013869144249, "longitude": -113.95471849704903}, "107507444RR0001": {"name": "INNISFAIL BAPTIST CHURCH", "designationCode": "C", "categoryCode": "31", "address": "5204 SPRUCE ROAD", "city": "INNISFAIL", "province": "AB", "country": "CA", "postalCode": "T4G1E3", "twitter": "None", "instagram": "None", "facebook": "None", "youtube": "None", "website": "None", "summary": "None", "logo": "None", "latitude": 52.01255268469053, "longitude": -113.95731652440911}, "130498769RR0001": {"name": "INNISFAIL CHURCH OF THE NAZARENE", "designationCode": "C", "categoryCode": "39", "address": "4904 48 ST", "city": "INNISFAIL", "province": "AB", "country": "CA", "postalCode": "T4G1N1", "twitter": "None", "instagram": "None", "facebook": "None", "youtube": "None", "website": "None", "summary": "None", "logo": "None", "latitude": 52.025574478215695, "longitude": -113.94753308381902}, "118968890RR0001": {"name": "INNISFAIL PASTORAL CHARGE", "designationCode": "C", "categoryCode": "44", "address": "4720-48 AVE", "city": "INNISFAIL", "province": "AB", "country": "CA", "postalCode": "T4G1N6", "twitter": "None", "instagram": "None", "facebook": "None", "youtube": "None", "website": "None", "summary": "None", "logo": "None", "latitude": 52.024923, "longitude": -113.94474737927837}, "118968908RR0001": {"name": "INNISFIL COMMUNITY CHURCH", "designationCode": "C", "categoryCode": "36", "address": "1571 INNISFIL BEACH ROAD      P O BOX 7109", "city": "INNISFIL", "province": "ON", "country": "CA", "postalCode": "L9S1A9", "twitter": "None", "instagram": "None", "facebook": "None", "youtube": "None", "website": "None", "summary": "None", "logo": "None", "latitude": 44.307475833112676, "longitude": -79.5802460005196}, "118968916RR0001": {"name": "INNISFIL HISTORICAL SOCIETY", "designationCode": "C", "categoryCode": "50", "address": "P.O. BOX 7176", "city": "INNISFIL", "province": "ON", "country": "CA", "postalCode": "L9S1A9", "twitter": "None", "instagram": "None", "facebook": "None", "youtube": "None", "website": "None", "summary": "None", "logo": "None", "latitude": 44.31356700000005, "longitude": -79.55400049999993}, "887216398RR0001": {"name": "INNISWOOD BAPTIST CHURCH", "designationCode": "C", "categoryCode": "31", "address": "460 YONGE ST", "city": "BARRIE", "province": "ON", "country": "CA", "postalCode": "L4N4E2", "twitter": "None", "instagram": "None", "facebook": "None", "youtube": "None", "website": "None", "summary": "None", "logo": "None", "latitude": 44.36311288507717, "longitude": -79.65847057954852}, "118968957RR0001": {"name": "INNOVATION CANADA INC.", "designationCode": "C", "categoryCode": "59", "address": "5118 - 2245 LAWRENCE AVE W", "city": "ETOBICOKE", "province": "ON", "country": "CA", "postalCode": "M9P3W3", "twitter": "None", "instagram": "None", "facebook": "None", "youtube": "None", "website": "None", "summary": "None", "logo": "None", "latitude": 43.69740261986801, "longitude": -79.5267775242727}, "893080655RR0001": {"name": "INNOVATIONS IN CONCERT - INNOVATIONS EN CONCERT", "designationCode": "C", "categoryCode": "22", "address": "5866 RUE JEANNE-MANCE", "city": "MONTR\u00c9AL", "province": "QC", "country": "CA", "postalCode": "H2V4K8", "twitter": "None", "instagram": "None", "facebook": "None", "youtube": "None", "website": "None", "summary": "None", "logo": "None", "latitude": 45.52481975685278, "longitude": -73.60596188455756}, "878142413RR0001": {"name": "INNOVATIVE COMMUNITY SUPPORT SERVICES", "designationCode": "C", "categoryCode": "09", "address": "2025 LANTHIER ROAD SUITE A", "city": "ORL\u00c9ANS", "province": "ON", "country": "CA", "postalCode": "K4A3V3", "twitter": "None", "instagram": "None", "facebook": "None", "youtube": "None", "website": "None", "summary": "None", "logo": "None", "latitude": 45.45716024759063, "longitude": -75.49188164328626}, "119236826RR0001": {"name": "INNOVATIVE HOUSING SOCIETY OF CANADA", "designationCode": "C", "categoryCode": "01", "address": "230 BELLEROSE DR", "city": "ST. ALBERT", "province": "AB", "country": "CA", "postalCode": "T8N7P7", "twitter": "None", "instagram": "None", "facebook": "None", "youtube": "None", "website": "None", "summary": "None", "logo": "None", "latitude": 53.66067968507848, "longitude": -113.61655542845634}, "871126249RR0001": {"name": "INNOVATIVECOMMUNITIES.ORG FOUNDATION", "designationCode": "C", "categoryCode": "09", "address": "1004 NORTH PARK STREET", "city": "VICTORIA", "province": "BC", "country": "CA", "postalCode": "V8T1C6", "twitter": "None", "instagram": "None", "facebook": "None", "youtube": "None", "website": "None", "summary": "None", "logo": "None", "latitude": 48.42968247879261, "longitude": -123.35532063765945}, "888661261RR0001": {"name": "INNRESPONSE", "designationCode": "C", "categoryCode": "56", "address": "1249 MORGANSTON RD            RR #1", "city": "CASTLETON", "province": "ON", "country": "CA", "postalCode": "K0K1M0", "twitter": "None", "instagram": "None", "facebook": "None", "youtube": "None", "website": "None", "summary": "None", "logo": "None", "latitude": 44.13907999180664, "longitude": -77.89251404169363}, "118968981RR0001": {"name": "INONOAKLIN VALLEY READING CENTRE", "designationCode": "C", "categoryCode": "50", "address": "BOX 110", "city": "EDGEWOOD", "province": "BC", "country": "CA", "postalCode": "V0G1J0", "twitter": "None", "instagram": "None", "facebook": "None", "youtube": "None", "website": "None", "summary": "None", "logo": "None", "latitude": 49.78651000000008, "longitude": -118.14027999999996}, "828391326RR0001": {"name": "INROADS INTERNATIONAL", "designationCode": "C", "categoryCode": "47", "address": "73 ELORA STREET NORTH", "city": "ALMA", "province": "ON", "country": "CA", "postalCode": "N0B1A0", "twitter": "None", "instagram": "None", "facebook": "None", "youtube": "None", "website": "None", "summary": "None", "logo": "None", "latitude": 43.73325089679004, "longitude": -80.50808764419769}, "869244764RR0001": {"name": "INSERTECH ANGUS", "designationCode": "C", "categoryCode": "20", "address": "4820, RUE MOLSON", "city": "MONTREAL", "province": "QC", "country": "CA", "postalCode": "H1Y3J8", "twitter": "None", "instagram": "None", "facebook": "None", "youtube": "None", "website": "None", "summary": "None", "logo": "None", "latitude": 45.541886200535814, "longitude": -73.569980250126}, "101894319RR0001": {"name": "INSIDE EDUCATION SOCIETY OF ALBERTA", "designationCode": "C", "categoryCode": "59", "address": "11428 - 100 AVENUE NW", "city": "EDMONTON", "province": "AB", "country": "CA", "postalCode": "T5K0J4", "twitter": "None", "instagram": "None", "facebook": "None", "youtube": "None", "website": "None", "summary": "None", "logo": "None", "latitude": 53.53886151875455, "longitude": -113.51917252553523}, "848163523RR0001": {"name": "INSIDE THE DREAM FORMAL ATTIRE PROGRAM", "designationCode": "C", "categoryCode": "21", "address": "35 - 5160 EXPLORER DR", "city": "MISSISSAUGA", "province": "ON", "country": "CA", "postalCode": "L4W4T7", "twitter": "None", "instagram": "None", "facebook": "None", "youtube": "None", "website": "None", "summary": "None", "logo": "None", "latitude": 43.66230239601279, "longitude": -79.59771749145897}, "892468372RR0001": {"name": "INSIGHT CHRISTIAN FELLOWSHIP", "designationCode": "C", "categoryCode": "47", "address": "2277 MCCALLUM ROAD, #312", "city": "ABBOTSFORD", "province": "BC", "country": "CA", "postalCode": "V2S6H9", "twitter": "None", "instagram": "None", "facebook": "None", "youtube": "None", "website": "None", "summary": "None", "logo": "None", "latitude": 49.043296026920224, "longitude": -122.29345587575673}, "862820735RR0001": {"name": "INSIGHT COUNSELLING & THERAPY CENTRE", "designationCode": "C", "categoryCode": "09", "address": "4620 MANILLA RD SE", "city": "CALGARY", "province": "AB", "country": "CA", "postalCode": "T2G4B7", "twitter": "None", "instagram": "None", "facebook": "None", "youtube": "None", "website": "None", "summary": "None", "logo": "None", "latitude": 51.01210758090485, "longitude": -114.05062636909258}, "118969005RR0001": {"name": "INSIGHT FOR LIVING MINISTRIES CANADA", "designationCode": "C", "categoryCode": "47", "address": "1-30445 PROGRESSIVE WAY", "city": "ABBOTSFORD", "province": "BC", "country": "CA", "postalCode": "V2T6W3", "twitter": "None", "instagram": "None", "facebook": "None", "youtube": "None", "website": "None", "summary": "None", "logo": "None", "latitude": 49.04860951211811, "longitude": -122.37971183097696}, "873343305RR0001": {"name": "INSPIRATION FOUNDATION / FONDATION INSPIRATION", "designationCode": "A", "categoryCode": "03", "address": "1500 WEST GEORGIA STREET      SUITE 1250   BOX 62", "city": "VANCOUVER", "province": "BC", "country": "CA", "postalCode": "V6G2Z6", "twitter": "None", "instagram": "None", "facebook": "None", "youtube": "None", "website": "None", "summary": "None", "logo": "None", "latitude": 49.2900638104334, "longitude": -123.12989899362336}, "107507774RR0001": {"name": "INSPIRATION MINISTRIES", "designationCode": "C", "categoryCode": "39", "address": "BOX 44", "city": "MARGO", "province": "SK", "country": "CA", "postalCode": "S0A2M0", "twitter": "None", "instagram": "None", "facebook": "None", "youtube": "None", "website": "None", "summary": "None", "logo": "None", "latitude": 51.81669000000005, "longitude": -103.33428999999995}, "838931764RR0001": {"name": "INSPIRE!africa FOUNDATION", "designationCode": "C", "categoryCode": "09", "address": "102 - 520 CEDAR CRES SW", "city": "CALGARY", "province": "AB", "country": "CA", "postalCode": "T3C2Y8", "twitter": "None", "instagram": "None", "facebook": "None", "youtube": "None", "website": "None", "summary": "None", "logo": "None", "latitude": 51.04976510030944, "longitude": -114.13314048184768}, "804922870RR0001": {"name": "INSPIREHEALTH LEGACY FOUNDATION", "designationCode": "A", "categoryCode": "13", "address": "#200 - 1330 WEST 8TH AVENUE", "city": "VANCOUVER", "province": "BC", "country": "CA", "postalCode": "V6H4A6", "twitter": "None", "instagram": "None", "facebook": "None", "youtube": "None", "website": "None", "summary": "None", "logo": "None", "latitude": 49.26442550620375, "longitude": -123.13436074132954}, "108103920RR0001": {"name": "INSPIREHEALTH SOCIETY", "designationCode": "C", "categoryCode": "59", "address": "1330 WEST 8TH AVENUE          2ND FLOOR", "city": "VANCOUVER", "province": "BC", "country": "CA", "postalCode": "V6H4A6", "twitter": "None", "instagram": "None", "facebook": "None", "youtube": "None", "website": "None", "summary": "None", "logo": "None", "latitude": 49.26442550620375, "longitude": -123.13436074132954}, "876185877RR0001": {"name": "INSTITUT \u00c9CONOMIQUE DE MONTR\u00c9AL", "designationCode": "C", "categoryCode": "21", "address": "910 RUE PEEL BUREAU 600", "city": "MONTR\u00c9AL", "province": "QC", "country": "CA", "postalCode": "H3C2H8", "twitter": "None", "instagram": "None", "facebook": "None", "youtube": "None", "website": "None", "summary": "None", "logo": "None", "latitude": 45.497127008309874, "longitude": -73.56741466446407}, "118969054RR0001": {"name": "INSTITUT APOSTOLIQUE RENAISSANCE", "designationCode": "C", "categoryCode": "47", "address": "1085 RUE ADELARD-COLLETTE", "city": "SHERBROOKE", "province": "QC", "country": "CA", "postalCode": "J1H4V2", "twitter": "None", "instagram": "None", "facebook": "None", "youtube": "None", "website": "None", "summary": "None", "logo": "None", "latitude": 45.390210757977975, "longitude": -71.88942863783232}, "106952807RR0001": {"name": "INSTITUT BIBLIQUE DU QUEBEC", "designationCode": "C", "categoryCode": "20", "address": "839, LASALLE", "city": "LONGUEUIL", "province": "QC", "country": "CA", "postalCode": "J4K3G6", "twitter": "None", "instagram": "None", "facebook": "None", "youtube": "None", "website": "None", "summary": "None", "logo": "None", "latitude": 45.51902700000005, "longitude": -73.51013599999993}, "859487712RR0001": {"name": "INSTITUT BIBLIQUE V.I.E.", "designationCode": "C", "categoryCode": "20", "address": "300-4824, C\u00d4TE-DES-NEIGES", "city": "MONTR\u00c9AL", "province": "QC", "country": "CA", "postalCode": "H3V1G4", "twitter": "None", "instagram": "None", "facebook": "None", "youtube": "None", "website": "None", "summary": "None", "logo": "None", "latitude": 45.49532050288555, "longitude": -73.61328180391251}, "107507881RR0001": {"name": "INSTITUT CANADIEN DE QUEBEC", "designationCode": "C", "categoryCode": "50", "address": "350 RUE SAINT-JOSEPH EST", "city": "QUEBEC", "province": "QC", "country": "CA", "postalCode": "G1K3B2", "twitter": "None", "instagram": "None", "facebook": "None", "youtube": "None", "website": "None", "summary": "None", "logo": "None", "latitude": 46.81402594702498, "longitude": -71.22516826299828}, "865883912RR0001": {"name": "INSTITUT CANADIEN DE RECHERCHE SUR LES MINORIT\u00c9S LINGUISTIQUES - CANADIAN INSTITUTE FOR RESEARCH ON LINGUISTIC MINORITIES", "designationCode": "C", "categoryCode": "21", "address": "18 AV ANTONINE-MAILLET", "city": "MONCTON", "province": "NB", "country": "CA", "postalCode": "E1A3E9", "twitter": "None", "instagram": "None", "facebook": "None", "youtube": "None", "website": "None", "summary": "None", "logo": "None", "latitude": 46.104670681906946, "longitude": -64.78178403736526}, "815097548RR0001": {"name": "INSTITUT CANADIEN DES ARMES A FEU/CANADIAN FIRE ARMS INSTITUTE", "designationCode": "C", "categoryCode": "50", "address": "450 CHEMIN DU ROY", "city": "DESCHAMBAULT", "province": "QC", "country": "CA", "postalCode": "G0A1S0", "twitter": "None", "instagram": "None", "facebook": "None", "youtube": "None", "website": "None", "summary": "None", "logo": "None", "latitude": 46.66870142915396, "longitude": -71.92023396795202}, "118969138RR0001": {"name": "INSTITUT CANADIEN POUR DEVELOPPEMENT NEURO-INTEGRATIF/CANADIAN INSTITUTE FOR NEURO-INTEGRATIVE DEVELOPMENT", "designationCode": "C", "categoryCode": "19", "address": "5460 AVENUE CONNAUGHT", "city": "MONTR\u00c9AL", "province": "QC", "country": "CA", "postalCode": "H4V1X7", "twitter": "None", "instagram": "None", "facebook": "None", "youtube": "None", "website": "None", "summary": "None", "logo": "None", "latitude": 45.46152000000001, "longitude": -73.65537015517324}, "891346041RR0001": {"name": "INSTITUT CARDINAL L\u00c9GER POUR LA SANTE CARDINAL / L\u00c9GER INSTITUTE FOR HEALTH", "designationCode": "C", "categoryCode": "03", "address": "130 AVE DE L'EPEE", "city": "OUTREMONT", "province": "QC", "country": "CA", "postalCode": "H2V3T2", "twitter": "None", "instagram": "None", "facebook": "None", "youtube": "None", "website": "None", "summary": "None", "logo": "None", "latitude": 45.5174456658204, "longitude": -73.59933130503771}, "107507980RR0001": {"name": "INSTITUT CULTUREL AVATAQ INC./ AVATAQ CULTURAL INSTITUTE INC.", "designationCode": "C", "categoryCode": "21", "address": "360-4150, RUE STE-CATHERINE O.", "city": "MONTR\u00c9AL", "province": "QC", "country": "CA", "postalCode": "H3Z2Y5", "twitter": "None", "instagram": "None", "facebook": "None", "youtube": "None", "website": "None", "summary": "None", "logo": "None", "latitude": 45.489289500000005, "longitude": -73.58458275}, "139190268RR0001": {"name": "INSTITUT D'ENSEIGNEMENT DAR AL IMAN", "designationCode": "C", "categoryCode": "20", "address": "4505 BOUL HENRI BOURASSA OUEST", "city": "VILLE ST-LAURENT", "province": "QC", "country": "CA", "postalCode": "H4L1A5", "twitter": "None", "instagram": "None", "facebook": "None", "youtube": "None", "website": "None", "summary": "None", "logo": "None", "latitude": 45.52408924372414, "longitude": -73.70343430852881}, "131731432RR0001": {"name": "INSTITUT D'ENSEIGNEMENT DE SEPT-ILES INC", "designationCode": "C", "categoryCode": "20", "address": "737, AVENUE GAMACHE", "city": "SEPT-ILES", "province": "QC", "country": "CA", "postalCode": "G4R2J8", "twitter": "None", "instagram": "None", "facebook": "None", "youtube": "None", "website": "None", "summary": "None", "logo": "None", "latitude": 50.21791126946184, "longitude": -66.38932822268963}, "890941149RR0001": {"name": "INSTITUT D'ENSEIGNEMENT OSTEOPATIQUE DU QUEBEC", "designationCode": "C", "categoryCode": "20", "address": "1123 RUE RACHEL EST", "city": "MONTREAL", "province": "QC", "country": "CA", "postalCode": "H2J2J6", "twitter": "None", "instagram": "None", "facebook": "None", "youtube": "None", "website": "None", "summary": "None", "logo": "None", "latitude": 45.526029673062425, "longitude": -73.5738166443532}, "850133927RR0001": {"name": "INSTITUT D'ETUDES MEDITERRANEENNES DE MONTREAL/MONTREAL INSTITUTE FOR MEDITERRANEAN STUDIES", "designationCode": "C", "categoryCode": "25", "address": "7500 PLACE MARENGO", "city": "BROSSARD", "province": "QC", "country": "CA", "postalCode": "J4Y1A7", "twitter": "None", "instagram": "None", "facebook": "None", "youtube": "None", "website": "None", "summary": "None", "logo": "None", "latitude": 45.45596284041201, "longitude": -73.46323047059829}, "107508343RR0001": {"name": "INSTITUT D'HISTOIRE DE L'AMERIQUE FRANCAISE 1970", "designationCode": "C", "categoryCode": "21", "address": "UNIVERSIT\u00c9 DE MONTR\u00c9AL        C.P. 6128 SUCC CENTRE-VILLE", "city": "MONTR\u00c9AL", "province": "QC", "country": "CA", "postalCode": "H3C3J7", "twitter": "None", "instagram": "None", "facebook": "None", "youtube": "None", "website": "None", "summary": "None", "logo": "None", "latitude": 45.49833600000005, "longitude": -73.55148649999994}, "121947170RR0001": {"name": "INSTITUT DE CARDIOLOGIE DE MONTR\u00c9AL-MONTREAL HEART INSTITUTE", "designationCode": "C", "categoryCode": "10", "address": "5000 EST, RUE BELANGER", "city": "MONTREAL", "province": "QC", "country": "CA", "postalCode": "H1T1C8", "twitter": "None", "instagram": "None", "facebook": "None", "youtube": "None", "website": "None", "summary": "None", "logo": "None", "latitude": 45.574538669427064, "longitude": -73.57891870673463}, "107508061RR0001": {"name": "INSTITUT DE FORMATION HUMAINE INTEGRALE DE MONTREAL", "designationCode": "C", "categoryCode": "20", "address": "55, BOULEVARD GOUIN OUEST", "city": "MONTREAL", "province": "QC", "country": "CA", "postalCode": "H3L1H9", "twitter": "None", "instagram": "None", "facebook": "None", "youtube": "None", "website": "None", "summary": "None", "logo": "None", "latitude": 45.55054047573419, "longitude": -73.67556796728007}, "869819375RR0001": {"name": "INSTITUT DE FORMATION THEOLOGIQUE DE MONTREAL", "designationCode": "C", "categoryCode": "20", "address": "2065 RUE SHERBROOKE OUEST", "city": "MONTREAL", "province": "QC", "country": "CA", "postalCode": "H3H1G6", "twitter": "None", "instagram": "None", "facebook": "None", "youtube": "None", "website": "None", "summary": "None", "logo": "None", "latitude": 45.49298040221559, "longitude": -73.5854491729755}, "825623382RR0001": {"name": "INSTITUT DE LA LIBERT\u00c9 DE CONSCIENCE AU CANADA/FREEDOM OF CONSCIENCE INSTITUTE IN CANADA", "designationCode": "C", "categoryCode": "59", "address": "8063 AV HENRI-JULIEN", "city": "MONTREAL", "province": "QC", "country": "CA", "postalCode": "H2R2B9", "twitter": "None", "instagram": "None", "facebook": "None", "youtube": "None", "website": "None", "summary": "None", "logo": "None", "latitude": 45.54123392091284, "longitude": -73.62962311711588}, "871358792RR0001": {"name": "INSTITUT DE RECHERCHE EN ECONOMIE CONTEMPORAINE", "designationCode": "C", "categoryCode": "21", "address": "10555, AV. DU BOIS-DE-BOULOGNEC.P. 2006", "city": "MONTREAL", "province": "QC", "country": "CA", "postalCode": "H4N1L4", "twitter": "None", "instagram": "None", "facebook": "None", "youtube": "None", "website": "None", "summary": "None", "logo": "None", "latitude": 45.53739597703225, "longitude": -73.67658325474666}, "892104720RR0001": {"name": "INSTITUT DE RECHERCHE ET D'EDUCATION SUR LES RELATIONS RACIALES/INSTITUTE FOR RESEARCH EDUCATION ON RACE RELACIONS", "designationCode": "C", "categoryCode": "21", "address": "460 STE-CATHERINE WEST        SUITE 610", "city": "MONTREAL", "province": "QC", "country": "CA", "postalCode": "H3B1A7", "twitter": "None", "instagram": "None", "facebook": "None", "youtube": "None", "website": "None", "summary": "None", "logo": "None", "latitude": 45.50506326865377, "longitude": -73.56795990671725}, "862494697RR0001": {"name": "INSTITUT DE RECHERCHE FONDAMENTALE ET CLINIQUE EN PSYCHO-ORIENTATION", "designationCode": "C", "categoryCode": "11", "address": "1405 RUE F\u00c9LIX-ANTOINE-SAVARD", "city": "QU\u00c9BEC", "province": "QC", "country": "CA", "postalCode": "G2G1Z2", "twitter": "None", "instagram": "None", "facebook": "None", "youtube": "None", "website": "None", "summary": "None", "logo": "None", "latitude": 46.77385085876253, "longitude": -71.37017067684198}, "899786347RR0001": {"name": "INSTITUT DE RECHERCHE POUR LE TRAITEMENT ET LA PREVENTION DES INFECTIONS", "designationCode": "C", "categoryCode": "21", "address": "D3-850 2875 BOUL LAURIER", "city": "QU\u00c9BEC", "province": "QC", "country": "CA", "postalCode": "G1V2M2", "twitter": "None", "instagram": "None", "facebook": "None", "youtube": "None", "website": "None", "summary": "None", "logo": "None", "latitude": 46.76634906601679, "longitude": -71.28980764608488}, "102497542RR0001": {"name": "INSTITUT DE RECHERCHE ROBERT SAUVE EN SANTE ET EN SECURITE DU TRAVAIL", "designationCode": "C", "categoryCode": "21", "address": "505 BOUL DE MAISONNEUVE OUEST 15E ETAGE", "city": "MONTREAL", "province": "QC", "country": "CA", "postalCode": "H3A3C2", "twitter": "None", "instagram": "None", "facebook": "None", "youtube": "None", "website": "None", "summary": "None", "logo": "None", "latitude": 45.50548035749312, "longitude": -73.57047988582697}, "107508194RR0001": {"name": "INSTITUT DE RECHERCHES CLINIQUES DE MONTREAL", "designationCode": "C", "categoryCode": "21", "address": "110 AVE DES PINS O", "city": "MONTREAL", "province": "QC", "country": "CA", "postalCode": "H2W1R7", "twitter": "None", "instagram": "None", "facebook": "None", "youtube": "None", "website": "None", "summary": "None", "logo": "None", "latitude": 45.51385075714124, "longitude": -73.57608656520871}, "851785030RR0001": {"name": "INSTITUT DE RECHERCHES ET D'ETUDES SUR LE ECONOMIES AFRICAINES/INSTITUTE FOR RESEARCH AND STUDIES ON AFRICAN ECONOMIES", "designationCode": "C", "categoryCode": "21", "address": "5 5E AVENUE", "city": "LAVAL", "province": "QC", "country": "CA", "postalCode": "H7H2H9", "twitter": "None", "instagram": "None", "facebook": "None", "youtube": "None", "website": "None", "summary": "None", "logo": "None", "latitude": 45.6432546319753, "longitude": -73.77118689635854}, "138893201RR0001": {"name": "INSTITUT DES COMMUNICATIONS GRAPHIQUES DU QUEBEC", "designationCode": "C", "categoryCode": "20", "address": "999 AV EMILE-JOURNAULT", "city": "MONTREAL", "province": "QC", "country": "CA", "postalCode": "H2M2E2", "twitter": "None", "instagram": "None", "facebook": "None", "youtube": "None", "website": "None", "summary": "None", "logo": "None", "latitude": 45.55138968249747, "longitude": -73.63980059939958}, "102497641RR0002": {"name": "INSTITUT DES FILLES REPARATRICES DU DIVIN-COEUR", "designationCode": "C", "categoryCode": "09", "address": "12435 AV. DE LA MISERICORDE", "city": "MONTREAL", "province": "QC", "country": "CA", "postalCode": "H4J2G3", "twitter": "None", "instagram": "None", "facebook": "None", "youtube": "None", "website": "None", "summary": "None", "logo": "None", "latitude": 45.53466392724452, "longitude": -73.71954688710238}, "118969252RR0001": {"name": "INSTITUT DES FRANCISCAINES MISSIONAIRES DE MARIE D'ONTARIO", "designationCode": "C", "categoryCode": "46", "address": "2516 AVENUE KALADAR", "city": "OTTAWA", "province": "ON", "country": "CA", "postalCode": "K1V8C5", "twitter": "None", "instagram": "None", "facebook": "None", "youtube": "None", "website": "None", "summary": "None", "logo": "None", "latitude": 45.37428744240867, "longitude": -75.67104129476591}, "102497682RR0001": {"name": "INSTITUT DES RELATIONS HUMAINES ARGYLE (1985) INC. / ARGYLE INSTITUTE OF HUMAN RELATIONS (1985) INC.", "designationCode": "C", "categoryCode": "21", "address": "328-4150 STE-CATHERINE O", "city": "WESTMOUNT", "province": "QC", "country": "CA", "postalCode": "H3Z2Y5", "twitter": "None", "instagram": "None", "facebook": "None", "youtube": "None", "website": "None", "summary": "None", "logo": "None", "latitude": 45.48667562946514, "longitude": -73.58731726170022}, "118969286RR0001": {"name": "INSTITUT DES SOEURS DE SAINTE-MARTHE DE SAINT-HYACINTHE", "designationCode": "C", "categoryCode": "09", "address": "16470 AVE BOURDAGES SUD", "city": "SAINT-HYACINTHE", "province": "QC", "country": "CA", "postalCode": "J2T4J8", "twitter": "None", "instagram": "None", "facebook": "None", "youtube": "None", "website": "None", "summary": "None", "logo": "None", "latitude": 45.616190349211905, "longitude": -72.9427241230025}, "107508384RR0001": {"name": "INSTITUT DU CANCER DE MONTREAL-MONTREAL CANCER INSTITUTE", "designationCode": "C", "categoryCode": "11", "address": "900 RUE SAINT-DENIS", "city": "MONTREAL", "province": "QC", "country": "CA", "postalCode": "H2X0A9", "twitter": "None", "instagram": "None", "facebook": "None", "youtube": "None", "website": "None", "summary": "None", "logo": "None", "latitude": 45.51174290285078, "longitude": -73.55616435082803}, "855412607RR0001": {"name": "INSTITUT DU NOUVEAU MONDE", "designationCode": "C", "categoryCode": "21", "address": "5605, RUE DE GASPE            BUREAU 404", "city": "MONTREAL", "province": "QC", "country": "CA", "postalCode": "H2T2A4", "twitter": "None", "instagram": "None", "facebook": "None", "youtube": "None", "website": "None", "summary": "None", "logo": "None", "latitude": 45.528012312539516, "longitude": -73.5981909323967}, "896210978RR0001": {"name": "INSTITUT FIDAL INC.", "designationCode": "C", "categoryCode": "20", "address": "10723 SAINT-DENIS             C.P. 32089", "city": "MONTR\u00c9AL", "province": "QC", "country": "CA", "postalCode": "H3L2J6", "twitter": "None", "instagram": "None", "facebook": "None", "youtube": "None", "website": "None", "summary": "None", "logo": "None", "latitude": 45.553973939234695, "longitude": -73.66982462432924}, "890816176RR0001": {"name": "INSTITUT ISLAMIQUE AL-RASHID/AL-RASHID ISLAMIC INSTITUTE", "designationCode": "C", "categoryCode": "60", "address": "18345 COUNTY RD 2             RR#1", "city": "CORNWALL", "province": "ON", "country": "CA", "postalCode": "K6H5R5", "twitter": "None", "instagram": "None", "facebook": "None", "youtube": "None", "website": "None", "summary": "None", "logo": "None", "latitude": 45.033705051579346, "longitude": -74.63538256304143}, "107508780RR0001": {"name": "INSTITUT JEANNE MANCE", "designationCode": "C", "categoryCode": "01", "address": "10205 AV DU BOIS-DE-BOULOGNE  APP 301", "city": "MONTREAL", "province": "QC", "country": "CA", "postalCode": "H4N2V6", "twitter": "None", "instagram": "None", "facebook": "None", "youtube": "None", "website": "None", "summary": "None", "logo": "None", "latitude": 45.53703386320594, "longitude": -73.67098292726081}, "107507964RR0001": {"name": "INSTITUT MARIE-GUYART", "designationCode": "C", "categoryCode": "20", "address": "400 RUE LAURIER", "city": "LAVAL", "province": "QC", "country": "CA", "postalCode": "H7N2P6", "twitter": "None", "instagram": "None", "facebook": "None", "youtube": "None", "website": "None", "summary": "None", "logo": "None", "latitude": 45.54729889344438, "longitude": -73.71126409466773}, "118969591RR0001": {"name": "INSTITUT NATIONAL D'ECOTOXICOLOGIE DU SAINT-LAURENT/ST. LAWRENCE NATIONAL INSTITUTE OF ECOTOXICOLOGY", "designationCode": "C", "categoryCode": "21", "address": "750 RUE O'CONNOR", "city": "BROMONT", "province": "QC", "country": "CA", "postalCode": "J2L0E1", "twitter": "None", "instagram": "None", "facebook": "None", "youtube": "None", "website": "None", "summary": "None", "logo": "None", "latitude": 45.275288859801755, "longitude": -72.64208656659369}, "131945495RR0001": {"name": "INSTITUT NATIONAL DE L'IMAGE ET DU SON (INIS)", "designationCode": "C", "categoryCode": "20", "address": "301 MAISONNEUVE EST", "city": "MONTREAL", "province": "QC", "country": "CA", "postalCode": "H2X1K1", "twitter": "None", "instagram": "None", "facebook": "None", "youtube": "None", "website": "None", "summary": "None", "logo": "None", "latitude": 45.51358146878063, "longitude": -73.56269752290949}, "108161266RR0001": {"name": "INSTITUT NATIONAL DE LA RECHERCHE SCIENTIFIQUE", "designationCode": "C", "categoryCode": "21", "address": "490 RUE DE LA COURONNE", "city": "QUEBEC", "province": "QC", "country": "CA", "postalCode": "G1K9A9", "twitter": "None", "instagram": "None", "facebook": "None", "youtube": "None", "website": "None", "summary": "None", "logo": "None", "latitude": 46.812928580327934, "longitude": -71.22372043317516}, "895032613RR0001": {"name": "INSTITUT NGEEN", "designationCode": "C", "categoryCode": "21", "address": "13895 BLVD GOUIN OUEST", "city": "PIERREFONDS", "province": "QC", "country": "CA", "postalCode": "H8Z1X8", "twitter": "None", "instagram": "None", "facebook": "None", "youtube": "None", "website": "None", "summary": "None", "logo": "None", "latitude": 45.497241972819985, "longitude": -73.84961280117122}, "118969617RR0001": {"name": "INSTITUT NOTRE-DAME DU BON CONSEIL DE MONTREAL", "designationCode": "C", "categoryCode": "46", "address": "665 BOUL GOUIN E", "city": "MONTREAL", "province": "QC", "country": "CA", "postalCode": "H2C1A5", "twitter": "None", "instagram": "None", "facebook": "None", "youtube": "None", "website": "None", "summary": "None", "logo": "None", "latitude": 45.5573386808527, "longitude": -73.66952614550704}, "107397838RR0001": {"name": "INSTITUT PACIFIQUE/PACIFIC INSTITUTE", "designationCode": "C", "categoryCode": "01", "address": "2901 BOUL GOUIN E", "city": "MONTR\u00c9AL", "province": "QC", "country": "CA", "postalCode": "H2B1Y3", "twitter": "None", "instagram": "None", "facebook": "None", "youtube": "None", "website": "None", "summary": "None", "logo": "None", "latitude": 45.58234246378897, "longitude": -73.6528603069996}}