{"739774727RR0001": {"name": "\u00c9quith\u00e9rapie LibrePassion", "designationCode": "C", "categoryCode": "56", "address": "401 CH NEUF", "city": "CAP-SANTE", "province": "QC", "country": "CA", "postalCode": "G0A1L0", "twitter": "None", "instagram": "None", "facebook": "None", "youtube": "None", "website": "None", "summary": "None", "logo": "None", "latitude": 46.71845248651947, "longitude": -71.84885483764316}, "867392284RR0001": {"name": "\u00c9tincelles de bonheur du Haut Saint-Fran\u00e7ois", "designationCode": "C", "categoryCode": "09", "address": "56 RUE LAURIER N.             PR EAST ANGUS", "city": "EAST ANGUS", "province": "QC", "country": "CA", "postalCode": "J0B1R0", "twitter": "None", "instagram": "None", "facebook": "None", "youtube": "None", "website": "None", "summary": "None", "logo": "None", "latitude": 45.484996500000015, "longitude": -71.660214}, "852808955RR0001": {"name": "\u00c9toile de Martin", "designationCode": "A", "categoryCode": "03", "address": "4136 RUE BERRI", "city": "MONTREAL", "province": "QC", "country": "CA", "postalCode": "H2L4H3", "twitter": "None", "instagram": "None", "facebook": "None", "youtube": "None", "website": "None", "summary": "None", "logo": "None", "latitude": 45.52242080070988, "longitude": -73.57646403387376}, "818696072RR0001": {"name": "\u00c9toiles d'la Rouge Inc.", "designationCode": "C", "categoryCode": "01", "address": "P.O. BOX 386", "city": "ST-JEAN-BAPTISTE", "province": "MB", "country": "CA", "postalCode": "R0G2B0", "twitter": "None", "instagram": "None", "facebook": "None", "youtube": "None", "website": "None", "summary": "None", "logo": "None", "latitude": 49.534549955252906, "longitude": -98.55938926459514}, "828995449RR0001": {"name": "\u00c9tudiants dans la Course / Students in the Running", "designationCode": "C", "categoryCode": "09", "address": "3108 - 1751 RUE RICHARDSON", "city": "MONTREAL", "province": "QC", "country": "CA", "postalCode": "H3K1G6", "twitter": "None", "instagram": "None", "facebook": "None", "youtube": "None", "website": "None", "summary": "None", "logo": "None", "latitude": 45.48405242659698, "longitude": -73.56187541646942}, "816527709RR0001": {"name": "\u00c9tudiNet", "designationCode": "C", "categoryCode": "21", "address": "501 CHEMIN DU LAC GOULET", "city": "ST-MATHIEU-DU-PARC", "province": "QC", "country": "CA", "postalCode": "G0X1N0", "twitter": "None", "instagram": "None", "facebook": "None", "youtube": "None", "website": "None", "summary": "None", "logo": "None", "latitude": 46.60998449956732, "longitude": -72.95457052553522}, "847416906RR0001": {"name": "\u00c9CL\u00c9SIA MUSIQUE INC.", "designationCode": "C", "categoryCode": "47", "address": "2250, BOUL. JEAN-DE-BR\u00c9BEUF   C.P. 304", "city": "DRUMMONDVILLE", "province": "QC", "country": "CA", "postalCode": "J2B6W3", "twitter": "None", "instagram": "None", "facebook": "None", "youtube": "None", "website": "None", "summary": "None", "logo": "None", "latitude": 45.85086441912382, "longitude": -72.48786861094078}, "101560571RR0001": {"name": "\u00c9COLE ARMEN-QU\u00c9BEC DE L'UNION G\u00c9N\u00c9RALE ARM\u00c9NIENNE DE BIENFAISANCE", "designationCode": "B", "categoryCode": "20", "address": "755 MANOGIAN", "city": "ST LAURENT", "province": "QC", "country": "CA", "postalCode": "H4N1Z5", "twitter": "None", "instagram": "None", "facebook": "None", "youtube": "None", "website": "None", "summary": "None", "logo": "None", "latitude": 45.518183696087476, "longitude": -73.66719819929013}, "892971896RR0001": {"name": "\u00c9COLE DE MUSIQUE ALAIN-CARON", "designationCode": "C", "categoryCode": "22", "address": "75, RUE SAINTE-ANNE", "city": "RIVI\u00c8RE-DU-LOUP", "province": "QC", "country": "CA", "postalCode": "G5R5C2", "twitter": "None", "instagram": "None", "facebook": "None", "youtube": "None", "website": "None", "summary": "None", "logo": "None", "latitude": 47.828310937532585, "longitude": -69.5401055385483}, "894804293RR0001": {"name": "\u00c9COLE DE MUSIQUE DESTROISMAISONS", "designationCode": "C", "categoryCode": "22", "address": "328-100 4E AVENUE PAINCHAUD", "city": "LA POCATIERE", "province": "QC", "country": "CA", "postalCode": "G0R1Z0", "twitter": "None", "instagram": "None", "facebook": "None", "youtube": "None", "website": "None", "summary": "None", "logo": "None", "latitude": 47.36699289757065, "longitude": -70.03980789130864}, "846429678RR0001": {"name": "\u00c9COLE DE MUSIQUE J\u00c9SUS-MARIE", "designationCode": "C", "categoryCode": "22", "address": "294, RUE SAINT-JOSEPH", "city": "LEVIS", "province": "QC", "country": "CA", "postalCode": "G6V1G2", "twitter": "None", "instagram": "None", "facebook": "None", "youtube": "None", "website": "None", "summary": "None", "logo": "None", "latitude": 46.82563876458425, "longitude": -71.16543293669835}, "128330149RR0001": {"name": "\u00c9COLE DE MUSIQUE VINCENT-D'INDY", "designationCode": "C", "categoryCode": "20", "address": "628 CH. DE LA COTE            STE-CATHERINE", "city": "OUTREMONT", "province": "QC", "country": "CA", "postalCode": "H2V2C5", "twitter": "None", "instagram": "None", "facebook": "None", "youtube": "None", "website": "None", "summary": "None", "logo": "None", "latitude": 45.51262297830261, "longitude": -73.61377079442015}, "120507512RR0001": {"name": "\u00c9COLE DES ARTS DE LA SC\u00c8NE NOS VOIX, NOS VISAGES", "designationCode": "C", "categoryCode": "22", "address": "2516 RUE SAINTE-HELENE", "city": "LONGUEUIL", "province": "QC", "country": "CA", "postalCode": "J4K3V2", "twitter": "None", "instagram": "None", "facebook": "None", "youtube": "None", "website": "None", "summary": "None", "logo": "None", "latitude": 45.51104323951188, "longitude": -73.4779428887125}, "875099210RR0001": {"name": "\u00c9COLE FOI ET MISSION", "designationCode": "C", "categoryCode": "20", "address": "4237 AVENUE HENRI-JULIEN", "city": "MONTREAL", "province": "QC", "country": "CA", "postalCode": "H2W2K7", "twitter": "None", "instagram": "None", "facebook": "None", "youtube": "None", "website": "None", "summary": "None", "logo": "None", "latitude": 45.52117818096827, "longitude": -73.57997853551853}, "107458820RR0001": {"name": "\u00c9COLE GUYOT PRE-KINDERGARTEN INC.", "designationCode": "C", "categoryCode": "20", "address": "400 WILLOWLAKE CRESCENT", "city": "WINNIPEG", "province": "MB", "country": "CA", "postalCode": "R2J3L2", "twitter": "None", "instagram": "None", "facebook": "None", "youtube": "None", "website": "None", "summary": "None", "logo": "None", "latitude": 49.84393465116255, "longitude": -97.084981718911}, "852998475RR0001": {"name": "\u00c9COLE INTERNATIONALE ACADECAP INTERNATIONAL SCHOOL", "designationCode": "C", "categoryCode": "20", "address": "1010 PROMENADA MORRISON       SUITE 200", "city": "OTTAWA", "province": "ON", "country": "CA", "postalCode": "K2H8K7", "twitter": "None", "instagram": "None", "facebook": "None", "youtube": "None", "website": "None", "summary": "None", "logo": "None", "latitude": 45.345960465519724, "longitude": -75.7905322060708}, "892637281RR0001": {"name": "\u00c9COLE NATIONALE D'APPRENTISSAGE PAR LA MARIONNETTE", "designationCode": "C", "categoryCode": "22", "address": "870, RUE BOILY", "city": "CHICOUTIMI", "province": "QC", "country": "CA", "postalCode": "G7J2Y4", "twitter": "None", "instagram": "None", "facebook": "None", "youtube": "None", "website": "None", "summary": "None", "logo": "None", "latitude": 48.4153183533382, "longitude": -71.07688299838388}, "886273994RR0001": {"name": "\u00c9GLISE \u00c9VANG\u00c9LIQUE \"ELIM\"", "designationCode": "C", "categoryCode": "39", "address": "10881, PIE IX", "city": "MONTR\u00c9AL-NORD", "province": "QC", "country": "CA", "postalCode": "H1H4B2", "twitter": "None", "instagram": "None", "facebook": "None", "youtube": "None", "website": "None", "summary": "None", "logo": "None", "latitude": 45.591129879277446, "longitude": -73.63744868093961}, "118895804RR0001": {"name": "\u00c9GLISE \u00c9VANG\u00c9LIQUE BAPTISTE BETHANIE", "designationCode": "C", "categoryCode": "31", "address": "2236 RUE DORION", "city": "MONTREAL", "province": "QC", "country": "CA", "postalCode": "H2K4B2", "twitter": "None", "instagram": "None", "facebook": "None", "youtube": "None", "website": "None", "summary": "None", "logo": "None", "latitude": 45.52836177517466, "longitude": -73.56135392451951}, "811816404RR0001": {"name": "\u00c9GLISE \u00c9VANG\u00c9LIQUE BAPTISTE DE CHAMBLY", "designationCode": "C", "categoryCode": "39", "address": "1310 RUE BARR\u00c9", "city": "CHAMBLY", "province": "QC", "country": "CA", "postalCode": "J3L2V5", "twitter": "None", "instagram": "None", "facebook": "None", "youtube": "None", "website": "None", "summary": "None", "logo": "None", "latitude": 45.44363143493553, "longitude": -73.29818502997861}, "883232936RR0001": {"name": "\u00c9GLISE \u00c9VANG\u00c9LIQUE BAPTISTE DE CHATHAM", "designationCode": "C", "categoryCode": "39", "address": "494A, BOULEVARD BEDARD", "city": "LACHUTE", "province": "QC", "country": "CA", "postalCode": "J8H1J9", "twitter": "None", "instagram": "None", "facebook": "None", "youtube": "None", "website": "None", "summary": "None", "logo": "None", "latitude": 45.65251625524069, "longitude": -74.33385266648443}, "891334187RR0001": {"name": "\u00c9GLISE \u00c9VANG\u00c9LIQUE BAPTISTE DE L'EST DE MONTR\u00c9AL", "designationCode": "C", "categoryCode": "39", "address": "1955 31I\u00c8ME AVENUE", "city": "MONTR\u00c9AL", "province": "QC", "country": "CA", "postalCode": "H1A3M9", "twitter": "None", "instagram": "None", "facebook": "None", "youtube": "None", "website": "None", "summary": "None", "logo": "None", "latitude": 45.657404307259405, "longitude": -73.50614715583707}, "118895846RR0001": {"name": "\u00c9GLISE \u00c9VANG\u00c9LIQUE BAPTISTE DE LA HAUTE-YAMASKA", "designationCode": "C", "categoryCode": "31", "address": "175 DE LA MAIRIE", "city": "GRANBY", "province": "QC", "country": "CA", "postalCode": "J2H2N4", "twitter": "None", "instagram": "None", "facebook": "None", "youtube": "None", "website": "None", "summary": "None", "logo": "None", "latitude": 45.43088552394869, "longitude": -72.73530972300767}, "889334876RR0001": {"name": "\u00c9GLISE \u00c9VANG\u00c9LIQUE BAPTISTE DE LA VALL\u00c9E DE LA ROUGE", "designationCode": "C", "categoryCode": "39", "address": "1855 RUE L'ANNONCIATION S RR 3", "city": "RIVIERE-ROUGE", "province": "QC", "country": "CA", "postalCode": "J0T1T0", "twitter": "None", "instagram": "None", "facebook": "None", "youtube": "None", "website": "None", "summary": "None", "logo": "None", "latitude": 46.397170980841416, "longitude": -74.86411476175753}, "131984189RR0001": {"name": "\u00c9GLISE \u00c9VANG\u00c9LIQUE BAPTISTE DE MARIEVILLE", "designationCode": "C", "categoryCode": "31", "address": "762 RUE CLAUDE-DE-RAMEZAY,    CP 526", "city": "MARIEVILLE", "province": "QC", "country": "CA", "postalCode": "J3M1G1", "twitter": "None", "instagram": "None", "facebook": "None", "youtube": "None", "website": "None", "summary": "None", "logo": "None", "latitude": 45.429993734375984, "longitude": -73.15850088983768}, "107287419RR0001": {"name": "\u00c9GLISE \u00c9VANG\u00c9LIQUE BAPTISTE DE THURSO", "designationCode": "C", "categoryCode": "39", "address": "139 RUE GAGNON", "city": "THURSO", "province": "QC", "country": "CA", "postalCode": "J0X3B0", "twitter": "None", "instagram": "None", "facebook": "None", "youtube": "None", "website": "None", "summary": "None", "logo": "None", "latitude": 45.59692615237463, "longitude": -75.24945349746118}, "130090145RR0001": {"name": "\u00c9GLISE \u00c9VANG\u00c9LIQUE BAPTISTE DU HAUT-RICHELIEU", "designationCode": "C", "categoryCode": "31", "address": "60 RUE JACQUES-CARTIER SUD", "city": "ST-JEAN-SUR-RICHELIEU", "province": "QC", "country": "CA", "postalCode": "J3B6S4", "twitter": "None", "instagram": "None", "facebook": "None", "youtube": "None", "website": "None", "summary": "None", "logo": "None", "latitude": 45.29120377935826, "longitude": -73.25646906085129}, "882874027RR0001": {"name": "\u00c9GLISE \u00c9VANG\u00c9LIQUE BAPTISTE LUMI\u00c8RE", "designationCode": "C", "categoryCode": "39", "address": "2579, BALEARES", "city": "LAVAL", "province": "QC", "country": "CA", "postalCode": "H7K3H8", "twitter": "None", "instagram": "None", "facebook": "None", "youtube": "None", "website": "None", "summary": "None", "logo": "None", "latitude": 45.61176679545841, "longitude": -73.74926909712057}, "892579277RR0001": {"name": "\u00c9GLISE \u00c9VANG\u00c9LIQUE BAPTISTE MISSIONNAIRE DE LA POINTE", "designationCode": "C", "categoryCode": "31", "address": "11975, RUE VICTORIA", "city": "MONTR\u00c9AL", "province": "QC", "country": "CA", "postalCode": "H1B2R2", "twitter": "None", "instagram": "None", "facebook": "None", "youtube": "None", "website": "None", "summary": "None", "logo": "None", "latitude": 45.639717422153595, "longitude": -73.49298577924269}, "118896059RR0001": {"name": "\u00c9GLISE \u00c9VANG\u00c9LIQUE DE CHICOUTIMI", "designationCode": "C", "categoryCode": "39", "address": "265 RUE MALRAUX", "city": "SAGUENAY", "province": "QC", "country": "CA", "postalCode": "G7H6T4", "twitter": "None", "instagram": "None", "facebook": "None", "youtube": "None", "website": "None", "summary": "None", "logo": "None", "latitude": 48.39773491009278, "longitude": -71.0814859903338}, "875905903RR0001": {"name": "\u00c9GLISE \u00c9VANG\u00c9LIQUE DE DEUX-MONTAGNES", "designationCode": "C", "categoryCode": "39", "address": "370 5IEME AVENUE", "city": "DEUX-MONTAGNES", "province": "QC", "country": "CA", "postalCode": "J7R3E6", "twitter": "None", "instagram": "None", "facebook": "None", "youtube": "None", "website": "None", "summary": "None", "logo": "None", "latitude": 45.54841051705246, "longitude": -73.89769186513917}, "119012847RR0001": {"name": "\u00c9GLISE \u00c9VANG\u00c9LIQUE DE DISRAELI", "designationCode": "C", "categoryCode": "39", "address": "7944, RANG 5", "city": "DISRAELI", "province": "QC", "country": "CA", "postalCode": "G0N1E0", "twitter": "None", "instagram": "None", "facebook": "None", "youtube": "None", "website": "None", "summary": "None", "logo": "None", "latitude": 45.880168550951836, "longitude": -71.38361615184625}, "887671212RR0001": {"name": "\u00c9GLISE \u00c9VANG\u00c9LIQUE DE GETHS\u00c9MAN\u00c9", "designationCode": "C", "categoryCode": "39", "address": "755, BOULEVARD ST-SYLVAIN", "city": "LAVAL", "province": "QC", "country": "CA", "postalCode": "H7E2X4", "twitter": "None", "instagram": "None", "facebook": "None", "youtube": "None", "website": "None", "summary": "None", "logo": "None", "latitude": 45.59927895504641, "longitude": -73.65955862072256}, "862688116RR0001": {"name": "\u00c9GLISE \u00c9VANG\u00c9LIQUE DE J\u00c9SUS-CHRIST DE GATINEAU", "designationCode": "C", "categoryCode": "39", "address": "8560 RUE PASCAL-GAGNON", "city": "SAINT-LEONARD", "province": "QC", "country": "CA", "postalCode": "H1P1Y8", "twitter": "None", "instagram": "None", "facebook": "None", "youtube": "None", "website": "None", "summary": "None", "logo": "None", "latitude": 45.60145795013585, "longitude": -73.58674679219126}, "118846823RR0001": {"name": "\u00c9GLISE \u00c9VANG\u00c9LIQUE DE LABELLE", "designationCode": "C", "categoryCode": "36", "address": "8185 BOUL CURE-LABELLE", "city": "LABELLE", "province": "QC", "country": "CA", "postalCode": "J0T1H0", "twitter": "None", "instagram": "None", "facebook": "None", "youtube": "None", "website": "None", "summary": "None", "logo": "None", "latitude": 46.28099493698434, "longitude": -74.74353068388245}, "872754247RR0001": {"name": "\u00c9GLISE \u00c9VANG\u00c9LIQUE DE POINTE SAINT-CHARLES / POINTE SAINT-CHARLES EVANGELICAL CHURCH", "designationCode": "C", "categoryCode": "39", "address": "1073 SHEARER", "city": "MONTREAL", "province": "QC", "country": "CA", "postalCode": "H3K2J5", "twitter": "None", "instagram": "None", "facebook": "None", "youtube": "None", "website": "None", "summary": "None", "logo": "None", "latitude": 45.48203837552653, "longitude": -73.56085574104108}, "891342149RR0001": {"name": "\u00c9GLISE \u00c9VANG\u00c9LIQUE DES AP\u00d4TRES ET PROPH\u00c8TES", "designationCode": "C", "categoryCode": "39", "address": "5480 RUE D'IBERVILLE", "city": "MONTREAL", "province": "QC", "country": "CA", "postalCode": "H2G2B1", "twitter": "None", "instagram": "None", "facebook": "None", "youtube": "None", "website": "None", "summary": "None", "logo": "None", "latitude": 45.54350860753658, "longitude": -73.57933164461299}, "868206921RR0001": {"name": "\u00c9GLISE \u00c9VANG\u00c9LIQUE DU NAZAR\u00c9EN D'OTTAWA", "designationCode": "C", "categoryCode": "39", "address": "PO BOX 46112 RPO BEACON HILL", "city": "GLOUCESTER", "province": "ON", "country": "CA", "postalCode": "K1J9M7", "twitter": "None", "instagram": "None", "facebook": "None", "youtube": "None", "website": "None", "summary": "None", "logo": "None", "latitude": 45.44624994835266, "longitude": -75.61335004385704}, "865584148RR0001": {"name": "\u00c9GLISE \u00c9VANG\u00c9LIQUE DU PLEIN H\u00c9RITAGE", "designationCode": "C", "categoryCode": "39", "address": "3750 EST CREMAZIE SUITE 404", "city": "MONTREAL", "province": "QC", "country": "CA", "postalCode": "H2A1B6", "twitter": "None", "instagram": "None", "facebook": "None", "youtube": "None", "website": "None", "summary": "None", "logo": "None", "latitude": 45.56682391895093, "longitude": -73.60251904120268}, "118846898RR0001": {"name": "\u00c9GLISE \u00c9VANG\u00c9LIQUE DU T\u00c9MISCAMINGUE", "designationCode": "C", "categoryCode": "36", "address": "27 RUE NOTRE-DAME O           CP 238", "city": "LORRAINVILLE", "province": "QC", "country": "CA", "postalCode": "J0Z2R0", "twitter": "None", "instagram": "None", "facebook": "None", "youtube": "None", "website": "None", "summary": "None", "logo": "None", "latitude": 47.35392151933148, "longitude": -79.3559205}, "824522874RR0001": {"name": "\u00c9GLISE \u00c9VANG\u00c9LIQUE EL-B\u00c9THEL", "designationCode": "C", "categoryCode": "39", "address": "950 OGILVY, SUITE 7", "city": "MONTREAL", "province": "QC", "country": "CA", "postalCode": "H3M1M5", "twitter": "None", "instagram": "None", "facebook": "None", "youtube": "None", "website": "None", "summary": "None", "logo": "None", "latitude": 45.52542772217096, "longitude": -73.62738148929552}, "118895838RR0001": {"name": "\u00c9GLISE \u00c9VANG\u00c9LIQUE FONTAINE D'EAU VIVE", "designationCode": "C", "categoryCode": "49", "address": "3162 RUE LA FONTAINE", "city": "LAC-MEGANTIC", "province": "QC", "country": "CA", "postalCode": "G6B2K6", "twitter": "None", "instagram": "None", "facebook": "None", "youtube": "None", "website": "None", "summary": "None", "logo": "None", "latitude": 45.56673883236195, "longitude": -70.8778997262963}, "815106679RR0001": {"name": "\u00c9GLISE \u00c9VANG\u00c9LIQUE HISPANIQUE EBEN-EZER / IGLESIA EVANGELICA HISPANA EBEN-EZER", "designationCode": "C", "categoryCode": "39", "address": "7578, RUE SAINT-HUBERT", "city": "MONTREAL", "province": "QC", "country": "CA", "postalCode": "H2R2N6", "twitter": "None", "instagram": "None", "facebook": "None", "youtube": "None", "website": "None", "summary": "None", "logo": "None", "latitude": 45.54349693559936, "longitude": -73.61936498571751}, "134636356RR0001": {"name": "\u00c9GLISE \u00c9VANG\u00c9LIQUE LUTH\u00c9RIENNE FINLANDAISE SAINT-MICHEL / ST. MICHAEL'S FINNISH EVANGELICAL LUTHERAN CHURCH", "designationCode": "C", "categoryCode": "32", "address": "3-530 RUE ST.THOMAS", "city": "LONGUEUIL", "province": "QC", "country": "CA", "postalCode": "J4H3A6", "twitter": "None", "instagram": "None", "facebook": "None", "youtube": "None", "website": "None", "summary": "None", "logo": "None", "latitude": 45.535136490968966, "longitude": -73.50451053234455}, "863652152RR0001": {"name": "\u00c9GLISE \u00c9VANG\u00c9LIQUE MISSIONNAIRE DU BON BERGER", "designationCode": "C", "categoryCode": "39", "address": "8965, RUE DESCARTES", "city": "ST-LEONARD", "province": "QC", "country": "CA", "postalCode": "H1R3M3", "twitter": "None", "instagram": "None", "facebook": "None", "youtube": "None", "website": "None", "summary": "None", "logo": "None", "latitude": 45.58198145796059, "longitude": -73.61567926726879}, "825965031RR0001": {"name": "\u00c9GLISE \u00c9VANG\u00c9LIQUE PAROLE VIVANTE ST-LAURENT", "designationCode": "C", "categoryCode": "39", "address": "6 - 4 AV DU PARC", "city": "LAVAL", "province": "QC", "country": "CA", "postalCode": "H7N3W7", "twitter": "None", "instagram": "None", "facebook": "None", "youtube": "None", "website": "None", "summary": "None", "logo": "None", "latitude": 45.5495839844481, "longitude": -73.70242502097625}, "107287476RR0001": {"name": "\u00c9GLISE \u00c9VANG\u00c9LIQUE PHILADELPHIE", "designationCode": "C", "categoryCode": "39", "address": "8885, BOUL. LACORDAIRE", "city": "ST-LEONARD", "province": "QC", "country": "CA", "postalCode": "H1R2B4", "twitter": "None", "instagram": "None", "facebook": "None", "youtube": "None", "website": "None", "summary": "None", "logo": "None", "latitude": 45.59386088040264, "longitude": -73.60261713679405}, "888314358RR0001": {"name": "\u00c9GLISE \u00c9VANG\u00c9LIQUE RESTAURATION", "designationCode": "C", "categoryCode": "47", "address": "3747 RUE BERRI", "city": "MONTR\u00c9AL", "province": "QC", "country": "CA", "postalCode": "H2L4G7", "twitter": "None", "instagram": "None", "facebook": "None", "youtube": "None", "website": "None", "summary": "None", "logo": "None", "latitude": 45.51989522482535, "longitude": -73.57088015929952}, "892911876RR0001": {"name": "\u00c9GLISE \u00c9VANG\u00c9LIQUE SOURCE DE VIE", "designationCode": "C", "categoryCode": "36", "address": "20 RUE HANSON", "city": "GATINEAU", "province": "QC", "country": "CA", "postalCode": "J8Y3M3", "twitter": "None", "instagram": "None", "facebook": "None", "youtube": "None", "website": "None", "summary": "None", "logo": "None", "latitude": 45.425758253678794, "longitude": -75.72649585065513}, "876574344RR0001": {"name": "\u00c9GLISE \u00c9VANG\u00c9LIQUE TABERNACLE DE SAREPTA", "designationCode": "C", "categoryCode": "39", "address": "11117, BOULEVARD SAINT-VITAL", "city": "MONTR\u00c9AL-NORD", "province": "QC", "country": "CA", "postalCode": "H1H4T7", "twitter": "None", "instagram": "None", "facebook": "None", "youtube": "None", "website": "None", "summary": "None", "logo": "None", "latitude": 45.58990540772686, "longitude": -73.64603241268986}, "129335303RR0001": {"name": "\u00c9GLISE \u00c9VANGELIQUE BAPTISTE \u00c9BEN-\u00c9ZER", "designationCode": "C", "categoryCode": "39", "address": "2526, RUE CHARLAND", "city": "MONTREAL", "province": "QC", "country": "CA", "postalCode": "H1Z1C5", "twitter": "None", "instagram": "None", "facebook": "None", "youtube": "None", "website": "None", "summary": "None", "logo": "None", "latitude": 45.57225662946513, "longitude": -73.63831681998403}, "118896141RR0001": {"name": "\u00c9GLISE \u00c9VANGELIQUE DES PREMIERS CHR\u00c9TIENS INC.", "designationCode": "C", "categoryCode": "39", "address": "4760 RUE HOCHELAGA", "city": "MONTREAL", "province": "QC", "country": "CA", "postalCode": "H1V1E4", "twitter": "None", "instagram": "None", "facebook": "None", "youtube": "None", "website": "None", "summary": "None", "logo": "None", "latitude": 45.55962047209885, "longitude": -73.54360299414296}, "107287112RR0001": {"name": "\u00c9GLISE \u00c9VANGILIQUE BAPTISTE RENAISSANCE", "designationCode": "C", "categoryCode": "31", "address": "4855, 2E AVENUE OUEST", "city": "QUEBEC", "province": "QC", "country": "CA", "postalCode": "G1H6M9", "twitter": "None", "instagram": "None", "facebook": "None", "youtube": "None", "website": "None", "summary": "None", "logo": "None", "latitude": 46.84527804717532, "longitude": -71.25445065364403}, "783805484RR0001": {"name": "\u00c9GLISE ADVENTISTE DU SEPTI\u00c8ME JOUR LIBRE - AGAP\u00c8 QU\u00c9BEC QU\u00c9BEC AGAPE - FREE SEVENTH-DAY ADVENTIST CHURCH", "designationCode": "C", "categoryCode": "41", "address": "1001 - 297 AV SAINTE-BRIGITTE", "city": "SAINTE-BRIGITTE-DE-LAVAL", "province": "QC", "country": "CA", "postalCode": "G0A3K0", "twitter": "None", "instagram": "None", "facebook": "None", "youtube": "None", "website": "None", "summary": "None", "logo": "None", "latitude": 46.98928946710718, "longitude": -71.19728786069578}, "832690960RR0001": {"name": "\u00c9GLISE ALTITUDE/ALTITUDE CHURCH", "designationCode": "C", "categoryCode": "39", "address": "149 BOULEVARD NOTRE DAME", "city": "CLERMONT", "province": "QC", "country": "CA", "postalCode": "G4A1H3", "twitter": "None", "instagram": "None", "facebook": "None", "youtube": "None", "website": "None", "summary": "None", "logo": "None", "latitude": 47.691317292832686, "longitude": -70.22845800458764}, "822050142RR0001": {"name": "\u00c9GLISE BAPTISTE \u00c9VANG\u00c9LIQUE ALPHA ET OM\u00c9GA", "designationCode": "C", "categoryCode": "39", "address": "12210 AV ALFRED", "city": "MONTREAL NORD", "province": "QC", "country": "CA", "postalCode": "H1G5C9", "twitter": "None", "instagram": "None", "facebook": "None", "youtube": "None", "website": "None", "summary": "None", "logo": "None", "latitude": 45.61014350706915, "longitude": -73.63506299682601}, "860585983RR0001": {"name": "\u00c9GLISE BAPTISTE \u00c9VANG\u00c9LIQUE DE L'EST DE L'ONTARIO", "designationCode": "C", "categoryCode": "31", "address": "C.P. 463", "city": "CASSELMAN", "province": "ON", "country": "CA", "postalCode": "K0A1M0", "twitter": "None", "instagram": "None", "facebook": "None", "youtube": "None", "website": "None", "summary": "None", "logo": "None", "latitude": 32.647317635662176, "longitude": -117.08940375078024}, "130245053RR0001": {"name": "\u00c9GLISE BAPTISTE \u00c9VANG\u00c9LIQUE DE LA GR\u00c2CE", "designationCode": "C", "categoryCode": "31", "address": "5100 DE VERDUN C.P. 28546", "city": "VERDUN", "province": "QC", "country": "CA", "postalCode": "H4G3L7", "twitter": "None", "instagram": "None", "facebook": "None", "youtube": "None", "website": "None", "summary": "None", "logo": "None", "latitude": 45.45534269969417, "longitude": -73.57197334052759}, "858128374RR0001": {"name": "\u00c9GLISE BAPTISTE \u00c9VANG\u00c9LIQUE DE LA HAUTE-GATINEAU", "designationCode": "C", "categoryCode": "31", "address": "183 RUE PRINCIPALE SUD", "city": "MANIWAKI", "province": "QC", "country": "CA", "postalCode": "J9E2A3", "twitter": "None", "instagram": "None", "facebook": "None", "youtube": "None", "website": "None", "summary": "None", "logo": "None", "latitude": 46.37468408742572, "longitude": -75.98154428986116}, "107286247RR0001": {"name": "\u00c9GLISE BAPTISTE \u00c9VANG\u00c9LIQUE DE MANIWAKI / MANIWAKI BAPTIST CHURCH", "designationCode": "C", "categoryCode": "31", "address": "96 RUE NOTRE-DAME", "city": "MANIWAKI", "province": "QC", "country": "CA", "postalCode": "J9E2H5", "twitter": "None", "instagram": "None", "facebook": "None", "youtube": "None", "website": "None", "summary": "None", "logo": "None", "latitude": 46.37169953427781, "longitude": -75.9790212674417}, "861874931RR0001": {"name": "\u00c9GLISE BAPTISTE COMMUNAUTAIRE B\u00c9THANIE/BETHANY COMMUNITY BAPTIST CHURCH", "designationCode": "C", "categoryCode": "39", "address": "1134, 28E AVENUE", "city": "POINTE-AUX-TREMBLES", "province": "QC", "country": "CA", "postalCode": "H1A4M4", "twitter": "None", "instagram": "None", "facebook": "None", "youtube": "None", "website": "None", "summary": "None", "logo": "None", "latitude": 45.6541186816321, "longitude": -73.4986979207686}, "118895093RR0001": {"name": "\u00c9GLISE BAPTISTE DE LA GR\u00c2CE", "designationCode": "C", "categoryCode": "31", "address": "8890 BOUL STE ANNE", "city": "CHATEAU-RICHER", "province": "QC", "country": "CA", "postalCode": "G0A1N0", "twitter": "None", "instagram": "None", "facebook": "None", "youtube": "None", "website": "None", "summary": "None", "logo": "None", "latitude": 47.00163870439736, "longitude": -70.97077819037467}, "891334369RR0001": {"name": "\u00c9GLISE BAPTISTE DE LA GR\u00c2CE-MONTR\u00c9AL/GRACE BAPTIST CHURCH-MONTR\u00c9AL", "designationCode": "C", "categoryCode": "39", "address": "1455 ST GERMAIN,              VILLE ST LAURENT", "city": "QUEBEC", "province": "QC", "country": "CA", "postalCode": "H4L3S7", "twitter": "None", "instagram": "None", "facebook": "None", "youtube": "None", "website": "None", "summary": "None", "logo": "None", "latitude": 45.51925911685607, "longitude": -73.68736508491554}, "891770752RR0001": {"name": "\u00c9GLISE BAPTISTE DE RIMOUSKI", "designationCode": "C", "categoryCode": "31", "address": "CP 41 SUCC BUREAU-CHEF", "city": "RIMOUSKI", "province": "QC", "country": "CA", "postalCode": "G5L7B7", "twitter": "None", "instagram": "None", "facebook": "None", "youtube": "None", "website": "None", "summary": "None", "logo": "None", "latitude": 48.44933700000006, "longitude": -68.52474349999993}, "857617799RR0001": {"name": "\u00c9GLISE BAPTISTE DE SAINT-AUGUSTIN", "designationCode": "C", "categoryCode": "31", "address": "1026 ROUTE DE FOSSAMBAULT", "city": "ST-AUGUSTIN-DE DESMAURES", "province": "QC", "country": "CA", "postalCode": "G3A1W8", "twitter": "None", "instagram": "None", "facebook": "None", "youtube": "None", "website": "None", "summary": "None", "logo": "None", "latitude": 46.766483716082774, "longitude": -71.48839253952926}, "847343365RR0001": {"name": "\u00c9GLISE BAPTISTE DU BERGER DE SHERBROOKE", "designationCode": "C", "categoryCode": "39", "address": "510, RUE PROSPECT", "city": "SHERBROOKE", "province": "QC", "country": "CA", "postalCode": "J1H1A8", "twitter": "None", "instagram": "None", "facebook": "None", "youtube": "None", "website": "None", "summary": "None", "logo": "None", "latitude": 45.407552616423395, "longitude": -71.8975547482831}, "884245804RR0001": {"name": "\u00c9GLISE BAPTISTE R\u00c9FORM\u00c9E DE MONTR\u00c9AL", "designationCode": "C", "categoryCode": "31", "address": "45, DOUGLAS-ANDERSON", "city": "CH\u00c2TEAUGUAY", "province": "QC", "country": "CA", "postalCode": "J6J5J5", "twitter": "None", "instagram": "None", "facebook": "None", "youtube": "None", "website": "None", "summary": "None", "logo": "None", "latitude": 45.361181096024055, "longitude": -73.72033752911324}, "118791425RR0001": {"name": "\u00c9GLISE BAPTISTE R\u00c9FORM\u00c9E DE ROUYN-NORANDA INC.", "designationCode": "C", "categoryCode": "39", "address": "CP 2492 6 9E RUE", "city": "ROUYN-NORANDA", "province": "QC", "country": "CA", "postalCode": "J9X5B1", "twitter": "None", "instagram": "None", "facebook": "None", "youtube": "None", "website": "None", "summary": "None", "logo": "None", "latitude": 48.24499937968148, "longitude": -79.019543370766}, "107286544RR0001": {"name": "\u00c9GLISE BONNE NOUVELLE DE DIEPPE", "designationCode": "C", "categoryCode": "31", "address": "CP 334", "city": "MONCTON", "province": "NB", "country": "CA", "postalCode": "E1C8L4", "twitter": "None", "instagram": "None", "facebook": "None", "youtube": "None", "website": "None", "summary": "None", "logo": "None", "latitude": 46.08834900000005, "longitude": -64.77824149999994}, "129555108RR0002": {"name": "\u00c9GLISE CARREFOUR DU SURO\u00ceT", "designationCode": "C", "categoryCode": "39", "address": "C.P. 255", "city": "SALABERRY DE VALLEYFIELD", "province": "QC", "country": "CA", "postalCode": "J6S4V6", "twitter": "None", "instagram": "None", "facebook": "None", "youtube": "None", "website": "None", "summary": "None", "logo": "None", "latitude": 45.25893600000006, "longitude": -74.10716449999994}, "884168121RR0001": {"name": "\u00c9GLISE CHR\u00c9TIENNE \u00c9VANG\u00c9LIQUE J\u00c9SUS LA ROCA", "designationCode": "C", "categoryCode": "39", "address": "5906 RUE DES CHOUCAS", "city": "LAVAL", "province": "QC", "country": "CA", "postalCode": "H7L6A6", "twitter": "None", "instagram": "None", "facebook": "None", "youtube": "None", "website": "None", "summary": "None", "logo": "None", "latitude": 45.59367290544421, "longitude": -73.7679850499072}, "107286551RR0001": {"name": "\u00c9GLISE CHR\u00c9TIENNE BAPTISTE \u00c9VANG\u00c9LIQUE DU PLATEAU", "designationCode": "C", "categoryCode": "31", "address": "118A BOUL. DU PLATEAU", "city": "GATINEAU", "province": "QC", "country": "CA", "postalCode": "J9A3G2", "twitter": "None", "instagram": "None", "facebook": "None", "youtube": "None", "website": "None", "summary": "None", "logo": "None", "latitude": 45.43614480824433, "longitude": -75.77576498096047}, "107303026RR0001": {"name": "\u00c9GLISE CHR\u00c9TIENNE DE LA PENTEC\u00d4TE EMMANUEL/EMMANUEL PENTECOSTAL CHRISTIAN CHURCH", "designationCode": "C", "categoryCode": "39", "address": "6550 MAURICE DUPLESSIS", "city": "MONTREAL", "province": "QC", "country": "CA", "postalCode": "H1G6K9", "twitter": "None", "instagram": "None", "facebook": "None", "youtube": "None", "website": "None", "summary": "None", "logo": "None", "latitude": 45.617637197588046, "longitude": -73.61378030027718}, "118895432RR0001": {"name": "\u00c9GLISE CHR\u00c9TIENNE DES P\u00c8LERINS", "designationCode": "C", "categoryCode": "39", "address": "4635 1\u00c8RE AVENUE LOCAL #10", "city": "QU\u00c9BEC", "province": "QC", "country": "CA", "postalCode": "G1H2T1", "twitter": "None", "instagram": "None", "facebook": "None", "youtube": "None", "website": "None", "summary": "None", "logo": "None", "latitude": 46.84489485149185, "longitude": -71.25161813924596}, "863257010RR0001": {"name": "\u00c9GLISE CHR\u00c9TIENNE EL SHADDAI", "designationCode": "C", "categoryCode": "39", "address": "685 R\u00c9MILLARD", "city": "LAVAL", "province": "QC", "country": "CA", "postalCode": "H7H3A8", "twitter": "None", "instagram": "None", "facebook": "None", "youtube": "None", "website": "None", "summary": "None", "logo": "None", "latitude": 45.646238451295474, "longitude": -73.75010311852951}, "818812547RR0001": {"name": "\u00c9GLISE COR\u00c9ENNE NOUVELLE VIE PRESBYT\u00c9RIENNE (MONTR\u00c9AL)", "designationCode": "C", "categoryCode": "37", "address": "104-10200 BOUL DE L'ACADIE", "city": "MONTREAL", "province": "QC", "country": "CA", "postalCode": "H4N0C1", "twitter": "None", "instagram": "None", "facebook": "None", "youtube": "None", "website": "None", "summary": "None", "logo": "None", "latitude": 45.53441679488151, "longitude": -73.67264678919734}, "888383213RR0001": {"name": "\u00c9GLISE DE DIEU BETHL\u00c9HEM", "designationCode": "C", "categoryCode": "39", "address": "3030, RUE BALDWIN", "city": "MONTR\u00c9AL", "province": "QC", "country": "CA", "postalCode": "H1L5B7", "twitter": "None", "instagram": "None", "facebook": "None", "youtube": "None", "website": "None", "summary": "None", "logo": "None", "latitude": 45.602191049656795, "longitude": -73.52743947781165}, "806941944RR0001": {"name": "\u00c9GLISE DE DIEU D'OUTREMONT/OUTREMONT CHURCH OF GOD", "designationCode": "C", "categoryCode": "39", "address": "8125 AV STUART", "city": "MONTREAL", "province": "QC", "country": "CA", "postalCode": "H3N2S2", "twitter": "None", "instagram": "None", "facebook": "None", "youtube": "None", "website": "None", "summary": "None", "logo": "None", "latitude": 45.52891090980434, "longitude": -73.63783252608349}, "805480142RR0001": {"name": "\u00c9GLISE DE DIEU DU NOUVEAU TESTAMENT / NEW TESTAMENT CHURCH OF GOD", "designationCode": "C", "categoryCode": "39", "address": "6560 AVENUE CHESTER", "city": "MONTREAL", "province": "QC", "country": "CA", "postalCode": "H4V1J8", "twitter": "None", "instagram": "None", "facebook": "None", "youtube": "None", "website": "None", "summary": "None", "logo": "None", "latitude": 45.46987734387447, "longitude": -73.64610767594795}, "823280672RR0001": {"name": "\u00c9GLISE DE DIEU MAISON DE PRI\u00c8RE/HOUSE OF PRAYER CHURCH OF GOD", "designationCode": "C", "categoryCode": "39", "address": "5855 GOUIN O                  C.P 99531", "city": "MONTREAL", "province": "QC", "country": "CA", "postalCode": "H4J2R7", "twitter": "None", "instagram": "None", "facebook": "None", "youtube": "None", "website": "None", "summary": "None", "logo": "None", "latitude": 45.53191577687676, "longitude": -73.72107528354185}, "141398271RR0001": {"name": "\u00c9GLISE DE DIEU MONT DE SION", "designationCode": "C", "categoryCode": "39", "address": "872, RUE THIBAUDEAU", "city": "L'ILE-BIZARD", "province": "QC", "country": "CA", "postalCode": "H9C2V3", "twitter": "None", "instagram": "None", "facebook": "None", "youtube": "None", "website": "None", "summary": "None", "logo": "None", "latitude": 45.49738489454089, "longitude": -73.88506852694886}, "838888667RR0001": {"name": "\u00c9GLISE DE DIEU REHOBOTH / REHOBOTH CHURCH OF GOD", "designationCode": "C", "categoryCode": "39", "address": "4874 GRAND BLVD", "city": "MONTREAL", "province": "QC", "country": "CA", "postalCode": "H3X3S2", "twitter": "None", "instagram": "None", "facebook": "None", "youtube": "None", "website": "None", "summary": "None", "logo": "None", "latitude": 45.47229567303377, "longitude": -73.63586493992717}, "827834078RR0001": {"name": "\u00c9GLISE DE DIEU SHALOM ADONAI/ IGLESIA DE DIOS SHALOM ADONAI", "designationCode": "C", "categoryCode": "39", "address": "3 - 10122 BOUL SAINT-MICHEL", "city": "MONTREAL-NORD", "province": "QC", "country": "CA", "postalCode": "H1H5H1", "twitter": "None", "instagram": "None", "facebook": "None", "youtube": "None", "website": "None", "summary": "None", "logo": "None", "latitude": 45.578597857608706, "longitude": -73.64207594061966}, "897829438RR0001": {"name": "\u00c9GLISE DE FOI, DE LOUANGE ET DE PRI\u00c8RES", "designationCode": "C", "categoryCode": "36", "address": "1225 148 RTE", "city": "CAMPBELL'S BAY", "province": "QC", "country": "CA", "postalCode": "J0X1K0", "twitter": "None", "instagram": "None", "facebook": "None", "youtube": "None", "website": "None", "summary": "None", "logo": "None", "latitude": 45.718649348355775, "longitude": -76.59424724647666}, "872123716RR0001": {"name": "\u00c9GLISE DE LA GR\u00c2CE DE BLAINVILLE", "designationCode": "C", "categoryCode": "39", "address": "275 RUE PRINCIPALE", "city": "SAINT-BASILE-LE-GRAND", "province": "QC", "country": "CA", "postalCode": "J3N1J7", "twitter": "None", "instagram": "None", "facebook": "None", "youtube": "None", "website": "None", "summary": "None", "logo": "None", "latitude": 45.51990177352986, "longitude": -73.29234195340162}, "837341767RR0001": {"name": "\u00c9GLISE DE LA MOISSON / CHURCH OF THE HARVEST", "designationCode": "C", "categoryCode": "39", "address": "34N, BOULEVARD CARTIER OUEST", "city": "LAVAL", "province": "QC", "country": "CA", "postalCode": "H7N2H3", "twitter": "None", "instagram": "None", "facebook": "None", "youtube": "None", "website": "None", "summary": "None", "logo": "None", "latitude": 45.55952205008283, "longitude": -73.68596038262753}, "868441569RR0001": {"name": "\u00c9GLISE DE LA PENTEC\u00d4TE LES ACTES DU SAINT-ESPRIT / ACTS OF THE SPIRIT PENTECOSTAL CHURCH", "designationCode": "C", "categoryCode": "39", "address": "15 RUE BELL", "city": "CHATEAUGUAY", "province": "QC", "country": "CA", "postalCode": "J6J3L7", "twitter": "None", "instagram": "None", "facebook": "None", "youtube": "None", "website": "None", "summary": "None", "logo": "None", "latitude": 45.36075217568816, "longitude": -73.72326128853351}, "864728696RR0001": {"name": "\u00c9GLISE DE LA VICTOIRE DU QU\u00c9BEC / QUEBEC VICTORY CHURCH", "designationCode": "C", "categoryCode": "49", "address": "40 RUE DE ROBERVAL", "city": "BROMONT", "province": "QC", "country": "CA", "postalCode": "J2L2G6", "twitter": "None", "instagram": "None", "facebook": "None", "youtube": "None", "website": "None", "summary": "None", "logo": "None", "latitude": 45.309097037740244, "longitude": -72.6353416698311}, "118895622RR0001": {"name": "\u00c9GLISE DE PENTEC\u00d4TE DE DRUMMONDVILLE", "designationCode": "C", "categoryCode": "36", "address": "1700 BOUL LEMIRE              C.P 421", "city": "DRUMMONDVILLE", "province": "QC", "country": "CA", "postalCode": "J2B6W3", "twitter": "None", "instagram": "None", "facebook": "None", "youtube": "None", "website": "None", "summary": "None", "logo": "None", "latitude": 45.90305295718055, "longitude": -72.56700880920725}, "866535669RR0001": {"name": "\u00c9GLISE DE R\u00c9V\u00c9LATION DE J\u00c9SUS-CHRIST", "designationCode": "C", "categoryCode": "39", "address": "84229-9 AV", "city": "MONTREAL", "province": "QC", "country": "CA", "postalCode": "H1Z2Z3", "twitter": "None", "instagram": "None", "facebook": "None", "youtube": "None", "website": "None", "summary": "None", "logo": "None", "latitude": 45.56461949999999, "longitude": -73.61509725}, "107286858RR0001": {"name": "\u00c9GLISE DES AP\u00d4TRES DE J\u00c9SUS CHRIST", "designationCode": "C", "categoryCode": "36", "address": "6597 BOUL SAINT-LAURENT", "city": "MONTREAL", "province": "QC", "country": "CA", "postalCode": "H2S3C5", "twitter": "None", "instagram": "None", "facebook": "None", "youtube": "None", "website": "None", "summary": "None", "logo": "None", "latitude": 45.53100916654156, "longitude": -73.61016146612623}, "829504265RR0001": {"name": "\u00c9GLISE DU BON BERGER (RIVE-SUD)", "designationCode": "C", "categoryCode": "36", "address": "201 - 2100 BOUL RENE-GAULTIER", "city": "VARENNES", "province": "QC", "country": "CA", "postalCode": "J3X1P1", "twitter": "None", "instagram": "None", "facebook": "None", "youtube": "None", "website": "None", "summary": "None", "logo": "None", "latitude": 45.67963399471988, "longitude": -73.4362624518724}, "892856964RR0001": {"name": "\u00c9GLISE DU CHRIST \u00c2ME DES MINIST\u00c8RES ELIM DU QU\u00c9BEC / IGLESIADE CRISTO AME AREA DE MINISTERIOS ELIM DE QUEBEC", "designationCode": "C", "categoryCode": "39", "address": "1317 RUE DU DAHLIA", "city": "L'ASSOMPTION", "province": "QC", "country": "CA", "postalCode": "J5W5Z8", "twitter": "None", "instagram": "None", "facebook": "None", "youtube": "None", "website": "None", "summary": "None", "logo": "None", "latitude": 45.84773558644477, "longitude": -73.43235057995255}, "883798589RR0001": {"name": "\u00c9GLISE DU SALUT PAR GR\u00c2CE", "designationCode": "C", "categoryCode": "49", "address": "6 - 98 RUE VAUDRY", "city": "SAINTE-THERESE", "province": "QC", "country": "CA", "postalCode": "J7E3B9", "twitter": "None", "instagram": "None", "facebook": "None", "youtube": "None", "website": "None", "summary": "None", "logo": "None", "latitude": 45.63236328977427, "longitude": -73.82578568301707}, "118895754RR0001": {"name": "\u00c9GLISE DU SEIGNEUR J\u00c9SUS-CHRIST", "designationCode": "C", "categoryCode": "39", "address": "1355 ROUTE 277", "city": "LAC ETCHEMIN", "province": "QC", "country": "CA", "postalCode": "G0R1S0", "twitter": "None", "instagram": "None", "facebook": "None", "youtube": "None", "website": "None", "summary": "None", "logo": "None", "latitude": 46.3962536892212, "longitude": -70.4850337420861}, "131486334RR0001": {"name": "\u00c9GLISE DU TROISI\u00c8ME JOUR", "designationCode": "C", "categoryCode": "47", "address": "177, DES JACINTHES", "city": "GATINEAU", "province": "QC", "country": "CA", "postalCode": "J8R1L9", "twitter": "None", "instagram": "None", "facebook": "None", "youtube": "None", "website": "None", "summary": "None", "logo": "None", "latitude": 45.50470561613493, "longitude": -75.60480824257029}, "136797701RR0001": {"name": "\u00c9GLISE EMMANUEL DE JOLIETTE", "designationCode": "C", "categoryCode": "36", "address": "3391 PLACE SAINTE-BEATRIX", "city": "SAINT-AMBROISE-DE-KILDARE", "province": "QC", "country": "CA", "postalCode": "J0K1C0", "twitter": "None", "instagram": "None", "facebook": "None", "youtube": "None", "website": "None", "summary": "None", "logo": "None", "latitude": 46.08122499226703, "longitude": -73.5175549997402}, "118846864RR0001": {"name": "\u00c9GLISE ESP\u00c9RANCE ET VIE", "designationCode": "C", "categoryCode": "36", "address": "151 RUE ST-VINCENT", "city": "STE-AGATHE DES MONTS", "province": "QC", "country": "CA", "postalCode": "J8C2B3", "twitter": "None", "instagram": "None", "facebook": "None", "youtube": "None", "website": "None", "summary": "None", "logo": "None", "latitude": 46.051691615875114, "longitude": -74.28797190311056}, "859930364RR0001": {"name": "\u00c9GLISE ESS\u00c9NIENNE CHR\u00c9TIENNE", "designationCode": "C", "categoryCode": "39", "address": "345, CHEMIN BROCHU", "city": "COOKSHIRE-EATON", "province": "QC", "country": "CA", "postalCode": "J0B1M0", "twitter": "None", "instagram": "None", "facebook": "None", "youtube": "None", "website": "None", "summary": "None", "logo": "None", "latitude": 45.386232390863874, "longitude": -71.68918806821222}, "833170962RR0001": {"name": "\u00c9GLISE GR\u00c2CE & V\u00c9RIT\u00c9", "designationCode": "C", "categoryCode": "39", "address": "503, 2E RUE", "city": "DAVELUYVILLE", "province": "QC", "country": "CA", "postalCode": "G0Z1C0", "twitter": "None", "instagram": "None", "facebook": "None", "youtube": "None", "website": "None", "summary": "None", "logo": "None", "latitude": 46.21690378147568, "longitude": -72.15760240500407}}