{"124472911RR0001": {"name": "Famille Marie-Jeunesse", "designationCode": "C", "categoryCode": "49", "address": "1021 RUE DU CONSEIL", "city": "SHERBROOKE", "province": "QC", "country": "CA", "postalCode": "J1G1M2", "twitter": "None", "instagram": "None", "facebook": "None", "youtube": "None", "website": "None", "summary": "None", "logo": "None", "latitude": 45.40384493964161, "longitude": -71.86679647202344}, "819373242RR0001": {"name": "Family and Child Education Anglophone South Inc.", "designationCode": "C", "categoryCode": "21", "address": "490 WOODWARD AVE", "city": "SAINT JOHN", "province": "NB", "country": "CA", "postalCode": "E2K5N3", "twitter": "None", "instagram": "None", "facebook": "None", "youtube": "None", "website": "None", "summary": "None", "logo": "None", "latitude": 45.29374435501164, "longitude": -66.11227405274389}, "106914187RR0001": {"name": "Family and Children's Services of Renfrew County", "designationCode": "C", "categoryCode": "01", "address": "77 MARY STREET SUITE 100", "city": "PEMBROKE", "province": "ON", "country": "CA", "postalCode": "K8A5V4", "twitter": "None", "instagram": "None", "facebook": "None", "youtube": "None", "website": "None", "summary": "None", "logo": "None", "latitude": 45.82344480434522, "longitude": -77.11313871386108}, "840411433RR0001": {"name": "Family and Early Childhood North Inc.", "designationCode": "C", "categoryCode": "09", "address": "78 HENDERSON STREET", "city": "MIRAMICHI", "province": "NB", "country": "CA", "postalCode": "E1N2R7", "twitter": "None", "instagram": "None", "facebook": "None", "youtube": "None", "website": "None", "summary": "None", "logo": "None", "latitude": 47.027869241445124, "longitude": -65.46307551667708}, "886824606RR0001": {"name": "Family of Faith Canada", "designationCode": "C", "categoryCode": "09", "address": "96 HARBARD ROAD", "city": "CARRYING PLACE", "province": "ON", "country": "CA", "postalCode": "K0K1L0", "twitter": "None", "instagram": "None", "facebook": "None", "youtube": "None", "website": "None", "summary": "None", "logo": "None", "latitude": 44.02935502311105, "longitude": -77.58173200207654}, "823520978RR0001": {"name": "Family Alive Society", "designationCode": "C", "categoryCode": "09", "address": "203 - 1001 AUSTIN AVE", "city": "COQUITLAM", "province": "BC", "country": "CA", "postalCode": "V3K3N9", "twitter": "None", "instagram": "None", "facebook": "None", "youtube": "None", "website": "None", "summary": "None", "logo": "None", "latitude": 49.249019460470755, "longitude": -122.86722166763806}, "129817771RR0001": {"name": "Family Caregivers Society of British Columbia", "designationCode": "C", "categoryCode": "09", "address": "#6-3318 OAK STREET", "city": "VICTORIA", "province": "BC", "country": "CA", "postalCode": "V8X1R1", "twitter": "None", "instagram": "None", "facebook": "None", "youtube": "None", "website": "None", "summary": "None", "logo": "None", "latitude": 48.450848601765536, "longitude": -123.37144844235043}, "828934190RR0001": {"name": "Family Councils of Ontario", "designationCode": "C", "categoryCode": "11", "address": "306 - 40 ST CLAIR AVE E", "city": "TORONTO", "province": "ON", "country": "CA", "postalCode": "M4T1M9", "twitter": "None", "instagram": "None", "facebook": "None", "youtube": "None", "website": "None", "summary": "None", "logo": "None", "latitude": 43.68851247918197, "longitude": -79.39208759715088}, "131983389RR0001": {"name": "Family Dynamix Association", "designationCode": "C", "categoryCode": "59", "address": "PO BOX 2289", "city": "INVERMERE", "province": "BC", "country": "CA", "postalCode": "V0A1K0", "twitter": "None", "instagram": "None", "facebook": "None", "youtube": "None", "website": "None", "summary": "None", "logo": "None", "latitude": 50.50916700000006, "longitude": -116.03037049999993}, "119232619RR0001": {"name": "Family Enterprise XChange Foundation", "designationCode": "C", "categoryCode": "20", "address": "135 - 690 DORVAL DR", "city": "OAKVILLE", "province": "ON", "country": "CA", "postalCode": "L6K3W7", "twitter": "None", "instagram": "None", "facebook": "None", "youtube": "None", "website": "None", "summary": "None", "logo": "None", "latitude": 43.44348002351602, "longitude": -79.69573674585892}, "833053002RR0001": {"name": "Family First Family Health Team", "designationCode": "C", "categoryCode": "11", "address": "375, DES EPINETTES AVE        PO BOX 51031", "city": "ORLEANS", "province": "ON", "country": "CA", "postalCode": "K1E3E6", "twitter": "None", "instagram": "None", "facebook": "None", "youtube": "None", "website": "None", "summary": "None", "logo": "None", "latitude": 45.46576184765404, "longitude": -75.49534885599257}, "120615661RR0001": {"name": "Family History Society of Newfoundland and Labrador Inc.", "designationCode": "C", "categoryCode": "50", "address": "PO BOX 8008 STN A", "city": "ST. JOHN'S", "province": "NL", "country": "CA", "postalCode": "A1B3M7", "twitter": "None", "instagram": "None", "facebook": "None", "youtube": "None", "website": "None", "summary": "None", "logo": "None", "latitude": 47.56938900000006, "longitude": -52.78609699999993}, "891433211RR0001": {"name": "Family Mental Health Support Network of Niagara", "designationCode": "C", "categoryCode": "11", "address": "2969 SHAWNEE TRAIL, RR 2", "city": "RIDGEWAY", "province": "ON", "country": "CA", "postalCode": "L0S1N0", "twitter": "None", "instagram": "None", "facebook": "None", "youtube": "None", "website": "None", "summary": "None", "logo": "None", "latitude": 42.898774506780676, "longitude": -79.02593091618097}, "807251707RR0001": {"name": "Family Rescue International Ministries", "designationCode": "C", "categoryCode": "39", "address": "110 MORNELLE COURT,           APT 1005", "city": "SCARBOROUGH", "province": "ON", "country": "CA", "postalCode": "M1E4R1", "twitter": "None", "instagram": "None", "facebook": "None", "youtube": "None", "website": "None", "summary": "None", "logo": "None", "latitude": 43.786493025535236, "longitude": -79.1936680594663}, "834845646RR0001": {"name": "Family Resource Centre Swift Current Inc.", "designationCode": "C", "categoryCode": "09", "address": "885 6TH AVENUE NORTHEAST", "city": "SWIFT CURRENT", "province": "SK", "country": "CA", "postalCode": "S9H2M9", "twitter": "None", "instagram": "None", "facebook": "None", "youtube": "None", "website": "None", "summary": "None", "logo": "None", "latitude": 50.29422478278085, "longitude": -107.79204272472714}, "119232585RR0001": {"name": "Family Services of Greater Vancouver Foundation", "designationCode": "A", "categoryCode": "03", "address": "201-1638 BROADWAY E", "city": "VANCOUVER", "province": "BC", "country": "CA", "postalCode": "V5N1W1", "twitter": "None", "instagram": "None", "facebook": "None", "youtube": "None", "website": "None", "summary": "None", "logo": "None", "latitude": 49.26229652842075, "longitude": -123.07090452844942}, "118886340RR0001": {"name": "Family Services of Greater Victoria Society", "designationCode": "C", "categoryCode": "09", "address": "899 FORT STREET", "city": "VICTORIA", "province": "BC", "country": "CA", "postalCode": "V8W1H6", "twitter": "None", "instagram": "None", "facebook": "None", "youtube": "None", "website": "None", "summary": "None", "logo": "None", "latitude": 48.4240415683827, "longitude": -123.36002399584505}, "105629497RR0001": {"name": "Family Support Institute of BC Society", "designationCode": "C", "categoryCode": "19", "address": "227 6TH ST", "city": "NEW WESTMINSTER", "province": "BC", "country": "CA", "postalCode": "V3L3A5", "twitter": "None", "instagram": "None", "facebook": "None", "youtube": "None", "website": "None", "summary": "None", "logo": "None", "latitude": 49.20811860010157, "longitude": -122.91388900986888}, "134859073RR0001": {"name": "Family SOS Association", "designationCode": "C", "categoryCode": "09", "address": "2006 GOTTINGEN STREET", "city": "HALIFAX", "province": "NS", "country": "CA", "postalCode": "B3K3B1", "twitter": "None", "instagram": "None", "facebook": "None", "youtube": "None", "website": "None", "summary": "None", "logo": "None", "latitude": 44.65069370829251, "longitude": -63.58147505857227}, "107396905RR0081": {"name": "Family Worship Center Foursquare Gospel Church", "designationCode": "C", "categoryCode": "39", "address": "4281 QUEEN ST/P.O. BOX 1084", "city": "BEAMSVILLE", "province": "ON", "country": "CA", "postalCode": "L0R1B0", "twitter": "None", "instagram": "None", "facebook": "None", "youtube": "None", "website": "None", "summary": "None", "logo": "None", "latitude": 43.16526132001268, "longitude": -79.47708661613493}, "840827760RR0001": {"name": "Family Worship Centre (Centro Familiar de Adoracion)", "designationCode": "C", "categoryCode": "39", "address": "318 - 1 KNIGHTSBRIDGE RD", "city": "BRAMPTON", "province": "ON", "country": "CA", "postalCode": "L6T4B7", "twitter": "None", "instagram": "None", "facebook": "None", "youtube": "None", "website": "None", "summary": "None", "logo": "None", "latitude": 43.71760274158934, "longitude": -79.7176412623927}, "840959233RR0001": {"name": "Family-Life Multi Cultural Centre", "designationCode": "C", "categoryCode": "56", "address": "25 SELBY ROAD", "city": "BRAMPTON", "province": "ON", "country": "CA", "postalCode": "L6W1K5", "twitter": "None", "instagram": "None", "facebook": "None", "youtube": "None", "website": "None", "summary": "None", "logo": "None", "latitude": 43.69047498193793, "longitude": -79.7277326206939}, "829175900RR0001": {"name": "Fandango Musical Players Inc.", "designationCode": "C", "categoryCode": "22", "address": "251 WATER ST", "city": "SUMMERSIDE", "province": "PE", "country": "CA", "postalCode": "C1N1B5", "twitter": "None", "instagram": "None", "facebook": "None", "youtube": "None", "website": "None", "summary": "None", "logo": "None", "latitude": 46.391555252293834, "longitude": -63.790566171244734}, "829942168RR0001": {"name": "Fanshawe College Foundation", "designationCode": "A", "categoryCode": "23", "address": "1001 FANSHAWE COLLEGE BLVD    P.O.BOX 7005(ROOM H1004)", "city": "LONDON", "province": "ON", "country": "CA", "postalCode": "N5Y5R6", "twitter": "None", "instagram": "None", "facebook": "None", "youtube": "None", "website": "None", "summary": "None", "logo": "None", "latitude": 43.01502273827112, "longitude": -81.19706159492753}, "850868753RR0001": {"name": "Far (Fellowship for African Relief) International", "designationCode": "C", "categoryCode": "09", "address": "10 HUNTINGDALE BLVD", "city": "SCARBOROUGH", "province": "ON", "country": "CA", "postalCode": "M1W2S5", "twitter": "None", "instagram": "None", "facebook": "None", "youtube": "None", "website": "None", "summary": "None", "logo": "None", "latitude": 43.79647517626506, "longitude": -79.32661950611684}, "815596309RR0001": {"name": "Far and Above Ministries Fellowship", "designationCode": "C", "categoryCode": "47", "address": "4 HART CRESCENT", "city": "RED DEER", "province": "AB", "country": "CA", "postalCode": "T4N6E6", "twitter": "None", "instagram": "None", "facebook": "None", "youtube": "None", "website": "None", "summary": "None", "logo": "None", "latitude": 52.284614383865076, "longitude": -113.82183894295693}, "812210615RR0001": {"name": "Far Corners Ministry", "designationCode": "C", "categoryCode": "47", "address": "33 BYBLOS ROAD", "city": "UPPER HAMMONDS PLAINS", "province": "NS", "country": "CA", "postalCode": "B4B1Y1", "twitter": "None", "instagram": "None", "facebook": "None", "youtube": "None", "website": "None", "summary": "None", "logo": "None", "latitude": 44.74614040412018, "longitude": -63.83143936883184}, "829918895RR0001": {"name": "Farm in the Dell Inc.", "designationCode": "C", "categoryCode": "09", "address": "BOX 187", "city": "ABERDEEN", "province": "SK", "country": "CA", "postalCode": "S0K0A0", "twitter": "None", "instagram": "None", "facebook": "None", "youtube": "None", "website": "None", "summary": "None", "logo": "None", "latitude": 52.31678000000005, "longitude": -106.28447999999997}, "119238475RR0001": {"name": "Farmers Helping Farmers Inc.", "designationCode": "C", "categoryCode": "59", "address": "PO BOX 2623", "city": "CHARLOTTETOWN", "province": "PE", "country": "CA", "postalCode": "C1A8C3", "twitter": "None", "instagram": "None", "facebook": "None", "youtube": "None", "website": "None", "summary": "None", "logo": "None", "latitude": 46.23659700000006, "longitude": -63.12815449999994}, "898983994RR0001": {"name": "Farming Smarter Association", "designationCode": "C", "categoryCode": "59", "address": "211034 HIGHWAY 512", "city": "LETHBRIDGE COUNTY", "province": "AB", "country": "CA", "postalCode": "T1J5N9", "twitter": "None", "instagram": "None", "facebook": "None", "youtube": "None", "website": "None", "summary": "None", "logo": "None", "latitude": 49.69816234290803, "longitude": -112.75019106802227}, "894214477RR0001": {"name": "Farmland Legacies GTC Inc.", "designationCode": "C", "categoryCode": "21", "address": "PO BOX 1768", "city": "WYNYARD", "province": "SK", "country": "CA", "postalCode": "S0A4T0", "twitter": "None", "instagram": "None", "facebook": "None", "youtube": "None", "website": "None", "summary": "None", "logo": "None", "latitude": 51.76523000000003, "longitude": -104.18008999999995}, "840404487RR0001": {"name": "FarmSafe Foundation / Fondation S\u00e9curiferme", "designationCode": "C", "categoryCode": "29", "address": "3325-C PEMBINA HIGHWAY", "city": "WINNIPEG", "province": "MB", "country": "CA", "postalCode": "R3V0A2", "twitter": "None", "instagram": "None", "facebook": "None", "youtube": "None", "website": "None", "summary": "None", "logo": "None", "latitude": 49.77215882711214, "longitude": -97.15679375674488}, "820621290RR0001": {"name": "Fashion History Museum", "designationCode": "C", "categoryCode": "50", "address": "P.O.BOX 848", "city": "CAMBRIDGE", "province": "ON", "country": "CA", "postalCode": "N1R5X9", "twitter": "None", "instagram": "None", "facebook": "None", "youtube": "None", "website": "None", "summary": "None", "logo": "None", "latitude": 43.36140300000005, "longitude": -80.31533299999994}, "822300703RR0001": {"name": "Fasil Charitable Foundation", "designationCode": "B", "categoryCode": "03", "address": "1401-1 ABERFOYLE CRESCENT", "city": "TORONTO", "province": "ON", "country": "CA", "postalCode": "M8X2X8", "twitter": "None", "instagram": "None", "facebook": "None", "youtube": "None", "website": "None", "summary": "None", "logo": "None", "latitude": 43.64615252842076, "longitude": -79.52006807937562}, "811270933RR0001": {"name": "Fasoho Chapel Ministries", "designationCode": "C", "categoryCode": "39", "address": "4 MADDYBETH CRES", "city": "BRAMPTON", "province": "ON", "country": "CA", "postalCode": "L6Y5R7", "twitter": "None", "instagram": "None", "facebook": "None", "youtube": "None", "website": "None", "summary": "None", "logo": "None", "latitude": 43.64292397861973, "longitude": -79.7542897123032}, "870765864RR0001": {"name": "Fast Track-Community Centre for Skills, Development and Training", "designationCode": "C", "categoryCode": "20", "address": "3350 SOUTH SERVICE RD", "city": "BURLINGTON", "province": "ON", "country": "CA", "postalCode": "L7N3M6", "twitter": "None", "instagram": "None", "facebook": "None", "youtube": "None", "website": "None", "summary": "None", "logo": "None", "latitude": 43.361014299700265, "longitude": -79.79336089084822}, "140746736RR0001": {"name": "Fatal Light Awareness Program (FLAP) Canada", "designationCode": "C", "categoryCode": "54", "address": "123 QUEEN STREET WEST         BOX 199", "city": "TORONTO", "province": "ON", "country": "CA", "postalCode": "M5H3M9", "twitter": "None", "instagram": "None", "facebook": "None", "youtube": "None", "website": "None", "summary": "None", "logo": "None", "latitude": 43.65154788591389, "longitude": -79.38317697945644}, "833457856RR0001": {"name": "Father Delestre Columbus (2009) Society", "designationCode": "C", "categoryCode": "56", "address": "130 MCCURDY RD", "city": "KELOWNA", "province": "BC", "country": "CA", "postalCode": "V1X2N9", "twitter": "None", "instagram": "None", "facebook": "None", "youtube": "None", "website": "None", "summary": "None", "logo": "None", "latitude": 49.90121650822297, "longitude": -119.38740219317329}, "855297867RR0001": {"name": "Father Lacombe Care Foundation", "designationCode": "A", "categoryCode": "13", "address": "3005-119 STREET N.W.", "city": "EDMONTON", "province": "AB", "country": "CA", "postalCode": "T6J5R5", "twitter": "None", "instagram": "None", "facebook": "None", "youtube": "None", "website": "None", "summary": "None", "logo": "None", "latitude": 53.46215250021689, "longitude": -113.53871263127581}, "119232692RR0001": {"name": "Father Lacombe Care Society", "designationCode": "C", "categoryCode": "10", "address": "3005 119 STREET", "city": "EDMONTON", "province": "AB", "country": "CA", "postalCode": "T6J5R5", "twitter": "None", "instagram": "None", "facebook": "None", "youtube": "None", "website": "None", "summary": "None", "logo": "None", "latitude": 53.46215250021689, "longitude": -113.53871263127581}, "819940339RR0001": {"name": "Father Michael J. McGivney Honoris Charity Inc.", "designationCode": "C", "categoryCode": "49", "address": "281 NEPEAN STREET", "city": "OTTAWA", "province": "ON", "country": "CA", "postalCode": "K1R5G2", "twitter": "None", "instagram": "None", "facebook": "None", "youtube": "None", "website": "None", "summary": "None", "logo": "None", "latitude": 45.41615948407273, "longitude": -75.70086246352916}, "825294788RR0001": {"name": "Father Whelihan Memorial Scholarship Society", "designationCode": "C", "categoryCode": "21", "address": "186 SCEPTRE CLOSE NW", "city": "CALGARY", "province": "AB", "country": "CA", "postalCode": "T3L1Y3", "twitter": "None", "instagram": "None", "facebook": "None", "youtube": "None", "website": "None", "summary": "None", "logo": "None", "latitude": 51.116995006376655, "longitude": -114.22620319080735}, "822184321RR0001": {"name": "Father's Heart Healing Ministries", "designationCode": "C", "categoryCode": "39", "address": "101 GEORGE ST                 P O BOX 912", "city": "ARTHUR", "province": "ON", "country": "CA", "postalCode": "N0G1A0", "twitter": "None", "instagram": "None", "facebook": "None", "youtube": "None", "website": "None", "summary": "None", "logo": "None", "latitude": 43.83248190329916, "longitude": -80.53773427872595}, "801804162RR0001": {"name": "Father's Heart Ministry", "designationCode": "C", "categoryCode": "47", "address": "10356 167A ST", "city": "SURREY", "province": "BC", "country": "CA", "postalCode": "V4N5H2", "twitter": "None", "instagram": "None", "facebook": "None", "youtube": "None", "website": "None", "summary": "None", "logo": "None", "latitude": 49.19041059414606, "longitude": -122.75762398203028}, "857431290RR0001": {"name": "Father's Heart Projects Foundation", "designationCode": "C", "categoryCode": "09", "address": "9834 HIDDEN VALLEY DRIVE NW", "city": "CALGARY", "province": "AB", "country": "CA", "postalCode": "T3A5L2", "twitter": "None", "instagram": "None", "facebook": "None", "youtube": "None", "website": "None", "summary": "None", "logo": "None", "latitude": 51.14673450678068, "longitude": -114.11819255551384}, "768439721RR0001": {"name": "Father's House Church", "designationCode": "C", "categoryCode": "39", "address": "400 STEWART STREET", "city": "NEW GLASGOW", "province": "NS", "country": "CA", "postalCode": "B2H2R8", "twitter": "None", "instagram": "None", "facebook": "None", "youtube": "None", "website": "None", "summary": "None", "logo": "None", "latitude": 45.58272934970286, "longitude": -62.64786397403208}, "801031006RR0001": {"name": "Father's Place Niagara", "designationCode": "C", "categoryCode": "39", "address": "50 NIAGARA ST", "city": "ST CATHARINES", "province": "ON", "country": "CA", "postalCode": "L2R4K9", "twitter": "None", "instagram": "None", "facebook": "None", "youtube": "None", "website": "None", "summary": "None", "logo": "None", "latitude": 43.16526624698505, "longitude": -79.23752724459045}, "121807929RR0001": {"name": "Fathers of Confederation Buildings Trust", "designationCode": "C", "categoryCode": "22", "address": "145 RICHMOND ST", "city": "CHARLOTTETOWN", "province": "PE", "country": "CA", "postalCode": "C1A1J1", "twitter": "None", "instagram": "None", "facebook": "None", "youtube": "None", "website": "None", "summary": "None", "logo": "None", "latitude": 46.23417015681803, "longitude": -63.12633998779498}, "841047244RR0001": {"name": "Fatimia Community Services Society of BC", "designationCode": "C", "categoryCode": "60", "address": "15920 91A AVE", "city": "SURREY", "province": "BC", "country": "CA", "postalCode": "V4N2X4", "twitter": "None", "instagram": "None", "facebook": "None", "youtube": "None", "website": "None", "summary": "None", "logo": "None", "latitude": 49.16914463455502, "longitude": -122.78165950820603}, "824510291RR0001": {"name": "Faye and David Huestis Family Foundation Inc.", "designationCode": "B", "categoryCode": "03", "address": "15 LLOYD ST", "city": "SAINT JOHN", "province": "NB", "country": "CA", "postalCode": "E2M4N4", "twitter": "None", "instagram": "None", "facebook": "None", "youtube": "None", "website": "None", "summary": "None", "logo": "None", "latitude": 45.25204482209015, "longitude": -66.10340045752788}, "804224129RR0001": {"name": "Fearless Hearts Association", "designationCode": "C", "categoryCode": "09", "address": "312-328 ESPLANADE AVENUE      GD", "city": "HARRISON HOT SPRINGS", "province": "BC", "country": "CA", "postalCode": "V0M1K0", "twitter": "None", "instagram": "None", "facebook": "None", "youtube": "None", "website": "None", "summary": "None", "logo": "None", "latitude": 49.30308548124545, "longitude": -121.78208233236194}, "857516702RR0001": {"name": "Federation of B.C. Youth in Care Networks", "designationCode": "C", "categoryCode": "09", "address": "500 - 625 AGNES ST", "city": "NEW WESTMINSTER", "province": "BC", "country": "CA", "postalCode": "V3M5Y4", "twitter": "None", "instagram": "None", "facebook": "None", "youtube": "None", "website": "None", "summary": "None", "logo": "None", "latitude": 49.20432007550916, "longitude": -122.91082468570012}, "818506784RR0001": {"name": "Federation of Canadian Secondary Students/ F\u00e9d\u00e9ration des \u00c9l\u00e8ves du Secondaire au Canada", "designationCode": "C", "categoryCode": "21", "address": "18 SOMMERSET WAY              UNIT# 713", "city": "TORONTO", "province": "ON", "country": "CA", "postalCode": "M2N6X6", "twitter": "None", "instagram": "None", "facebook": "None", "youtube": "None", "website": "None", "summary": "None", "logo": "None", "latitude": 43.77652778351319, "longitude": -79.41235157314321}, "848858973RR0001": {"name": "Feed my Lambs Ministry (FMLM)", "designationCode": "C", "categoryCode": "39", "address": "28 GAS LAMP LANE", "city": "MARKHAM", "province": "ON", "country": "CA", "postalCode": "L6B0H5", "twitter": "None", "instagram": "None", "facebook": "None", "youtube": "None", "website": "None", "summary": "None", "logo": "None", "latitude": 43.89753611408613, "longitude": -79.23811006440064}, "833416332RR0001": {"name": "Feed Love Change International", "designationCode": "C", "categoryCode": "09", "address": "4 BRIARHILL PLACE", "city": "LONDON", "province": "ON", "country": "CA", "postalCode": "N5Y1P7", "twitter": "None", "instagram": "None", "facebook": "None", "youtube": "None", "website": "None", "summary": "None", "logo": "None", "latitude": 43.02577045464236, "longitude": -81.22776109435061}, "771420098RR0001": {"name": "Feed Montreal / Nourrissez Montr\u00e9al", "designationCode": "A", "categoryCode": "03", "address": "4115 RUE SHERBROOKE O", "city": "WESTMOUNT", "province": "QC", "country": "CA", "postalCode": "H3Z1K9", "twitter": "None", "instagram": "None", "facebook": "None", "youtube": "None", "website": "None", "summary": "None", "logo": "None", "latitude": 45.488759122136194, "longitude": -73.59081987096755}, "829026483RR0001": {"name": "Feed My Lambs Street Mission Inc.", "designationCode": "C", "categoryCode": "09", "address": "535 YALE AVENUE WEST", "city": "WINNIPEG", "province": "MB", "country": "CA", "postalCode": "R2C1V6", "twitter": "None", "instagram": "None", "facebook": "None", "youtube": "None", "website": "None", "summary": "None", "logo": "None", "latitude": 49.89679649321932, "longitude": -97.01884341618097}, "814950218RR0001": {"name": "Feed The Need In Durham", "designationCode": "C", "categoryCode": "59", "address": "371A MARWOOD DR", "city": "OSHAWA", "province": "ON", "country": "CA", "postalCode": "L1H7P8", "twitter": "None", "instagram": "None", "facebook": "None", "youtube": "None", "website": "None", "summary": "None", "logo": "None", "latitude": 43.87662954448578, "longitude": -78.83133901262472}, "831150552RR0001": {"name": "Feejad (Famille pour l'Entraide et d'\u00c9ducation des Jeunes etdes ADultes.", "designationCode": "C", "categoryCode": "09", "address": "5014 - 250 RUE ONTARIO E", "city": "MONTREAL", "province": "QC", "country": "CA", "postalCode": "H2X1H4", "twitter": "None", "instagram": "None", "facebook": "None", "youtube": "None", "website": "None", "summary": "None", "logo": "None", "latitude": 45.513575482756764, "longitude": -73.56600868678228}, "835510041RR0001": {"name": "Feet Forward Organization", "designationCode": "C", "categoryCode": "09", "address": "706-8 GLADSTONE AVENUE", "city": "TORONTO", "province": "ON", "country": "CA", "postalCode": "M6J0B3", "twitter": "None", "instagram": "None", "facebook": "None", "youtube": "None", "website": "None", "summary": "None", "logo": "None", "latitude": 43.642981467107184, "longitude": -79.42734731629042}, "811767763RR0001": {"name": "Felege Hiwot Saint Gabriel Monastery Ethiopian Orthodox Tewahedo Church", "designationCode": "C", "categoryCode": "39", "address": "10 HOWARTH AVE", "city": "SCARBOROUGH", "province": "ON", "country": "CA", "postalCode": "M1R1H4", "twitter": "None", "instagram": "None", "facebook": "None", "youtube": "None", "website": "None", "summary": "None", "logo": "None"}, "837459254RR0001": {"name": "Feline Friends Network of Stratford", "designationCode": "C", "categoryCode": "54", "address": "47 BRITANNIA STREET", "city": "STRATFORD", "province": "ON", "country": "CA", "postalCode": "N5A5Y8", "twitter": "None", "instagram": "None", "facebook": "None", "youtube": "None", "website": "None", "summary": "None", "logo": "None", "latitude": 43.376860866207046, "longitude": -80.98439439177093}, "835956376RR0001": {"name": "Felix Y. Manalo Foundation, Inc.", "designationCode": "C", "categoryCode": "02", "address": "3321 MCNICOLL AVENUE", "city": "TORONTO", "province": "ON", "country": "CA", "postalCode": "M1V5B3", "twitter": "None", "instagram": "None", "facebook": "None", "youtube": "None", "website": "None", "summary": "None", "logo": "None", "latitude": 43.820571752957655, "longitude": -79.26060082595664}, "838757060RR0001": {"name": "Fellowship & Learning for Anglican Men's Enrichment (FLAME)", "designationCode": "C", "categoryCode": "49", "address": "59 HURONTARIO ST", "city": "COLLINGWOOD", "province": "ON", "country": "CA", "postalCode": "L9Y2L7", "twitter": "None", "instagram": "None", "facebook": "None", "youtube": "None", "website": "None", "summary": "None", "logo": "None", "latitude": 44.50137761982661, "longitude": -80.21706069884686}, "849798210RR0001": {"name": "Fellowship of Christ Our Lord Inc.", "designationCode": "C", "categoryCode": "39", "address": "1108 WATERFORD AVENUE", "city": "WINNIPEG", "province": "MB", "country": "CA", "postalCode": "R3T1H3", "twitter": "None", "instagram": "None", "facebook": "None", "youtube": "None", "website": "None", "summary": "None", "logo": "None", "latitude": 49.842968115153994, "longitude": -97.15821187036198}, "120365804RR0001": {"name": "Fellowship of Christian Peace Officers - Canada / Association des agents de la paix chr\u00e9tiens du Canada", "designationCode": "C", "categoryCode": "47", "address": "234 - 372 RIDEAU ST", "city": "OTTAWA", "province": "ON", "country": "CA", "postalCode": "K1N1G7", "twitter": "None", "instagram": "None", "facebook": "None", "youtube": "None", "website": "None", "summary": "None", "logo": "None", "latitude": 45.42988953814428, "longitude": -75.68295131444411}, "842626988RR0001": {"name": "Fellowship Church GTA", "designationCode": "C", "categoryCode": "39", "address": "PO BOX 42011 RPO CENTRE PLAZA", "city": "MISSISSAUGA", "province": "ON", "country": "CA", "postalCode": "L5M4Z4", "twitter": "None", "instagram": "None", "facebook": "None", "youtube": "None", "website": "None", "summary": "None", "logo": "None", "latitude": 43.56015000000005, "longitude": -79.72056799999993}, "135431310RR0001": {"name": "Fellowship Prairies Foundation Inc.", "designationCode": "A", "categoryCode": "43", "address": "11525 23 AVE NW", "city": "EDMONTON", "province": "AB", "country": "CA", "postalCode": "T6J4T3", "twitter": "None", "instagram": "None", "facebook": "None", "youtube": "None", "website": "None", "summary": "None", "logo": "None", "latitude": 53.45376650822484, "longitude": -113.52726215361537}, "820139533RR0001": {"name": "Femme International", "designationCode": "C", "categoryCode": "11", "address": "769 ROCK ROAD                 RR #2", "city": "OXFORD MILLS", "province": "ON", "country": "CA", "postalCode": "K0G1S0", "twitter": "None", "instagram": "None", "facebook": "None", "youtube": "None", "website": "None", "summary": "None", "logo": "None", "latitude": 44.94853919934744, "longitude": -75.63019104065538}, "748129327RR0001": {"name": "Femmes Op\u00e9rationn'Elles", "designationCode": "C", "categoryCode": "09", "address": "416 AV DE L'ABRAHAM-MARTIN", "city": "RIMOUSKI", "province": "QC", "country": "CA", "postalCode": "G5M1N5", "twitter": "None", "instagram": "None", "facebook": "None", "youtube": "None", "website": "None", "summary": "None", "logo": "None", "latitude": 48.50657175546781, "longitude": -68.45278883807474}, "124414731RR0001": {"name": "Fenelon Area Independent Living Association", "designationCode": "C", "categoryCode": "09", "address": "70 MURRAY STREET", "city": "FENELON FALLS", "province": "ON", "country": "CA", "postalCode": "K0M1N0", "twitter": "None", "instagram": "None", "facebook": "None", "youtube": "None", "website": "None", "summary": "None", "logo": "None", "latitude": 44.53012884736559, "longitude": -78.73863022499823}, "837164953RR0001": {"name": "Fenelon Area Independent Living Association (2007)", "designationCode": "C", "categoryCode": "09", "address": "105 LINDSAY STREET", "city": "FENELON FALLS", "province": "ON", "country": "CA", "postalCode": "K0M1N0", "twitter": "None", "instagram": "None", "facebook": "None", "youtube": "None", "website": "None", "summary": "None", "logo": "None", "latitude": 44.530989287523916, "longitude": -78.74008415122077}, "807600507RR0001": {"name": "Feral and Abandoned Cat Society (FAACS)", "designationCode": "C", "categoryCode": "54", "address": "PO BOX 85 STN A", "city": "SYDNEY", "province": "NS", "country": "CA", "postalCode": "B1P6G9", "twitter": "None", "instagram": "None", "facebook": "None", "youtube": "None", "website": "None", "summary": "None", "logo": "None", "latitude": 46.137372000000056, "longitude": -60.19552249999994}, "746119320RR0001": {"name": "Ferguson Family Foundation", "designationCode": "B", "categoryCode": "03", "address": "330 - 6500 RTE TRANSCANADIENNE", "city": "POINTE-CLAIRE", "province": "QC", "country": "CA", "postalCode": "H9R0A5", "twitter": "None", "instagram": "None", "facebook": "None", "youtube": "None", "website": "None", "summary": "None", "logo": "None", "latitude": 45.46519973580301, "longitude": -73.82241635951839}, "821849825RR0001": {"name": "Ferme H\u00e9ritage Miner / Miner Heritage Farm", "designationCode": "C", "categoryCode": "52", "address": "100 RUE MOUNTAIN", "city": "GRANBY", "province": "QC", "country": "CA", "postalCode": "J2G6S1", "twitter": "None", "instagram": "None", "facebook": "None", "youtube": "None", "website": "None", "summary": "None", "logo": "None", "latitude": 45.389745935570694, "longitude": -72.71444300311573}, "863756201RR0001": {"name": "Ferndale Baptist Church", "designationCode": "C", "categoryCode": "31", "address": "614 BRIMLEY RD", "city": "SCARBOROUGH", "province": "ON", "country": "CA", "postalCode": "M1J1B8", "twitter": "None", "instagram": "None", "facebook": "None", "youtube": "None", "website": "None", "summary": "None", "logo": "None"}, "121701460RR0001": {"name": "Fernhill Cemetery Company", "designationCode": "C", "categoryCode": "59", "address": "200 WESTMORLAND ROAD", "city": "SAINT JOHN", "province": "NB", "country": "CA", "postalCode": "E2J2E7", "twitter": "None", "instagram": "None", "facebook": "None", "youtube": "None", "website": "None", "summary": "None", "logo": "None", "latitude": 45.294520913411006, "longitude": -66.03348709368677}, "843305194RR0001": {"name": "Fernie Child Care Society", "designationCode": "C", "categoryCode": "01", "address": "P.O. BOX 1884", "city": "FERNIE", "province": "BC", "country": "CA", "postalCode": "V0B1M0", "twitter": "None", "instagram": "None", "facebook": "None", "youtube": "None", "website": "None", "summary": "None", "logo": "None", "latitude": 49.499960000000044, "longitude": -115.06870999999995}, "835827684RR0001": {"name": "Fernie Pets Society", "designationCode": "C", "categoryCode": "54", "address": "672 2ND AVENUE, UNIT E        POST OFFICE BOX 1614", "city": "FERNIE", "province": "BC", "country": "CA", "postalCode": "V0B1M0", "twitter": "None", "instagram": "None", "facebook": "None", "youtube": "None", "website": "None", "summary": "None", "logo": "None", "latitude": 49.504380793694125, "longitude": -115.06014970327843}, "856087697RR0001": {"name": "Fernie Trails Alliance Association", "designationCode": "C", "categoryCode": "56", "address": "543 CALDWELL FRONTAGE ROAD", "city": "FERNIE", "province": "BC", "country": "CA", "postalCode": "V0B1M5", "twitter": "None", "instagram": "None", "facebook": "None", "youtube": "None", "website": "None", "summary": "None", "logo": "None", "latitude": 49.56643042273051, "longitude": -114.99365415549036}, "827012600RR0001": {"name": "Fernie Youth Foundation", "designationCode": "A", "categoryCode": "03", "address": "P.O. BOX 273", "city": "PICKERING", "province": "ON", "country": "CA", "postalCode": "L1V2R4", "twitter": "None", "instagram": "None", "facebook": "None", "youtube": "None", "website": "None", "summary": "None", "logo": "None", "latitude": 43.837818000000055, "longitude": -79.08191449999994}, "107380875RR0001": {"name": "Fernie Youth Services", "designationCode": "C", "categoryCode": "01", "address": "PO BOX 273", "city": "PICKERING", "province": "ON", "country": "CA", "postalCode": "L1V2R4", "twitter": "None", "instagram": "None", "facebook": "None", "youtube": "None", "website": "None", "summary": "None", "logo": "None", "latitude": 43.837818000000055, "longitude": -79.08191449999994}, "855883583RR0001": {"name": "Fernwood Foundation", "designationCode": "B", "categoryCode": "03", "address": "3400-666 BURRARD STRET", "city": "VANCOUVER", "province": "BC", "country": "CA", "postalCode": "V6C2X8", "twitter": "None", "instagram": "None", "facebook": "None", "youtube": "None", "website": "None", "summary": "None", "logo": "None", "latitude": 49.28527682817835, "longitude": -123.11971421339973}, "821205713RR0001": {"name": "Ferrets North Information and Rescue Society", "designationCode": "C", "categoryCode": "54", "address": "267 CLARK CRESCENT", "city": "PRINCE GEORGE", "province": "BC", "country": "CA", "postalCode": "V2M4W3", "twitter": "None", "instagram": "None", "facebook": "None", "youtube": "None", "website": "None", "summary": "None", "logo": "None", "latitude": 53.926200450458765, "longitude": -122.80944859400391}, "813368412RR0001": {"name": "Fertile Future", "designationCode": "C", "categoryCode": "19", "address": "8 - 300 GREENBANK RD", "city": "NEPEAN", "province": "ON", "country": "CA", "postalCode": "K2H0B6", "twitter": "None", "instagram": "None", "facebook": "None", "youtube": "None", "website": "None", "summary": "None", "logo": "None", "latitude": 45.32262867969885, "longitude": -75.77742072124734}, "128921459RR0001": {"name": "Fertility Matters Canada", "designationCode": "C", "categoryCode": "11", "address": "475 AVENUE DUMONT SUITE 201", "city": "DORVAL", "province": "QC", "country": "CA", "postalCode": "H9S5W2", "twitter": "None", "instagram": "None", "facebook": "None", "youtube": "None", "website": "None", "summary": "None", "logo": "None", "latitude": 45.44747077935825, "longitude": -73.75170532979446}, "103515631RR0001": {"name": "FertilityCare Toronto", "designationCode": "C", "categoryCode": "09", "address": "200 - 500 EGLINTON AVE E", "city": "TORONTO", "province": "ON", "country": "CA", "postalCode": "M4P1N3", "twitter": "None", "instagram": "None", "facebook": "None", "youtube": "None", "website": "None", "summary": "None", "logo": "None", "latitude": 43.70991299999999, "longitude": -79.38271574999999}, "776714321RR0001": {"name": "Festin Entre Voisins", "designationCode": "C", "categoryCode": "09", "address": "550 348 RTE", "city": "SAINT-DIDACE", "province": "QC", "country": "CA", "postalCode": "J0K2G0", "twitter": "None", "instagram": "None", "facebook": "None", "youtube": "None", "website": "None", "summary": "None", "logo": "None", "latitude": 46.32882114328429, "longitude": -73.27608812971704}, "802599951RR0001": {"name": "Festival - Concours de musique de Rivi\u00e8re-du-Loup et de la r\u00e9gion du Bas St-Laurent", "designationCode": "C", "categoryCode": "22", "address": "C.P. 71", "city": "RIVI\u00c8RE-DU-LOUP", "province": "QC", "country": "CA", "postalCode": "G5R3Y7", "twitter": "None", "instagram": "None", "facebook": "None", "youtube": "None", "website": "None", "summary": "None", "logo": "None", "latitude": 47.835060000000055, "longitude": -69.53702299999993}, "806349767RR0001": {"name": "Festival d'orgue de Montr\u00e9al/Montr\u00e9al Organ Festival", "designationCode": "B", "categoryCode": "22", "address": "335 - 606 RUE CATHCART", "city": "MONTREAL", "province": "QC", "country": "CA", "postalCode": "H3B1K9", "twitter": "None", "instagram": "None", "facebook": "None", "youtube": "None", "website": "None", "summary": "None", "logo": "None", "latitude": 45.50352944489019, "longitude": -73.56822896984849}, "834816936RR0001": {"name": "Festival de sculptures d'art populaire de St-Ulric", "designationCode": "C", "categoryCode": "22", "address": "128 AV ULRIC-TESSIER", "city": "SAINT-ULRIC", "province": "QC", "country": "CA", "postalCode": "G0J3H0", "twitter": "None", "instagram": "None", "facebook": "None", "youtube": "None", "website": "None", "summary": "None", "logo": "None", "latitude": 48.78727592812618, "longitude": -67.69918099515256}, "807957808RR0001": {"name": "Festival de Cin\u00e9ma de la Ville de Qu\u00e9bec/Qu\u00e9bec City Film Festival", "designationCode": "C", "categoryCode": "22", "address": "CP 55051 CSP LANGELIER", "city": "QUEBEC", "province": "QC", "country": "CA", "postalCode": "G1K9A4", "twitter": "None", "instagram": "None", "facebook": "None", "youtube": "None", "website": "None", "summary": "None", "logo": "None", "latitude": 46.81310731338384, "longitude": -71.23176128952652}, "876542671RR0001": {"name": "Festival international de jardins / International Garden Festival", "designationCode": "A", "categoryCode": "53", "address": "200 ROUTE 132", "city": "GRAND-METIS", "province": "QC", "country": "CA", "postalCode": "G0J1Z0", "twitter": "None", "instagram": "None", "facebook": "None", "youtube": "None", "website": "None", "summary": "None", "logo": "None", "latitude": 48.628326366140435, "longitude": -68.1228591870078}, "831689013RR0001": {"name": "Festival Antigonish Foundation", "designationCode": "A", "categoryCode": "23", "address": "P.O. BOX 5000, BAUER THEATRE  ST. FRANCIS XAVIER UNIVERSITY", "city": "ANTIGONISH", "province": "NS", "country": "CA", "postalCode": "B2G2M5", "twitter": "None", "instagram": "None", "facebook": "None", "youtube": "None", "website": "None", "summary": "None", "logo": "None", "latitude": 45.619649957153484, "longitude": -61.997499968695564}, "825043581RR0001": {"name": "Festival Bloomsday Montr\u00e9al/Bloomsday Montreal", "designationCode": "B", "categoryCode": "22", "address": "133 BOUL DE L'UNION", "city": "SAINT-LAMBERT", "province": "QC", "country": "CA", "postalCode": "J4R2M7", "twitter": "None", "instagram": "None", "facebook": "None", "youtube": "None", "website": "None", "summary": "None", "logo": "None", "latitude": 45.49516748124545, "longitude": -73.50912025145709}, "118836816RR0001": {"name": "Festival Canadien des films du monde/Canadian World Wide Film Festival", "designationCode": "C", "categoryCode": "22", "address": "1432, RUE DE BLEURY", "city": "MONTREAL", "province": "QC", "country": "CA", "postalCode": "H3A2J1", "twitter": "None", "instagram": "None", "facebook": "None", "youtube": "None", "website": "None", "summary": "None", "logo": "None", "latitude": 45.506648986669795, "longitude": -73.56776576992318}, "828828004RR0001": {"name": "Festival Classica", "designationCode": "C", "categoryCode": "22", "address": "335, AVENUE CURZON", "city": "SAINT-LAMBERT", "province": "QC", "country": "CA", "postalCode": "J4P2V4", "twitter": "None", "instagram": "None", "facebook": "None", "youtube": "None", "website": "None", "summary": "None", "logo": "None", "latitude": 45.50805136329286, "longitude": -73.51160080350849}, "139332241RR0001": {"name": "Festival Clermont-P\u00e9pin", "designationCode": "C", "categoryCode": "22", "address": "CP 271 SUCC BUREAU-CHEF", "city": "SAINT-GEORGES", "province": "QC", "country": "CA", "postalCode": "G5Y5C7", "twitter": "None", "instagram": "None", "facebook": "None", "youtube": "None", "website": "None", "summary": "None", "logo": "None", "latitude": 46.12786800000005, "longitude": -70.64997199999993}, "809108699RR0001": {"name": "Festival Country de Trois-Rivi\u00e8res", "designationCode": "A", "categoryCode": "22", "address": "28-1322 SAINTE-JULIE", "city": "TROIS-RIVI\u00c8RES", "province": "QC", "country": "CA", "postalCode": "G9A1Y6", "twitter": "None", "instagram": "None", "facebook": "None", "youtube": "None", "website": "None", "summary": "None", "logo": "None", "latitude": 46.35120077130817, "longitude": -72.54992913362007}, "708792320RR0001": {"name": "Festival Songe d'\u00e9t\u00e9 en musique / Midsummer Music Dream Festival", "designationCode": "C", "categoryCode": "22", "address": "614 RUE PRINCIPALE", "city": "SAINT-SEBASTIEN-DE-FRONTENAC", "province": "QC", "country": "CA", "postalCode": "G0Y1M0", "twitter": "None", "instagram": "None", "facebook": "None", "youtube": "None", "website": "None", "summary": "None", "logo": "None", "latitude": 45.781509729124515, "longitude": -70.96900867317798}}