{"119178440RR0001": {"name": "ST. JAMES WESTMINSTER CHURCH FOUNDATION", "designationCode": "A", "categoryCode": "43", "address": "115 ASKIN ST", "city": "LONDON", "province": "ON", "country": "CA", "postalCode": "N6C1E7", "twitter": "None", "instagram": "None", "facebook": "None", "youtube": "None", "website": "None", "summary": "None", "logo": "None", "latitude": 42.97334554284748, "longitude": -81.25505891603673}, "119178010RR0001": {"name": "ST. JAMES-ST. ANDREW'S PRESBYTERIAN CHURCH", "designationCode": "C", "categoryCode": "37", "address": "17341 AMELL & RENALD GEORGE RD", "city": "ST. ANDREW'S WEST", "province": "ON", "country": "CA", "postalCode": "K0C2A0", "twitter": "None", "instagram": "None", "facebook": "None", "youtube": "None", "website": "None", "summary": "None", "logo": "None", "latitude": 45.15338363477391, "longitude": -74.8437076443532}, "119178432RR0002": {"name": "ST. JAMES' (WESTMINSTER) CHURCH", "designationCode": "C", "categoryCode": "30", "address": "115 ASKIN STREET", "city": "LONDON", "province": "ON", "country": "CA", "postalCode": "N6C1E7", "twitter": "None", "instagram": "None", "facebook": "None", "youtube": "None", "website": "None", "summary": "None", "logo": "None", "latitude": 42.97334554284748, "longitude": -81.25505891603673}, "119176857RR0002": {"name": "ST. JAMES' ANGLICAN CHURCH", "designationCode": "C", "categoryCode": "30", "address": "4276 ROSELAND DR E", "city": "WINDSOR", "province": "ON", "country": "CA", "postalCode": "N9G1Y7", "twitter": "None", "instagram": "None", "facebook": "None", "youtube": "None", "website": "None", "summary": "None", "logo": "None", "latitude": 42.24730372326748, "longitude": -82.99997031129877}, "868940693RR0001": {"name": "ST. JAMES' ANGLICAN CHURCH", "designationCode": "C", "categoryCode": "30", "address": "709 UPPER LAKEVILLE RD        RR#2", "city": "OYSTER PONDS", "province": "NS", "country": "CA", "postalCode": "B0J1W0", "twitter": "None", "instagram": "None", "facebook": "None", "youtube": "None", "website": "None", "summary": "None", "logo": "None", "latitude": 44.79890672823048, "longitude": -62.96394833207347}, "119176931RR0002": {"name": "ST. JAMES' CATHEDRAL", "designationCode": "C", "categoryCode": "30", "address": "9709 98 AVENUE", "city": "PEACE RIVER", "province": "AB", "country": "CA", "postalCode": "T8S1J3", "twitter": "None", "instagram": "None", "facebook": "None", "youtube": "None", "website": "None", "summary": "None", "logo": "None", "latitude": 56.23544750346245, "longitude": -117.2955417485429}, "108020652RR0001": {"name": "ST. JAMES' CHURCH", "designationCode": "C", "categoryCode": "30", "address": "P. O. BOX 272", "city": "ORILLIA", "province": "ON", "country": "CA", "postalCode": "L3V6J6", "twitter": "None", "instagram": "None", "facebook": "None", "youtube": "None", "website": "None", "summary": "None", "logo": "None", "latitude": 44.60657100000006, "longitude": -79.41824449999993}, "119177095RR0001": {"name": "ST. JAMES' CHURCH", "designationCode": "C", "categoryCode": "30", "address": "642 MONTEE WAKEHAM", "city": "GASPE", "province": "QC", "country": "CA", "postalCode": "G4X2A1", "twitter": "None", "instagram": "None", "facebook": "None", "youtube": "None", "website": "None", "summary": "None", "logo": "None", "latitude": 48.8277899448049, "longitude": -64.56207951749785}, "119177103RR0001": {"name": "ST. JAMES' CHURCH", "designationCode": "C", "categoryCode": "30", "address": "1261 CH DE L'ILE-SAINT-EUGENE", "city": "TROIS-RIVIERES", "province": "QC", "country": "CA", "postalCode": "G9B7P7", "twitter": "None", "instagram": "None", "facebook": "None", "youtube": "None", "website": "None", "summary": "None", "logo": "None", "latitude": 46.2817109553062, "longitude": -72.64926411281671}, "119177210RR0001": {"name": "ST. JAMES' CHURCH", "designationCode": "C", "categoryCode": "30", "address": "PO BOX 15", "city": "KINMOUNT", "province": "ON", "country": "CA", "postalCode": "K0M2A0", "twitter": "None", "instagram": "None", "facebook": "None", "youtube": "None", "website": "None", "summary": "None", "logo": "None", "latitude": 44.783420000000035, "longitude": -78.64956999999998}, "119177343RR0001": {"name": "ST. JAMES' CHURCH", "designationCode": "C", "categoryCode": "30", "address": "R.R. 1", "city": "BAYFIELD", "province": "ON", "country": "CA", "postalCode": "N0M1G0", "twitter": "None", "instagram": "None", "facebook": "None", "youtube": "None", "website": "None", "summary": "None", "logo": "None", "latitude": 43.567108618343774, "longitude": -81.70172238864089}, "119177384RR0002": {"name": "ST. JAMES' CHURCH", "designationCode": "C", "categoryCode": "30", "address": "P O BOX 4", "city": "PORT LAMBTON", "province": "ON", "country": "CA", "postalCode": "N0P2B0", "twitter": "None", "instagram": "None", "facebook": "None", "youtube": "None", "website": "None", "summary": "None", "logo": "None", "latitude": 42.65674000000007, "longitude": -82.50609999999995}, "119177418RR0002": {"name": "ST. JAMES' CHURCH", "designationCode": "C", "categoryCode": "30", "address": "217 GRAND STREET", "city": "BRANTFORD", "province": "ON", "country": "CA", "postalCode": "N3R4C2", "twitter": "None", "instagram": "None", "facebook": "None", "youtube": "None", "website": "None", "summary": "None", "logo": "None", "latitude": 43.16138088536564, "longitude": -80.26279632373493}, "119177541RR0001": {"name": "ST. JAMES' CHURCH", "designationCode": "C", "categoryCode": "30", "address": "BOX 434", "city": "PREECEVILLE", "province": "SK", "country": "CA", "postalCode": "S0A3B0", "twitter": "None", "instagram": "None", "facebook": "None", "youtube": "None", "website": "None", "summary": "None", "logo": "None", "latitude": 51.95420000000007, "longitude": -102.64748999999995}, "869974840RR0001": {"name": "ST. JAMES' CHURCH", "designationCode": "C", "categoryCode": "30", "address": "328 PINE AVE", "city": "ROSEMERE", "province": "QC", "country": "CA", "postalCode": "J7A1T8", "twitter": "None", "instagram": "None", "facebook": "None", "youtube": "None", "website": "None", "summary": "None", "logo": "None", "latitude": 45.6379387868314, "longitude": -73.7963848988114}, "869999441RR0001": {"name": "ST. JAMES' CHURCH", "designationCode": "C", "categoryCode": "30", "address": "12 APPLEGLEN", "city": "HUDSON", "province": "QC", "country": "CA", "postalCode": "J0P1H0", "twitter": "None", "instagram": "None", "facebook": "None", "youtube": "None", "website": "None", "summary": "None", "logo": "None", "latitude": 45.44663077378967, "longitude": -74.1362383685443}, "891535940RR0002": {"name": "ST. JAMES' CHURCH", "designationCode": "C", "categoryCode": "30", "address": "PO BOX 1168 STN MAIN", "city": "SAULT STE. MARIE", "province": "ON", "country": "CA", "postalCode": "P6A5N7", "twitter": "None", "instagram": "None", "facebook": "None", "youtube": "None", "website": "None", "summary": "None", "logo": "None", "latitude": 46.517883000000054, "longitude": -84.34795399999993}, "893186171RR0002": {"name": "ST. JAMES' CHURCH", "designationCode": "C", "categoryCode": "30", "address": "40 DUPONT", "city": "BEDFORD", "province": "QC", "country": "CA", "postalCode": "J0J1A0", "twitter": "None", "instagram": "None", "facebook": "None", "youtube": "None", "website": "None", "summary": "None", "logo": "None", "latitude": 45.138762000000014, "longitude": -73.19027930544028}, "108099771RR0045": {"name": "ST. JAMES' CHURCH (FERGUS)", "designationCode": "C", "categoryCode": "30", "address": "BOX 93", "city": "FERGUS", "province": "ON", "country": "CA", "postalCode": "N1M2W7", "twitter": "None", "instagram": "None", "facebook": "None", "youtube": "None", "website": "None", "summary": "None", "logo": "None", "latitude": 43.705428000000055, "longitude": -80.37816199999993}, "119176980RR0002": {"name": "ST. JAMES' CHURCH AND ST. JOHN'S CHURCH", "designationCode": "C", "categoryCode": "30", "address": "BOX 134", "city": "DWIGHT", "province": "ON", "country": "CA", "postalCode": "P0A1H0", "twitter": "None", "instagram": "None", "facebook": "None", "youtube": "None", "website": "None", "summary": "None", "logo": "None", "latitude": 45.258990000000054, "longitude": -79.05489649999993}, "119177004RR0001": {"name": "ST. JAMES' CHURCH FENELON FALLS", "designationCode": "C", "categoryCode": "30", "address": "PO BOX 409", "city": "FENELON FALLS", "province": "ON", "country": "CA", "postalCode": "K0M1N0", "twitter": "None", "instagram": "None", "facebook": "None", "youtube": "None", "website": "None", "summary": "None", "logo": "None", "latitude": 44.53758000000005, "longitude": -78.73584999999997}, "119110450RR0028": {"name": "ST. JAMES' PARISH", "designationCode": "C", "categoryCode": "38", "address": "231 MORDEN ROAD", "city": "OAKVILLE", "province": "ON", "country": "CA", "postalCode": "L6K2S2", "twitter": "None", "instagram": "None", "facebook": "None", "youtube": "None", "website": "None", "summary": "None", "logo": "None", "latitude": 43.43573841355524, "longitude": -79.68744591574828}, "812264604RR0001": {"name": "ST. JAMES' ROMAN CATHOLIC PARISH (SUMMERFIELD) INC.", "designationCode": "C", "categoryCode": "38", "address": "RR#6 SUMMERFIELD", "city": "KENSINGTON", "province": "PE", "country": "CA", "postalCode": "C0B1M0", "twitter": "None", "instagram": "None", "facebook": "None", "youtube": "None", "website": "None", "summary": "None", "logo": "None", "latitude": -35.72802351067581, "longitude": 174.3554064132668}, "108020686RR0002": {"name": "ST. JAMES'ANGLICAN CHURCH", "designationCode": "C", "categoryCode": "30", "address": "520 ELLIS ROAD P.O.BOX 29044", "city": "CAMBRIDGE", "province": "ON", "country": "CA", "postalCode": "N3C0E6", "twitter": "None", "instagram": "None", "facebook": "None", "youtube": "None", "website": "None", "summary": "None", "logo": "None", "latitude": 43.42793973270255, "longitude": -80.29507793421436}, "883408619RR0001": {"name": "ST. JAMESTOWN COMMUNITY CHURCH", "designationCode": "C", "categoryCode": "36", "address": "1084 SIMCOE ST SOUTH", "city": "OSHAWA", "province": "ON", "country": "CA", "postalCode": "L1H4L6", "twitter": "None", "instagram": "None", "facebook": "None", "youtube": "None", "website": "None", "summary": "None", "logo": "None", "latitude": 43.87323944412508, "longitude": -78.84336654736492}, "107585085RR0058": {"name": "ST. JEAN BAPTISTE PARISH, DEBDEN, SK", "designationCode": "C", "categoryCode": "38", "address": "CP70", "city": "DEBDEN", "province": "SK", "country": "CA", "postalCode": "S0J0S0", "twitter": "None", "instagram": "None", "facebook": "None", "youtube": "None", "website": "None", "summary": "None", "logo": "None", "latitude": 53.516800000000046, "longitude": -106.88443999999998}, "105027692RR0001": {"name": "ST. JEAN BAPTISTE PARKS AND RECREATION ASSOCIATION INC.", "designationCode": "C", "categoryCode": "56", "address": "PO BOX 276", "city": "ST JEAN BAPTISTE", "province": "MB", "country": "CA", "postalCode": "R0G2B0", "twitter": "None", "instagram": "None", "facebook": "None", "youtube": "None", "website": "None", "summary": "None", "logo": "None", "latitude": 49.534549955252906, "longitude": -98.55938926459514}, "107876476RR0034": {"name": "ST. JEROME'S CHURCH", "designationCode": "C", "categoryCode": "38", "address": "26 CARMEL ROAD", "city": "SAULT STE.MARIE", "province": "ON", "country": "CA", "postalCode": "P6A3N9", "twitter": "None", "instagram": "None", "facebook": "None", "youtube": "None", "website": "None", "summary": "None", "logo": "None", "latitude": 46.51044050158654, "longitude": -84.29245272300767}, "119109833RR0048": {"name": "ST. JEROME'S CHURCH", "designationCode": "C", "categoryCode": "38", "address": "PO BOX 160", "city": "LIVERPOOL", "province": "NS", "country": "CA", "postalCode": "B0T1K0", "twitter": "None", "instagram": "None", "facebook": "None", "youtube": "None", "website": "None", "summary": "None", "logo": "None", "latitude": 44.03577000000007, "longitude": -64.72067999999996}, "119178531RR0001": {"name": "ST. JEROME'S PARISH", "designationCode": "C", "categoryCode": "38", "address": "BOX 589", "city": "REGINA BEACH", "province": "SK", "country": "CA", "postalCode": "S0G4C0", "twitter": "None", "instagram": "None", "facebook": "None", "youtube": "None", "website": "None", "summary": "None", "logo": "None", "latitude": 50.72346000000002, "longitude": -103.64722425000001}, "108162280RR0001": {"name": "ST. JEROME'S UNIVERSITY", "designationCode": "C", "categoryCode": "20", "address": "290 WESTMOUNT RD NORTH", "city": "WATERLOO", "province": "ON", "country": "CA", "postalCode": "N2L3G3", "twitter": "None", "instagram": "None", "facebook": "None", "youtube": "None", "website": "None", "summary": "None", "logo": "None", "latitude": 43.46828657573936, "longitude": -80.5482409349947}, "107020331RR0029": {"name": "ST. JOACHIM'S PARISH", "designationCode": "C", "categoryCode": "38", "address": "6124 ROUTE 8", "city": "BOIESTOWN", "province": "NB", "country": "CA", "postalCode": "E6A1M7", "twitter": "None", "instagram": "None", "facebook": "None", "youtube": "None", "website": "None", "summary": "None", "logo": "None", "latitude": 46.45607003277806, "longitude": -66.41857941724732}, "118787142RR0046": {"name": "ST. JOHN BAPTIST'S CHURCH", "designationCode": "C", "categoryCode": "30", "address": "PO BOX 690 STN MAIN", "city": "DUNCAN", "province": "BC", "country": "CA", "postalCode": "V9L3Y1", "twitter": "None", "instagram": "None", "facebook": "None", "youtube": "None", "website": "None", "summary": "None", "logo": "None", "latitude": 48.77908800000006, "longitude": -123.70739299999994}, "118974849RR0001": {"name": "ST. JOHN BOSCO CAMP", "designationCode": "C", "categoryCode": "56", "address": "BOX 3002", "city": "SASKATOON", "province": "SK", "country": "CA", "postalCode": "S7K3S9", "twitter": "None", "instagram": "None", "facebook": "None", "youtube": "None", "website": "None", "summary": "None", "logo": "None", "latitude": 52.13049000000005, "longitude": -106.65926449999994}, "135262145RR0001": {"name": "ST. JOHN BOSCO CHILDREN'S CENTRE", "designationCode": "C", "categoryCode": "01", "address": "12 DURHAM ST", "city": "BROCKVILLE", "province": "ON", "country": "CA", "postalCode": "K6V7A4", "twitter": "None", "instagram": "None", "facebook": "None", "youtube": "None", "website": "None", "summary": "None", "logo": "None", "latitude": 44.608675954089264, "longitude": -75.7088133008993}, "119109791RR0018": {"name": "ST. JOHN BOSCO CHURCH", "designationCode": "C", "categoryCode": "38", "address": "375 MAIN STREET WEST", "city": "PORT COLBORNE", "province": "ON", "country": "CA", "postalCode": "L3K3V9", "twitter": "None", "instagram": "None", "facebook": "None", "youtube": "None", "website": "None", "summary": "None", "logo": "None", "latitude": 42.89882952986306, "longitude": -79.25694155398465}, "107307191RR0012": {"name": "ST. JOHN BOSCO PARISH", "designationCode": "C", "categoryCode": "38", "address": "1202 AVE. O SOUTH", "city": "SASKATOON", "province": "SK", "country": "CA", "postalCode": "S7M2T6", "twitter": "None", "instagram": "None", "facebook": "None", "youtube": "None", "website": "None", "summary": "None", "logo": "None", "latitude": 52.11251958090486, "longitude": -106.69252729776701}, "107910176RR0030": {"name": "ST. JOHN BOSCO PARISH", "designationCode": "C", "categoryCode": "38", "address": "PO BOX 1363 STN C", "city": "ST. JOHN'S", "province": "NL", "country": "CA", "postalCode": "A1C5N5", "twitter": "None", "instagram": "None", "facebook": "None", "youtube": "None", "website": "None", "summary": "None", "logo": "None", "latitude": 47.56082100000006, "longitude": -52.71219349999993}, "119110443RR0046": {"name": "ST. JOHN BOSCO PARISH", "designationCode": "C", "categoryCode": "38", "address": "175 WINDSOR DR", "city": "BROCKVILLE", "province": "ON", "country": "CA", "postalCode": "K6V3H8", "twitter": "None", "instagram": "None", "facebook": "None", "youtube": "None", "website": "None", "summary": "None", "logo": "None", "latitude": 44.611156288533245, "longitude": -75.70906985908694}, "108022450RR0001": {"name": "ST. JOHN BREBEUF SCHOOL, INC.", "designationCode": "C", "categoryCode": "38", "address": "605 RENFREW ST", "city": "WINNIPEG", "province": "MB", "country": "CA", "postalCode": "R3N1J8", "twitter": "None", "instagram": "None", "facebook": "None", "youtube": "None", "website": "None", "summary": "None", "logo": "None", "latitude": 49.86077721648681, "longitude": -97.19685263269643}, "897199709RR0001": {"name": "ST. JOHN CANADA FOUNDATION", "designationCode": "C", "categoryCode": "03", "address": "1900 CITY PARK DRIVE          SUITE 400", "city": "OTTAWA", "province": "ON", "country": "CA", "postalCode": "K1J1A3", "twitter": "None", "instagram": "None", "facebook": "None", "youtube": "None", "website": "None", "summary": "None", "logo": "None", "latitude": 45.429072614173045, "longitude": -75.61430238034531}, "108022468RR0001": {"name": "ST. JOHN CANTIUS CHURCH", "designationCode": "C", "categoryCode": "38", "address": "846 BURROWS AVE", "city": "WINNIPEG", "province": "MB", "country": "CA", "postalCode": "R2X0R4", "twitter": "None", "instagram": "None", "facebook": "None", "youtube": "None", "website": "None", "summary": "None", "logo": "None", "latitude": 49.92312105687018, "longitude": -97.15766224329144}, "893895060RR0001": {"name": "ST. JOHN CEMETERY", "designationCode": "C", "categoryCode": "59", "address": "S-370 REGIONAL ROAD 10", "city": "SUNDERLAND", "province": "ON", "country": "CA", "postalCode": "L0C1H0", "twitter": "None", "instagram": "None", "facebook": "None", "youtube": "None", "website": "None", "summary": "None", "logo": "None", "latitude": 44.24987887870425, "longitude": -79.12393799143219}, "108022252RR0001": {"name": "ST. JOHN COUNCIL FOR FEDERAL DISTRICT SAINT-JEAN CONSEIL DU DISTRICT FEDERAL", "designationCode": "C", "categoryCode": "11", "address": "101 - 1050 MORRISON DR", "city": "OTTAWA", "province": "ON", "country": "CA", "postalCode": "K2H8K7", "twitter": "None", "instagram": "None", "facebook": "None", "youtube": "None", "website": "None", "summary": "None", "logo": "None", "latitude": 45.34599051601325, "longitude": -75.79153944601535}, "123226110RR0001": {"name": "ST. JOHN COUNCIL FOR MANITOBA", "designationCode": "C", "categoryCode": "11", "address": "ONE ST JOHN AMBULANCE WAY", "city": "WINNIPEG", "province": "MB", "country": "CA", "postalCode": "R3G3H5", "twitter": "None", "instagram": "None", "facebook": "None", "youtube": "None", "website": "None", "summary": "None", "logo": "None", "latitude": 49.88051747136118, "longitude": -97.197282}, "893293860RR0001": {"name": "ST. JOHN COUNCIL FOR NEW BRUNSWICK INC.", "designationCode": "C", "categoryCode": "11", "address": "PO BOX 3599 STN B", "city": "FREDERICTON", "province": "NB", "country": "CA", "postalCode": "E3A5J8", "twitter": "None", "instagram": "None", "facebook": "None", "youtube": "None", "website": "None", "summary": "None", "logo": "None", "latitude": 45.958638328435796, "longitude": -66.62155541090102}, "842779118RR0001": {"name": "ST. JOHN COUNCIL FOR NEWFOUNDLAND AND LABRADOR INC.", "designationCode": "C", "categoryCode": "11", "address": "8 THOMAS BYRNE DRIVE", "city": "MOUNT PEARL", "province": "NL", "country": "CA", "postalCode": "A1N0E1", "twitter": "None", "instagram": "None", "facebook": "None", "youtube": "None", "website": "None", "summary": "None", "logo": "None", "latitude": 47.52855008809437, "longitude": -52.82534030358186}, "108022518RR0001": {"name": "ST. JOHN COUNCIL FOR NOVA SCOTIA/PRINCE EDWARD ISLAND", "designationCode": "C", "categoryCode": "11", "address": "72 HIGHFIELD PARK DR", "city": "DARTHMOUTH", "province": "NS", "country": "CA", "postalCode": "B3A4X2", "twitter": "None", "instagram": "None", "facebook": "None", "youtube": "None", "website": "None", "summary": "None", "logo": "None", "latitude": 44.68735075855489, "longitude": -63.59061030858612}, "108022237RR0001": {"name": "ST. JOHN COUNCIL FOR ONTARIO", "designationCode": "C", "categoryCode": "11", "address": "15 TORONTO ST                 SUITE 800", "city": "TORONTO", "province": "ON", "country": "CA", "postalCode": "M5C2E3", "twitter": "None", "instagram": "None", "facebook": "None", "youtube": "None", "website": "None", "summary": "None", "logo": "None", "latitude": 43.65020112129949, "longitude": -79.37595010436259}, "119178812RR0001": {"name": "ST. JOHN COUNCIL FOR SASKATCHEWAN INC.", "designationCode": "C", "categoryCode": "11", "address": "2625 3RD AVE", "city": "REGINA", "province": "SK", "country": "CA", "postalCode": "S4T0C8", "twitter": "None", "instagram": "None", "facebook": "None", "youtube": "None", "website": "None", "summary": "None", "logo": "None", "latitude": 50.464454502885545, "longitude": -104.61929383236193}, "119109817RR0089": {"name": "ST. JOHN DE BREBEUF", "designationCode": "C", "categoryCode": "38", "address": "67 MAIN ST E", "city": "KINGSVILLE", "province": "ON", "country": "CA", "postalCode": "N9Y1A1", "twitter": "None", "instagram": "None", "facebook": "None", "youtube": "None", "website": "None", "summary": "None", "logo": "None", "latitude": 42.037961096865594, "longitude": -82.73678124962194}, "119110450RR0115": {"name": "ST. JOHN DE BREBEUF PARISH", "designationCode": "C", "categoryCode": "38", "address": "24 MILLWOOD RD PO BOX 269", "city": "ERIN", "province": "ON", "country": "CA", "postalCode": "N0B1T0", "twitter": "None", "instagram": "None", "facebook": "None", "youtube": "None", "website": "None", "summary": "None", "logo": "None", "latitude": 43.770494804373875, "longitude": -80.05879741915247}, "108023664RR0001": {"name": "ST. JOHN EVANGELICAL LUTHERAN CHURCH", "designationCode": "C", "categoryCode": "32", "address": "BOX 214", "city": "ROSENFELD", "province": "MB", "country": "CA", "postalCode": "R0G1X0", "twitter": "None", "instagram": "None", "facebook": "None", "youtube": "None", "website": "None", "summary": "None", "logo": "None", "latitude": 49.198840000000075, "longitude": -97.54969999999997}, "108023383RR0001": {"name": "ST. JOHN EVANGELICAL LUTHERAN CHURCH (OTTAWA)", "designationCode": "C", "categoryCode": "32", "address": "270 CRICHTON STREET", "city": "OTTAWA", "province": "ON", "country": "CA", "postalCode": "K1M1W4", "twitter": "None", "instagram": "None", "facebook": "None", "youtube": "None", "website": "None", "summary": "None", "logo": "None", "latitude": 45.43938981876756, "longitude": -75.68159571679581}, "893474775RR0001": {"name": "ST. JOHN EVANGELICAL LUTHERAN CHURCH EDENNOLD", "designationCode": "C", "categoryCode": "32", "address": "BOX 16", "city": "EDENWOLD", "province": "SK", "country": "CA", "postalCode": "S0G1K0", "twitter": "None", "instagram": "None", "facebook": "None", "youtube": "None", "website": "None", "summary": "None", "logo": "None", "latitude": 50.62997000000007, "longitude": -104.25361999999996}, "119178986RR0001": {"name": "ST. JOHN EVANGELICAL LUTHERAN CHURCH OF STRASBOURG INC.", "designationCode": "C", "categoryCode": "32", "address": "BOX 505", "city": "STRASBOURG", "province": "SK", "country": "CA", "postalCode": "S0G4V0", "twitter": "None", "instagram": "None", "facebook": "None", "youtube": "None", "website": "None", "summary": "None", "logo": "None", "latitude": 51.07036000000005, "longitude": -104.96119999999996}, "860240837RR0001": {"name": "ST. JOHN HOSPITAL AUXILIARY SOCIETY", "designationCode": "C", "categoryCode": "19", "address": "3255 HOSPITAL RD              RR 2", "city": "VANDERHOOF", "province": "BC", "country": "CA", "postalCode": "V0J3A2", "twitter": "None", "instagram": "None", "facebook": "None", "youtube": "None", "website": "None", "summary": "None", "logo": "None", "latitude": 54.02827116039604, "longitude": -124.00929663332973}, "108022617RR0001": {"name": "ST. JOHN LUTHERAN CHURCH", "designationCode": "C", "categoryCode": "32", "address": "204 6A ST NE", "city": "CALGARY", "province": "AB", "country": "CA", "postalCode": "T2E4A5", "twitter": "None", "instagram": "None", "facebook": "None", "youtube": "None", "website": "None", "summary": "None", "logo": "None", "latitude": 51.05366262392522, "longitude": -114.0469085189857}, "893503060RR0001": {"name": "ST. JOHN LUTHERAN CHURCH", "designationCode": "C", "categoryCode": "32", "address": "BOX 45", "city": "MOOSEHORN", "province": "MB", "country": "CA", "postalCode": "R0C2E0", "twitter": "None", "instagram": "None", "facebook": "None", "youtube": "None", "website": "None", "summary": "None", "logo": "None", "latitude": 51.29192000000006, "longitude": -98.42536999999999}, "108023680RR0001": {"name": "ST. JOHN LUTHERAN CHURCH, FROBISHER, SASK.", "designationCode": "C", "categoryCode": "32", "address": "BOX 325", "city": "FROBISHER", "province": "SK", "country": "CA", "postalCode": "S0C0Y0", "twitter": "None", "instagram": "None", "facebook": "None", "youtube": "None", "website": "None", "summary": "None", "logo": "None", "latitude": 49.20005000000003, "longitude": -102.43419999999998}, "119113017RR0001": {"name": "ST. JOHN NEUMANN FOUNDATION FONDATION ST. JEAN NEUMANN", "designationCode": "A", "categoryCode": "49", "address": "199 BAY ST., SUITE 4000       COMMERCE COURT WEST", "city": "TORONTO", "province": "ON", "country": "CA", "postalCode": "M5L1A9", "twitter": "None", "instagram": "None", "facebook": "None", "youtube": "None", "website": "None", "summary": "None", "logo": "None", "latitude": 43.64868300000006, "longitude": -79.38544399999994}, "107910259RR0182": {"name": "ST. JOHN OF THE CROSS PARISH", "designationCode": "C", "categoryCode": "38", "address": "6890 GLEN ERIN DRIVE", "city": "MISSISSAUGA", "province": "ON", "country": "CA", "postalCode": "L5N2E1", "twitter": "None", "instagram": "None", "facebook": "None", "youtube": "None", "website": "None", "summary": "None", "logo": "None", "latitude": 43.591178276126946, "longitude": -79.76279803903832}, "107669848RR0019": {"name": "ST. JOHN SEVENTH-DAY ADVENTIST CHURCH", "designationCode": "C", "categoryCode": "41", "address": "121 SALISBURY ROAD", "city": "MONCTON", "province": "NB", "country": "CA", "postalCode": "E1E1A6", "twitter": "None", "instagram": "None", "facebook": "None", "youtube": "None", "website": "None", "summary": "None", "logo": "None", "latitude": 46.0711640413756, "longitude": -64.82144086984238}, "108022500RR0009": {"name": "ST. JOHN SOCIETY (BRITISH COLUMBIA AND YUKON)", "designationCode": "A", "categoryCode": "11", "address": "201 - 6111 CAMBIE ST", "city": "VANCOUVER", "province": "BC", "country": "CA", "postalCode": "V5Z3B2", "twitter": "None", "instagram": "None", "facebook": "None", "youtube": "None", "website": "None", "summary": "None", "logo": "None", "latitude": 49.229682551081645, "longitude": -123.11660128585717}, "119110443RR0038": {"name": "ST. JOHN THE APOSTLE", "designationCode": "C", "categoryCode": "38", "address": "88 PATRICK STREET", "city": "KINGSTON", "province": "ON", "country": "CA", "postalCode": "K7K3P1", "twitter": "None", "instagram": "None", "facebook": "None", "youtube": "None", "website": "None", "summary": "None", "logo": "None", "latitude": 44.23893639494492, "longitude": -76.48908740885204}, "118849470RR0054": {"name": "ST. JOHN THE APOSTLE PARISH", "designationCode": "C", "categoryCode": "38", "address": "5457 TRAFALGAR ST", "city": "VANCOUVER", "province": "BC", "country": "CA", "postalCode": "V6N1C1", "twitter": "None", "instagram": "None", "facebook": "None", "youtube": "None", "website": "None", "summary": "None", "logo": "None", "latitude": 49.236857947544564, "longitude": -123.1658260488774}, "107876468RR0014": {"name": "ST. JOHN THE APOSTLE PARISH OF BRENT'S COVE", "designationCode": "C", "categoryCode": "38", "address": "GENERAL DELIVERY", "city": "BRENT'S COVE", "province": "NL", "country": "CA", "postalCode": "A0K1R0", "twitter": "None", "instagram": "None", "facebook": "None", "youtube": "None", "website": "None", "summary": "None", "logo": "None", "latitude": 49.93542600000005, "longitude": -55.71333349999993}, "119109817RR0085": {"name": "ST. JOHN THE BAPTIST", "designationCode": "C", "categoryCode": "38", "address": "225 BROCK STREET", "city": "AMHERSTBURG", "province": "ON", "country": "CA", "postalCode": "N9V2H3", "twitter": "None", "instagram": "None", "facebook": "None", "youtube": "None", "website": "None", "summary": "None", "logo": "None", "latitude": 42.10270106662236, "longitude": -83.1041507404355}, "119110450RR0017": {"name": "ST. JOHN THE BAPTIST", "designationCode": "C", "categoryCode": "38", "address": "128 EDGEMONT ST. SOUTH", "city": "HAMILTON", "province": "ON", "country": "CA", "postalCode": "L8K2H8", "twitter": "None", "instagram": "None", "facebook": "None", "youtube": "None", "website": "None", "summary": "None", "logo": "None", "latitude": 43.238229061179105, "longitude": -79.81942369316461}, "835351347RR0001": {"name": "ST. JOHN THE BAPTIST & ST. ELIZABETH COPTIC ORTHODOX CHURCH", "designationCode": "C", "categoryCode": "39", "address": "697 7TH LINE SOUTH RR.3", "city": "ORO STATION", "province": "ON", "country": "CA", "postalCode": "L0L2E0", "twitter": "None", "instagram": "None", "facebook": "None", "youtube": "None", "website": "None", "summary": "None", "logo": "None", "latitude": 44.458994428965944, "longitude": -79.51741213400757}, "119109833RR0010": {"name": "ST. JOHN THE BAPTIST CHURCH", "designationCode": "C", "categoryCode": "38", "address": "26 PURCELL'S COVE RD", "city": "HALIFAX", "province": "NS", "country": "CA", "postalCode": "B3N1R4", "twitter": "None", "instagram": "None", "facebook": "None", "youtube": "None", "website": "None", "summary": "None", "logo": "None", "latitude": 44.635568479052424, "longitude": -63.619621127359}, "108024779RR0001": {"name": "ST. JOHN THE BAPTIST HUNGARIAN GREEK CATHOLIC CHURCH", "designationCode": "C", "categoryCode": "38", "address": "111 SECOND ST", "city": "WELLAND", "province": "ON", "country": "CA", "postalCode": "L3B4T8", "twitter": "None", "instagram": "None", "facebook": "None", "youtube": "None", "website": "None", "summary": "None", "logo": "None", "latitude": 42.98186049567219, "longitude": -79.2457422485429}, "107020331RR0032": {"name": "ST. JOHN THE BAPTIST PARISH", "designationCode": "C", "categoryCode": "38", "address": "P.O. BOX 423", "city": "SAINT JOHN", "province": "NB", "country": "CA", "postalCode": "E2L4L9", "twitter": "None", "instagram": "None", "facebook": "None", "youtube": "None", "website": "None", "summary": "None", "logo": "None", "latitude": 45.27342600000006, "longitude": -66.06407149999993}, "107910259RR0215": {"name": "ST. JOHN THE BAPTIST PARISH", "designationCode": "C", "categoryCode": "39", "address": "941 DUNDAS ST W", "city": "TORONTO", "province": "ON", "country": "CA", "postalCode": "M6J1W4", "twitter": "None", "instagram": "None", "facebook": "None", "youtube": "None", "website": "None", "summary": "None", "logo": "None", "latitude": 43.65068583484343, "longitude": -79.41381781473257}, "108024811RR0001": {"name": "ST. JOHN THE BAPTIST PARISH", "designationCode": "C", "categoryCode": "38", "address": "109 12TH AVE", "city": "ESTEVAN", "province": "SK", "country": "CA", "postalCode": "S4A1C9", "twitter": "None", "instagram": "None", "facebook": "None", "youtube": "None", "website": "None", "summary": "None", "logo": "None", "latitude": 49.138101413608304, "longitude": -102.996911791856}, "108024829RR0001": {"name": "ST. JOHN THE BAPTIST PARISH", "designationCode": "C", "categoryCode": "38", "address": "4609 50 AVE", "city": "ST PAUL", "province": "AB", "country": "CA", "postalCode": "T0A3A3", "twitter": "None", "instagram": "None", "facebook": "None", "youtube": "None", "website": "None", "summary": "None", "logo": "None", "latitude": 53.99135148730496, "longitude": -111.28695202553523}, "106880107RR0055": {"name": "ST. JOHN THE BAPTIST PARISH, NEW GLASGOW", "designationCode": "C", "categoryCode": "38", "address": "390 HIGH STREET", "city": "NEW GLASGOW", "province": "NS", "country": "CA", "postalCode": "B2H2X7", "twitter": "None", "instagram": "None", "facebook": "None", "youtube": "None", "website": "None", "summary": "None", "logo": "None", "latitude": 45.59663415987644, "longitude": -62.638720519879726}, "106880107RR0066": {"name": "ST. JOHN THE BAPTIST PARISH, RIVER BOURGEOIS", "designationCode": "C", "categoryCode": "38", "address": "P.O. BOX 24                   403 CHURCH POINT ROAD", "city": "RIVER BOURGEOIS", "province": "NS", "country": "CA", "postalCode": "B0E2X0", "twitter": "None", "instagram": "None", "facebook": "None", "youtube": "None", "website": "None", "summary": "None", "logo": "None", "latitude": 45.629300482110835, "longitude": -60.944899133360266}, "106880107RR0035": {"name": "ST. JOHN THE BAPTIST PARISH, WHYCOCOMAGH", "designationCode": "C", "categoryCode": "38", "address": "BROOK VILLAGE RR2", "city": "WHYCOCOMAGH", "province": "NS", "country": "CA", "postalCode": "B0E3M0", "twitter": "None", "instagram": "None", "facebook": "None", "youtube": "None", "website": "None", "summary": "None", "logo": "None", "latitude": 45.97889100000006, "longitude": -61.133367499999935}, "812235208RR0001": {"name": "ST. JOHN THE BAPTIST ROMAN CATHOLIC PARISH INC.", "designationCode": "C", "categoryCode": "38", "address": "PO BOX 10", "city": "MISCOUCHE", "province": "PE", "country": "CA", "postalCode": "C0B1T0", "twitter": "None", "instagram": "None", "facebook": "None", "youtube": "None", "website": "None", "summary": "None", "logo": "None", "latitude": 46.431670000000054, "longitude": -63.86304999999999}, "842154569RR0001": {"name": "ST. JOHN THE BAPTIST UKRAINIAN CEMETERY FUND", "designationCode": "C", "categoryCode": "59", "address": "BOX 15", "city": "DYSART", "province": "SK", "country": "CA", "postalCode": "S0G1H0", "twitter": "None", "instagram": "None", "facebook": "None", "youtube": "None", "website": "None", "summary": "None", "logo": "None", "latitude": 50.945730000000026, "longitude": -104.03088999999994}, "108084658RR0124": {"name": "ST. JOHN THE BAPTIST, RICHMOND", "designationCode": "C", "categoryCode": "30", "address": "67 FOWLER ST                  PO BOX 82", "city": "RICHMOND", "province": "ON", "country": "CA", "postalCode": "K0A2Z0", "twitter": "None", "instagram": "None", "facebook": "None", "youtube": "None", "website": "None", "summary": "None", "logo": "None", "latitude": 45.18732288110326, "longitude": -75.8353704511738}, "893945428RR0001": {"name": "ST. JOHN THE BELOVED SPIRITUAL BAPTIST CHURCH", "designationCode": "C", "categoryCode": "39", "address": "1683 ST CLAIR AVENUE WEST", "city": "TORONTO", "province": "ON", "country": "CA", "postalCode": "M6N1H9", "twitter": "None", "instagram": "None", "facebook": "None", "youtube": "None", "website": "None", "summary": "None", "logo": "None", "latitude": 43.67444185316529, "longitude": -79.45856620246411}, "893281832RR0001": {"name": "ST. JOHN THE COMPASSIONATE MISSION", "designationCode": "C", "categoryCode": "38", "address": "155 BROADVIEW AVE", "city": "TORONTO", "province": "ON", "country": "CA", "postalCode": "M4M2E9", "twitter": "None", "instagram": "None", "facebook": "None", "youtube": "None", "website": "None", "summary": "None", "logo": "None", "latitude": 43.660429595620016, "longitude": -79.35047029459304}, "896268760RR0001": {"name": "ST. JOHN THE DIVINE", "designationCode": "C", "categoryCode": "30", "address": "BOX 265", "city": "ACME", "province": "AB", "country": "CA", "postalCode": "T0M0A0", "twitter": "None", "instagram": "None", "facebook": "None", "youtube": "None", "website": "None", "summary": "None", "logo": "None", "latitude": 51.49533000000008, "longitude": -113.50818999999996}, "108024860RR0001": {"name": "ST. JOHN THE DIVINE ANGLICAN CHURCH", "designationCode": "C", "categoryCode": "30", "address": "21299 RIVER ROAD", "city": "MAPLE RIDGE", "province": "BC", "country": "CA", "postalCode": "V2X2B1", "twitter": "None", "instagram": "None", "facebook": "None", "youtube": "None", "website": "None", "summary": "None", "logo": "None", "latitude": 49.2131312961509, "longitude": -122.63166882154188}, "119109817RR0118": {"name": "ST. JOHN THE DIVINE PARISH", "designationCode": "C", "categoryCode": "38", "address": "390 BASE LINE RD W", "city": "LONDON", "province": "ON", "country": "CA", "postalCode": "N6J1W1", "twitter": "None", "instagram": "None", "facebook": "None", "youtube": "None", "website": "None", "summary": "None", "logo": "None", "latitude": 42.96250771717931, "longitude": -81.27939451673534}, "118861863RR0002": {"name": "ST. JOHN THE EVANGELIST", "designationCode": "C", "categoryCode": "30", "address": "280 ST JAMES ST", "city": "LONDON", "province": "ON", "country": "CA", "postalCode": "N6A1X3", "twitter": "None", "instagram": "None", "facebook": "None", "youtube": "None", "website": "None", "summary": "None", "logo": "None", "latitude": 42.99834495034321, "longitude": -81.2516693982918}, "119110443RR0057": {"name": "ST. JOHN THE EVANGELIST", "designationCode": "C", "categoryCode": "38", "address": "P.O. BOX 69                   3513 FLINTON RD.", "city": "FLINTON", "province": "ON", "country": "CA", "postalCode": "K0H1P0", "twitter": "None", "instagram": "None", "facebook": "None", "youtube": "None", "website": "None", "summary": "None", "logo": "None", "latitude": 44.68821462721968, "longitude": -77.21224320058492}, "119110450RR0029": {"name": "ST. JOHN THE EVANGELIST", "designationCode": "C", "categoryCode": "38", "address": "271 MAIN ST E.                PO BOX 129", "city": "DUNDALK", "province": "ON", "country": "CA", "postalCode": "N0C1B0", "twitter": "None", "instagram": "None", "facebook": "None", "youtube": "None", "website": "None", "summary": "None", "logo": "None", "latitude": 44.170884712735905, "longitude": -80.38989066082874}, "119180289RR0002": {"name": "ST. JOHN THE EVANGELIST", "designationCode": "C", "categoryCode": "30", "address": "PO BOX 561", "city": "SCHREIBER", "province": "ON", "country": "CA", "postalCode": "P0T2S0", "twitter": "None", "instagram": "None", "facebook": "None", "youtube": "None", "website": "None", "summary": "None", "logo": "None", "latitude": 48.813860000000034, "longitude": -87.26646999999997}, "108099771RR0043": {"name": "ST. JOHN THE EVANGELIST ANGLICAN CHURCH", "designationCode": "C", "categoryCode": "30", "address": "36 HENDERSON ST.", "city": "ELORA", "province": "ON", "country": "CA", "postalCode": "N0B1S0", "twitter": "None", "instagram": "None", "facebook": "None", "youtube": "None", "website": "None", "summary": "None", "logo": "None", "latitude": 43.68350354123137, "longitude": -80.43189767626507}, "107876476RR0018": {"name": "ST. JOHN THE EVANGELIST CHURCH", "designationCode": "C", "categoryCode": "38", "address": "255 CHURCH ST", "city": "GARSON", "province": "ON", "country": "CA", "postalCode": "P3L1S5", "twitter": "None", "instagram": "None", "facebook": "None", "youtube": "None", "website": "None", "summary": "None", "logo": "None", "latitude": 46.560374434358614, "longitude": -80.86158026138217}, "119109817RR0026": {"name": "ST. JOHN THE EVANGELIST CHURCH", "designationCode": "C", "categoryCode": "38", "address": "12048 COUNTY RD. 34           P.O. BOX 130", "city": "MAIDSTONE", "province": "ON", "country": "CA", "postalCode": "N0R1K0", "twitter": "None", "instagram": "None", "facebook": "None", "youtube": "None", "website": "None", "summary": "None", "logo": "None", "latitude": 42.20886274115082, "longitude": -82.88632790293155}, "119110450RR0084": {"name": "ST. JOHN THE EVANGELIST CHURCH", "designationCode": "C", "categoryCode": "38", "address": "PO BOX 151", "city": "ARTHUR", "province": "ON", "country": "CA", "postalCode": "N0G1A0", "twitter": "None", "instagram": "None", "facebook": "None", "youtube": "None", "website": "None", "summary": "None", "logo": "None", "latitude": 44.05516430804911, "longitude": -80.92867545949541}, "107020331RR0012": {"name": "ST. JOHN THE EVANGELIST PARISH", "designationCode": "C", "categoryCode": "38", "address": "P O BOX 468", "city": "BATH", "province": "NB", "country": "CA", "postalCode": "E7J2N3", "twitter": "None", "instagram": "None", "facebook": "None", "youtube": "None", "website": "None", "summary": "None", "logo": "None", "latitude": 46.50950400000005, "longitude": -67.59541249999994}, "119109833RR0049": {"name": "ST. JOHN THE EVANGELIST PARISH", "designationCode": "C", "categoryCode": "38", "address": "BOX 184 KING ST", "city": "WINDSOR", "province": "NS", "country": "CA", "postalCode": "B0N2T0", "twitter": "None", "instagram": "None", "facebook": "None", "youtube": "None", "website": "None", "summary": "None", "logo": "None", "latitude": 44.99441877517464, "longitude": -64.13525203095958}, "119109833RR0042": {"name": "ST. JOHN VIANNEY CHURCH", "designationCode": "C", "categoryCode": "38", "address": "4 BEAVERBANK ROAD", "city": "LOWER SACKVILLE", "province": "NS", "country": "CA", "postalCode": "B4E1G3", "twitter": "None", "instagram": "None", "facebook": "None", "youtube": "None", "website": "None", "summary": "None", "logo": "None", "latitude": 44.77728434306642, "longitude": -63.695396547232626}, "108094392RR0030": {"name": "ST. JOHN VIANNEY PARISH", "designationCode": "C", "categoryCode": "38", "address": "1296 MAIN ST", "city": "PENTICTON", "province": "BC", "country": "CA", "postalCode": "V2A5G2", "twitter": "None", "instagram": "None", "facebook": "None", "youtube": "None", "website": "None", "summary": "None", "logo": "None", "latitude": 49.48517736663973, "longitude": -119.58632192824176}, "119109817RR0148": {"name": "ST. JOHN VIANNEY PARISH", "designationCode": "C", "categoryCode": "38", "address": "385 DIEPPE ST", "city": "WINDSOR", "province": "ON", "country": "CA", "postalCode": "N8S3V3", "twitter": "None", "instagram": "None", "facebook": "None", "youtube": "None", "website": "None", "summary": "None", "logo": "None", "latitude": 42.33826240576496, "longitude": -82.94058270055953}}