{"889319216RR0001": {"name": "BUILDING HOPE COMPASSIONATE ASSOCIATION, A NAZARENE MINISTRY CENTRE", "designationCode": "C", "categoryCode": "09", "address": "9909 80TH ST", "city": "FORT SASKATCHEWAN", "province": "AB", "country": "CA", "postalCode": "T8L3H9", "twitter": "None", "instagram": "None", "facebook": "None", "youtube": "None", "website": "None", "summary": "None", "logo": "None", "latitude": 53.69299329837262, "longitude": -113.25072784162411}, "899282412RR0001": {"name": "BUILDING OUR FUTURE TRUST", "designationCode": "B", "categoryCode": "05", "address": "155 WELLINGTON STREET WEST    20TH FL", "city": "TORONTO", "province": "ON", "country": "CA", "postalCode": "M5V3K7", "twitter": "None", "instagram": "None", "facebook": "None", "youtube": "None", "website": "None", "summary": "None", "logo": "None", "latitude": 43.64596585316531, "longitude": -79.38574575644876}, "106817562RR0001": {"name": "BUILDING OWNERS AND MANAGERS INSTITUTE OF CANADA", "designationCode": "C", "categoryCode": "21", "address": "55 YORK ST                    SUITE 1201", "city": "TORONTO", "province": "ON", "country": "CA", "postalCode": "M5J1R7", "twitter": "None", "instagram": "None", "facebook": "None", "youtube": "None", "website": "None", "summary": "None", "logo": "None", "latitude": 43.64615762836862, "longitude": -79.38274180570153}, "118820869RR0001": {"name": "BUILDING PRODUCTS AND CONCRETE SUPPLY EMMPLOYEE CHARITABLE FUND", "designationCode": "B", "categoryCode": "75", "address": "75 COLE AVE                   BOX 277", "city": "WINNIPEG", "province": "MB", "country": "CA", "postalCode": "R3C2H5", "twitter": "None", "instagram": "None", "facebook": "None", "youtube": "None", "website": "None", "summary": "None", "logo": "None", "latitude": 49.9026897282305, "longitude": -97.09895605525405}, "846885143RR0001": {"name": "BUJEA FAMILY FOUNDATION INC.", "designationCode": "B", "categoryCode": "43", "address": "POST OFFICE BOX 1341", "city": "REGINA", "province": "SK", "country": "CA", "postalCode": "S4P3B8", "twitter": "None", "instagram": "None", "facebook": "None", "youtube": "None", "website": "None", "summary": "None", "logo": "None", "latitude": 50.448246000000054, "longitude": -104.59517299999993}, "886465996RR0001": {"name": "BUKAS LOOB SA DIYOS COVENANT COMMUNITY", "designationCode": "C", "categoryCode": "38", "address": "2565 BATHURST ST", "city": "TORONTO", "province": "ON", "country": "CA", "postalCode": "M6B2Z3", "twitter": "None", "instagram": "None", "facebook": "None", "youtube": "None", "website": "None", "summary": "None", "logo": "None", "latitude": 43.706939238415366, "longitude": -79.42676412819571}, "865951412RR0001": {"name": "BUKAS LOOB SA DIYOS COVENANT COMMUNITY VANCOUVER DISTRICT SOciety", "designationCode": "C", "categoryCode": "39", "address": "14899 71A AVE", "city": "SURREY", "province": "BC", "country": "CA", "postalCode": "V3S2E4", "twitter": "None", "instagram": "None", "facebook": "None", "youtube": "None", "website": "None", "summary": "None", "logo": "None", "latitude": 49.132870438253754, "longitude": -122.80951776963472}, "894102953RR0001": {"name": "BUKOWINIAN ORTHODOX CHURCH OF ST. MICHAEL", "designationCode": "C", "categoryCode": "39", "address": "2075 MCDONALD STREET", "city": "REGINA", "province": "SK", "country": "CA", "postalCode": "S4N2Y4", "twitter": "None", "instagram": "None", "facebook": "None", "youtube": "None", "website": "None", "summary": "None", "logo": "None", "latitude": 50.44585651949754, "longitude": -104.58358066998552}, "118820885RR0001": {"name": "BULGARIAN CANADIAN SOCIETY OF TORONTO", "designationCode": "C", "categoryCode": "09", "address": "22 WARLINGHAM COURT", "city": "TORONTO", "province": "ON", "country": "CA", "postalCode": "M9C3K3", "twitter": "None", "instagram": "None", "facebook": "None", "youtube": "None", "website": "None", "summary": "None", "logo": "None", "latitude": 43.64857104082732, "longitude": -79.58313174369546}, "871896676RR0001": {"name": "BULGARIAN CHURCH OF CHRIST", "designationCode": "C", "categoryCode": "39", "address": "302-19 ROSEMOUNT DRIVE", "city": "TORONTO", "province": "ON", "country": "CA", "postalCode": "M1K2W7", "twitter": "None", "instagram": "None", "facebook": "None", "youtube": "None", "website": "None", "summary": "None", "logo": "None", "latitude": 43.732438458797304, "longitude": -79.27504728039744}, "126171123RR0001": {"name": "BULGARIAN HOME SOCIETY OF BRITISH COLUMBIA CANADA", "designationCode": "C", "categoryCode": "09", "address": "354 MARMONT ST", "city": "COQUITLAM", "province": "BC", "country": "CA", "postalCode": "V3K4R8", "twitter": "None", "instagram": "None", "facebook": "None", "youtube": "None", "website": "None", "summary": "None", "logo": "None", "latitude": 49.244895000000014, "longitude": -122.86229728570595}, "886256791RR0001": {"name": "BULIMIA ANOREXIA NERVOSA ASSOCIATION-CAN-AM", "designationCode": "C", "categoryCode": "11", "address": "1500 OUELLETTE AVENUE         SUITE 100", "city": "WINDSOR", "province": "ON", "country": "CA", "postalCode": "N8X1K7", "twitter": "None", "instagram": "None", "facebook": "None", "youtube": "None", "website": "None", "summary": "None", "logo": "None", "latitude": 42.30063146875196, "longitude": -83.02761382027249}, "118820901RR0001": {"name": "BULKLEY SENIOR CITIZENS HOUSING SOCIETY", "designationCode": "C", "categoryCode": "09", "address": "PO BOX 3362", "city": "SMITHERS", "province": "BC", "country": "CA", "postalCode": "V0J2N0", "twitter": "None", "instagram": "None", "facebook": "None", "youtube": "None", "website": "None", "summary": "None", "logo": "None", "latitude": 54.78312000000005, "longitude": -127.16847999999999}, "118820919RR0001": {"name": "BULKLEY VALLEY AGRICULTURAL AND INDUSTRIAL ASSOCIATION", "designationCode": "A", "categoryCode": "56", "address": "BOX 2281", "city": "SMITHERS", "province": "BC", "country": "CA", "postalCode": "V0J2N0", "twitter": "None", "instagram": "None", "facebook": "None", "youtube": "None", "website": "None", "summary": "None", "logo": "None", "latitude": 54.78190002943043, "longitude": -127.16272999999995}, "861610483RR0001": {"name": "BULKLEY VALLEY CENTRE FOR NATURAL RESOURCES RESEARCH AND MANAGEMENT", "designationCode": "C", "categoryCode": "55", "address": "BOX 4274", "city": "SMITHERS", "province": "BC", "country": "CA", "postalCode": "V0J2N0", "twitter": "None", "instagram": "None", "facebook": "None", "youtube": "None", "website": "None", "summary": "None", "logo": "None", "latitude": 54.78190002943043, "longitude": -127.16272999999995}, "130533334RR0001": {"name": "BULKLEY VALLEY CHRISTIAN SCHOOL SOCIETY", "designationCode": "C", "categoryCode": "20", "address": "PO BOX 3635", "city": "SMITHERS", "province": "BC", "country": "CA", "postalCode": "V0J2N0", "twitter": "None", "instagram": "None", "facebook": "None", "youtube": "None", "website": "None", "summary": "None", "logo": "None", "latitude": 54.78312000000005, "longitude": -127.16847999999999}, "135901437RR0001": {"name": "BULKLEY VALLEY CHRISTIAN SENIORS' CARE SOCIETY", "designationCode": "C", "categoryCode": "01", "address": "BOX 5054", "city": "SMITHERS", "province": "BC", "country": "CA", "postalCode": "V0J2N0", "twitter": "None", "instagram": "None", "facebook": "None", "youtube": "None", "website": "None", "summary": "None", "logo": "None", "latitude": 54.78190002943043, "longitude": -127.16272999999995}, "887218014RR0001": {"name": "BULKLEY VALLEY COMMUNITY ARTS COUNCIL", "designationCode": "C", "categoryCode": "22", "address": "BOX 3971", "city": "SMITHERS", "province": "BC", "country": "CA", "postalCode": "V0J2N0", "twitter": "None", "instagram": "None", "facebook": "None", "youtube": "None", "website": "None", "summary": "None", "logo": "None", "latitude": 54.78190002943043, "longitude": -127.16272999999995}, "132091125RR0001": {"name": "BULKLEY VALLEY COMMUNITY FOUNDATION", "designationCode": "A", "categoryCode": "23", "address": "PO BOX 4584", "city": "SMITHERS", "province": "BC", "country": "CA", "postalCode": "V0J2N0", "twitter": "None", "instagram": "None", "facebook": "None", "youtube": "None", "website": "None", "summary": "None", "logo": "None", "latitude": 54.78312000000005, "longitude": -127.16847999999999}, "871966412RR0001": {"name": "BULKLEY VALLEY GENEALOGICAL SOCIETY", "designationCode": "C", "categoryCode": "50", "address": "P.O.BOX 3986", "city": "SMITHERS", "province": "BC", "country": "CA", "postalCode": "V0J2N0", "twitter": "None", "instagram": "None", "facebook": "None", "youtube": "None", "website": "None", "summary": "None", "logo": "None", "latitude": 54.78312000000005, "longitude": -127.16847999999999}, "118820950RR0001": {"name": "BULKLEY VALLEY HISTORICAL & MUSEUM SOCIETY", "designationCode": "C", "categoryCode": "50", "address": "PO BOX 2615", "city": "SMITHERS", "province": "BC", "country": "CA", "postalCode": "V0J2N0", "twitter": "None", "instagram": "None", "facebook": "None", "youtube": "None", "website": "None", "summary": "None", "logo": "None", "latitude": 54.78312000000005, "longitude": -127.16847999999999}, "133780361RR0001": {"name": "BULKLEY VALLEY HOSPICE SOCIETY", "designationCode": "C", "categoryCode": "11", "address": "BOX 8", "city": "SMITHERS", "province": "BC", "country": "CA", "postalCode": "V0J2N0", "twitter": "None", "instagram": "None", "facebook": "None", "youtube": "None", "website": "None", "summary": "None", "logo": "None", "latitude": 54.78548793824363, "longitude": -127.16383916085651}, "891042947RR0001": {"name": "BULKLEY VALLEY SEARCH & RESCUE SOCIETY", "designationCode": "C", "categoryCode": "59", "address": "P O BOX 159", "city": "SMITHERS", "province": "BC", "country": "CA", "postalCode": "V0J2N0", "twitter": "None", "instagram": "None", "facebook": "None", "youtube": "None", "website": "None", "summary": "None", "logo": "None", "latitude": 54.78190002943043, "longitude": -127.16272999999995}, "129674750RR0001": {"name": "BULLE ET BALUCHON", "designationCode": "C", "categoryCode": "09", "address": "1255 RUE DANIEL, #131", "city": "SHERBROOKE", "province": "QC", "country": "CA", "postalCode": "J1H5X3", "twitter": "None", "instagram": "None", "facebook": "None", "youtube": "None", "website": "None", "summary": "None", "logo": "None", "latitude": 45.38691347547438, "longitude": -71.90707461226845}, "825506470RR0001": {"name": "BUPJU TEMPLE OF CANADA", "designationCode": "C", "categoryCode": "35", "address": "5003 CAMPBELLVILLE RD", "city": "CAMPBELLVILLE", "province": "ON", "country": "CA", "postalCode": "L0P1B0", "twitter": "None", "instagram": "None", "facebook": "None", "youtube": "None", "website": "None", "summary": "None", "logo": "None", "latitude": 43.50659890863851, "longitude": -79.95956141673372}, "866489115RR0001": {"name": "BURDEN BEARERS COUNSELLING SOCIETY", "designationCode": "C", "categoryCode": "09", "address": "10005 97A ST", "city": "GRANDE PRAIRIE", "province": "AB", "country": "CA", "postalCode": "T8V2C2", "twitter": "None", "instagram": "None", "facebook": "None", "youtube": "None", "website": "None", "summary": "None", "logo": "None", "latitude": 55.170911430751914, "longitude": -118.78662309879401}, "118821057RR0001": {"name": "BURDEN BEARERS OF CANADA", "designationCode": "C", "categoryCode": "47", "address": "100-20334 56TH AVE.", "city": "LANGLEY", "province": "BC", "country": "CA", "postalCode": "V3A3Y7", "twitter": "None", "instagram": "None", "facebook": "None", "youtube": "None", "website": "None", "summary": "None", "logo": "None", "latitude": 49.1043724217324, "longitude": -122.65913100238465}, "132789165RR0001": {"name": "BURDETT BOW ISLAND PASTORAL CHARGE", "designationCode": "C", "categoryCode": "44", "address": "P.O. BOX 36", "city": "BOW ISLAND", "province": "AB", "country": "CA", "postalCode": "T0K0G0", "twitter": "None", "instagram": "None", "facebook": "None", "youtube": "None", "website": "None", "summary": "None", "logo": "None", "latitude": 49.502780370958696, "longitude": -111.79166408625858}, "118821099RR0001": {"name": "BURDETT COMMUNITY CEMETERY COMMITTEE", "designationCode": "C", "categoryCode": "59", "address": "PO BOX 19", "city": "BURDETT", "province": "AB", "country": "CA", "postalCode": "T0K0J0", "twitter": "None", "instagram": "None", "facebook": "None", "youtube": "None", "website": "None", "summary": "None", "logo": "None", "latitude": 49.82875000000007, "longitude": -111.51953999999995}, "106818131RR0001": {"name": "BUREAU D'AIDE ET D'ASSISTANCE FAMILIALE PLACE ST-MARTIN INC.", "designationCode": "C", "categoryCode": "09", "address": "101 - 1856 AV DUMOUCHEL", "city": "LAVAL", "province": "QC", "country": "CA", "postalCode": "H7S1J8", "twitter": "None", "instagram": "None", "facebook": "None", "youtube": "None", "website": "None", "summary": "None", "logo": "None", "latitude": 45.56998251341712, "longitude": -73.7353215}, "889236923RR0001": {"name": "BUREAU D'AIDE ET D'INFORMATION SUR LE LOGEMENT ADAPTE-REGION MAURICIE", "designationCode": "C", "categoryCode": "09", "address": "1322, RUE STE-JULIE           BUREAU 32", "city": "TROIS-RIVIERES", "province": "QC", "country": "CA", "postalCode": "G9A1Y6", "twitter": "None", "instagram": "None", "facebook": "None", "youtube": "None", "website": "None", "summary": "None", "logo": "None", "latitude": 46.35120077130817, "longitude": -72.54992913362007}, "899977441RR0001": {"name": "BUREAU D'ANIMATION ET INFORMATION LOGEMENT DU QUEBEC METROPOLITAIN INC", "designationCode": "C", "categoryCode": "09", "address": "265, RUE DE LA COURONNE       PORTE 100", "city": "QUEBEC", "province": "QC", "country": "CA", "postalCode": "G1K6E1", "twitter": "None", "instagram": "None", "facebook": "None", "youtube": "None", "website": "None", "summary": "None", "logo": "None", "latitude": 46.816192791015006, "longitude": -71.22619424574428}, "888005576RR0001": {"name": "BUREAU D'ENTRAIDE DE ST-BARTHELEMY", "designationCode": "C", "categoryCode": "09", "address": "1980, RUE BONIN", "city": "ST-BARTHELEMY", "province": "QC", "country": "CA", "postalCode": "J0K1X0", "twitter": "None", "instagram": "None", "facebook": "None", "youtube": "None", "website": "None", "summary": "None", "logo": "None", "latitude": 46.19120122150712, "longitude": -73.11905796944446}, "894844257RR0001": {"name": "BUREAU DE LA COMMUNAUTE HAITIENNE DE MONTREAL", "designationCode": "C", "categoryCode": "09", "address": "6970 RUE MARQUETTE", "city": "MONTREAL", "province": "QC", "country": "CA", "postalCode": "H2E2C7", "twitter": "None", "instagram": "None", "facebook": "None", "youtube": "None", "website": "None", "summary": "None", "logo": "None", "latitude": 45.5460487241042, "longitude": -73.60479472413286}, "889364444RR0001": {"name": "BUREAU DES OEUVRES DES FILLES DE LA CHARITE DU SACRE-COEUR DE JESUS", "designationCode": "C", "categoryCode": "46", "address": "575 RUE ALLEN", "city": "SHERBROOKE", "province": "QC", "country": "CA", "postalCode": "J1G1Z1", "twitter": "None", "instagram": "None", "facebook": "None", "youtube": "None", "website": "None", "summary": "None", "logo": "None", "latitude": 45.394665504327826, "longitude": -71.87444061226844}, "894437284RR0001": {"name": "BUREAU INTERNATIONAL DES DROITS DES ENFANTS/INTERNATIONAL BUREAU FOR CHILDREN'S RIGHTS", "designationCode": "C", "categoryCode": "59", "address": "805 RUE VILLERAY", "city": "MONTREAL", "province": "QC", "country": "CA", "postalCode": "H2R1J4", "twitter": "None", "instagram": "None", "facebook": "None", "youtube": "None", "website": "None", "summary": "None", "logo": "None", "latitude": 45.544567661953906, "longitude": -73.62075407106575}, "131495079RR0001": {"name": "BUREAU LOCAL D'INTERVENTION TRAITANT DU SIDA (BLITS)", "designationCode": "C", "categoryCode": "11", "address": "59 RUE MONFETTE               LOCAL 116", "city": "VICTORIAVILLE", "province": "QC", "country": "CA", "postalCode": "G6P1J8", "twitter": "None", "instagram": "None", "facebook": "None", "youtube": "None", "website": "None", "summary": "None", "logo": "None", "latitude": 46.06164779188039, "longitude": -71.9668892342031}, "135241909RR0001": {"name": "BUREAU REGIONAL D'ACTION SIDA (OUTAOUAIS)", "designationCode": "C", "categoryCode": "09", "address": "109 WRIGHT", "city": "HULL", "province": "QC", "country": "CA", "postalCode": "J8X2G7", "twitter": "None", "instagram": "None", "facebook": "None", "youtube": "None", "website": "None", "summary": "None", "logo": "None", "latitude": 45.42702050432782, "longitude": -75.71872264071786}, "119880664RR0001": {"name": "BURFORD CO-OPERATIVE PRESCHOOL CORPORATION", "designationCode": "C", "categoryCode": "20", "address": "11 MILL STREET, MT. VERNON    RR#4", "city": "BRANTFORD", "province": "ON", "country": "CA", "postalCode": "N3T5L7", "twitter": "None", "instagram": "None", "facebook": "None", "youtube": "None", "website": "None", "summary": "None", "logo": "None", "latitude": 43.11137879101501, "longitude": -80.39618790322614}, "118821156RR0001": {"name": "BURFORD PASTORAL CHARGE", "designationCode": "C", "categoryCode": "44", "address": "P.O. BOX 58", "city": "BURFORD", "province": "ON", "country": "CA", "postalCode": "N0E1A0", "twitter": "None", "instagram": "None", "facebook": "None", "youtube": "None", "website": "None", "summary": "None", "logo": "None", "latitude": 43.103090000000066, "longitude": -80.43002999999999}, "118821164RR0001": {"name": "BURFORD TOWNSHIP HISTORICAL SOCIETY", "designationCode": "C", "categoryCode": "50", "address": "141 HARLEY ROAD, R.R.#3", "city": "HARLEY", "province": "ON", "country": "CA", "postalCode": "N0E1E0", "twitter": "None", "instagram": "None", "facebook": "None", "youtube": "None", "website": "None", "summary": "None", "logo": "None", "latitude": 43.06385131277065, "longitude": -80.48227551592727}, "118821172RR0001": {"name": "BURGEO PASTORAL CHARGE", "designationCode": "C", "categoryCode": "44", "address": "P.O. BOX 130", "city": "BURGEO", "province": "NL", "country": "CA", "postalCode": "A0N2H0", "twitter": "None", "instagram": "None", "facebook": "None", "youtube": "None", "website": "None", "summary": "None", "logo": "None", "latitude": 48.50829804486679, "longitude": -58.182127889354014}, "131741944RR0001": {"name": "BURGESSVILLE BAPTIST CHURCH,", "designationCode": "C", "categoryCode": "31", "address": "PO BOX 10", "city": "BURGESSVILLE", "province": "ON", "country": "CA", "postalCode": "N0J1C0", "twitter": "None", "instagram": "None", "facebook": "None", "youtube": "None", "website": "None", "summary": "None", "logo": "None", "latitude": 43.02421000000004, "longitude": -80.65076999999997}, "870007606RR0001": {"name": "BURGESSVILLE GOSPEL HALL", "designationCode": "B", "categoryCode": "39", "address": "POST OFFICE BOX 136", "city": "BURGESSVILLE", "province": "ON", "country": "CA", "postalCode": "N0J1C0", "twitter": "None", "instagram": "None", "facebook": "None", "youtube": "None", "website": "None", "summary": "None", "logo": "None", "latitude": 43.02421000000004, "longitude": -80.65076999999997}, "893488882RR0001": {"name": "BURGESSVILLE PARK AND RECREATION COMMITTEE", "designationCode": "C", "categoryCode": "56", "address": "365462 EVERGREEN ST           RR #1", "city": "BURGESSVILLE", "province": "ON", "country": "CA", "postalCode": "N0J1C0", "twitter": "None", "instagram": "None", "facebook": "None", "youtube": "None", "website": "None", "summary": "None", "logo": "None", "latitude": 43.01091865609686, "longitude": -80.63861777240469}, "118821206RR0001": {"name": "BURGESSVILLE PASTORAL CHARGE", "designationCode": "C", "categoryCode": "39", "address": "24 CHURCH ST E                PO BOX 23", "city": "BURGESSVILLE", "province": "ON", "country": "CA", "postalCode": "N0J1C0", "twitter": "None", "instagram": "None", "facebook": "None", "youtube": "None", "website": "None", "summary": "None", "logo": "None", "latitude": 43.02416323786711, "longitude": -80.65116898917995}, "884380627RR0001": {"name": "BURIN PASTORAL CHARGE", "designationCode": "C", "categoryCode": "44", "address": "PO BOX 397", "city": "BURIN BAY ARM", "province": "NL", "country": "CA", "postalCode": "A0E1G0", "twitter": "None", "instagram": "None", "facebook": "None", "youtube": "None", "website": "None", "summary": "None", "logo": "None", "latitude": 47.06177100000005, "longitude": -55.176600499999935}, "890326184RR0001": {"name": "BURIN PENINSULA BRIGHTER FUTURES INC", "designationCode": "C", "categoryCode": "09", "address": "129-131 SMALLWOOD CRESCENT    BOX 659", "city": "MARYSTOWN", "province": "NL", "country": "CA", "postalCode": "A0E2M0", "twitter": "None", "instagram": "None", "facebook": "None", "youtube": "None", "website": "None", "summary": "None", "logo": "None", "latitude": 47.175296529863054, "longitude": -55.1602919666745}, "874548779RR0001": {"name": "BURIN PENINSULA S P C A", "designationCode": "C", "categoryCode": "54", "address": "PO BOX 525", "city": "BURIN BAY ARM", "province": "NL", "country": "CA", "postalCode": "A0E1G0", "twitter": "None", "instagram": "None", "facebook": "None", "youtube": "None", "website": "None", "summary": "None", "logo": "None", "latitude": 47.06177100000005, "longitude": -55.176600499999935}, "869399584RR0001": {"name": "BURK'S FALLS & DISTRICT HISTORICAL SOCIETY", "designationCode": "C", "categoryCode": "50", "address": "827 CHETWYND ROAD             POST OFFICE BOX 463", "city": "BURKS FALLS", "province": "ON", "country": "CA", "postalCode": "P0A1C0", "twitter": "None", "instagram": "None", "facebook": "None", "youtube": "None", "website": "None", "summary": "None", "logo": "None", "latitude": 45.611929929918006, "longitude": -79.35938511385685}, "119288918RR0605": {"name": "BURKE MOUNTAIN CONGREGATION OF JEHOVAH'S WITNESSES, VANCOUVER, BRITISH COLUMBIA", "designationCode": "C", "categoryCode": "61", "address": "870 VICTORIA DR", "city": "PORT COQUITLAM", "province": "BC", "country": "CA", "postalCode": "V3B2T9", "twitter": "None", "instagram": "None", "facebook": "None", "youtube": "None", "website": "None", "summary": "None", "logo": "None", "latitude": 49.285718488458826, "longitude": -122.7385305}, "873847966RR0001": {"name": "BURKE MOUNTAIN NATURALISTS (B.M.N.) SOCIETY", "designationCode": "C", "categoryCode": "52", "address": "634 BENTLEY ROAD", "city": "PORT MOODY", "province": "BC", "country": "CA", "postalCode": "V3H3A3", "twitter": "None", "instagram": "None", "facebook": "None", "youtube": "None", "website": "None", "summary": "None", "logo": "None", "latitude": 49.290137528997676, "longitude": -122.84439412101102}, "118821255RR0001": {"name": "BURKHOLDER UNITED CHURCH", "designationCode": "C", "categoryCode": "44", "address": "465 MOHAWK RD E", "city": "HAMILTON", "province": "ON", "country": "CA", "postalCode": "L8V2H9", "twitter": "None", "instagram": "None", "facebook": "None", "youtube": "None", "website": "None", "summary": "None", "logo": "None", "latitude": 43.222569966338504, "longitude": -79.8565067804146}, "889798575RR0001": {"name": "BURKS FALLS AND DISTRICT FOOD BANK", "designationCode": "C", "categoryCode": "09", "address": "P.O.BOX 694", "city": "BURKS FALLS", "province": "ON", "country": "CA", "postalCode": "P0A1C0", "twitter": "None", "instagram": "None", "facebook": "None", "youtube": "None", "website": "None", "summary": "None", "logo": "None", "latitude": 45.61863000000005, "longitude": -79.40468999999996}, "118821263RR0001": {"name": "BURKS FALLS BAPTIST CHURCH", "designationCode": "C", "categoryCode": "31", "address": "BOX 59", "city": "BURKS FALLS", "province": "ON", "country": "CA", "postalCode": "P0A1C0", "twitter": "None", "instagram": "None", "facebook": "None", "youtube": "None", "website": "None", "summary": "None", "logo": "None", "latitude": 45.61840992339439, "longitude": -79.40771996667443}, "118821297RR0001": {"name": "BURKS FALLS UNITED CHURCH", "designationCode": "C", "categoryCode": "44", "address": "P.O. BOX 262", "city": "BURK'S FALLS", "province": "ON", "country": "CA", "postalCode": "P0A1C0", "twitter": "None", "instagram": "None", "facebook": "None", "youtube": "None", "website": "None", "summary": "None", "logo": "None", "latitude": 45.61840992339439, "longitude": -79.40771996667443}, "865962278RR0001": {"name": "BURL-OAK THEATRE GROUP", "designationCode": "C", "categoryCode": "22", "address": "12-1290 SPEERS ROAD", "city": "OAKVILLE", "province": "ON", "country": "CA", "postalCode": "L6L2X4", "twitter": "None", "instagram": "None", "facebook": "None", "youtube": "None", "website": "None", "summary": "None", "logo": "None", "latitude": 43.425466984448086, "longitude": -79.71069029167884}, "834509747RR0001": {"name": "BURLINGTON & DISTRICT ACTIVITY CLUB HANTS COUNTY", "designationCode": "A", "categoryCode": "03", "address": "3438 HIGHWAY 215", "city": "CENTRE BURLINGTON", "province": "NS", "country": "CA", "postalCode": "B0N1E0", "twitter": "None", "instagram": "None", "facebook": "None", "youtube": "None", "website": "None", "summary": "None", "logo": "None", "latitude": 45.06880042984875, "longitude": -64.10772272228024}, "811514272RR0001": {"name": "BURLINGTON BAPTIST CHURCH", "designationCode": "C", "categoryCode": "31", "address": "2225 NEW STREET", "city": "BURLINGTON", "province": "ON", "country": "CA", "postalCode": "L7R1J2", "twitter": "None", "instagram": "None", "facebook": "None", "youtube": "None", "website": "None", "summary": "None", "logo": "None", "latitude": 43.33236790149445, "longitude": -79.791912981447}, "132292228RR0001": {"name": "BURLINGTON BAPTIST CHURCH,", "designationCode": "C", "categoryCode": "31", "address": "3121 MCNALLY ROAD             RR # 5", "city": "BERWICK", "province": "NS", "country": "CA", "postalCode": "B0P1E0", "twitter": "None", "instagram": "None", "facebook": "None", "youtube": "None", "website": "None", "summary": "None", "logo": "None", "latitude": 45.1230451906918, "longitude": -64.83481734277795}, "866605785RR0001": {"name": "BURLINGTON CHRISTIAN ACADEMY", "designationCode": "C", "categoryCode": "39", "address": "521 NORTH SERVICE RD W", "city": "BURLINGTON", "province": "ON", "country": "CA", "postalCode": "L7P5C3", "twitter": "None", "instagram": "None", "facebook": "None", "youtube": "None", "website": "None", "summary": "None", "logo": "None", "latitude": 43.32652762450212, "longitude": -79.84581545882597}, "887995868RR0001": {"name": "BURLINGTON CIVIC CHORALE", "designationCode": "C", "categoryCode": "22", "address": "662 GUELPH LINE", "city": "BURLINGTON", "province": "ON", "country": "CA", "postalCode": "L7R3M8", "twitter": "None", "instagram": "None", "facebook": "None", "youtube": "None", "website": "None", "summary": "None", "logo": "None", "latitude": 43.34368373518405, "longitude": -79.79267838403796}, "857812739RR0001": {"name": "BURLINGTON COMMUNITY FOUNDATION", "designationCode": "A", "categoryCode": "03", "address": "3380 SOUTH SERVICE ROAD", "city": "BURLINGTON", "province": "ON", "country": "CA", "postalCode": "L7N3J5", "twitter": "None", "instagram": "None", "facebook": "None", "youtube": "None", "website": "None", "summary": "None", "logo": "None", "latitude": 43.36179869326021, "longitude": -79.79238349047897}, "131741548RR0001": {"name": "BURLINGTON CONCERT BAND AND \"POPS\" ORCHESTRA", "designationCode": "C", "categoryCode": "22", "address": "PO BOX 5013", "city": "BURLINGTON", "province": "ON", "country": "CA", "postalCode": "L7R3Z6", "twitter": "None", "instagram": "None", "facebook": "None", "youtube": "None", "website": "None", "summary": "None", "logo": "None", "latitude": 43.326195000000055, "longitude": -79.79863399999994}, "120753454RR0001": {"name": "BURLINGTON FAMILY RESOURCE CENTRE", "designationCode": "C", "categoryCode": "09", "address": "471 PEARL ST", "city": "BURLINGTON", "province": "ON", "country": "CA", "postalCode": "L7R4M4", "twitter": "None", "instagram": "None", "facebook": "None", "youtube": "None", "website": "None", "summary": "None", "logo": "None", "latitude": 43.328101523486424, "longitude": -79.79679604907989}, "119254498RR0001": {"name": "BURLINGTON HUMANE SOCIETY", "designationCode": "C", "categoryCode": "54", "address": "740 GRIFFITH CRT", "city": "BURLINGTON", "province": "ON", "country": "CA", "postalCode": "L7L5R9", "twitter": "None", "instagram": "None", "facebook": "None", "youtube": "None", "website": "None", "summary": "None", "logo": "None", "latitude": 43.36722519677997, "longitude": -79.77287772540227}, "887276475RR0001": {"name": "BURLINGTON LIFE CENTRE INC.", "designationCode": "C", "categoryCode": "39", "address": "2054 MOUNTAINSIDE DRIVE", "city": "BURLINGTON", "province": "ON", "country": "CA", "postalCode": "L7P1A8", "twitter": "None", "instagram": "None", "facebook": "None", "youtube": "None", "website": "None", "summary": "None", "logo": "None", "latitude": 43.34693514798855, "longitude": -79.82517769712574}, "130004500RR0001": {"name": "BURLINGTON LITTLE THEATRE INC", "designationCode": "C", "categoryCode": "22", "address": "770 DRURY LANE", "city": "BURLINGTON", "province": "ON", "country": "CA", "postalCode": "L7R2Y2", "twitter": "None", "instagram": "None", "facebook": "None", "youtube": "None", "website": "None", "summary": "None", "logo": "None", "latitude": 43.340940786831425, "longitude": -79.80141896338493}, "888340643RR0001": {"name": "BURLINGTON MUSEUMS BOARD", "designationCode": "C", "categoryCode": "50", "address": "2168 GUELPH LINE", "city": "BURLINGTON", "province": "ON", "country": "CA", "postalCode": "L7P5A8", "twitter": "None", "instagram": "None", "facebook": "None", "youtube": "None", "website": "None", "summary": "None", "logo": "None", "latitude": 43.368581673582014, "longitude": -79.82744156650678}, "891985467RR0001": {"name": "BURLINGTON MUSEUMS FOUNDATION", "designationCode": "A", "categoryCode": "53", "address": "2168 GUELPH LINE", "city": "BURLINGTON", "province": "ON", "country": "CA", "postalCode": "L7P5A8", "twitter": "None", "instagram": "None", "facebook": "None", "youtube": "None", "website": "None", "summary": "None", "logo": "None", "latitude": 43.368581673582014, "longitude": -79.82744156650678}, "778257329RR0001": {"name": "BURLINGTON NEW MILLENNIUM ORCHESTRA", "designationCode": "C", "categoryCode": "22", "address": "25 ANNMOORE CRES", "city": "GUELPH", "province": "ON", "country": "CA", "postalCode": "N1L0J1", "twitter": "None", "instagram": "None", "facebook": "None", "youtube": "None", "website": "None", "summary": "None", "logo": "None", "latitude": 43.51768053398933, "longitude": -80.17830126920204}, "106818974RR0001": {"name": "BURLINGTON PARENTAL CHRISTIAN SCHOOL SOCIETY", "designationCode": "C", "categoryCode": "20", "address": "2170 ITABASHI WAY", "city": "BURLINGTON", "province": "ON", "country": "CA", "postalCode": "L7M5B3", "twitter": "None", "instagram": "None", "facebook": "None", "youtube": "None", "website": "None", "summary": "None", "logo": "None", "latitude": 43.3865320505222, "longitude": -79.79506579897911}, "130692874RR0001": {"name": "BURLINGTON PUBLIC LIBRARY", "designationCode": "C", "categoryCode": "50", "address": "2331 NEW ST.", "city": "BURLINGTON", "province": "ON", "country": "CA", "postalCode": "L7R1J4", "twitter": "None", "instagram": "None", "facebook": "None", "youtube": "None", "website": "None", "summary": "None", "logo": "None", "latitude": 43.33499031859883, "longitude": -79.78901883202653}, "863121125RR0001": {"name": "BURLINGTON ROTARY COMMUNITY HOSPICE INC.", "designationCode": "C", "categoryCode": "01", "address": "2250 PARKWAY DR", "city": "BURLINGTON", "province": "ON", "country": "CA", "postalCode": "L7P1T1", "twitter": "None", "instagram": "None", "facebook": "None", "youtube": "None", "website": "None", "summary": "None", "logo": "None", "latitude": 43.35522832662046, "longitude": -79.82546629996007}, "890587975RR0001": {"name": "BURLINGTON SIKH ASSOCIATION", "designationCode": "C", "categoryCode": "62", "address": "PO BOX 93092 1450 HEADON RD", "city": "BURLINGTON", "province": "ON", "country": "CA", "postalCode": "L7M4A3", "twitter": "None", "instagram": "None", "facebook": "None", "youtube": "None", "website": "None", "summary": "None", "logo": "None", "latitude": 43.373694794593035, "longitude": -79.8093847315191}, "891658049RR0001": {"name": "BURLINGTON SUZUKI ASSOCIATION", "designationCode": "C", "categoryCode": "22", "address": "1099 MARLEY CRES", "city": "BURLINGTON", "province": "ON", "country": "CA", "postalCode": "L7T3S3", "twitter": "None", "instagram": "None", "facebook": "None", "youtube": "None", "website": "None", "summary": "None", "logo": "None", "latitude": 43.322577947256114, "longitude": -79.82351510309319}, "118821453RR0001": {"name": "BURLINGTON TEEN TOUR BAND BOOSTERS INC.", "designationCode": "C", "categoryCode": "22", "address": "PO BOX 91572, ROSELAND PLAZA", "city": "BURLINGTON", "province": "ON", "country": "CA", "postalCode": "L7R4L6", "twitter": "None", "instagram": "None", "facebook": "None", "youtube": "None", "website": "None", "summary": "None", "logo": "None", "latitude": 43.33917006722796, "longitude": -79.78440002120642}, "140774027RR0001": {"name": "BURLINGTON UNITED PENTECOSTAL CHURCH", "designationCode": "C", "categoryCode": "36", "address": "4380 SOUTH SERVICE ROAD UNIT 9", "city": "BURLINGTON", "province": "ON", "country": "CA", "postalCode": "L7L5Y6", "twitter": "None", "instagram": "None", "facebook": "None", "youtube": "None", "website": "None", "summary": "None", "logo": "None", "latitude": 43.37524002911324, "longitude": -79.77758312401212}, "864726625RR0001": {"name": "BURLINGTON WELSH MALE CHORUS", "designationCode": "A", "categoryCode": "22", "address": "PO BOX 62058 BURLINGTON MALL  777 GUELPH LINE", "city": "BURLINGTON", "province": "ON", "country": "CA", "postalCode": "L7R3N2", "twitter": "None", "instagram": "None", "facebook": "None", "youtube": "None", "website": "None", "summary": "None", "logo": "None", "latitude": 43.34652118193541, "longitude": -79.79631960177042}, "118821479RR0001": {"name": "BURMA BUDDHIST ASSOCIATION OF ONTARIO", "designationCode": "C", "categoryCode": "35", "address": "12 HIGH MEADOW PLACE", "city": "TORONTO", "province": "ON", "country": "CA", "postalCode": "M9L2Z5", "twitter": "None", "instagram": "None", "facebook": "None", "youtube": "None", "website": "None", "summary": "None", "logo": "None", "latitude": 43.755274088550884, "longitude": -79.5396077647873}, "127512762RR0001": {"name": "BURN-A-BEE SWINGING 60+ SENIORS CLUB", "designationCode": "C", "categoryCode": "56", "address": "37-13507-81SV AVE", "city": "SURREY", "province": "BC", "country": "CA", "postalCode": "V3W3C6", "twitter": "None", "instagram": "None", "facebook": "None", "youtube": "None", "website": "None", "summary": "None", "logo": "None", "latitude": 49.15011300000006, "longitude": -122.85114199999992}, "118821487RR0001": {"name": "BURNABY APOSTOLIC CHRISTIAN CHURCH", "designationCode": "C", "categoryCode": "39", "address": "316 7TH STREET", "city": "NEW WESTMINSTER", "province": "BC", "country": "CA", "postalCode": "V3M3K7", "twitter": "None", "instagram": "None", "facebook": "None", "youtube": "None", "website": "None", "summary": "None", "logo": "None", "latitude": 49.208328806131, "longitude": -122.91685918632238}, "106819105RR0001": {"name": "BURNABY ARTS COUNCIL", "designationCode": "C", "categoryCode": "23", "address": "6584 DEER LAKE AVENUE", "city": "BURNABY", "province": "BC", "country": "CA", "postalCode": "V5G3T7", "twitter": "None", "instagram": "None", "facebook": "None", "youtube": "None", "website": "None", "summary": "None", "logo": "None", "latitude": 49.23858407959151, "longitude": -122.96783321624007}, "106819154RR0001": {"name": "BURNABY ASSOCIATION FOR COMMUNITY INCLUSION", "designationCode": "C", "categoryCode": "11", "address": "2702 NORLAND AVE", "city": "BURNABY", "province": "BC", "country": "CA", "postalCode": "V5B3A6", "twitter": "None", "instagram": "None", "facebook": "None", "youtube": "None", "website": "None", "summary": "None", "logo": "None", "latitude": 49.25925317625241, "longitude": -122.98319361472333}, "863277448RR0001": {"name": "BURNABY BIBLE HOUR SOCIETY", "designationCode": "C", "categoryCode": "39", "address": "200-3777 MARINE WAY", "city": "BURNABY", "province": "BC", "country": "CA", "postalCode": "V5J5A7", "twitter": "None", "instagram": "None", "facebook": "None", "youtube": "None", "website": "None", "summary": "None", "logo": "None", "latitude": 49.20551742920048, "longitude": -123.02056607079953}, "899271076RR0001": {"name": "BURNABY CHILDREN'S CENTRES SOCIETY", "designationCode": "C", "categoryCode": "01", "address": "7500 HANNA CRT", "city": "BURNABY", "province": "BC", "country": "CA", "postalCode": "V3N5A3", "twitter": "None", "instagram": "None", "facebook": "None", "youtube": "None", "website": "None", "summary": "None", "logo": "None", "latitude": 49.20905883085289, "longitude": -122.95968235615334}, "138158761RR0001": {"name": "BURNABY CHINESE EVANGELICAL FREE CHURCH", "designationCode": "C", "categoryCode": "39", "address": "6112 RUMBLE ST", "city": "BURNABY", "province": "BC", "country": "CA", "postalCode": "V5J2C7", "twitter": "None", "instagram": "None", "facebook": "None", "youtube": "None", "website": "None", "summary": "None", "logo": "None", "latitude": 49.21467449956732, "longitude": -122.97444316763807}, "118855204RR0001": {"name": "BURNABY CHRIST CHURCH OF CHINA", "designationCode": "C", "categoryCode": "39", "address": "6580 THOMAS  STREET", "city": "BURNABY", "province": "BC", "country": "CA", "postalCode": "V5B4P9", "twitter": "None", "instagram": "None", "facebook": "None", "youtube": "None", "website": "None", "summary": "None", "logo": "None", "latitude": 49.24798049509525, "longitude": -122.96748505689882}, "106819196RR0001": {"name": "BURNABY CHRISTIAN PENTECOSTAL CHURCH", "designationCode": "C", "categoryCode": "36", "address": "5209 EAST HASTINGS ST", "city": "BURNABY", "province": "BC", "country": "CA", "postalCode": "V5B1P9", "twitter": "None", "instagram": "None", "facebook": "None", "youtube": "None", "website": "None", "summary": "None", "logo": "None", "latitude": 49.280376518754544, "longitude": -122.98758227699233}, "118821628RR0001": {"name": "BURNABY COMMUNITY CONNECTIONS SOCIETY", "designationCode": "C", "categoryCode": "59", "address": "2055 ROSSER AVE", "city": "BURNABY", "province": "BC", "country": "CA", "postalCode": "V5C0H1", "twitter": "None", "instagram": "None", "facebook": "None", "youtube": "None", "website": "None", "summary": "None", "logo": "None", "latitude": 49.2659113763217, "longitude": -123.00605959353514}, "856166541RR0001": {"name": "BURNABY FALL PREVENTION SOCIETY", "designationCode": "C", "categoryCode": "09", "address": "1522 STARFLOWER PLACE", "city": "COQUITLAM", "province": "BC", "country": "CA", "postalCode": "V3E2V2", "twitter": "None", "instagram": "None", "facebook": "None", "youtube": "None", "website": "None", "summary": "None", "logo": "None", "latitude": 49.299577909256065, "longitude": -122.80919060724813}, "118821578RR0001": {"name": "BURNABY FAMILY LIFE INSTITUTE", "designationCode": "C", "categoryCode": "59", "address": "102-2101 HOLDOM AVE.", "city": "BURNABY", "province": "BC", "country": "CA", "postalCode": "V5B0A4", "twitter": "None", "instagram": "None", "facebook": "None", "youtube": "None", "website": "None", "summary": "None", "logo": "None", "latitude": 49.264669676380635, "longitude": -122.98127352276526}, "141156422RR0001": {"name": "BURNABY FAMILY PLACE SOCIETY", "designationCode": "C", "categoryCode": "09", "address": "410 CLARE AVE", "city": "BURNABY", "province": "BC", "country": "CA", "postalCode": "V5B4L4", "twitter": "None", "instagram": "None", "facebook": "None", "youtube": "None", "website": "None", "summary": "None", "logo": "None", "latitude": 49.2802287941628, "longitude": -122.96337300339873}, "126682913RR0001": {"name": "BURNABY FELLOWSHIP CENTRE SOCIETY", "designationCode": "C", "categoryCode": "57", "address": "47A-4567 LOUGHEED HWY         PO BOX 30567 BRENTWOOD MALLPO", "city": "BURNABY", "province": "BC", "country": "CA", "postalCode": "V5C3Z6", "twitter": "None", "instagram": "None", "facebook": "None", "youtube": "None", "website": "None", "summary": "None", "logo": "None", "latitude": 49.266567293853136, "longitude": -123.0016227179283}, "892341561RR0001": {"name": "BURNABY FIRE FIGHTERS CHARITABLE SOCIETY", "designationCode": "A", "categoryCode": "53", "address": "205-6515 BONSOR AVE", "city": "BURNABY", "province": "BC", "country": "CA", "postalCode": "V5H3E8", "twitter": "None", "instagram": "None", "facebook": "None", "youtube": "None", "website": "None", "summary": "None", "logo": "None", "latitude": 49.224862549829716, "longitude": -122.99702216974418}, "131125775RR0001": {"name": "BURNABY FRENCH LANGUAGE PLAYSCHOOL SOCIETY", "designationCode": "C", "categoryCode": "20", "address": "P.O. BOX 72032                OLD ORCHARD", "city": "BURNABY", "province": "BC", "country": "CA", "postalCode": "V5H4P9", "twitter": "None", "instagram": "None", "facebook": "None", "youtube": "None", "website": "None", "summary": "None", "logo": "None", "latitude": 49.23079007054621, "longitude": -123.00618995109389}, "129481388RR0001": {"name": "BURNABY HOSPICE SOCIETY", "designationCode": "C", "categoryCode": "11", "address": "6855 KINGSWAY", "city": "BURNABY", "province": "BC", "country": "CA", "postalCode": "V5E1E4", "twitter": "None", "instagram": "None", "facebook": "None", "youtube": "None", "website": "None", "summary": "None", "logo": "None", "latitude": 49.21854045216927, "longitude": -122.96195968072641}, "106819295RR0001": {"name": "BURNABY HOSPITAL FOUNDATION", "designationCode": "A", "categoryCode": "13", "address": "3935 KINCAID STREET", "city": "BURNABY", "province": "BC", "country": "CA", "postalCode": "V5G2X6", "twitter": "None", "instagram": "None", "facebook": "None", "youtube": "None", "website": "None", "summary": "None", "logo": "None", "latitude": 49.24884571455207, "longitude": -123.01665123393398}, "132255324RR0001": {"name": "BURNABY LAKEVIEW PRESCHOOL ASSOCIATION", "designationCode": "C", "categoryCode": "20", "address": "7777 MAYFIELD ST", "city": "BURNABY", "province": "BC", "country": "CA", "postalCode": "V5E2J5", "twitter": "None", "instagram": "None", "facebook": "None", "youtube": "None", "website": "None", "summary": "None", "logo": "None", "latitude": 49.22975251052684, "longitude": -122.94505853730321}, "123042723RR0001": {"name": "BURNABY LOUGHEED LIONS HOUSING SOCIETY", "designationCode": "C", "categoryCode": "01", "address": "410 - 1669 BROADWAY E", "city": "VANCOUVER", "province": "BC", "country": "CA", "postalCode": "V5N1V9", "twitter": "None", "instagram": "None", "facebook": "None", "youtube": "None", "website": "None", "summary": "None", "logo": "None", "latitude": 49.26235347879261, "longitude": -123.07054402553523}}