{"889138194RR0001": {"name": "DAWN VALLEY UNITED CHURCH,", "designationCode": "C", "categoryCode": "44", "address": "9750 SUGARBEET LINE, R.R.#3", "city": "DRESDEN", "province": "ON", "country": "CA", "postalCode": "N0P1M0", "twitter": "None", "instagram": "None", "facebook": "None", "youtube": "None", "website": "None", "summary": "None", "logo": "None", "latitude": 42.604530000000054, "longitude": -82.19570299999994}, "890310840RR0001": {"name": "DAWSON CHRISTIAN FELLOWSHIP", "designationCode": "C", "categoryCode": "36", "address": "91806 ALASKA HIGHWAY", "city": "WHITEHORSE", "province": "YT", "country": "CA", "postalCode": "Y1A5B7", "twitter": "None", "instagram": "None", "facebook": "None", "youtube": "None", "website": "None", "summary": "None", "logo": "None", "latitude": 60.73660034840953, "longitude": -135.09865741875677}, "871068938RR0001": {"name": "DAWSON CITY ARTS SOCIETY", "designationCode": "C", "categoryCode": "22", "address": "BAG 8000", "city": "DAWSON CITY", "province": "YT", "country": "CA", "postalCode": "Y0B1G0", "twitter": "None", "instagram": "None", "facebook": "None", "youtube": "None", "website": "None", "summary": "None", "logo": "None", "latitude": 62.22760984467524, "longitude": -133.3629954977805}, "118883024RR0001": {"name": "DAWSON CITY MUSEUM SOCIETY", "designationCode": "C", "categoryCode": "50", "address": "BOX 303", "city": "DAWSON CITY", "province": "YT", "country": "CA", "postalCode": "Y0B1G0", "twitter": "None", "instagram": "None", "facebook": "None", "youtube": "None", "website": "None", "summary": "None", "logo": "None", "latitude": 64.05386000000004, "longitude": -139.43884999999995}, "127691038RR0001": {"name": "DAWSON CITY MUSIC FESTIVAL ASSOCIATION", "designationCode": "C", "categoryCode": "22", "address": "BOX 456", "city": "DAWSON CITY", "province": "YT", "country": "CA", "postalCode": "Y0B1G0", "twitter": "None", "instagram": "None", "facebook": "None", "youtube": "None", "website": "None", "summary": "None", "logo": "None", "latitude": 64.05386000000004, "longitude": -139.43884999999995}, "135897791RR0001": {"name": "DAWSON CITY SHELTER SOCIETY", "designationCode": "C", "categoryCode": "09", "address": "BOX 784", "city": "DAWSON CITY", "province": "YT", "country": "CA", "postalCode": "Y0B1G0", "twitter": "None", "instagram": "None", "facebook": "None", "youtube": "None", "website": "None", "summary": "None", "logo": "None", "latitude": 64.05386000000004, "longitude": -139.43884999999995}, "106962350RR0001": {"name": "DAWSON COMMUNITY CHAPEL", "designationCode": "C", "categoryCode": "47", "address": "BOX 474", "city": "DAWSON CITY", "province": "YT", "country": "CA", "postalCode": "Y0B1G0", "twitter": "None", "instagram": "None", "facebook": "None", "youtube": "None", "website": "None", "summary": "None", "logo": "None", "latitude": 64.05386000000004, "longitude": -139.43884999999995}, "107008104RR0001": {"name": "DAWSON CREEK ALLIANCE CHURCH", "designationCode": "C", "categoryCode": "39", "address": "9009 10ST", "city": "DAWSON CREEK", "province": "BC", "country": "CA", "postalCode": "V1G4T1", "twitter": "None", "instagram": "None", "facebook": "None", "youtube": "None", "website": "None", "summary": "None", "logo": "None", "latitude": 55.77342000000006, "longitude": -120.22966249999993}, "885678631RR0001": {"name": "DAWSON CREEK AND DISTRICT AUXILIARY SOCIETY OF LOCAL HEALTH", "designationCode": "A", "categoryCode": "13", "address": "11100 13 ST", "city": "DAWSON CREEK", "province": "BC", "country": "CA", "postalCode": "V1G3W8", "twitter": "None", "instagram": "None", "facebook": "None", "youtube": "None", "website": "None", "summary": "None", "logo": "None", "latitude": 55.74953991416586, "longitude": -120.23660785054143}, "894880541RR0001": {"name": "DAWSON CREEK AND DISTRICT HOSPITAL FOUNDATION", "designationCode": "A", "categoryCode": "13", "address": "11100 13 ST", "city": "DAWSON CREEK", "province": "BC", "country": "CA", "postalCode": "V1G3W8", "twitter": "None", "instagram": "None", "facebook": "None", "youtube": "None", "website": "None", "summary": "None", "logo": "None", "latitude": 55.74953991416586, "longitude": -120.23660785054143}, "131921322RR0001": {"name": "DAWSON CREEK CATHOLIC SOCIAL SERVICES SOCIETY", "designationCode": "C", "categoryCode": "09", "address": "PO BOX 156 STN MAIN", "city": "DAWSON CREEK", "province": "BC", "country": "CA", "postalCode": "V1G4G3", "twitter": "None", "instagram": "None", "facebook": "None", "youtube": "None", "website": "None", "summary": "None", "logo": "None", "latitude": 55.76171100000006, "longitude": -120.23704249999994}, "894113372RR0009": {"name": "DAWSON CREEK CHURCH OF THE NAZARENE", "designationCode": "C", "categoryCode": "39", "address": "433 95TH AVE", "city": "DAWSON CREEK", "province": "BC", "country": "CA", "postalCode": "V1G1H4", "twitter": "None", "instagram": "None", "facebook": "None", "youtube": "None", "website": "None", "summary": "None", "logo": "None", "latitude": 55.76772548845881, "longitude": -120.22064108381903}, "131637399RR0001": {"name": "DAWSON CREEK COMMUNITY CHRISTIAN EDUCATION SOCIETY", "designationCode": "C", "categoryCode": "20", "address": "1761 110 AVE", "city": "DAWSON CREEK", "province": "BC", "country": "CA", "postalCode": "V1G4X4", "twitter": "None", "instagram": "None", "facebook": "None", "youtube": "None", "website": "None", "summary": "None", "logo": "None", "latitude": 55.74932574906251, "longitude": -120.25455627941557}, "869502179RR0001": {"name": "DAWSON CREEK COMMUNITY CHURCH AND MISSIONARY SOCIETY", "designationCode": "C", "categoryCode": "39", "address": "1224 103 AVE", "city": "DAWSON CREEK", "province": "BC", "country": "CA", "postalCode": "V1G2G9", "twitter": "None", "instagram": "None", "facebook": "None", "youtube": "None", "website": "None", "summary": "None", "logo": "None", "latitude": 55.759190216227026, "longitude": -120.23537447264711}, "130534258RR0001": {"name": "DAWSON CREEK MUNICIPAL PUBLIC LIBRARY", "designationCode": "C", "categoryCode": "50", "address": "1001 MCKELLAR AVE", "city": "DAWSON CREEK", "province": "BC", "country": "CA", "postalCode": "V1G4W7", "twitter": "None", "instagram": "None", "facebook": "None", "youtube": "None", "website": "None", "summary": "None", "logo": "None", "latitude": 55.753562128930675, "longitude": -120.23404690356449}, "132426768RR0001": {"name": "DAWSON CREEK NATIVE HOUSING SOCIETY", "designationCode": "C", "categoryCode": "01", "address": "10425 10TH ST", "city": "DAWSON CREEK", "province": "BC", "country": "CA", "postalCode": "V1G3T8", "twitter": "None", "instagram": "None", "facebook": "None", "youtube": "None", "website": "None", "summary": "None", "logo": "None", "latitude": 55.75613975160134, "longitude": -120.23064986222498}, "118818491RR0077": {"name": "DAWSON CREEK SEVENTH-DAY ADVENTIST CHURCH", "designationCode": "C", "categoryCode": "41", "address": "PO 1000", "city": "ABBOTSFORD", "province": "BC", "country": "CA", "postalCode": "V2S4P5", "twitter": "None", "instagram": "None", "facebook": "None", "youtube": "None", "website": "None", "summary": "None", "logo": "None", "latitude": 49.03851300000005, "longitude": -122.29441549999993}, "107008203RR0001": {"name": "DAWSON CREEK SOCIETY FOR COMMUNITY LIVING", "designationCode": "C", "categoryCode": "11", "address": "1334-102 AVE", "city": "DAWSON CREEK", "province": "BC", "country": "CA", "postalCode": "V1G2C6", "twitter": "None", "instagram": "None", "facebook": "None", "youtube": "None", "website": "None", "summary": "None", "logo": "None", "latitude": 55.75955952986305, "longitude": -120.2404815}, "131663650RR0001": {"name": "DAWSON CREEK YOUTH CENTER SOCIETY", "designationCode": "C", "categoryCode": "59", "address": "RR 2 SITE 19 COMP 17", "city": "DAWSON CREEK", "province": "BC", "country": "CA", "postalCode": "V1G4E8", "twitter": "None", "instagram": "None", "facebook": "None", "youtube": "None", "website": "None", "summary": "None", "logo": "None", "latitude": 55.76171100000006, "longitude": -120.23704249999994}, "118883164RR0001": {"name": "DAWSON ESTATE - ANGLICAN CHURCH DIOCESE ALGOMA TRUST P.H.B.", "designationCode": "B", "categoryCode": "45", "address": "PO BOX 10085", "city": "VANCOUVER", "province": "BC", "country": "CA", "postalCode": "V7Y1B6", "twitter": "None", "instagram": "None", "facebook": "None", "youtube": "None", "website": "None", "summary": "None", "logo": "None", "latitude": 49.26037200000006, "longitude": -123.11336149999994}, "105428023RR0001": {"name": "DAWSON HEIGHTS HOUSING LTD.", "designationCode": "C", "categoryCode": "09", "address": "3710 CEDAR HILL RD", "city": "VICTORIA", "province": "BC", "country": "CA", "postalCode": "V8P5V5", "twitter": "None", "instagram": "None", "facebook": "None", "youtube": "None", "website": "None", "summary": "None", "logo": "None", "latitude": 48.46199512963801, "longitude": -123.33752969978012}, "118883198RR0001": {"name": "DAWSON SETTLEMENT BAPTIST CHURCH", "designationCode": "C", "categoryCode": "31", "address": "852 DAWSON RD", "city": "DAWSON SETTLEMENT", "province": "NB", "country": "CA", "postalCode": "E4H2A2", "twitter": "None", "instagram": "None", "facebook": "None", "youtube": "None", "website": "None", "summary": "None", "logo": "None", "latitude": 45.945694322763686, "longitude": -64.77309343008297}, "852567676RR0001": {"name": "DAY BREAK MISSION SOCIETY", "designationCode": "C", "categoryCode": "49", "address": "POST OFFICE BOX 789           1190 EAST TRANS CANADA HIGHWAY", "city": "CACHE CREEK", "province": "BC", "country": "CA", "postalCode": "V0K1H0", "twitter": "None", "instagram": "None", "facebook": "None", "youtube": "None", "website": "None", "summary": "None", "logo": "None", "latitude": 50.80831113518105, "longitude": -121.32544163567277}, "868480302RR0001": {"name": "DAY BY DAY CHRISTIAN MINISTRIES", "designationCode": "C", "categoryCode": "39", "address": "159 DOLCE CRES", "city": "WOODBRIDGE", "province": "ON", "country": "CA", "postalCode": "L4H3C7", "twitter": "None", "instagram": "None", "facebook": "None", "youtube": "None", "website": "None", "summary": "None", "logo": "None", "latitude": 43.84323449321932, "longitude": -79.5572605269202}, "119288447RR0001": {"name": "DAY CARE CONNECTION (TORONTO) INC", "designationCode": "C", "categoryCode": "01", "address": "1954 GERRARD ST EAST", "city": "TORONTO", "province": "ON", "country": "CA", "postalCode": "M4E2B1", "twitter": "None", "instagram": "None", "facebook": "None", "youtube": "None", "website": "None", "summary": "None", "logo": "None", "latitude": 43.68103500611684, "longitude": -79.31028434361467}, "129252979RR0001": {"name": "DAY CARE SOCIETY OF EDSON", "designationCode": "C", "categoryCode": "01", "address": "PO BOX 6801  STN MAIN", "city": "EDSON", "province": "AB", "country": "CA", "postalCode": "T7E1V2", "twitter": "None", "instagram": "None", "facebook": "None", "youtube": "None", "website": "None", "summary": "None", "logo": "None", "latitude": 53.58212700000006, "longitude": -116.43412399999994}, "101298719RR0001": {"name": "DAY NURSERY CENTRE BROADWAY RELOCATION PROJECT INC.", "designationCode": "C", "categoryCode": "20", "address": "103-222 FURBY STREET", "city": "WINNIPEG", "province": "MB", "country": "CA", "postalCode": "R3C2A7", "twitter": "None", "instagram": "None", "facebook": "None", "youtube": "None", "website": "None", "summary": "None", "logo": "None", "latitude": 49.88546240383172, "longitude": -97.15789484808673}, "118883255RR0001": {"name": "DAY NURSERY CENTRE INCORPORATED", "designationCode": "C", "categoryCode": "01", "address": "103-222 FURBY STREET", "city": "WINNIPEG", "province": "MB", "country": "CA", "postalCode": "R3C2A7", "twitter": "None", "instagram": "None", "facebook": "None", "youtube": "None", "website": "None", "summary": "None", "logo": "None", "latitude": 49.88546240383172, "longitude": -97.15789484808673}, "107642035RR0001": {"name": "DAYA COUNSELLING CENTRE", "designationCode": "C", "categoryCode": "49", "address": "6TH FLOOR-141 DUNDAS ST", "city": "LONDON", "province": "ON", "country": "CA", "postalCode": "N6A1G3", "twitter": "None", "instagram": "None", "facebook": "None", "youtube": "None", "website": "None", "summary": "None", "logo": "None", "latitude": 42.983461111835744, "longitude": -81.25049478475394}, "854264926RR0001": {"name": "DAYAL FOUNDATION", "designationCode": "B", "categoryCode": "09", "address": "202-367 ST. PAUL STREET", "city": "BURLINGTON", "province": "ON", "country": "CA", "postalCode": "L7R3K3", "twitter": "None", "instagram": "None", "facebook": "None", "youtube": "None", "website": "None", "summary": "None", "logo": "None", "latitude": 43.335859063852396, "longitude": -79.78366532511991}, "118883214RR0001": {"name": "DAYBREAK NON-PROFIT SHELTER (ECUMENICAL) CORPORATION", "designationCode": "C", "categoryCode": "09", "address": "393 PICCADILLY AVENUE", "city": "OTTAWA", "province": "ON", "country": "CA", "postalCode": "K1Y0H3", "twitter": "None", "instagram": "None", "facebook": "None", "youtube": "None", "website": "None", "summary": "None", "logo": "None", "latitude": 45.39669219262502, "longitude": -75.7404226333316}, "131857070RR0001": {"name": "DAYBREAK PARENT-CHILD CENTRE ASSOCIATION", "designationCode": "C", "categoryCode": "01", "address": "74 THE BOULEVARD", "city": "ST. JOHN'S", "province": "NL", "country": "CA", "postalCode": "A1A1K2", "twitter": "None", "instagram": "None", "facebook": "None", "youtube": "None", "website": "None", "summary": "None", "logo": "None", "latitude": 47.580068230105475, "longitude": -52.69914779811279}, "107008310RR0001": {"name": "DAYBREAK POINT BIBLE CAMP SOCIETY", "designationCode": "C", "categoryCode": "56", "address": "400-221 WEST ESPLANADE", "city": "NORTH VANCOUVER", "province": "BC", "country": "CA", "postalCode": "V7M3J3", "twitter": "None", "instagram": "None", "facebook": "None", "youtube": "None", "website": "None", "summary": "None", "logo": "None", "latitude": 49.312626508713905, "longitude": -123.08325259411949}, "117348193RR0001": {"name": "DAYBREAK PRISON MINISTRY", "designationCode": "C", "categoryCode": "47", "address": "PO BOX 877", "city": "NEW GLASGOW", "province": "NS", "country": "CA", "postalCode": "B2H5K7", "twitter": "None", "instagram": "None", "facebook": "None", "youtube": "None", "website": "None", "summary": "None", "logo": "None"}, "106919426RR0001": {"name": "DAYSLAND ALLIANCE CHURCH OF THE CHRISTIAN AND MISSIONARY ALLIANCE", "designationCode": "C", "categoryCode": "39", "address": "BOX 670", "city": "DAYSLAND", "province": "AB", "country": "CA", "postalCode": "T0B1A0", "twitter": "None", "instagram": "None", "facebook": "None", "youtube": "None", "website": "None", "summary": "None", "logo": "None", "latitude": 52.86684000000008, "longitude": -112.25183999999996}, "872751169RR0001": {"name": "DAYSLAND AND DISTRICT AGING IN PLACE FOUNDATION", "designationCode": "C", "categoryCode": "09", "address": "6120 - 51 AVENUE              BOX 417", "city": "DAYSLAND", "province": "AB", "country": "CA", "postalCode": "T0B1A0", "twitter": "None", "instagram": "None", "facebook": "None", "youtube": "None", "website": "None", "summary": "None", "logo": "None", "latitude": 52.86932897774363, "longitude": -112.2756123027978}, "118883271RR0001": {"name": "DAYSLAND GENERAL HOSPITAL AUXILIARY", "designationCode": "C", "categoryCode": "19", "address": "BOX 27", "city": "DAYSLAND", "province": "AB", "country": "CA", "postalCode": "T0B1A0", "twitter": "None", "instagram": "None", "facebook": "None", "youtube": "None", "website": "None", "summary": "None", "logo": "None", "latitude": 52.86684000000008, "longitude": -112.25183999999996}, "118883289RR0001": {"name": "DAYSLAND HOSPITAL FOUNDATION", "designationCode": "A", "categoryCode": "13", "address": "BOX 27", "city": "DAYSLAND", "province": "AB", "country": "CA", "postalCode": "T0B1A0", "twitter": "None", "instagram": "None", "facebook": "None", "youtube": "None", "website": "None", "summary": "None", "logo": "None", "latitude": 52.86684000000008, "longitude": -112.25183999999996}, "118883305RR0001": {"name": "DAYSLAND LEGION CEMETERY FUND", "designationCode": "C", "categoryCode": "59", "address": "#205 PARK PLACE NORTH         4625 50 STREET", "city": "CAMROSE", "province": "AB", "country": "CA", "postalCode": "T4V4R2", "twitter": "None", "instagram": "None", "facebook": "None", "youtube": "None", "website": "None", "summary": "None", "logo": "None", "latitude": 53.01551400000005, "longitude": -112.82580799999994}, "134583095RR0001": {"name": "DAYSLAND UNITED CHURCH,", "designationCode": "C", "categoryCode": "44", "address": "PO BOX 381", "city": "DAYSLAND", "province": "AB", "country": "CA", "postalCode": "T0B1A0", "twitter": "None", "instagram": "None", "facebook": "None", "youtube": "None", "website": "None", "summary": "None", "logo": "None", "latitude": 52.86684000000008, "longitude": -112.25183999999996}, "118883339RR0001": {"name": "DAYSPRING & DISTRICT FIRE DEPARTMENT", "designationCode": "C", "categoryCode": "59", "address": "13177 HIGHWAY 3", "city": "UPPER LAHAVE", "province": "NS", "country": "CA", "postalCode": "B4V7C4", "twitter": "None", "instagram": "None", "facebook": "None", "youtube": "None", "website": "None", "summary": "None", "logo": "None", "latitude": 44.368355652034666, "longitude": -64.4441583764303}, "135165066RR0001": {"name": "DAYSPRING CEMETERY CO LTD", "designationCode": "C", "categoryCode": "59", "address": "13746 HWY 3", "city": "DAYSPRING", "province": "NS", "country": "CA", "postalCode": "B4V5P3", "twitter": "None", "instagram": "None", "facebook": "None", "youtube": "None", "website": "None", "summary": "None", "logo": "None", "latitude": 44.372511537735626, "longitude": -64.47637344838513}, "107008591RR0001": {"name": "DAYSPRING CHURCH", "designationCode": "C", "categoryCode": "39", "address": "999 MOODIE DRIVE", "city": "NEPEAN", "province": "ON", "country": "CA", "postalCode": "K2R1H4", "twitter": "None", "instagram": "None", "facebook": "None", "youtube": "None", "website": "None", "summary": "None", "logo": "None", "latitude": 45.27723367196591, "longitude": -75.80740363979515}, "894823442RR0001": {"name": "DAYSPRING CHURCH OF WINDSOR", "designationCode": "C", "categoryCode": "39", "address": "130 GILES BLVD E", "city": "WINDSOR", "province": "ON", "country": "CA", "postalCode": "N9A4B9", "twitter": "None", "instagram": "None", "facebook": "None", "youtube": "None", "website": "None", "summary": "None", "logo": "None", "latitude": 42.3062910827225, "longitude": -83.02906266584904}, "108012808RR0001": {"name": "DAYSPRING FELLOWSHIP INC.", "designationCode": "C", "categoryCode": "39", "address": "20 FINNIGAN RD", "city": "STE ANNE", "province": "MB", "country": "CA", "postalCode": "R5H1E3", "twitter": "None", "instagram": "None", "facebook": "None", "youtube": "None", "website": "None", "summary": "None", "logo": "None", "latitude": 49.65908387219595, "longitude": -96.63848806511983}, "869953562RR0001": {"name": "DAYSPRING MINISTRIES INC.", "designationCode": "C", "categoryCode": "46", "address": "15 DAYSPRING LANE", "city": "ROTHESAY", "province": "NB", "country": "CA", "postalCode": "E2S2W5", "twitter": "None", "instagram": "None", "facebook": "None", "youtube": "None", "website": "None", "summary": "None", "logo": "None", "latitude": 45.39292867198411, "longitude": -65.92211931226535}, "107008633RR0001": {"name": "DAYSPRING PRESBYTERIAN CHURCH", "designationCode": "C", "categoryCode": "37", "address": "11445-40 AVE", "city": "EDMONTON", "province": "AB", "country": "CA", "postalCode": "T6J0R4", "twitter": "None", "instagram": "None", "facebook": "None", "youtube": "None", "website": "None", "summary": "None", "logo": "None", "latitude": 53.47615957170091, "longitude": -113.52957304108712}, "873719033RR0001": {"name": "DAYSTAR CHRISTIAN ASSEMBLY LTD", "designationCode": "C", "categoryCode": "39", "address": "PO BOX 3154", "city": "LEDUC", "province": "AB", "country": "CA", "postalCode": "T9E6L9", "twitter": "None", "instagram": "None", "facebook": "None", "youtube": "None", "website": "None", "summary": "None", "logo": "None", "latitude": 53.26051200000006, "longitude": -113.54857099999992}, "118883404RR0001": {"name": "DAYTON CEMETERY INC.", "designationCode": "C", "categoryCode": "59", "address": "57 CARLISLE RD", "city": "DOUGLAS", "province": "NB", "country": "CA", "postalCode": "E3G7M3", "twitter": "None", "instagram": "None", "facebook": "None", "youtube": "None", "website": "None", "summary": "None", "logo": "None", "latitude": 45.98118021433587, "longitude": -66.74158097713253}, "884896929RR0001": {"name": "DAYTRIPPERS CHILDREN'S CHARITY", "designationCode": "C", "categoryCode": "09", "address": "60 BOULTON AVE", "city": "TORONTO", "province": "ON", "country": "CA", "postalCode": "M4M0B5", "twitter": "None", "instagram": "None", "facebook": "None", "youtube": "None", "website": "None", "summary": "None", "logo": "None", "latitude": 43.6612401515379, "longitude": -79.34745289759931}, "118883412RR0001": {"name": "DAZIBAO-CENTRE D'ANIMATION ET D'EXPOSITION PHOTO", "designationCode": "C", "categoryCode": "50", "address": "5455 AVE DE GASPE             SUITE 109", "city": "MONTREAL", "province": "QC", "country": "CA", "postalCode": "H2T3B3", "twitter": "None", "instagram": "None", "facebook": "None", "youtube": "None", "website": "None", "summary": "None", "logo": "None", "latitude": 45.52730326146909, "longitude": -73.5965688996481}, "832298004RR0001": {"name": "DDCBM Foundation", "designationCode": "A", "categoryCode": "03", "address": "314 NEUSCH WAY", "city": "SASKATOON", "province": "SK", "country": "CA", "postalCode": "S7K7V1", "twitter": "None", "instagram": "None", "facebook": "None", "youtube": "None", "website": "None", "summary": "None", "logo": "None", "latitude": 52.18858661890488, "longitude": -106.63176873226985}, "889981221RR0001": {"name": "DE DWA DA DEHS NYES ABORIGINAL HEALTH CENTRE", "designationCode": "C", "categoryCode": "11", "address": "678 MAIN ST EAST", "city": "HAMILTON", "province": "ON", "country": "CA", "postalCode": "L8M1K2", "twitter": "None", "instagram": "None", "facebook": "None", "youtube": "None", "website": "None", "summary": "None", "logo": "None", "latitude": 43.248494976946276, "longitude": -79.84310915404805}, "118883792RR0001": {"name": "DE FEHR FOUNDATION INC.", "designationCode": "B", "categoryCode": "03", "address": "70 LEXINGTON PARK", "city": "WINNIPEG", "province": "MB", "country": "CA", "postalCode": "R2G4H2", "twitter": "None", "instagram": "None", "facebook": "None", "youtube": "None", "website": "None", "summary": "None", "logo": "None", "latitude": 49.930565630443596, "longitude": -97.05874065085222}, "893626242RR0001": {"name": "DE GASPE BEAUBIEN FOUNDATION/LA FONDATION DE GASPE BEAUBIEN", "designationCode": "B", "categoryCode": "03", "address": "999 DE MAISONNEUVE OUEST,#1000", "city": "MONTREAL", "province": "QC", "country": "CA", "postalCode": "H3A3L4", "twitter": "None", "instagram": "None", "facebook": "None", "youtube": "None", "website": "None", "summary": "None", "logo": "None", "latitude": 45.50179755510983, "longitude": -73.57387450461628}, "107011181RR0001": {"name": "DE LA SALLE COLLEGE \"OAKLANDS\"", "designationCode": "C", "categoryCode": "20", "address": "131 FARNHAM AVE", "city": "TORONTO", "province": "ON", "country": "CA", "postalCode": "M4V1H7", "twitter": "None", "instagram": "None", "facebook": "None", "youtube": "None", "website": "None", "summary": "None", "logo": "None", "latitude": 43.68372975867138, "longitude": -79.39899494457306}, "142891191RR0001": {"name": "DE SOI A L'EMPLOI", "designationCode": "C", "categoryCode": "59", "address": "2035 AVENUE VICTORIA          BUREAU 303", "city": "SAINT-LAMBERT", "province": "QC", "country": "CA", "postalCode": "J4S1H1", "twitter": "None", "instagram": "None", "facebook": "None", "youtube": "None", "website": "None", "summary": "None", "logo": "None", "latitude": 45.47764961529822, "longitude": -73.47588204388573}, "892942467RR0001": {"name": "DE-BA-JEH-MU-JIG THEATRE GROUP", "designationCode": "C", "categoryCode": "22", "address": "8 DEBAJEHMUJIG LANE", "city": "WIKWEMIKONG", "province": "ON", "country": "CA", "postalCode": "P0P2J0", "twitter": "None", "instagram": "None", "facebook": "None", "youtube": "None", "website": "None", "summary": "None", "logo": "None", "latitude": 45.8051664142928, "longitude": -81.72108079298496}, "107009409RR0001": {"name": "DEAF & HARD OF HEARING SERVICES CALGARY REGION SOCIETY", "designationCode": "C", "categoryCode": "11", "address": "63 CORNELL RD NW", "city": "CALGARY", "province": "AB", "country": "CA", "postalCode": "T2L0L4", "twitter": "None", "instagram": "None", "facebook": "None", "youtube": "None", "website": "None", "summary": "None", "logo": "None", "latitude": 51.08384248514059, "longitude": -114.09605116763807}, "118965771RR0001": {"name": "DEAF ACCESS SIMCOE-MUSKOKA INC.", "designationCode": "C", "categoryCode": "09", "address": "9-20 ANNE ST SOUTH", "city": "BARRIE", "province": "ON", "country": "CA", "postalCode": "L4N2C6", "twitter": "None", "instagram": "None", "facebook": "None", "youtube": "None", "website": "None", "summary": "None", "logo": "None", "latitude": 44.38166476614345, "longitude": -79.7044928135468}, "107573156RR0001": {"name": "DEAF CENTRE MANITOBA INC.", "designationCode": "C", "categoryCode": "11", "address": "285 PEMBINA HWY", "city": "WINNIPEG", "province": "MB", "country": "CA", "postalCode": "R3L2E1", "twitter": "None", "instagram": "None", "facebook": "None", "youtube": "None", "website": "None", "summary": "None", "logo": "None", "latitude": 49.87233709270585, "longitude": -97.1438271883545}, "119267706RR0001": {"name": "DEAF CHILDREN'S SOCIETY OF B C", "designationCode": "C", "categoryCode": "09", "address": "200-7355 CANADA WAY", "city": "BURNABY", "province": "BC", "country": "CA", "postalCode": "V3N4Z6", "twitter": "None", "instagram": "None", "facebook": "None", "youtube": "None", "website": "None", "summary": "None", "logo": "None", "latitude": 49.223568039673474, "longitude": -122.94047069028775}, "864503321RR0001": {"name": "DEAF COMMUNITY CHRISTIAN CHURCH", "designationCode": "C", "categoryCode": "34", "address": "PO BOX 50095  SOUTH SLOPE RPO", "city": "BURNABY", "province": "BC", "country": "CA", "postalCode": "V5J5G3", "twitter": "None", "instagram": "None", "facebook": "None", "youtube": "None", "website": "None", "summary": "None", "logo": "None", "latitude": 49.21896000000004, "longitude": -122.99946999999997}, "885316968RR0001": {"name": "DEAF TEAM MINISTRIES", "designationCode": "C", "categoryCode": "39", "address": "RR #3", "city": "TWEED", "province": "ON", "country": "CA", "postalCode": "K0K3J0", "twitter": "None", "instagram": "None", "facebook": "None", "youtube": "None", "website": "None", "summary": "None", "logo": "None", "latitude": 44.5086505598945, "longitude": -77.09797988747485}, "890699390RR0001": {"name": "DEAF-BLIND ASSOCIATION OF TORONTO INC.", "designationCode": "C", "categoryCode": "11", "address": "406-422 WILLOWDALE AVENUE", "city": "NORTH YORK", "province": "ON", "country": "CA", "postalCode": "M2N5B1", "twitter": "None", "instagram": "None", "facebook": "None", "youtube": "None", "website": "None", "summary": "None", "logo": "None", "latitude": 43.77823123535695, "longitude": -79.40572594866974}, "131834319RR0001": {"name": "DEAFBLIND ONTARIO SERVICES", "designationCode": "C", "categoryCode": "01", "address": "15 - 17665 LESLIE ST", "city": "NEWMARKET", "province": "ON", "country": "CA", "postalCode": "L3Y3E3", "twitter": "None", "instagram": "None", "facebook": "None", "youtube": "None", "website": "None", "summary": "None", "logo": "None", "latitude": 44.063867355879715, "longitude": -79.43142957352875}, "888963287RR0001": {"name": "DEAN CEMETERIES FUND", "designationCode": "C", "categoryCode": "59", "address": "541 DEAN BACK RD", "city": "UPPER MUSQUODBOIT", "province": "NS", "country": "CA", "postalCode": "B0N2M0", "twitter": "None", "instagram": "None", "facebook": "None", "youtube": "None", "website": "None", "summary": "None", "logo": "None", "latitude": 45.17881690025275, "longitude": -62.90611280030398}, "825936347RR0001": {"name": "DEAN MILLEY MINISTRIES INTERNATIONAL", "designationCode": "C", "categoryCode": "47", "address": "46 GOLD ROCK RUN", "city": "CONCEPTION BAY SOUTH", "province": "NL", "country": "CA", "postalCode": "A1W3K5", "twitter": "None", "instagram": "None", "facebook": "None", "youtube": "None", "website": "None", "summary": "None", "logo": "None", "latitude": 47.51587026270188, "longitude": -52.949740842634974}, "889588570RR0001": {"name": "DEAN OF COMMERCE (U B C ) PORTFOLIO MANAGEMENT FOUNDATION", "designationCode": "A", "categoryCode": "23", "address": "2053 MAIN MALL UNIV OF BC", "city": "VANCOUVER", "province": "BC", "country": "CA", "postalCode": "V6T1Z2", "twitter": "None", "instagram": "None", "facebook": "None", "youtube": "None", "website": "None", "summary": "None", "logo": "None", "latitude": 49.265520530381394, "longitude": -123.2536948554172}, "890416746RR0001": {"name": "DEANERY OF THE ESTONIAN EVANGELICAL LUTHERAN CHURCH IN CANADA", "designationCode": "C", "categoryCode": "47", "address": "817 MT PLEASANT ROAD", "city": "TORONTO", "province": "ON", "country": "CA", "postalCode": "M4P2L1", "twitter": "None", "instagram": "None", "facebook": "None", "youtube": "None", "website": "None", "summary": "None", "logo": "None", "latitude": 43.70931714516125, "longitude": -79.39046761001808}, "107009722RR0001": {"name": "DEARHAM WOOD DAYCARE (GUILDWOOD) INC.", "designationCode": "C", "categoryCode": "20", "address": "66 DEARHAM WOOD", "city": "WEST HILL", "province": "ON", "country": "CA", "postalCode": "M1E1S4", "twitter": "None", "instagram": "None", "facebook": "None", "youtube": "None", "website": "None", "summary": "None", "logo": "None", "latitude": 43.7532501657335, "longitude": -79.18726624023301}, "891129546RR0001": {"name": "DEASE LAKE READING CENTRE SOCIETY", "designationCode": "C", "categoryCode": "50", "address": "P.O. BOX 237", "city": "DEASE LAKE", "province": "BC", "country": "CA", "postalCode": "V0C1L0", "twitter": "None", "instagram": "None", "facebook": "None", "youtube": "None", "website": "None", "summary": "None", "logo": "None", "latitude": 58.4363202097706, "longitude": -129.98762594213716}, "896666336RR0001": {"name": "DEASE LAKE RECREATION CENTRE SOCIETY", "designationCode": "C", "categoryCode": "56", "address": "BOX 359", "city": "DEASE LAKE", "province": "BC", "country": "CA", "postalCode": "V0C1L0", "twitter": "None", "instagram": "None", "facebook": "None", "youtube": "None", "website": "None", "summary": "None", "logo": "None", "latitude": 58.4363202097706, "longitude": -129.98762594213716}, "132075854RR0001": {"name": "DEBERT BAPTIST CHURCH", "designationCode": "C", "categoryCode": "31", "address": "POST OFFIC BOX 134", "city": "DEBERT", "province": "NS", "country": "CA", "postalCode": "B0M1C0", "twitter": "None", "instagram": "None", "facebook": "None", "youtube": "None", "website": "None", "summary": "None", "logo": "None", "latitude": 45.42090900000005, "longitude": -63.366514999999936}, "873124879RR0001": {"name": "DEBERT CEMETERY COMPANY", "designationCode": "C", "categoryCode": "59", "address": "P.O. BOX 121", "city": "DEBERT", "province": "NS", "country": "CA", "postalCode": "B0M1G0", "twitter": "None", "instagram": "None", "facebook": "None", "youtube": "None", "website": "None", "summary": "None", "logo": "None", "latitude": 45.430480000000045, "longitude": -63.44773999999995}, "868012881RR0001": {"name": "DEBERT MILITARY HISTORY SOCIETY", "designationCode": "C", "categoryCode": "50", "address": "BOX 154", "city": "DEBERT", "province": "NS", "country": "CA", "postalCode": "B0M1G0", "twitter": "None", "instagram": "None", "facebook": "None", "youtube": "None", "website": "None", "summary": "None", "logo": "None", "latitude": 45.382157484829, "longitude": -63.52751731589241}, "118883511RR0001": {"name": "DEBOLT AND DISTRICT PIONEER MUSEUM SOCIETY", "designationCode": "C", "categoryCode": "50", "address": "PO BOX 298", "city": "DEBOLT", "province": "AB", "country": "CA", "postalCode": "T0H1B0", "twitter": "None", "instagram": "None", "facebook": "None", "youtube": "None", "website": "None", "summary": "None", "logo": "None", "latitude": 55.21796000000006, "longitude": -118.02602999999999}, "860064914RR0001": {"name": "DEBRA DYNES FAMILY HOUSE / LA MAISON FAMILIALE DEBRA DYNES", "designationCode": "C", "categoryCode": "09", "address": "85-955 DEBRA AVENUE", "city": "OTTAWA", "province": "ON", "country": "CA", "postalCode": "K2C0J5", "twitter": "None", "instagram": "None", "facebook": "None", "youtube": "None", "website": "None", "summary": "None", "logo": "None", "latitude": 45.36760408881069, "longitude": -75.70515882930351}, "118902691RR0001": {"name": "DEBRE MEDHANIT MEDHANE ALEM ETHIOPIAN ORTHODOX TEWAHEDO CHURCH", "designationCode": "C", "categoryCode": "39", "address": "196 WRIGHT CRESCENT", "city": "AJAX", "province": "ON", "country": "CA", "postalCode": "L1S6X3", "twitter": "None", "instagram": "None", "facebook": "None", "youtube": "None", "website": "None", "summary": "None", "logo": "None", "latitude": 43.85142248265909, "longitude": -79.04017303523008}, "885449330RR0001": {"name": "DEBRE SELAM ST MICHAEL ETHIOPIAN ORTHODOX TEWAHEDO CHURCH", "designationCode": "C", "categoryCode": "39", "address": "125 BROADVIEW AVE", "city": "TORONTO", "province": "ON", "country": "CA", "postalCode": "M4M2E9", "twitter": "None", "instagram": "None", "facebook": "None", "youtube": "None", "website": "None", "summary": "None", "logo": "None", "latitude": 43.6596362020601, "longitude": -79.35011898095698}, "839970928RR0001": {"name": "DEBRE-BETHEL HOLY TRINITY CHURCH OF THE ETHIOPIAN ORTHODOX TEWAHEDO CHURCH", "designationCode": "C", "categoryCode": "39", "address": "A - 523 SUNNYDALE PL", "city": "WATERLOO", "province": "ON", "country": "CA", "postalCode": "N2L4S9", "twitter": "None", "instagram": "None", "facebook": "None", "youtube": "None", "website": "None", "summary": "None", "logo": "None", "latitude": 43.485874581151066, "longitude": -80.54893771768043}, "899132963RR0001": {"name": "DEBT OF LOVE MISSIONARY MINISTRIES", "designationCode": "C", "categoryCode": "49", "address": "PO BOX 22020 RPO CAPRI CENTRE", "city": "KELOWNA", "province": "BC", "country": "CA", "postalCode": "V1Y9N9", "twitter": "None", "instagram": "None", "facebook": "None", "youtube": "None", "website": "None", "summary": "None", "logo": "None", "latitude": 49.88175774996267, "longitude": -119.473641}, "892545765RR0001": {"name": "DEBUT ATLANTIC/ATLANTIQUE SOCIETY", "designationCode": "C", "categoryCode": "22", "address": "PO BOX 575 STN CENTRAL", "city": "HALIFAX", "province": "NS", "country": "CA", "postalCode": "B3J2R7", "twitter": "None", "instagram": "None", "facebook": "None", "youtube": "None", "website": "None", "summary": "None", "logo": "None", "latitude": 44.645478000000054, "longitude": -63.576552499999934}, "800673402RR0001": {"name": "DECHINTA INITIATIVES", "designationCode": "C", "categoryCode": "20", "address": "PO BOX 1568", "city": "YELLOWKNIFE", "province": "NT", "country": "CA", "postalCode": "X1A2P2", "twitter": "None", "instagram": "None", "facebook": "None", "youtube": "None", "website": "None", "summary": "None", "logo": "None", "latitude": 62.45446200000005, "longitude": -114.37092349999993}, "118883545RR0001": {"name": "DECIDEDLY JAZZ SOCIETY", "designationCode": "C", "categoryCode": "22", "address": "111 12 AVE SE", "city": "CALGARY", "province": "AB", "country": "CA", "postalCode": "T2G0Z9", "twitter": "None", "instagram": "None", "facebook": "None", "youtube": "None", "website": "None", "summary": "None", "logo": "None", "latitude": 51.04130392689277, "longitude": -114.06299254605781}, "889849394RR0001": {"name": "DECKER CHARITABLE TRUST", "designationCode": "B", "categoryCode": "39", "address": "1401 PRINCESS AVE", "city": "BRANDON", "province": "MB", "country": "CA", "postalCode": "R7A7L7", "twitter": "None", "instagram": "None", "facebook": "None", "youtube": "None", "website": "None", "summary": "None", "logo": "None", "latitude": 49.84694947489748, "longitude": -99.957294}, "898788435RR0001": {"name": "DECKER LAKE MENNONITE CHURCH", "designationCode": "C", "categoryCode": "34", "address": "310 OSATUIK RD", "city": "BURNS LAKE", "province": "BC", "country": "CA", "postalCode": "V0J1E2", "twitter": "None", "instagram": "None", "facebook": "None", "youtube": "None", "website": "None", "summary": "None", "logo": "None", "latitude": 54.19383513465386, "longitude": -125.74342393031851}, "139952196RR0001": {"name": "DECLIC INITIATIVES POUR LA FORMATION ET L'EMPLOI DES JEUNES", "designationCode": "C", "categoryCode": "59", "address": "6250, RUE DES ECORES", "city": "MONTREAL", "province": "QC", "country": "CA", "postalCode": "H2G2J5", "twitter": "None", "instagram": "None", "facebook": "None", "youtube": "None", "website": "None", "summary": "None", "logo": "None", "latitude": 45.54643377517465, "longitude": -73.59016284070047}, "107010415RR0001": {"name": "DECOSTE ENTERTAINMENT CENTRE SOCIETY", "designationCode": "C", "categoryCode": "56", "address": "P.O. BOX 39", "city": "PICTOU", "province": "NS", "country": "CA", "postalCode": "B0K1H0", "twitter": "None", "instagram": "None", "facebook": "None", "youtube": "None", "website": "None", "summary": "None", "logo": "None", "latitude": 45.67583400000005, "longitude": -62.70865099999993}, "893342766RR0001": {"name": "DECOUVERTE JEUNESSE D'HAM-SUD", "designationCode": "C", "categoryCode": "09", "address": "400 MGR L'HEUREUX", "city": "WOTTON", "province": "QC", "country": "CA", "postalCode": "J0A1N0", "twitter": "None", "instagram": "None", "facebook": "None", "youtube": "None", "website": "None", "summary": "None", "logo": "None", "latitude": 45.73592634867702, "longitude": -71.81052690684935}, "896438611RR0001": {"name": "DEE'S ORPHAN KITTEN FUND", "designationCode": "C", "categoryCode": "54", "address": "3888 CAREY RD", "city": "VICTORIA", "province": "BC", "country": "CA", "postalCode": "V8Z4C9", "twitter": "None", "instagram": "None", "facebook": "None", "youtube": "None", "website": "None", "summary": "None", "logo": "None", "latitude": 48.46268380515328, "longitude": -123.38503365419228}, "118883560RR0001": {"name": "DEEP BROOK BAPTIST CHURCH", "designationCode": "C", "categoryCode": "31", "address": "36 MOORE LANE", "city": "DEEP BROOK", "province": "NS", "country": "CA", "postalCode": "B0S1J0", "twitter": "None", "instagram": "None", "facebook": "None", "youtube": "None", "website": "None", "summary": "None", "logo": "None", "latitude": 44.630759398840055, "longitude": -65.67039369995395}, "132349150RR0001": {"name": "DEEP COVE CHAMBER SOLOISTS SOCIETY", "designationCode": "C", "categoryCode": "22", "address": "4558 UNDERWOOD AVENUE", "city": "NORTH VANCOUVER", "province": "BC", "country": "CA", "postalCode": "V7K2S2", "twitter": "None", "instagram": "None", "facebook": "None", "youtube": "None", "website": "None", "summary": "None", "logo": "None", "latitude": 49.35148116180969, "longitude": -123.02463786730355}, "889637179RR0001": {"name": "DEEP COVE CULTURAL SOCIETY", "designationCode": "C", "categoryCode": "22", "address": "4360 GALLANT AVE", "city": "NORTH VANCOUVER", "province": "BC", "country": "CA", "postalCode": "V7G1L2", "twitter": "None", "instagram": "None", "facebook": "None", "youtube": "None", "website": "None", "summary": "None", "logo": "None", "latitude": 49.32680347489747, "longitude": -122.95016988481737}, "897343513RR0001": {"name": "DEEP COVE HERITAGE SOCIETY", "designationCode": "C", "categoryCode": "50", "address": "4360 GALLANT AVE", "city": "NORTH VANCOUVER", "province": "BC", "country": "CA", "postalCode": "V7G1L2", "twitter": "None", "instagram": "None", "facebook": "None", "youtube": "None", "website": "None", "summary": "None", "logo": "None", "latitude": 49.32680347489747, "longitude": -122.95016988481737}, "896563996RR0001": {"name": "DEEP COVE KID CLUB SOCIETY", "designationCode": "C", "categoryCode": "21", "address": "10975 W SAANICH RD", "city": "SIDNEY", "province": "BC", "country": "CA", "postalCode": "V8L5P6", "twitter": "None", "instagram": "None", "facebook": "None", "youtube": "None", "website": "None", "summary": "None", "logo": "None", "latitude": 48.680064974464784, "longitude": -123.45773985795542}, "107010563RR0001": {"name": "DEEP COVE PARENT PARTICIPATION PRESCHOOL SOCIETY", "designationCode": "C", "categoryCode": "20", "address": "1204 CALEDONIA AVENUE", "city": "NORTH VANCOUVER", "province": "BC", "country": "CA", "postalCode": "V7G2A6", "twitter": "None", "instagram": "None", "facebook": "None", "youtube": "None", "website": "None", "summary": "None", "logo": "None", "latitude": 49.31818846324071, "longitude": -122.95118997509994}, "887667822RR0001": {"name": "DEEP QUONG COMMUNITY FUND INC", "designationCode": "C", "categoryCode": "09", "address": "2 MURRAY ST", "city": "TORONTO", "province": "ON", "country": "CA", "postalCode": "M5T1T7", "twitter": "None", "instagram": "None", "facebook": "None", "youtube": "None", "website": "None", "summary": "None", "logo": "None", "latitude": 43.656347797939915, "longitude": -79.39059605179159}, "134723972RR0001": {"name": "DEEP RIVER AND AREA FAMILY ENRICHMENT NETWORK INC", "designationCode": "C", "categoryCode": "59", "address": "P.O. BOX 1689", "city": "DEEP RIVER", "province": "ON", "country": "CA", "postalCode": "K0J1P0", "twitter": "None", "instagram": "None", "facebook": "None", "youtube": "None", "website": "None", "summary": "None", "logo": "None", "latitude": 46.10094229916361, "longitude": -77.48685137671198}, "815263512RR0001": {"name": "DEEP RIVER AND AREA FOOD BANK INCORPORATION", "designationCode": "C", "categoryCode": "09", "address": "PO BOX 1015", "city": "DEEP RIVER", "province": "ON", "country": "CA", "postalCode": "K0J1P0", "twitter": "None", "instagram": "None", "facebook": "None", "youtube": "None", "website": "None", "summary": "None", "logo": "None", "latitude": 46.10094229916361, "longitude": -77.48685137671198}}