{"119062222RR0001": {"name": "BURNABY LYRIC OPERA SOCIETY", "designationCode": "C", "categoryCode": "22", "address": "1104 - 1755 14TH AVE W", "city": "VANCOUVER", "province": "BC", "country": "CA", "postalCode": "V6J2J6", "twitter": "None", "instagram": "None", "facebook": "None", "youtube": "None", "website": "None", "summary": "None", "logo": "None", "latitude": 49.2590754676841, "longitude": -123.14571232944775}, "106819345RR0001": {"name": "BURNABY MEALS ON WHEELS SOCIETY", "designationCode": "C", "categoryCode": "09", "address": "2055 ROSSER AVENUE", "city": "BURNABY", "province": "BC", "country": "CA", "postalCode": "V5C0H1", "twitter": "None", "instagram": "None", "facebook": "None", "youtube": "None", "website": "None", "summary": "None", "logo": "None", "latitude": 49.2659113763217, "longitude": -123.00605959353514}, "118821636RR0001": {"name": "BURNABY NORTH BAPTIST CHURCH", "designationCode": "C", "categoryCode": "31", "address": "3977 ALBERT STREET", "city": "N BURNABY", "province": "BC", "country": "CA", "postalCode": "V5C2E2", "twitter": "None", "instagram": "None", "facebook": "None", "youtube": "None", "website": "None", "summary": "None", "logo": "None", "latitude": 49.282075961605635, "longitude": -123.01684752831238}, "869116525RR0001": {"name": "BURNABY PACIFIC GRACE CHURCH", "designationCode": "C", "categoryCode": "34", "address": "3883 TRIUMPH ST", "city": "BURNABY", "province": "BC", "country": "CA", "postalCode": "V5C1Y6", "twitter": "None", "instagram": "None", "facebook": "None", "youtube": "None", "website": "None", "summary": "None", "logo": "None", "latitude": 49.28382148600596, "longitude": -123.01903316472388}, "118821644RR0001": {"name": "BURNABY PHOTOGRAPHIC SOCIETY", "designationCode": "C", "categoryCode": "22", "address": "1341 HEATHDALE DR", "city": "BURNABY", "province": "BC", "country": "CA", "postalCode": "V5B3N9", "twitter": "None", "instagram": "None", "facebook": "None", "youtube": "None", "website": "None", "summary": "None", "logo": "None", "latitude": 49.27194318621972, "longitude": -122.98480701044468}, "118821651RR0001": {"name": "BURNABY PRO LIFE SOCIETY", "designationCode": "C", "categoryCode": "09", "address": "P.O. BOX 16040 617 BELMONT ST", "city": "NEW WESTMINSTER", "province": "BC", "country": "CA", "postalCode": "V3M6W6", "twitter": "None", "instagram": "None", "facebook": "None", "youtube": "None", "website": "None", "summary": "None", "logo": "None", "latitude": 49.21217909864028, "longitude": -122.92003862743472}, "888022241RR0001": {"name": "BURNABY PUBLIC LIBRARY", "designationCode": "C", "categoryCode": "50", "address": "6100 WILLINGDON AVE", "city": "BURNABY", "province": "BC", "country": "CA", "postalCode": "V5H4N5", "twitter": "None", "instagram": "None", "facebook": "None", "youtube": "None", "website": "None", "summary": "None", "logo": "None", "latitude": 49.22825861333631, "longitude": -123.00688139110802}, "890865645RR0001": {"name": "BURNABY RETIRED TEACHERS' SCHOLARSHIP AND BURSARY FOUNDATION", "designationCode": "C", "categoryCode": "21", "address": "5325 KINCAID ST", "city": "BURNABY", "province": "BC", "country": "CA", "postalCode": "V5G1W2", "twitter": "None", "instagram": "None", "facebook": "None", "youtube": "None", "website": "None", "summary": "None", "logo": "None", "latitude": 49.24844748268774, "longitude": -122.98697163918865}, "130651268RR0001": {"name": "BURNABY SENIORS OUTREACH SERVICES SOCIETY", "designationCode": "C", "categoryCode": "09", "address": "5 - 2055 ROSSER AVE", "city": "BURNABY", "province": "BC", "country": "CA", "postalCode": "V5C0H1", "twitter": "None", "instagram": "None", "facebook": "None", "youtube": "None", "website": "None", "summary": "None", "logo": "None", "latitude": 49.2659113763217, "longitude": -123.00605959353514}, "118818491RR0068": {"name": "BURNABY SEVENTH-DAY ADVENTIST FELLOWSHIP CHURCH", "designationCode": "C", "categoryCode": "41", "address": "PO 1000", "city": "ABBOTSFORD", "province": "BC", "country": "CA", "postalCode": "V2S4P5", "twitter": "None", "instagram": "None", "facebook": "None", "youtube": "None", "website": "None", "summary": "None", "logo": "None", "latitude": 49.03851300000005, "longitude": -122.29441549999993}, "891128597RR0001": {"name": "BURNABY SOUTH STROKE RECOVERY CLUB", "designationCode": "C", "categoryCode": "19", "address": "UNIT 408                      9233 GOVERNMENT STREET", "city": "BURNABY", "province": "BC", "country": "CA", "postalCode": "V3N0A3", "twitter": "None", "instagram": "None", "facebook": "None", "youtube": "None", "website": "None", "summary": "None", "logo": "None", "latitude": 49.247001534277814, "longitude": -122.90627583735359}, "875960619RR0001": {"name": "BURNABY SPORTS HALL OF FAME", "designationCode": "C", "categoryCode": "50", "address": "300 - 1060 AUSTIN AVE", "city": "COQUITLAM", "province": "BC", "country": "CA", "postalCode": "V3K3P3", "twitter": "None", "instagram": "None", "facebook": "None", "youtube": "None", "website": "None", "summary": "None", "logo": "None", "latitude": 49.24891035301975, "longitude": -122.86277467058787}, "131450413RR0001": {"name": "BURNABY VOLUNTEER CENTRE SOCIETY", "designationCode": "C", "categoryCode": "09", "address": "203-2101 HOLDOM AVE", "city": "BURNABY", "province": "BC", "country": "CA", "postalCode": "V5B0A4", "twitter": "None", "instagram": "None", "facebook": "None", "youtube": "None", "website": "None", "summary": "None", "logo": "None", "latitude": 49.264669676380635, "longitude": -122.98127352276526}, "118821701RR0001": {"name": "BURNBRAE PRESBYTERIAN WOMEN", "designationCode": "C", "categoryCode": "47", "address": "BOX 1443", "city": "CAMPBELLFORD", "province": "ON", "country": "CA", "postalCode": "K0L1L0", "twitter": "None", "instagram": "None", "facebook": "None", "youtube": "None", "website": "None", "summary": "None", "logo": "None", "latitude": 44.287060000000054, "longitude": -77.80936999999994}, "106819477RR0001": {"name": "BURNETT FELLOWSHIP BAPTIST CHURCH", "designationCode": "C", "categoryCode": "31", "address": "20639 123RD AVENUE", "city": "MAPLE RIDGE", "province": "BC", "country": "CA", "postalCode": "V2X4B1", "twitter": "None", "instagram": "None", "facebook": "None", "youtube": "None", "website": "None", "summary": "None", "logo": "None", "latitude": 49.226289525967914, "longitude": -122.64866116763807}, "121411284RR0001": {"name": "BURNHAMTHORPE CEMETERY FUND", "designationCode": "A", "categoryCode": "59", "address": "1634 DEMPSEY CRES.", "city": "MILTON", "province": "ON", "country": "CA", "postalCode": "L9T5M5", "twitter": "None", "instagram": "None", "facebook": "None", "youtube": "None", "website": "None", "summary": "None", "logo": "None", "latitude": 43.526537120722566, "longitude": -79.8314904025623}, "894364082RR0001": {"name": "BURNING BUSH MINISTRIES INC.", "designationCode": "C", "categoryCode": "49", "address": "P O BOX 1004", "city": "AMHERST", "province": "NS", "country": "CA", "postalCode": "B4H4E1", "twitter": "None", "instagram": "None", "facebook": "None", "youtube": "None", "website": "None", "summary": "None", "logo": "None", "latitude": 45.83198400000006, "longitude": -64.20979249999993}, "872531900RR0001": {"name": "BURNING BUSH MINISTRY", "designationCode": "C", "categoryCode": "39", "address": "308-2500 BRIDLETOWNE CIRCLE", "city": "SCARBOROUGH", "province": "ON", "country": "CA", "postalCode": "M1W2V6", "twitter": "None", "instagram": "None", "facebook": "None", "youtube": "None", "website": "None", "summary": "None", "logo": "None", "latitude": 43.80165656116934, "longitude": -79.31770936066712}, "890767924RR0001": {"name": "BURNING PASSIONS THEATRE", "designationCode": "C", "categoryCode": "22", "address": "P.O. BOX 2121, 57 FOSTER ST.", "city": "PERTH", "province": "ON", "country": "CA", "postalCode": "K7H1R9", "twitter": "None", "instagram": "None", "facebook": "None", "youtube": "None", "website": "None", "summary": "None", "logo": "None", "latitude": 44.900874324456105, "longitude": -76.25179620788846}, "864565841RR0001": {"name": "BURNS BOG CONSERVATION FOUNDATION", "designationCode": "C", "categoryCode": "52", "address": "4-7953 120 ST", "city": "DELTA", "province": "BC", "country": "CA", "postalCode": "V4C6P6", "twitter": "None", "instagram": "None", "facebook": "None", "youtube": "None", "website": "None", "summary": "None", "logo": "None", "latitude": 49.14778449708581, "longitude": -122.89049501728266}, "129166682RR0001": {"name": "BURNS BOG CONSERVATION SOCIETY", "designationCode": "C", "categoryCode": "52", "address": "4-7953 120TH ST", "city": "DELTA", "province": "BC", "country": "CA", "postalCode": "V4C6P6", "twitter": "None", "instagram": "None", "facebook": "None", "youtube": "None", "website": "None", "summary": "None", "logo": "None", "latitude": 49.14778449708581, "longitude": -122.89049501728266}, "891278335RR0001": {"name": "BURNS LAKE & DISTRICT HEALTH-CARE AUXILIARY", "designationCode": "C", "categoryCode": "19", "address": "PO BOX 597", "city": "BURNS LAKE", "province": "BC", "country": "CA", "postalCode": "V0J1E0", "twitter": "None", "instagram": "None", "facebook": "None", "youtube": "None", "website": "None", "summary": "None", "logo": "None", "latitude": 54.22723000000008, "longitude": -125.76009999999997}, "107387078RR0001": {"name": "BURNS LAKE CHRISTIAN SUPPORTIVE SOCIETY", "designationCode": "C", "categoryCode": "01", "address": "BOX 1142", "city": "BURNS LAKE", "province": "BC", "country": "CA", "postalCode": "V0J1E0", "twitter": "None", "instagram": "None", "facebook": "None", "youtube": "None", "website": "None", "summary": "None", "logo": "None", "latitude": 54.22723000000008, "longitude": -125.76009999999997}, "863674370RR0001": {"name": "BURNS LAKE COMMUNITY CHURCH", "designationCode": "C", "categoryCode": "39", "address": "2655 BOBCAT ROAD", "city": "BURNS LAKE", "province": "BC", "country": "CA", "postalCode": "V0J1E3", "twitter": "None", "instagram": "None", "facebook": "None", "youtube": "None", "website": "None", "summary": "None", "logo": "None", "latitude": 54.22761886427379, "longitude": -125.72358805482135}, "106819691RR0001": {"name": "BURNS LAKE PUBLIC LIBRARY ASSOCIATION", "designationCode": "C", "categoryCode": "50", "address": "BOX 449", "city": "BURNS LAKE", "province": "BC", "country": "CA", "postalCode": "V0J1E0", "twitter": "None", "instagram": "None", "facebook": "None", "youtube": "None", "website": "None", "summary": "None", "logo": "None", "latitude": 54.22723000000008, "longitude": -125.76009999999997}, "135126464RR0001": {"name": "BURNS LAKE VINEYARD CHRISTIAN FELLOWSHIP", "designationCode": "C", "categoryCode": "49", "address": "P.O. BOX 1121", "city": "BURNS LAKE", "province": "BC", "country": "CA", "postalCode": "V0J1E0", "twitter": "None", "instagram": "None", "facebook": "None", "youtube": "None", "website": "None", "summary": "None", "logo": "None", "latitude": 54.22723000000008, "longitude": -125.76009999999997}, "118821784RR0001": {"name": "BURNS MEMORIAL PRESBYTERIAN CHURCH", "designationCode": "C", "categoryCode": "37", "address": "756 WEST BRANCH RD", "city": "SCOTSBURN", "province": "NS", "country": "CA", "postalCode": "B0K1R0", "twitter": "None", "instagram": "None", "facebook": "None", "youtube": "None", "website": "None", "summary": "None", "logo": "None", "latitude": 45.66842812406945, "longitude": -63.05538817121608}, "106819527RR0001": {"name": "BURNS PRESBYTERIAN CHURCH", "designationCode": "C", "categoryCode": "37", "address": "PO BOX 1443", "city": "GLENCOE", "province": "ON", "country": "CA", "postalCode": "N0L1M0", "twitter": "None", "instagram": "None", "facebook": "None", "youtube": "None", "website": "None", "summary": "None", "logo": "None", "latitude": 38.35591000000005, "longitude": -120.58214999999996}, "118821800RR0001": {"name": "BURNS PRESBYTERIAN CHURCH", "designationCode": "C", "categoryCode": "37", "address": "765 MYRTLE RD W", "city": "ASHBURN", "province": "ON", "country": "CA", "postalCode": "L0B1A0", "twitter": "None", "instagram": "None", "facebook": "None", "youtube": "None", "website": "None", "summary": "None", "logo": "None", "latitude": 44.00129062404872, "longitude": -78.99861434320268}, "118821818RR0001": {"name": "BURNS PRESBYTERIAN CHURCH", "designationCode": "C", "categoryCode": "37", "address": "155 MAIN STREET, P O BOX 696", "city": "ERIN", "province": "ON", "country": "CA", "postalCode": "N0B1T0", "twitter": "None", "instagram": "None", "facebook": "None", "youtube": "None", "website": "None", "summary": "None", "logo": "None", "latitude": 43.7711221659933, "longitude": -80.06504186508185}, "118821826RR0001": {"name": "BURNS PRESBYTERIAN CHURCH", "designationCode": "C", "categoryCode": "37", "address": "469238 GREY RD 31, RR1", "city": "FEVERSHAM", "province": "ON", "country": "CA", "postalCode": "N0C1C0", "twitter": "None", "instagram": "None", "facebook": "None", "youtube": "None", "website": "None", "summary": "None", "logo": "None", "latitude": 44.330631000000054, "longitude": -80.38818799999993}, "118821834RR0001": {"name": "BURNS PRESBYTERIAN CHURCH", "designationCode": "C", "categoryCode": "37", "address": "RR 1  5101 PERTH LINE 55", "city": "BRUNNER", "province": "ON", "country": "CA", "postalCode": "N0K1C0", "twitter": "None", "instagram": "None", "facebook": "None", "youtube": "None", "website": "None", "summary": "None", "logo": "None", "latitude": 43.53890229560748, "longitude": -80.96642669139428}, "135261972RR0001": {"name": "BURNSIDE GORGE COMMUNITY ASSOCIATION", "designationCode": "C", "categoryCode": "56", "address": "471 CECELIA RD", "city": "VICTORIA", "province": "BC", "country": "CA", "postalCode": "V8T4T4", "twitter": "None", "instagram": "None", "facebook": "None", "youtube": "None", "website": "None", "summary": "None", "logo": "None", "latitude": 48.444394699751285, "longitude": -123.37814341070916}, "118821867RR0001": {"name": "BURNT RIVER CHARGE OF THE UNITED CHURCH", "designationCode": "C", "categoryCode": "44", "address": "HWY 121, #2384", "city": "BURNT RIVER", "province": "ON", "country": "CA", "postalCode": "K0M1C0", "twitter": "None", "instagram": "None", "facebook": "None", "youtube": "None", "website": "None", "summary": "None", "logo": "None", "latitude": 44.668858157221706, "longitude": -78.68557033593746}, "884078213RR0001": {"name": "BURNTCOAT CEMETERY ASSOCIATION", "designationCode": "C", "categoryCode": "59", "address": "5090 HIGHWAY 215", "city": "EAST NOEL", "province": "NS", "country": "CA", "postalCode": "B0N2C0", "twitter": "None", "instagram": "None", "facebook": "None", "youtube": "None", "website": "None", "summary": "None", "logo": "None", "latitude": 45.30047943312013, "longitude": -63.71888851442931}, "864680384RR0001": {"name": "BURNTWOOD BAPTIST CHURCH", "designationCode": "C", "categoryCode": "31", "address": "39 BEAVER CRESENT", "city": "THOMPSON", "province": "MB", "country": "CA", "postalCode": "R8N1C5", "twitter": "None", "instagram": "None", "facebook": "None", "youtube": "None", "website": "None", "summary": "None", "logo": "None", "latitude": 55.742536351137595, "longitude": -97.8686695286182}, "886990597RR0001": {"name": "BURQUEST JEWISH COMMUNITY ASSOCIATION", "designationCode": "C", "categoryCode": "59", "address": "2860 DEWDNEY TRUNK RD", "city": "COQUITLAM", "province": "BC", "country": "CA", "postalCode": "V3C2H9", "twitter": "None", "instagram": "None", "facebook": "None", "youtube": "None", "website": "None", "summary": "None", "logo": "None", "latitude": 49.272340662860195, "longitude": -122.80349991378729}, "106819865RR0001": {"name": "BURQUITLAM CARE SOCIETY", "designationCode": "C", "categoryCode": "10", "address": "560 SYDNEY AVE", "city": "COQUITLAM", "province": "BC", "country": "CA", "postalCode": "V3K6A4", "twitter": "None", "instagram": "None", "facebook": "None", "youtube": "None", "website": "None", "summary": "None", "logo": "None", "latitude": 49.248080528997676, "longitude": -122.8875734422931}, "106819873RR0001": {"name": "BURQUITLAM SENIOR HOUSING SOCIETY", "designationCode": "C", "categoryCode": "09", "address": "560 AUSTIN AVE", "city": "COQUITLAM", "province": "BC", "country": "CA", "postalCode": "V3K3M9", "twitter": "None", "instagram": "None", "facebook": "None", "youtube": "None", "website": "None", "summary": "None", "logo": "None", "latitude": 49.24904948124546, "longitude": -122.8877807216227}, "897926135RR0001": {"name": "BURR FOUNDATION", "designationCode": "C", "categoryCode": "54", "address": "16730 SHAWS CREEK RD", "city": "CALEDON", "province": "ON", "country": "CA", "postalCode": "L7K1K1", "twitter": "None", "instagram": "None", "facebook": "None", "youtube": "None", "website": "None", "summary": "None", "logo": "None", "latitude": 43.77728074946748, "longitude": -80.00466196251767}, "118821917RR0001": {"name": "BURRIDGE UNITED CHURCH", "designationCode": "C", "categoryCode": "44", "address": "RR#2", "city": "GODFREY", "province": "ON", "country": "CA", "postalCode": "K0H1T0", "twitter": "None", "instagram": "None", "facebook": "None", "youtube": "None", "website": "None", "summary": "None", "logo": "None", "latitude": 44.357694084632435, "longitude": -76.10243906621429}, "119217784RR0001": {"name": "BURRITT'S RAPIDS COMMUNITY ASSOCIATION INC.", "designationCode": "C", "categoryCode": "56", "address": "PO BOX 75", "city": "BURRITTS RAPIDS", "province": "ON", "country": "CA", "postalCode": "K0G1B0", "twitter": "None", "instagram": "None", "facebook": "None", "youtube": "None", "website": "None", "summary": "None", "logo": "None", "latitude": 44.970543416459485, "longitude": -75.77916568133304}, "865406177RR0001": {"name": "BURROWING OWL CONSERVATION SOCIETY OF B.C.", "designationCode": "C", "categoryCode": "54", "address": "118 - 119 22ND ST W", "city": "NORTH VANCOUVER", "province": "BC", "country": "CA", "postalCode": "V7M0B4", "twitter": "None", "instagram": "None", "facebook": "None", "youtube": "None", "website": "None", "summary": "None", "logo": "None", "latitude": 49.32945900000001, "longitude": -123.07254749999998}, "118821958RR0001": {"name": "BURSARY FUND OF THE HASTINGS AND PRINCE EDWARD DISTRICT SCHOOL BOARD", "designationCode": "C", "categoryCode": "21", "address": "156 ANN ST", "city": "BELLEVILLE", "province": "ON", "country": "CA", "postalCode": "K8N3L3", "twitter": "None", "instagram": "None", "facebook": "None", "youtube": "None", "website": "None", "summary": "None", "logo": "None", "latitude": 44.16313843712855, "longitude": -77.37496451182965}, "860947670RR0001": {"name": "BURSARY TRUST FUND / DARTMOUTH", "designationCode": "C", "categoryCode": "21", "address": "36 CLEARVIEW CRES.", "city": "DARTMOUTH", "province": "NS", "country": "CA", "postalCode": "B3A2M8", "twitter": "None", "instagram": "None", "facebook": "None", "youtube": "None", "website": "None", "summary": "None", "logo": "None", "latitude": 44.681463994460074, "longitude": -63.57039421674661}, "118821982RR0001": {"name": "BURSTALL SENIOR CITIZENS ASSOCIATION INC.", "designationCode": "C", "categoryCode": "56", "address": "BOX 178", "city": "BURSTALL", "province": "SK", "country": "CA", "postalCode": "S0N0H0", "twitter": "None", "instagram": "None", "facebook": "None", "youtube": "None", "website": "None", "summary": "None", "logo": "None", "latitude": 50.65012000000007, "longitude": -109.90158999999994}, "118822006RR0001": {"name": "BURSTALL SWIMMING POOL ASSOCIATION INC.", "designationCode": "C", "categoryCode": "56", "address": "PO BOX 158", "city": "BURSTALL", "province": "SK", "country": "CA", "postalCode": "S0N0H0", "twitter": "None", "instagram": "None", "facebook": "None", "youtube": "None", "website": "None", "summary": "None", "logo": "None", "latitude": 50.65012000000007, "longitude": -109.90158999999994}, "106820079RR0001": {"name": "BURTON (ARROW LAKES) FULL GOSPEL CHURCH", "designationCode": "C", "categoryCode": "39", "address": "BOX 9", "city": "BURTON", "province": "BC", "country": "CA", "postalCode": "V0G1E0", "twitter": "None", "instagram": "None", "facebook": "None", "youtube": "None", "website": "None", "summary": "None", "logo": "None", "latitude": 49.98873000000003, "longitude": -117.88173999999998}, "118822022RR0001": {"name": "BURTON AVENUE UNITED CHURCH", "designationCode": "C", "categoryCode": "44", "address": "37 BURTON AVENUE", "city": "BARRIE", "province": "ON", "country": "CA", "postalCode": "L4N2R3", "twitter": "None", "instagram": "None", "facebook": "None", "youtube": "None", "website": "None", "summary": "None", "logo": "None", "latitude": 44.371491379969946, "longitude": -79.6894999314444}, "106820046RR0001": {"name": "BURTON COMMUNITY ASSOCIATION", "designationCode": "C", "categoryCode": "56", "address": "PO BOX 83", "city": "BURTON", "province": "BC", "country": "CA", "postalCode": "V0G1E0", "twitter": "None", "instagram": "None", "facebook": "None", "youtube": "None", "website": "None", "summary": "None", "logo": "None", "latitude": 49.98873000000003, "longitude": -117.88173999999998}, "106923766RR0001": {"name": "BURTTS CORNER CHRISTIAN CHURCH INC.", "designationCode": "C", "categoryCode": "39", "address": "1021 ROUTE 104", "city": "BURTTS CORNER", "province": "NB", "country": "CA", "postalCode": "E6L2E6", "twitter": "None", "instagram": "None", "facebook": "None", "youtube": "None", "website": "None", "summary": "None", "logo": "None", "latitude": 46.059859797536085, "longitude": -66.8731572447492}, "118822071RR0001": {"name": "BURTTS CORNER COMMUNITY CEMETERY INC.", "designationCode": "C", "categoryCode": "59", "address": "1037 ROUTE 104", "city": "BURTT'S CORNER", "province": "NB", "country": "CA", "postalCode": "E6L2E6", "twitter": "None", "instagram": "None", "facebook": "None", "youtube": "None", "website": "None", "summary": "None", "logo": "None", "latitude": 46.05988371743269, "longitude": -66.87462873305913}, "131502205RR0001": {"name": "BURTTS CORNER UNITED BAPTIST CHURCH, INC.", "designationCode": "C", "categoryCode": "31", "address": "1034 ROUTE 104                BURTT'S CORNER", "city": "YORK COUNTY", "province": "NB", "country": "CA", "postalCode": "E6L2G2", "twitter": "None", "instagram": "None", "facebook": "None", "youtube": "None", "website": "None", "summary": "None", "logo": "None", "latitude": 46.028634000000054, "longitude": -66.95134999999993}, "118822089RR0001": {"name": "BURY CEMETERY COMPANY", "designationCode": "C", "categoryCode": "59", "address": "568 MAIN STREET", "city": "BURY", "province": "QC", "country": "CA", "postalCode": "J0B1J0", "twitter": "None", "instagram": "None", "facebook": "None", "youtube": "None", "website": "None", "summary": "None", "logo": "None", "latitude": 45.47349243883066, "longitude": -71.50149247293557}, "803833342RR0001": {"name": "BUS STOP BIBLE STUDIES", "designationCode": "C", "categoryCode": "39", "address": "364-1920 ELLESMERE RD", "city": "SCARBOROUGH", "province": "ON", "country": "CA", "postalCode": "M1H3G1", "twitter": "None", "instagram": "None", "facebook": "None", "youtube": "None", "website": "None", "summary": "None", "logo": "None", "latitude": 43.774597212908795, "longitude": -79.24066908702167}, "899211585RR0001": {"name": "BUSBY SCHOOL PAC (PARENT ADVISORY COMMITTEE) SOCIETY", "designationCode": "C", "categoryCode": "21", "address": "GENERAL DELIVERY", "city": "BUSBY", "province": "AB", "country": "CA", "postalCode": "T0G0H0", "twitter": "None", "instagram": "None", "facebook": "None", "youtube": "None", "website": "None", "summary": "None", "logo": "None", "latitude": 53.94904800000006, "longitude": -113.89196149999994}, "861228849RR0001": {"name": "BUSINESS AND EDUCATION PARTNERSHIP OF WATERLOO REGION", "designationCode": "C", "categoryCode": "25", "address": "29 KING ST E", "city": "KITCHENER", "province": "ON", "country": "CA", "postalCode": "N2G2K4", "twitter": "None", "instagram": "None", "facebook": "None", "youtube": "None", "website": "None", "summary": "None", "logo": "None", "latitude": 43.44952273853092, "longitude": -80.4885436557215}, "881866529RR0001": {"name": "BUSINESS COMMUNITY ANTI-POVERTY INITIATIVE INC", "designationCode": "C", "categoryCode": "03", "address": "10 TH FLOOR, 300 UNION ST     PO BOX 5777", "city": "SAINT JOHN", "province": "NB", "country": "CA", "postalCode": "E2L4M3", "twitter": "None", "instagram": "None", "facebook": "None", "youtube": "None", "website": "None", "summary": "None", "logo": "None", "latitude": 45.27561675491954, "longitude": -66.0555860291419}, "131146060RR0001": {"name": "BUSINESS EDUCATION COUNCIL OF NIAGARA", "designationCode": "C", "categoryCode": "29", "address": "102 - 43 CHURCH ST", "city": "ST CATHARINES", "province": "ON", "country": "CA", "postalCode": "L2R7E1", "twitter": "None", "instagram": "None", "facebook": "None", "youtube": "None", "website": "None", "summary": "None", "logo": "None", "latitude": 43.15925156038995, "longitude": -79.24765592330742}, "893625046RR0001": {"name": "BUSINESS FAMILIES FOUNDATION/FONDATION DES FAMILLES EN AFFAIRES", "designationCode": "C", "categoryCode": "20", "address": "1000-999 BOUL MAISONNEUVE O", "city": "MONTR\u00c9AL", "province": "QC", "country": "CA", "postalCode": "H3A3L4", "twitter": "None", "instagram": "None", "facebook": "None", "youtube": "None", "website": "None", "summary": "None", "logo": "None", "latitude": 45.50285076742921, "longitude": -73.57279059303691}, "840066674RR0001": {"name": "BUSINESS IS JAMMIN' SOCIETY", "designationCode": "C", "categoryCode": "59", "address": "1201-1660 HOLLIS ST", "city": "HALIFAX", "province": "NS", "country": "CA", "postalCode": "B3J1V7", "twitter": "None", "instagram": "None", "facebook": "None", "youtube": "None", "website": "None", "summary": "None", "logo": "None", "latitude": 44.64677391978765, "longitude": -63.572485792544214}, "869566448RR0001": {"name": "BUSINESS MEN'S FELLOWSHIP IN CANADA (B M F )", "designationCode": "C", "categoryCode": "47", "address": "202A-735 COOK ROAD", "city": "KELOWNA", "province": "BC", "country": "CA", "postalCode": "V1W3G6", "twitter": "None", "instagram": "None", "facebook": "None", "youtube": "None", "website": "None", "summary": "None", "logo": "None", "latitude": 49.84547453158257, "longitude": -119.48211143361401}, "120632179RR0001": {"name": "BUSY BEE DAY CARE CENTRE INC", "designationCode": "C", "categoryCode": "01", "address": "648 MCGEE ST.", "city": "WINNIPEG", "province": "MB", "country": "CA", "postalCode": "R3E1W8", "twitter": "None", "instagram": "None", "facebook": "None", "youtube": "None", "website": "None", "summary": "None", "logo": "None", "latitude": 49.89836012683941, "longitude": -97.16044487694016}, "106820426RR0001": {"name": "BUSY NEST DAY CARE INC.", "designationCode": "C", "categoryCode": "01", "address": "BOX 283", "city": "MORRIS", "province": "MB", "country": "CA", "postalCode": "R0G1K0", "twitter": "None", "instagram": "None", "facebook": "None", "youtube": "None", "website": "None", "summary": "None", "logo": "None", "latitude": 49.35468000000003, "longitude": -97.36605999999995}, "891412686RR0001": {"name": "BUTTERLEY FAMILY FOUNDATION INC", "designationCode": "B", "categoryCode": "03", "address": "200-15300 CROYDON DRIVE", "city": "SURREY", "province": "BC", "country": "CA", "postalCode": "V3S0Z5", "twitter": "None", "instagram": "None", "facebook": "None", "youtube": "None", "website": "None", "summary": "None", "logo": "None", "latitude": 49.06007946681874, "longitude": -122.79804355536962}, "890138779RR0001": {"name": "BVG FOUNDATION INC.", "designationCode": "A", "categoryCode": "23", "address": "275 DUNCAN MILL RD", "city": "NORTH YORK", "province": "ON", "country": "CA", "postalCode": "M3B3H9", "twitter": "None", "instagram": "None", "facebook": "None", "youtube": "None", "website": "None", "summary": "None", "logo": "None", "latitude": 43.76155969880012, "longitude": -79.35115541745037}, "825764475RR0001": {"name": "BVLD AIRSHED MANAGEMENT SOCIETY", "designationCode": "C", "categoryCode": "59", "address": "3726 ALFRED AVENUE            BAG 5000", "city": "SMITHERS", "province": "BC", "country": "CA", "postalCode": "V0J2N0", "twitter": "None", "instagram": "None", "facebook": "None", "youtube": "None", "website": "None", "summary": "None", "logo": "None", "latitude": 54.77746824785041, "longitude": -127.17303305300368}, "831845672RR0001": {"name": "BW MUSIQUE", "designationCode": "C", "categoryCode": "22", "address": "212 BOUL GEORGES VANIER", "city": "MONTREAL", "province": "QC", "country": "CA", "postalCode": "H3J2Z1", "twitter": "None", "instagram": "None", "facebook": "None", "youtube": "None", "website": "None", "summary": "None", "logo": "None", "latitude": 45.48417039188649, "longitude": -73.57086012435789}, "138676937RR0001": {"name": "BY HIS SPIRIT MINISTRIES", "designationCode": "C", "categoryCode": "47", "address": "959 CRYSTALLINA NERA WAY NW", "city": "EDMONTON", "province": "AB", "country": "CA", "postalCode": "T5Z0K3", "twitter": "None", "instagram": "None", "facebook": "None", "youtube": "None", "website": "None", "summary": "None", "logo": "None", "latitude": 53.642913332033, "longitude": -113.46284204644847}, "897024931RR0001": {"name": "BYEMOOR COMMUNITY CLUB", "designationCode": "C", "categoryCode": "56", "address": "POST OFFICE BOX 171", "city": "BYEMOOR", "province": "AB", "country": "CA", "postalCode": "T0J0L0", "twitter": "None", "instagram": "None", "facebook": "None", "youtube": "None", "website": "None", "summary": "None", "logo": "None", "latitude": 51.98075000000006, "longitude": -112.28824999999995}, "891219248RR0001": {"name": "BYEMOORE CHARITABLE TRUST", "designationCode": "B", "categoryCode": "39", "address": "3425-2 AVENUE SOUTH", "city": "LETHBRIDGE", "province": "AB", "country": "CA", "postalCode": "T1J4V1", "twitter": "None", "instagram": "None", "facebook": "None", "youtube": "None", "website": "None", "summary": "None", "logo": "None", "latitude": 49.696839530439966, "longitude": -112.78914308381903}, "118822204RR0001": {"name": "BYNON MEMORIAL UNITED BAPTIST CHURCH", "designationCode": "C", "categoryCode": "31", "address": "5033 RTE 126", "city": "CANAAN STATION", "province": "NB", "country": "CA", "postalCode": "E4T2A7", "twitter": "None", "instagram": "None", "facebook": "None", "youtube": "None", "website": "None", "summary": "None", "logo": "None", "latitude": 46.24153587419732, "longitude": -65.0537707355515}, "118822212RR0001": {"name": "BYRON COMMUNITY CHURCH INC.", "designationCode": "C", "categoryCode": "39", "address": "336 GLENROSE DR", "city": "LONDON", "province": "ON", "country": "CA", "postalCode": "N6K2A8", "twitter": "None", "instagram": "None", "facebook": "None", "youtube": "None", "website": "None", "summary": "None", "logo": "None", "latitude": 42.95695443161731, "longitude": -81.33124558104907}, "118822220RR0001": {"name": "BYRON OPTIMIST SPORTS COMPLEX INC.", "designationCode": "C", "categoryCode": "56", "address": "431 BOLER RD                  PO BOX 20025", "city": "LONDON", "province": "ON", "country": "CA", "postalCode": "N6K4G6", "twitter": "None", "instagram": "None", "facebook": "None", "youtube": "None", "website": "None", "summary": "None", "logo": "None", "latitude": 42.952255523169285, "longitude": -81.33096624138686}, "106820822RR0001": {"name": "BYRON UNITED CHURCH", "designationCode": "C", "categoryCode": "44", "address": "420 BOLER RD", "city": "LONDON", "province": "ON", "country": "CA", "postalCode": "N6K2K5", "twitter": "None", "instagram": "None", "facebook": "None", "youtube": "None", "website": "None", "summary": "None", "logo": "None", "latitude": 42.95352750819431, "longitude": -81.3311962798492}, "855507471RR0001": {"name": "BYS EDUCATIONAL CENTRE", "designationCode": "C", "categoryCode": "23", "address": "15 SARANAC BLVD", "city": "NORTH YORK", "province": "ON", "country": "CA", "postalCode": "M6A2G4", "twitter": "None", "instagram": "None", "facebook": "None", "youtube": "None", "website": "None", "summary": "None", "logo": "None", "latitude": 43.721999235356925, "longitude": -79.4328823058171}, "867623076RR0001": {"name": "BYTE - Empowering Youth Society", "designationCode": "C", "categoryCode": "09", "address": "404A OGILVIE ST", "city": "WHITEHORSE", "province": "YT", "country": "CA", "postalCode": "Y1A2S4", "twitter": "None", "instagram": "None", "facebook": "None", "youtube": "None", "website": "None", "summary": "None", "logo": "None", "latitude": 60.72568449332147, "longitude": -135.06257183121738}, "868956418RR0001": {"name": "BYTOWN ASSOCIATION FOR RESCUED KANINES (B.A.R.K.)", "designationCode": "C", "categoryCode": "54", "address": "2229 BRAESIDE AVENUE", "city": "OTTAWA", "province": "ON", "country": "CA", "postalCode": "K1H7J6", "twitter": "None", "instagram": "None", "facebook": "None", "youtube": "None", "website": "None", "summary": "None", "logo": "None", "latitude": 45.38550877629984, "longitude": -75.66057574461911}, "118822253RR0001": {"name": "BYTOWN BRIGANTINE INC.", "designationCode": "B", "categoryCode": "21", "address": "2700 QUEENSVIEW DRIVE", "city": "OTTAWA", "province": "ON", "country": "CA", "postalCode": "K2B8H6", "twitter": "None", "instagram": "None", "facebook": "None", "youtube": "None", "website": "None", "summary": "None", "logo": "None", "latitude": 45.35252317286086, "longitude": -75.78829306255432}, "118822261RR0001": {"name": "BYTOWN RAILWAY SOCIETY INC.", "designationCode": "C", "categoryCode": "52", "address": "PO BOX 47076", "city": "OTTAWA", "province": "ON", "country": "CA", "postalCode": "K1B5P9", "twitter": "None", "instagram": "None", "facebook": "None", "youtube": "None", "website": "None", "summary": "None", "logo": "None", "latitude": 45.42790200000006, "longitude": -75.60472399999993}, "899891568RR0001": {"name": "C A C T U S MONTREAL", "designationCode": "C", "categoryCode": "11", "address": "1300 RUE SANGUINET", "city": "MONTR\u00c9AL", "province": "QC", "country": "CA", "postalCode": "H2X3E7", "twitter": "None", "instagram": "None", "facebook": "None", "youtube": "None", "website": "None", "summary": "None", "logo": "None", "latitude": 45.512631786283166, "longitude": -73.56103496448145}, "889234597RR0001": {"name": "C A MACLEAN BURSARY FOUNDATION", "designationCode": "C", "categoryCode": "21", "address": "3228 PARSONS RD.", "city": "EDMONTON", "province": "AB", "country": "CA", "postalCode": "T6N1M2", "twitter": "None", "instagram": "None", "facebook": "None", "youtube": "None", "website": "None", "summary": "None", "logo": "None", "latitude": 53.46456249708581, "longitude": -113.48616614490146}, "133782706RR0001": {"name": "C A P SANTE OUTAOUAIS (CENTRE D'ACTIVITES PROMOTIONNELLES)", "designationCode": "C", "categoryCode": "11", "address": "304-92 RUE ST-RAYMOND", "city": "GATINEAU", "province": "QC", "country": "CA", "postalCode": "J8Y1S7", "twitter": "None", "instagram": "None", "facebook": "None", "youtube": "None", "website": "None", "summary": "None", "logo": "None", "latitude": 45.4470094205088, "longitude": -75.74195494615958}, "129831749RR0001": {"name": "C A P T INC", "designationCode": "C", "categoryCode": "01", "address": "245 QUEENSTON STREET", "city": "WINNIPEG", "province": "MB", "country": "CA", "postalCode": "R3N0W6", "twitter": "None", "instagram": "None", "facebook": "None", "youtube": "None", "website": "None", "summary": "None", "logo": "None", "latitude": 49.87080165528882, "longitude": -97.18665277148105}, "738837327RR0001": {"name": "C And C Family Foundation", "designationCode": "B", "categoryCode": "03", "address": "36 GORDON ROAD", "city": "TORONTO", "province": "ON", "country": "CA", "postalCode": "M2P1E1", "twitter": "None", "instagram": "None", "facebook": "None", "youtube": "None", "website": "None", "summary": "None", "logo": "None", "latitude": 43.74692117626506, "longitude": -79.39906556148645}, "892509761RR0001": {"name": "C C E J CENTRE DE CONSULTATION POUR L'EMBAUCHE DES JEUNES INCORPORE", "designationCode": "C", "categoryCode": "09", "address": "PO BOX 1180", "city": "HEARST", "province": "ON", "country": "CA", "postalCode": "P0L1N0", "twitter": "None", "instagram": "None", "facebook": "None", "youtube": "None", "website": "None", "summary": "None", "logo": "None", "latitude": 49.68503700000005, "longitude": -83.65433749999994}, "887239168RR0001": {"name": "C E R F VOLANT DE PORTNEUF INC", "designationCode": "C", "categoryCode": "09", "address": "2 RUE ST-PIERRE, LOCAL 2", "city": "PONT-ROUGE", "province": "QC", "country": "CA", "postalCode": "G3H1W1", "twitter": "None", "instagram": "None", "facebook": "None", "youtube": "None", "website": "None", "summary": "None", "logo": "None", "latitude": 46.75358243104037, "longitude": -71.69452595490216}, "136179470RR0001": {"name": "C E S A M E CENTRE POUR L'ENFANCE EN SANTE MENTALE DEUX-MONTAGNES", "designationCode": "C", "categoryCode": "09", "address": "328 CHEMIN DE LA GRANDE C\u00d4TE", "city": "ST-EUSTACHE", "province": "QC", "country": "CA", "postalCode": "J7P1E7", "twitter": "None", "instagram": "None", "facebook": "None", "youtube": "None", "website": "None", "summary": "None", "logo": "None", "latitude": 45.57499117317798, "longitude": -73.86353094405347}, "888722592RR0001": {"name": "C F U W LEASIDE/EAST YORK CLUB SCHOLARSHIP TRUST", "designationCode": "C", "categoryCode": "21", "address": "61 HANNA RD", "city": "TORONTO", "province": "ON", "country": "CA", "postalCode": "M4G3M8", "twitter": "None", "instagram": "None", "facebook": "None", "youtube": "None", "website": "None", "summary": "None", "logo": "None", "latitude": 43.70403375742971, "longitude": -79.3693700801837}, "890517246RR0001": {"name": "C F U W MISSISSAUGA SCHOLARSHIP FUND", "designationCode": "C", "categoryCode": "21", "address": "903 - 1800 THE COLLEGEWAY", "city": "MISSISSAUGA", "province": "ON", "country": "CA", "postalCode": "L5L5S4", "twitter": "None", "instagram": "None", "facebook": "None", "youtube": "None", "website": "None", "summary": "None", "logo": "None", "latitude": 43.544772223931325, "longitude": -79.66785144076391}, "888674249RR0001": {"name": "C FAX SANTAS ANONYMOUS SOCIETY", "designationCode": "C", "categoryCode": "09", "address": "1420 BROAD ST", "city": "VICTORIA", "province": "BC", "country": "CA", "postalCode": "V8W2B1", "twitter": "None", "instagram": "None", "facebook": "None", "youtube": "None", "website": "None", "summary": "None", "logo": "None", "latitude": 48.427936606440085, "longitude": -123.36599984875056}, "891470148RR0001": {"name": "C H I C K E N CLUB OF THE OPTIMIST CLUB OF ERIN INC", "designationCode": "C", "categoryCode": "65", "address": "BOX 39, 5166 8TH LINE", "city": "ERIN", "province": "ON", "country": "CA", "postalCode": "N0B1T0", "twitter": "None", "instagram": "None", "facebook": "None", "youtube": "None", "website": "None", "summary": "None", "logo": "None", "latitude": 43.730968018669515, "longitude": -80.03553951376102}, "136312980RR0001": {"name": "C O C F COMMUNITY OPTIONS FOR CHILDREN AND FAMILIES SOCIETY", "designationCode": "C", "categoryCode": "01", "address": "1595 BAY ST", "city": "VICTORIA", "province": "BC", "country": "CA", "postalCode": "V8R2B5", "twitter": "None", "instagram": "None", "facebook": "None", "youtube": "None", "website": "None", "summary": "None", "logo": "None", "latitude": 48.434037539529264, "longitude": -123.33598516916729}, "138192240RR0001": {"name": "C O F F R E T CENTRE D'ORIENTATION ET DE FORMATION FAVORISANT LES RELATIONS ETHNIQUES TRADITIONNELLES", "designationCode": "C", "categoryCode": "09", "address": "181, RUE BRI\u00c8RE", "city": "SAINT-J\u00c9R\u00d4ME", "province": "QC", "country": "CA", "postalCode": "J7Y3A7", "twitter": "None", "instagram": "None", "facebook": "None", "youtube": "None", "website": "None", "summary": "None", "logo": "None", "latitude": 45.77214757311457, "longitude": -74.0113561247046}, "129893418RR0001": {"name": "C O U HOLDING ASSOCIATION INC", "designationCode": "C", "categoryCode": "21", "address": "180 DUNDAS ST W               18TH FLOOR", "city": "TORONTO", "province": "ON", "country": "CA", "postalCode": "M5G1Z8", "twitter": "None", "instagram": "None", "facebook": "None", "youtube": "None", "website": "None", "summary": "None", "logo": "None", "latitude": 43.65514309576426, "longitude": -79.38653771371685}, "886635283RR0001": {"name": "C P S CHARITY PLUS SOCIETY", "designationCode": "C", "categoryCode": "09", "address": "BOX 935                       STATION MAIN", "city": "LADY SMITH", "province": "BC", "country": "CA", "postalCode": "V9G1A6", "twitter": "None", "instagram": "None", "facebook": "None", "youtube": "None", "website": "None", "summary": "None", "logo": "None", "latitude": 48.99822900000005, "longitude": -123.82257049999993}, "140774365RR0001": {"name": "C ROBERT CRAIG MEMORIAL LIBRARY", "designationCode": "C", "categoryCode": "50", "address": "110 LAURIER AVE WEST          CITY OF OTTAWA ARCHIVES (443)", "city": "OTTAWA", "province": "ON", "country": "CA", "postalCode": "K1P1J1", "twitter": "None", "instagram": "None", "facebook": "None", "youtube": "None", "website": "None", "summary": "None", "logo": "None", "latitude": 45.42185400000005, "longitude": -75.69083149999993}, "886666882RR0001": {"name": "C S I NEW HORIZON GROUP ASSOCIATION", "designationCode": "C", "categoryCode": "56", "address": "PO BOX 114", "city": "CLARKS HARBOUR", "province": "NS", "country": "CA", "postalCode": "B0W1P0", "twitter": "None", "instagram": "None", "facebook": "None", "youtube": "None", "website": "None", "summary": "None", "logo": "None", "latitude": 43.44708000000003, "longitude": -65.63532999999995}, "889048393RR0001": {"name": "C S V R SCHIZOPHRENIA INC", "designationCode": "C", "categoryCode": "11", "address": "405 - 20 HUGHSON ST S", "city": "HAMILTON", "province": "ON", "country": "CA", "postalCode": "L8N2A1", "twitter": "None", "instagram": "None", "facebook": "None", "youtube": "None", "website": "None", "summary": "None", "logo": "None", "latitude": 43.25532697085811, "longitude": -79.8683016947025}, "135215440RR0001": {"name": "C T H MANAGEMENT ASSOCIATION", "designationCode": "C", "categoryCode": "21", "address": "4325 NEILL STREET", "city": "PORT ALBERNI", "province": "BC", "country": "CA", "postalCode": "V9Y1E5", "twitter": "None", "instagram": "None", "facebook": "None", "youtube": "None", "website": "None", "summary": "None", "logo": "None", "latitude": 49.2242864616246, "longitude": -124.79821335651216}}