{"880762489RR0001": {"name": "THE DIOCESE OF WESTERN CANADA OF THE REFORMED EPISCOPAL CHURCH", "designationCode": "C", "categoryCode": "39", "address": "70 7570 TETAYUT ROAD", "city": "SAANICHTON", "province": "BC", "country": "CA", "postalCode": "V8M2H4", "twitter": "None", "instagram": "None", "facebook": "None", "youtube": "None", "website": "None", "summary": "None", "logo": "None", "latitude": 48.58800262098656, "longitude": -123.39775029150228}, "866481310RR0001": {"name": "THE DIRECTION CENTRE INC.", "designationCode": "C", "categoryCode": "49", "address": "2 ROSEWOOD PL", "city": "STEINBACH", "province": "MB", "country": "CA", "postalCode": "R5G0H6", "twitter": "None", "instagram": "None", "facebook": "None", "youtube": "None", "website": "None", "summary": "None", "logo": "None", "latitude": 49.528395008737874, "longitude": -96.67028899623347}, "108076662RR0001": {"name": "THE DISCOVERY CENTRE", "designationCode": "C", "categoryCode": "50", "address": "1215 LOWER WATER ST", "city": "HALIFAX", "province": "NS", "country": "CA", "postalCode": "B3J3S8", "twitter": "None", "instagram": "None", "facebook": "None", "youtube": "None", "website": "None", "summary": "None", "logo": "None", "latitude": 44.64115460718383, "longitude": -63.568044707069085}, "119229987RR0001": {"name": "THE DISCOVERY SCHOOL SOCIETY", "designationCode": "C", "categoryCode": "20", "address": "4052 WILKINSON ROAD", "city": "VICTORIA", "province": "BC", "country": "CA", "postalCode": "V8Z5A5", "twitter": "None", "instagram": "None", "facebook": "None", "youtube": "None", "website": "None", "summary": "None", "logo": "None", "latitude": 48.475252528189614, "longitude": -123.41263187890208}, "107020935RR0001": {"name": "THE DISMAS SOCIETY", "designationCode": "C", "categoryCode": "59", "address": "454 QUEEN ST", "city": "TRURO", "province": "NS", "country": "CA", "postalCode": "B2N2C6", "twitter": "None", "instagram": "None", "facebook": "None", "youtube": "None", "website": "None", "summary": "None", "logo": "None", "latitude": 45.366996532315895, "longitude": -63.26046411226845}, "108079807RR0001": {"name": "THE DISTRESS CENTRE OF DURHAM REGION INC.", "designationCode": "C", "categoryCode": "09", "address": "306 BROCK STREET NORTH", "city": "WHITBY", "province": "ON", "country": "CA", "postalCode": "L1N4H7", "twitter": "None", "instagram": "None", "facebook": "None", "youtube": "None", "website": "None", "summary": "None", "logo": "None", "latitude": 43.88344568858567, "longitude": -78.9436535629001}, "889168399RR0001": {"name": "THE DISTRICT A-1 LIONS SIGHT CONSERVATION FOUNDATION", "designationCode": "A", "categoryCode": "65", "address": "4800 RICHARDSON SIDE RD       RR 5", "city": "TILBURY", "province": "ON", "country": "CA", "postalCode": "N0P2L0", "twitter": "None", "instagram": "None", "facebook": "None", "youtube": "None", "website": "None", "summary": "None", "logo": "None", "latitude": 42.2537124343586, "longitude": -82.46253655297502}, "118886084RR0001": {"name": "THE DISTRICT OF PARRY SOUND EMPLOYMENT SERVICES INCORPORATED", "designationCode": "C", "categoryCode": "39", "address": "PO BOX 9", "city": "SUNDRIDGE", "province": "ON", "country": "CA", "postalCode": "P0A1Z0", "twitter": "None", "instagram": "None", "facebook": "None", "youtube": "None", "website": "None", "summary": "None", "logo": "None", "latitude": 45.75507926133678, "longitude": -79.41022764524283}, "107021396RR0001": {"name": "THE DISTRICT OF PARRY SOUND SERVICES ADMINISTRATION BOARD", "designationCode": "C", "categoryCode": "09", "address": "1 BEECHWOOD DRIVE", "city": "PARRY SOUND", "province": "ON", "country": "CA", "postalCode": "P2A1J2", "twitter": "None", "instagram": "None", "facebook": "None", "youtube": "None", "website": "None", "summary": "None", "logo": "None", "latitude": 45.35104317243683, "longitude": -80.03618782121079}, "118886118RR0001": {"name": "THE DISTRICT 13 RECREATION AND PLANNING COMMISSION", "designationCode": "C", "categoryCode": "56", "address": "P.O. BOX 201                  I. MACDONALD MEMORIAL RINK", "city": "THORBURN", "province": "NS", "country": "CA", "postalCode": "B0K1W0", "twitter": "None", "instagram": "None", "facebook": "None", "youtube": "None", "website": "None", "summary": "None", "logo": "None", "latitude": 45.56008164850459, "longitude": -62.53827188805467}, "892901760RR0001": {"name": "THE DISTRICT 5550 WORLD COMMUNITY SERVICE FOUNDATION", "designationCode": "C", "categoryCode": "09", "address": "P O BOX 3541", "city": "MELFORT", "province": "SK", "country": "CA", "postalCode": "S0E1A0", "twitter": "None", "instagram": "None", "facebook": "None", "youtube": "None", "website": "None", "summary": "None", "logo": "None", "latitude": 52.85637, "longitude": -104.63436225000001}, "123342008RR0001": {"name": "THE DIVCO FOUNDATION - LA FONDATION DIVCO", "designationCode": "B", "categoryCode": "03", "address": "8300 PIE IX BLVD", "city": "MONTREAL", "province": "QC", "country": "CA", "postalCode": "H1Z4E8", "twitter": "None", "instagram": "None", "facebook": "None", "youtube": "None", "website": "None", "summary": "None", "logo": "None", "latitude": 45.574357708523635, "longitude": -73.60932252821827}, "128967353RR0072": {"name": "THE DIVINE INFANT PARISH", "designationCode": "C", "categoryCode": "38", "address": "6658 BILBERRY DR", "city": "GLOUCESTER", "province": "ON", "country": "CA", "postalCode": "K1C2S9", "twitter": "None", "instagram": "None", "facebook": "None", "youtube": "None", "website": "None", "summary": "None", "logo": "None", "latitude": 45.47839450900237, "longitude": -75.52961539638721}, "136845245RR0001": {"name": "THE DIXIE BLOOR NEIGHBOURHOOD DROP-IN CENTRE", "designationCode": "C", "categoryCode": "56", "address": "103-3650 DIXIE ROAD", "city": "MISSISSAUGA", "province": "ON", "country": "CA", "postalCode": "L4Y3V9", "twitter": "None", "instagram": "None", "facebook": "None", "youtube": "None", "website": "None", "summary": "None", "logo": "None", "latitude": 43.62159825086327, "longitude": -79.60146690158405}, "119230068RR0001": {"name": "THE DIXON HILL CEMETERY", "designationCode": "C", "categoryCode": "59", "address": "21 ORCHARD PARK BLVD", "city": "STOUFFVILLE", "province": "ON", "country": "CA", "postalCode": "L4A3P6", "twitter": "None", "instagram": "None", "facebook": "None", "youtube": "None", "website": "None", "summary": "None", "logo": "None", "latitude": 43.96896384485543, "longitude": -79.25485585120339}, "727588121RR0001": {"name": "THE DOBSON FAMILY FOUNDATION", "designationCode": "B", "categoryCode": "03", "address": "831 - 3600 YONGE ST", "city": "TORONTO", "province": "ON", "country": "CA", "postalCode": "M4N3R8", "twitter": "None", "instagram": "None", "facebook": "None", "youtube": "None", "website": "None", "summary": "None", "logo": "None", "latitude": 43.738321767413034, "longitude": -79.40553677589578}, "854305331RR0001": {"name": "THE DOCUMENTARY MEDIA SOCIETY", "designationCode": "C", "categoryCode": "22", "address": "110 - 750 HAMILTON ST", "city": "VANCOUVER", "province": "BC", "country": "CA", "postalCode": "V6B2R5", "twitter": "None", "instagram": "None", "facebook": "None", "youtube": "None", "website": "None", "summary": "None", "logo": "None", "latitude": 49.279332216453, "longitude": -123.11504688704757}, "846742328RR0001": {"name": "THE DOLLYWOOD FOUNDATION OF CANADA", "designationCode": "C", "categoryCode": "20", "address": "P.O. BOX 112", "city": "ST. CATHERINES", "province": "ON", "country": "CA", "postalCode": "L2R6R4", "twitter": "None", "instagram": "None", "facebook": "None", "youtube": "None", "website": "None", "summary": "None", "logo": "None", "latitude": 43.15634700000005, "longitude": -79.24869349999993}, "119122786RR0008": {"name": "THE DOMANO SISTERS OF MARY IMMACULATE", "designationCode": "C", "categoryCode": "46", "address": "6500 SOUTHRIDGE AVE", "city": "PRINCE GEORGE", "province": "BC", "country": "CA", "postalCode": "V2N5P9", "twitter": "None", "instagram": "None", "facebook": "None", "youtube": "None", "website": "None", "summary": "None", "logo": "None", "latitude": 53.86420563941114, "longitude": -122.78374828519728}, "108079872RR0001": {"name": "THE DOMINICAN FRIARS OF TORONTO", "designationCode": "C", "categoryCode": "20", "address": "2715 CH. COTE-SAINTE-CATHERINEBUREAU APD", "city": "MONTREAL", "province": "QC", "country": "CA", "postalCode": "H3T1B6", "twitter": "None", "instagram": "None", "facebook": "None", "youtube": "None", "website": "None", "summary": "None", "logo": "None", "latitude": 45.50668659703366, "longitude": -73.62023772932606}, "856133343RR0001": {"name": "THE DOMINICAN-CANADIAN COMMUNITY DEVELOPMENT GROUP", "designationCode": "C", "categoryCode": "59", "address": "86 CRESCENT DR", "city": "WELLAND", "province": "ON", "country": "CA", "postalCode": "L3B2X3", "twitter": "None", "instagram": "None", "facebook": "None", "youtube": "None", "website": "None", "summary": "None", "logo": "None", "latitude": 42.94384900943508, "longitude": -79.24347583816166}, "863228482RR0001": {"name": "THE DON AND SHIRLEY GREEN FAMILY CHARITABLE FOUNDATION", "designationCode": "B", "categoryCode": "23", "address": "46 KING STREET EAST           PO BOX 459", "city": "BROCKVILLE", "province": "ON", "country": "CA", "postalCode": "K6V5V6", "twitter": "None", "instagram": "None", "facebook": "None", "youtube": "None", "website": "None", "summary": "None", "logo": "None", "latitude": 44.591238135177946, "longitude": -75.68171665641398}, "118886977RR0001": {"name": "THE DONALD AND ELEANOR SEAMAN FAMILY FOUNDATION", "designationCode": "B", "categoryCode": "23", "address": "205, 255-17TH AVENUE SW", "city": "CALGARY", "province": "AB", "country": "CA", "postalCode": "T2S2T8", "twitter": "None", "instagram": "None", "facebook": "None", "youtube": "None", "website": "None", "summary": "None", "logo": "None", "latitude": 51.03781223408062, "longitude": -114.07145173187324}, "873719603RR0001": {"name": "THE DONALD AND LINDA MURRAY CHARITABLE FOUNDATION", "designationCode": "B", "categoryCode": "09", "address": "BOX 99 SITE 8 RR1", "city": "STRATHMORE", "province": "AB", "country": "CA", "postalCode": "T1P1J6", "twitter": "None", "instagram": "None", "facebook": "None", "youtube": "None", "website": "None", "summary": "None", "logo": "None", "latitude": 51.041247000000055, "longitude": -113.40029149999994}, "893187567RR0001": {"name": "THE DONALD C YU FOUNDATION", "designationCode": "B", "categoryCode": "21", "address": "200 - 12204 106 AVE NW", "city": "EDMONTON", "province": "AB", "country": "CA", "postalCode": "T5N3Z1", "twitter": "None", "instagram": "None", "facebook": "None", "youtube": "None", "website": "None", "summary": "None", "logo": "None", "latitude": 53.5493565, "longitude": -113.53328549999999}, "876606567RR0001": {"name": "THE DONALD G SPIERS CHARITABLE FOUNDATION", "designationCode": "B", "categoryCode": "43", "address": "301 KIRBY CRES.", "city": "NEWMARKET", "province": "ON", "country": "CA", "postalCode": "L3X1H1", "twitter": "None", "instagram": "None", "facebook": "None", "youtube": "None", "website": "None", "summary": "None", "logo": "None", "latitude": 44.04652425174555, "longitude": -79.49476794864108}, "898737879RR0001": {"name": "THE DONALD W. CHALLINOR MEMORIAL SCHOLARSHIP FOUNDATION", "designationCode": "B", "categoryCode": "25", "address": "400 - 848 COURTNEY ST", "city": "VICTORIA", "province": "BC", "country": "CA", "postalCode": "V8W1C4", "twitter": "None", "instagram": "None", "facebook": "None", "youtube": "None", "website": "None", "summary": "None", "logo": "None", "latitude": 48.42255140940029, "longitude": -123.36159899694158}, "122332208RR0001": {"name": "THE DONALDA & DISTRICT MUSEUM SOCIETY", "designationCode": "C", "categoryCode": "50", "address": "PO BOX 179", "city": "DONALDA", "province": "AB", "country": "CA", "postalCode": "T0B1H0", "twitter": "None", "instagram": "None", "facebook": "None", "youtube": "None", "website": "None", "summary": "None", "logo": "None", "latitude": 52.58343000000008, "longitude": -112.56860999999998}, "136635281RR0001": {"name": "THE DONKERVLIET FOUNDATION", "designationCode": "B", "categoryCode": "03", "address": "500, 540-5 AVE SW", "city": "CALGARY", "province": "AB", "country": "CA", "postalCode": "T2P0M2", "twitter": "None", "instagram": "None", "facebook": "None", "youtube": "None", "website": "None", "summary": "None", "logo": "None", "latitude": 51.048669518754544, "longitude": -114.07312019455826}, "138721253RR0001": {"name": "THE DONKEY SANCTUARY OF CANADA", "designationCode": "C", "categoryCode": "54", "address": "6981 CONCESSION 4", "city": "PUSLINCH", "province": "ON", "country": "CA", "postalCode": "N0B2J0", "twitter": "None", "instagram": "None", "facebook": "None", "youtube": "None", "website": "None", "summary": "None", "logo": "None", "latitude": 43.472102697936606, "longitude": -80.20608795977918}, "889350773RR0001": {"name": "THE DONNA AND MICKEY HAJASH FOUNDATION", "designationCode": "B", "categoryCode": "23", "address": "4249 CHEVERAGE PL", "city": "VICTORIA", "province": "BC", "country": "CA", "postalCode": "V8N5A9", "twitter": "None", "instagram": "None", "facebook": "None", "youtube": "None", "website": "None", "summary": "None", "logo": "None", "latitude": 48.48206890204271, "longitude": -123.33377739211764}, "107030439RR0001": {"name": "THE DONWAY COVENANT UNITED CHURCH", "designationCode": "C", "categoryCode": "44", "address": "230 THE DONWAY WEST", "city": "DON MILLS", "province": "ON", "country": "CA", "postalCode": "M3B2V8", "twitter": "None", "instagram": "None", "facebook": "None", "youtube": "None", "website": "None", "summary": "None", "logo": "None", "latitude": 43.738793213716846, "longitude": -79.34710428048342}, "896041563RR0001": {"name": "THE DOOR / LA PORTE (OTTAWA-CARLETON) OPPORTUNITIES FOR YOUTH / POSSIBILITES POUR JEUNES INC.", "designationCode": "C", "categoryCode": "09", "address": "755 SOMERSET ST W", "city": "OTTAWA", "province": "ON", "country": "CA", "postalCode": "K1R6R1", "twitter": "None", "instagram": "None", "facebook": "None", "youtube": "None", "website": "None", "summary": "None", "logo": "None", "latitude": 45.41026969167273, "longitude": -75.70895185555989}, "891874844RR0001": {"name": "THE DOOR CHRISTIAN CENTRE", "designationCode": "C", "categoryCode": "39", "address": "KEVON OLSEN (250-409-4829).   GD", "city": "RADIUM HOT SPRINGS", "province": "BC", "country": "CA", "postalCode": "V0A1M0", "twitter": "None", "instagram": "None", "facebook": "None", "youtube": "None", "website": "None", "summary": "None", "logo": "None", "latitude": 50.625231000000056, "longitude": -116.07290449999994}, "862778230RR0001": {"name": "THE DOREAN FOUNDATION", "designationCode": "B", "categoryCode": "43", "address": "10902 MADRONA DRIVE", "city": "NORTH SAANICH", "province": "BC", "country": "CA", "postalCode": "V8L5N9", "twitter": "None", "instagram": "None", "facebook": "None", "youtube": "None", "website": "None", "summary": "None", "logo": "None", "latitude": 48.67780444298561, "longitude": -123.48451910799793}, "139417208RR0001": {"name": "THE DORIS GILLER-RABINOVITCH FOUNDATION", "designationCode": "B", "categoryCode": "25", "address": "40 ROXBOROUGH STREET WEST", "city": "TORONTO", "province": "ON", "country": "CA", "postalCode": "M5R1T8", "twitter": "None", "instagram": "None", "facebook": "None", "youtube": "None", "website": "None", "summary": "None", "logo": "None", "latitude": 43.67783620180029, "longitude": -79.39187897766742}, "108148263RR0142": {"name": "THE DORMITION OF ST. MARY", "designationCode": "C", "categoryCode": "39", "address": "P.O. BOX 755", "city": "CANORA", "province": "SK", "country": "CA", "postalCode": "S0A0L0", "twitter": "None", "instagram": "None", "facebook": "None", "youtube": "None", "website": "None", "summary": "None", "logo": "None", "latitude": 51.62535661313478, "longitude": -102.4443087080291}, "119230175RR0001": {"name": "THE DOROTHY BREALEY MEMORIAL SCHOLARSHIP FUND", "designationCode": "C", "categoryCode": "22", "address": "BOX 1006", "city": "CAMPBELL RIVER", "province": "BC", "country": "CA", "postalCode": "V9W6Y4", "twitter": "None", "instagram": "None", "facebook": "None", "youtube": "None", "website": "None", "summary": "None", "logo": "None", "latitude": 50.024643000000054, "longitude": -125.24819299999993}, "130193394RR0001": {"name": "THE DOROTHY LEY HOSPICE", "designationCode": "C", "categoryCode": "11", "address": "220 SHERWAY DR", "city": "ETOBICOKE", "province": "ON", "country": "CA", "postalCode": "M9C0A7", "twitter": "None", "instagram": "None", "facebook": "None", "youtube": "None", "website": "None", "summary": "None", "logo": "None", "latitude": 43.60800016183835, "longitude": -79.56082791508445}, "119230191RR0001": {"name": "THE DOUGLAS COLLEGE EARLY CHILDHOOD EDUCATION SOCIETY", "designationCode": "C", "categoryCode": "20", "address": "PO BOX 2503  STN MAIN", "city": "NEW WESTMINSTER", "province": "BC", "country": "CA", "postalCode": "V3L5B2", "twitter": "None", "instagram": "None", "facebook": "None", "youtube": "None", "website": "None", "summary": "None", "logo": "None", "latitude": 49.20705600000005, "longitude": -122.90841349999994}, "119230209RR0001": {"name": "THE DOUGLAS UTTING FOUNDATION", "designationCode": "B", "categoryCode": "23", "address": "1420 FLANDERS RD", "city": "BROCKVILLE", "province": "ON", "country": "CA", "postalCode": "K6V0A2", "twitter": "None", "instagram": "None", "facebook": "None", "youtube": "None", "website": "None", "summary": "None", "logo": "None", "latitude": 44.61517790481267, "longitude": -75.70707286721665}, "118887561RR0001": {"name": "THE DOUGLAS-COLDWELL FOUNDATION / LA FONDATION DOUGLAS-COLDWELL", "designationCode": "B", "categoryCode": "23", "address": "279 LAURIER AVE W             STE 300", "city": "OTTAWA", "province": "ON", "country": "CA", "postalCode": "K1P5J9", "twitter": "None", "instagram": "None", "facebook": "None", "youtube": "None", "website": "None", "summary": "None", "logo": "None", "latitude": 45.41895913672757, "longitude": -75.69830999291204}, "119230217RR0001": {"name": "THE DOUKHOBOR BENEVOLENT SOCIETY", "designationCode": "C", "categoryCode": "09", "address": "100-2450 72ND AVE", "city": "GRAND FORKS", "province": "BC", "country": "CA", "postalCode": "V0H1H4", "twitter": "None", "instagram": "None", "facebook": "None", "youtube": "None", "website": "None", "summary": "None", "logo": "None", "latitude": 49.0240276884457, "longitude": -118.46675856830197}, "888104544RR0001": {"name": "THE DOV ZIMMERMAN Z\"L FOUNDATION", "designationCode": "B", "categoryCode": "05", "address": "134 CLANTON PARK ROAD", "city": "DOWNVIEW", "province": "ON", "country": "CA", "postalCode": "M3H2E7", "twitter": "None", "instagram": "None", "facebook": "None", "youtube": "None", "website": "None", "summary": "None", "logo": "None", "latitude": 43.744537150729855, "longitude": -79.4454691737549}, "119230225RR0001": {"name": "THE DOWN SYNDROME ASSOCIATION OF HAMILTON", "designationCode": "C", "categoryCode": "59", "address": "26\u0153 HATT STREET", "city": "DUNDAS", "province": "ON", "country": "CA", "postalCode": "L9H2E8", "twitter": "None", "instagram": "None", "facebook": "None", "youtube": "None", "website": "None", "summary": "None", "logo": "None", "latitude": 43.2641441977086, "longitude": -79.95354950098186}, "891560971RR0001": {"name": "THE DOWN SYNDROME ASSOCIATION OF YORK REGION", "designationCode": "C", "categoryCode": "11", "address": "PO BOX 2063 STN B", "city": "RICHMOND HILL", "province": "ON", "country": "CA", "postalCode": "L4E1A3", "twitter": "None", "instagram": "None", "facebook": "None", "youtube": "None", "website": "None", "summary": "None", "logo": "None", "latitude": 43.93691100000001, "longitude": -79.398288}, "856625835RR0001": {"name": "THE DOWNSTAGE PERFORMANCE SOCIETY", "designationCode": "C", "categoryCode": "22", "address": "205 8TH AVENUE SE, 2ND FLOOR", "city": "CALGARY", "province": "AB", "country": "CA", "postalCode": "T2G0K9", "twitter": "None", "instagram": "None", "facebook": "None", "youtube": "None", "website": "None", "summary": "None", "logo": "None", "latitude": 51.04534220984015, "longitude": -114.05999708058519}, "129895959RR0001": {"name": "THE DOWNTOWN EASTSIDE WOMEN'S CENTRE ASSOCIATION", "designationCode": "C", "categoryCode": "59", "address": "302 COLUMBIA ST", "city": "VANCOUVER", "province": "BC", "country": "CA", "postalCode": "V6A4J1", "twitter": "None", "instagram": "None", "facebook": "None", "youtube": "None", "website": "None", "summary": "None", "logo": "None", "latitude": 49.28224291939315, "longitude": -123.10216172321057}, "119230274RR0001": {"name": "THE DR A E ELLIOT RELIGIOUS TRAINING SUPPORT FUND", "designationCode": "C", "categoryCode": "21", "address": "BOX 314", "city": "RADVILLE", "province": "SK", "country": "CA", "postalCode": "S0C2G0", "twitter": "None", "instagram": "None", "facebook": "None", "youtube": "None", "website": "None", "summary": "None", "logo": "None", "latitude": 49.46040000000005, "longitude": -104.29811999999998}, "891000796RR0001": {"name": "THE DR A ROSS TILLEY PLASIC AND RECONSTRUCTIVE SURGERY FOUNDATION", "designationCode": "C", "categoryCode": "21", "address": "1053 CARLING AVE              BOX 213", "city": "OTTAWA", "province": "ON", "country": "CA", "postalCode": "K1Y4E9", "twitter": "None", "instagram": "None", "facebook": "None", "youtube": "None", "website": "None", "summary": "None", "logo": "None", "latitude": 45.39278639105125, "longitude": -75.71897024460785}, "119230266RR0001": {"name": "THE DR AARO E AHO FOUNDATION", "designationCode": "B", "categoryCode": "59", "address": "5555 NEWTON WYND", "city": "VANCOUVER", "province": "BC", "country": "CA", "postalCode": "V6T1H6", "twitter": "None", "instagram": "None", "facebook": "None", "youtube": "None", "website": "None", "summary": "None", "logo": "None", "latitude": 49.27587861179596, "longitude": -123.2442954084974}, "890563794RR0001": {"name": "THE DR ALFRED H DENNISON FOUNDATION INC", "designationCode": "C", "categoryCode": "19", "address": "BOX 37", "city": "TWILLINGATE", "province": "NL", "country": "CA", "postalCode": "A0G4M0", "twitter": "None", "instagram": "None", "facebook": "None", "youtube": "None", "website": "None", "summary": "None", "logo": "None", "latitude": 49.65692000000007, "longitude": -54.77596999999997}, "134922392RR0001": {"name": "THE DR BOB KEMP HOSPICE FOUNDATION INC", "designationCode": "C", "categoryCode": "01", "address": "277 STONECHURCH RD E", "city": "HAMILTON", "province": "ON", "country": "CA", "postalCode": "L9B1B1", "twitter": "None", "instagram": "None", "facebook": "None", "youtube": "None", "website": "None", "summary": "None", "logo": "None", "latitude": 43.208214000000055, "longitude": -79.87776649999994}, "888773868RR0001": {"name": "THE DR GURDEN ROBERT MACKAY MEMORIAL HOSPITAL FOR SHELBURNE", "designationCode": "A", "categoryCode": "10", "address": "321 BENHAMS RD                BOX 277", "city": "LOCKEPORT", "province": "NS", "country": "CA", "postalCode": "B0T1L0", "twitter": "None", "instagram": "None", "facebook": "None", "youtube": "None", "website": "None", "summary": "None", "logo": "None", "latitude": 43.74898456483193, "longitude": -65.19818822065169}, "119230373RR0001": {"name": "THE DR JOHN A & MRS-CLARA M FRASER MEMORIAL TRUST", "designationCode": "B", "categoryCode": "15", "address": "1002 SHERBROOKE STREET WEST   SUITE 540", "city": "MONTREAL", "province": "QC", "country": "CA", "postalCode": "H3A3L6", "twitter": "None", "instagram": "None", "facebook": "None", "youtube": "None", "website": "None", "summary": "None", "logo": "None", "latitude": 45.502789852876845, "longitude": -73.57558716772498}, "138791652RR0001": {"name": "THE DR PHYLLIS E BRADSHAW FOUNDATION", "designationCode": "B", "categoryCode": "25", "address": "(THE CANADA TRUST CO.)        PO BOX 10085", "city": "VANCOUVER", "province": "BC", "country": "CA", "postalCode": "V7Y1B6", "twitter": "None", "instagram": "None", "facebook": "None", "youtube": "None", "website": "None", "summary": "None", "logo": "None", "latitude": 49.28294993392596, "longitude": -123.11892994113924}, "119230399RR0001": {"name": "THE DR R E M LEE HOSPITAL FOUNDATION", "designationCode": "A", "categoryCode": "13", "address": "PO BOX 1067", "city": "TERRACE", "province": "BC", "country": "CA", "postalCode": "V8G4V1", "twitter": "None", "instagram": "None", "facebook": "None", "youtube": "None", "website": "None", "summary": "None", "logo": "None", "latitude": 54.51590400000006, "longitude": -128.60321299999993}, "119230407RR0001": {"name": "THE DR SUN YAT-SEN GARDEN SOCIETY OF VANCOUVER", "designationCode": "C", "categoryCode": "50", "address": "578 CARRALL STR", "city": "VANCOUVER", "province": "BC", "country": "CA", "postalCode": "V6B5K2", "twitter": "None", "instagram": "None", "facebook": "None", "youtube": "None", "website": "None", "summary": "None", "logo": "None", "latitude": 49.27977027254892, "longitude": -123.10434046381856}, "863364501RR0001": {"name": "THE DR. & MRS H.E. CHRISTIE COMMUNITY FOUNDATION", "designationCode": "B", "categoryCode": "03", "address": "PO BOX 986", "city": "AMHERST", "province": "NS", "country": "CA", "postalCode": "B4H4E1", "twitter": "None", "instagram": "None", "facebook": "None", "youtube": "None", "website": "None", "summary": "None", "logo": "None", "latitude": 45.83198400000006, "longitude": -64.20979249999993}, "864872478RR0001": {"name": "THE DR. CHARLES AND MARGARET BROWN FOUNDATION", "designationCode": "B", "categoryCode": "03", "address": "4 GLENGROVE AVE W", "city": "TORONTO", "province": "ON", "country": "CA", "postalCode": "M4R1N4", "twitter": "None", "instagram": "None", "facebook": "None", "youtube": "None", "website": "None", "summary": "None", "logo": "None", "latitude": 43.71942018347844, "longitude": -79.40154981294354}, "105208813RR0001": {"name": "THE DR. CHARLES H. BEST FOUNDATION", "designationCode": "A", "categoryCode": "13", "address": "151 YONGE STREET, SUITE 1500", "city": "TORONTO", "province": "ON", "country": "CA", "postalCode": "M5C2W7", "twitter": "None", "instagram": "None", "facebook": "None", "youtube": "None", "website": "None", "summary": "None", "logo": "None", "latitude": 43.65173779819972, "longitude": -79.37861566152122}, "869290924RR0001": {"name": "THE DR. JAY CHARITABLE FOUNDATION", "designationCode": "A", "categoryCode": "13", "address": "85 SKYMANK DRIVE              SUITE 2603", "city": "TORONTO", "province": "ON", "country": "CA", "postalCode": "M2H3P2", "twitter": "None", "instagram": "None", "facebook": "None", "youtube": "None", "website": "None", "summary": "None", "logo": "None", "latitude": 43.79492939006789, "longitude": -79.35384696309647}, "890557242RR0001": {"name": "THE DR. LOUIS G. JOHNSON FOUNDATION", "designationCode": "B", "categoryCode": "25", "address": "1250 BOUL RENE-LEVESQUE O     APP 2500", "city": "MONTREAL", "province": "QC", "country": "CA", "postalCode": "H3B4Y1", "twitter": "None", "instagram": "None", "facebook": "None", "youtube": "None", "website": "None", "summary": "None", "logo": "None", "latitude": 45.497635797911244, "longitude": -73.57123025818045}, "886464791RR0001": {"name": "THE DR. MAX GLASSMAN CHARITABLE FOUNDATION", "designationCode": "B", "categoryCode": "03", "address": "#209-970 LAWRENCE AVE WEST", "city": "TORONTO", "province": "ON", "country": "CA", "postalCode": "M6A3B6", "twitter": "None", "instagram": "None", "facebook": "None", "youtube": "None", "website": "None", "summary": "None", "logo": "None", "latitude": 43.713414238444024, "longitude": -79.45809593770547}, "826767741RR0001": {"name": "THE DR. NORMAN S. SKINNER LIBRARY TRUST", "designationCode": "B", "categoryCode": "03", "address": "1 P.V.M.5TH FLOOR SOUTH", "city": "MONTREAL", "province": "QC", "country": "CA", "postalCode": "H3B1Z3", "twitter": "None", "instagram": "None", "facebook": "None", "youtube": "None", "website": "None", "summary": "None", "logo": "None", "latitude": 45.49987500000006, "longitude": -73.56867649999994}, "890133069RR0001": {"name": "THE DR. WILLIAM R. PELLOW MASONIC BURSARY", "designationCode": "C", "categoryCode": "21", "address": "144 LANSDOWNE STREET SOUTH    PO BOX 142", "city": "CHAPLEAU", "province": "ON", "country": "CA", "postalCode": "P0M1K0", "twitter": "None", "instagram": "None", "facebook": "None", "youtube": "None", "website": "None", "summary": "None", "logo": "None", "latitude": 47.84054179505957, "longitude": -83.39823676582765}, "869044891RR0001": {"name": "THE DR. WOLF LEBOVIC CHARITABLE FOUNDATION", "designationCode": "B", "categoryCode": "03", "address": "P.O. BOX 1240", "city": "STOUFFVILLE", "province": "ON", "country": "CA", "postalCode": "L4A8A2", "twitter": "None", "instagram": "None", "facebook": "None", "youtube": "None", "website": "None", "summary": "None", "logo": "None", "latitude": 43.97107200000005, "longitude": -79.24805449999994}, "815540356RR0001": {"name": "THE DRAGON FLIES BREAST CANCER SURVIVOR GROUP", "designationCode": "A", "categoryCode": "11", "address": "P.O. BOX 691", "city": "LINDSAY", "province": "ON", "country": "CA", "postalCode": "K9V4W9", "twitter": "None", "instagram": "None", "facebook": "None", "youtube": "None", "website": "None", "summary": "None", "logo": "None", "latitude": 44.35437300000005, "longitude": -78.73967149999993}, "888828258RR0001": {"name": "THE DRAGON'S DEN CHILD CARE INC.", "designationCode": "C", "categoryCode": "01", "address": "2401 RETALLACK ST", "city": "REGINA", "province": "SK", "country": "CA", "postalCode": "S4T2L2", "twitter": "None", "instagram": "None", "facebook": "None", "youtube": "None", "website": "None", "summary": "None", "logo": "None", "latitude": 50.440212136274454, "longitude": -104.62241738917479}, "118888072RR0001": {"name": "THE DRAYTON MAPLETON AGRICULTURAL SOCIETY", "designationCode": "C", "categoryCode": "56", "address": "PO BOX 255", "city": "DRAYTON", "province": "ON", "country": "CA", "postalCode": "N0G1P0", "twitter": "None", "instagram": "None", "facebook": "None", "youtube": "None", "website": "None", "summary": "None", "logo": "None", "latitude": 43.77309915143594, "longitude": -80.9225621280716}, "118888114RR0001": {"name": "THE DRAYTON REFORMED CHURCH INC.", "designationCode": "C", "categoryCode": "39", "address": "P.O. BOX 102", "city": "DRAYTON", "province": "ON", "country": "CA", "postalCode": "N0G1P0", "twitter": "None", "instagram": "None", "facebook": "None", "youtube": "None", "website": "None", "summary": "None", "logo": "None", "latitude": 43.77309915143594, "longitude": -80.9225621280716}, "107051252RR0001": {"name": "THE DRAYTON VALLEY MUNICIPAL LIBRARY BOARD", "designationCode": "C", "categoryCode": "50", "address": "BOX 6240", "city": "DRAYTON VALLEY", "province": "AB", "country": "CA", "postalCode": "T7A1R7", "twitter": "None", "instagram": "None", "facebook": "None", "youtube": "None", "website": "None", "summary": "None", "logo": "None", "latitude": 53.22798600000006, "longitude": -114.98692399999993}, "886364363RR0001": {"name": "THE DRIFTWOOD THEATRE GROUP", "designationCode": "C", "categoryCode": "22", "address": "PO BOX 65004 RPO CHESTER", "city": "TORONTO", "province": "ON", "country": "CA", "postalCode": "M4K3Z2", "twitter": "None", "instagram": "None", "facebook": "None", "youtube": "None", "website": "None", "summary": "None", "logo": "None", "latitude": 43.6796762560248, "longitude": -79.35274609448534}, "107253130RR0001": {"name": "THE DRUMHELLER LIBRARY BOARD", "designationCode": "C", "categoryCode": "50", "address": "BOX 1599", "city": "DRUMHELLER", "province": "AB", "country": "CA", "postalCode": "T0J0Y0", "twitter": "None", "instagram": "None", "facebook": "None", "youtube": "None", "website": "None", "summary": "None", "logo": "None", "latitude": 51.46154700000005, "longitude": -112.70878099999993}, "130872567RR0001": {"name": "THE DRUMMOND FOUNDATION/LA FONDATION DRUMMOND", "designationCode": "B", "categoryCode": "03", "address": "1350 SHERBROOKE WEST          SUITE 1201", "city": "MONTREAL", "province": "QC", "country": "CA", "postalCode": "H3G1J1", "twitter": "None", "instagram": "None", "facebook": "None", "youtube": "None", "website": "None", "summary": "None", "logo": "None", "latitude": 45.49907079848817, "longitude": -73.57924886147518}, "888588464RR0001": {"name": "THE DRUMMONDVILLE PROTESTANT CEMETERY CO", "designationCode": "C", "categoryCode": "59", "address": "785, 116E AVENUE", "city": "DRUMMONDVILLE", "province": "QC", "country": "CA", "postalCode": "J2B4H5", "twitter": "None", "instagram": "None", "facebook": "None", "youtube": "None", "website": "None", "summary": "None", "logo": "None", "latitude": 45.85675516928284, "longitude": -72.45787287076601}, "871673042RR0001": {"name": "THE DRYDEN FOOD BANK", "designationCode": "C", "categoryCode": "09", "address": "62 QUEEN STREET", "city": "DRYDEN", "province": "ON", "country": "CA", "postalCode": "P8N1A4", "twitter": "None", "instagram": "None", "facebook": "None", "youtube": "None", "website": "None", "summary": "None", "logo": "None", "latitude": 49.785299572277836, "longitude": -92.83759052830518}, "119230449RR0001": {"name": "THE DRYDEN PUBLIC LIBRARY", "designationCode": "C", "categoryCode": "50", "address": "36 VAN HORNE AVENUE", "city": "DRYDEN", "province": "ON", "country": "CA", "postalCode": "P8N2A7", "twitter": "None", "instagram": "None", "facebook": "None", "youtube": "None", "website": "None", "summary": "None", "logo": "None", "latitude": 49.78384785437397, "longitude": -92.83639559263915}, "886521194RR0001": {"name": "THE DUCHESS AND DISTRICT LIBRARY BOARD", "designationCode": "C", "categoryCode": "50", "address": "BOX 88", "city": "DUCHESS", "province": "AB", "country": "CA", "postalCode": "T0J0Z0", "twitter": "None", "instagram": "None", "facebook": "None", "youtube": "None", "website": "None", "summary": "None", "logo": "None", "latitude": 50.732850051647404, "longitude": -111.90565995946109}, "119230464RR0001": {"name": "THE DUCK INN SOCIETY", "designationCode": "C", "categoryCode": "56", "address": "10930-107TH STREET", "city": "EDMONTON", "province": "AB", "country": "CA", "postalCode": "T5H2Z4", "twitter": "None", "instagram": "None", "facebook": "None", "youtube": "None", "website": "None", "summary": "None", "logo": "None", "latitude": 53.55570625145711, "longitude": -113.50478772266096}, "854682739RR0001": {"name": "THE DUKE OF EDINBURGH'S AWARD YOUNG CANADIANS CHALLENGE (MANITOBA DIVISION) INC.", "designationCode": "C", "categoryCode": "21", "address": "710 - 1 LOMBARD PL", "city": "WINNIPEG", "province": "MB", "country": "CA", "postalCode": "R3B0X3", "twitter": "None", "instagram": "None", "facebook": "None", "youtube": "None", "website": "None", "summary": "None", "logo": "None", "latitude": 49.89608549999999, "longitude": -97.13498849999999}, "125906545RR0001": {"name": "THE DUKE OF EDINBURGH'S AWARD YOUNG CANADIANS CHALLENGE BRITISH COLUMBIA AND YUKON DIVISION", "designationCode": "C", "categoryCode": "29", "address": "4086 SHELBOURNE ST", "city": "VICTORIA", "province": "BC", "country": "CA", "postalCode": "V8N4P6", "twitter": "None", "instagram": "None", "facebook": "None", "youtube": "None", "website": "None", "summary": "None", "logo": "None", "latitude": 48.47664063031353, "longitude": -123.33320328636475}, "136256187RR0001": {"name": "THE DUKE OF EDINBURGH'S AWARD, YOUNG CANADIANS CHALLENGE, NEW BRUNSWICK DIVISION LTD.", "designationCode": "C", "categoryCode": "21", "address": "287 - 65 BRUNSWICK ST", "city": "FREDERICTON", "province": "NB", "country": "CA", "postalCode": "E3B1G5", "twitter": "None", "instagram": "None", "facebook": "None", "youtube": "None", "website": "None", "summary": "None", "logo": "None", "latitude": 45.96038309678879, "longitude": -66.64306801385926}, "869809327RR0001": {"name": "THE DUNAMIS MINISTRIES", "designationCode": "C", "categoryCode": "49", "address": "108 - 1621 ISLAND HWY", "city": "VICTORIA", "province": "BC", "country": "CA", "postalCode": "V9B1H9", "twitter": "None", "instagram": "None", "facebook": "None", "youtube": "None", "website": "None", "summary": "None", "logo": "None", "latitude": 48.45479862251157, "longitude": -123.46101237699841}, "890966047RR0001": {"name": "THE DUNCAN CAMPBELL TRUST FUND", "designationCode": "B", "categoryCode": "45", "address": "155 WELLINGTON ST. W          20TH FLR.", "city": "TORONTO", "province": "ON", "country": "CA", "postalCode": "M5V3K7", "twitter": "None", "instagram": "None", "facebook": "None", "youtube": "None", "website": "None", "summary": "None", "logo": "None", "latitude": 43.64596585316531, "longitude": -79.38574575644876}, "890151194RR0001": {"name": "THE DUNCAN CHORAL SOCIETY", "designationCode": "C", "categoryCode": "22", "address": "P.O. BOX 355", "city": "DUNCAN", "province": "BC", "country": "CA", "postalCode": "V9L3X5", "twitter": "None", "instagram": "None", "facebook": "None", "youtube": "None", "website": "None", "summary": "None", "logo": "None", "latitude": 48.77908800000006, "longitude": -123.70739299999994}, "854471521RR0001": {"name": "THE DUNCANAFRICA SOCIETY", "designationCode": "C", "categoryCode": "03", "address": "105-9775 188 ST", "city": "SURREY", "province": "BC", "country": "CA", "postalCode": "V4N3N2", "twitter": "None", "instagram": "None", "facebook": "None", "youtube": "None", "website": "None", "summary": "None", "logo": "None", "latitude": 49.18020358673323, "longitude": -122.70130405219562}, "863783619RR0001": {"name": "THE DUNIN FOUNDATION", "designationCode": "B", "categoryCode": "03", "address": "181 BAY ST, SUITE 3300", "city": "TORONTO", "province": "ON", "country": "CA", "postalCode": "M5J2T3", "twitter": "None", "instagram": "None", "facebook": "None", "youtube": "None", "website": "None", "summary": "None", "logo": "None", "latitude": 43.64715434416293, "longitude": -79.37959157588452}, "859130924RR0001": {"name": "THE DUNKLEY CHARITABLE FOUNDATION", "designationCode": "B", "categoryCode": "05", "address": "5012 - 3080 YONGE ST", "city": "TORONTO", "province": "ON", "country": "CA", "postalCode": "M4N3N1", "twitter": "None", "instagram": "None", "facebook": "None", "youtube": "None", "website": "None", "summary": "None", "logo": "None", "latitude": 43.72561462669516, "longitude": -79.40237629577553}, "894264100RR0001": {"name": "THE DUNNVILLE SOCCER PARK CORPORATION", "designationCode": "C", "categoryCode": "56", "address": "120 LOGAN RD                  PO BOX 284", "city": "DUNNVILLE", "province": "ON", "country": "CA", "postalCode": "N1A2X5", "twitter": "None", "instagram": "None", "facebook": "None", "youtube": "None", "website": "None", "summary": "None", "logo": "None", "latitude": 42.913263590636944, "longitude": -79.59682615490149}, "133476234RR0001": {"name": "THE DURHAM CEMETERY COMPANY", "designationCode": "C", "categoryCode": "59", "address": "RR #2                         899 HWY 376", "city": "PICTOU", "province": "NS", "country": "CA", "postalCode": "B0K1H0", "twitter": "None", "instagram": "None", "facebook": "None", "youtube": "None", "website": "None", "summary": "None", "logo": "None", "latitude": 45.611379641663845, "longitude": -62.81753975100434}, "864183769RR0001": {"name": "THE DURHAM COLLEGE FOUNDATION", "designationCode": "A", "categoryCode": "23", "address": "2000 SIMCOE STREET NORTH", "city": "OSHAWA", "province": "ON", "country": "CA", "postalCode": "L1H7K4", "twitter": "None", "instagram": "None", "facebook": "None", "youtube": "None", "website": "None", "summary": "None", "logo": "None", "latitude": 43.94631946150995, "longitude": -78.89387017020555}, "119230555RR0001": {"name": "THE DURHAM COUNTY SENIOR CITIZENS LODGE", "designationCode": "C", "categoryCode": "09", "address": "200 STATION ST", "city": "ORONO", "province": "ON", "country": "CA", "postalCode": "L0B1M0", "twitter": "None", "instagram": "None", "facebook": "None", "youtube": "None", "website": "None", "summary": "None", "logo": "None", "latitude": 43.975293404999405, "longitude": -78.62061274556764}, "107270894RR0001": {"name": "THE DURHAM DISTRICT SCHOOL BOARD", "designationCode": "C", "categoryCode": "20", "address": "400 TAUNTON ROAD EAST", "city": "WHITBY", "province": "ON", "country": "CA", "postalCode": "L1R2K6", "twitter": "None", "instagram": "None", "facebook": "None", "youtube": "None", "website": "None", "summary": "None", "logo": "None", "latitude": 43.91907742103669, "longitude": -78.94098221176831}, "119070720RR0001": {"name": "THE DURHAM GIRLS' CHOIR", "designationCode": "C", "categoryCode": "22", "address": "P.O. BOX 82578                300 TAUNTON ROAD EAST", "city": "OSHAWA", "province": "ON", "country": "CA", "postalCode": "L1G7W7", "twitter": "None", "instagram": "None", "facebook": "None", "youtube": "None", "website": "None", "summary": "None", "logo": "None", "latitude": 43.9354691191351, "longitude": -78.86758601390711}, "866911712RR0001": {"name": "THE DURHAM REGION ASTRONOMICAL ASSOCIATION", "designationCode": "C", "categoryCode": "21", "address": "711 CENTRAL PARK BLVD N", "city": "OSHAWA", "province": "ON", "country": "CA", "postalCode": "L1G6A8", "twitter": "None", "instagram": "None", "facebook": "None", "youtube": "None", "website": "None", "summary": "None", "logo": "None", "latitude": 43.91930157066172, "longitude": -78.85791488533695}, "891631574RR0001": {"name": "THE DURHAM REGION FIELD NATURALISTS", "designationCode": "C", "categoryCode": "52", "address": "D.R.F.N. P.O. BOX 54031       8 KING STREET EAST", "city": "OSHAWA", "province": "ON", "country": "CA", "postalCode": "L1H1A9", "twitter": "None", "instagram": "None", "facebook": "None", "youtube": "None", "website": "None", "summary": "None", "logo": "None", "latitude": 43.897707114086124, "longitude": -78.86323968096826}, "135139392RR0001": {"name": "THE DUTKEVICH MEMORIAL TRUST FUND", "designationCode": "B", "categoryCode": "15", "address": "155 WELLINGTON ST. W.         20TH FLOOR", "city": "TORONTO", "province": "ON", "country": "CA", "postalCode": "M5V3K7", "twitter": "None", "instagram": "None", "facebook": "None", "youtube": "None", "website": "None", "summary": "None", "logo": "None", "latitude": 43.64596585316531, "longitude": -79.38574575644876}, "119230571RR0001": {"name": "THE DUVAL FOUNDATION", "designationCode": "A", "categoryCode": "49", "address": "400 EDMONTON STREET", "city": "WINNIPEG", "province": "MB", "country": "CA", "postalCode": "R3B2M2", "twitter": "None", "instagram": "None", "facebook": "None", "youtube": "None", "website": "None", "summary": "None", "logo": "None", "latitude": 49.89569430446078, "longitude": -97.14901183836321}, "106991391RR0001": {"name": "THE DWELLING PLACE CHURCH MINISTRIES", "designationCode": "C", "categoryCode": "39", "address": "2324-2ND ST. S.", "city": "CRANBROOK", "province": "BC", "country": "CA", "postalCode": "V1C1E1", "twitter": "None", "instagram": "None", "facebook": "None", "youtube": "None", "website": "None", "summary": "None", "logo": "None", "latitude": 49.50847048600596, "longitude": -115.74898035498298}}