{"107444234RR0001": {"name": "GRACE EVANGELICAL LUTHERAN CHURCH OF GNADENTHAL", "designationCode": "C", "categoryCode": "32", "address": "4507 41 AVE", "city": "LEDUC", "province": "AB", "country": "CA", "postalCode": "T9E4Y6", "twitter": "None", "instagram": "None", "facebook": "None", "youtube": "None", "website": "None", "summary": "None", "logo": "None", "latitude": 53.252604525102534, "longitude": -113.53952258381904}, "107444671RR0001": {"name": "GRACE EVANGELICAL LUTHERAN CHURCH OF REGINA", "designationCode": "C", "categoryCode": "32", "address": "1037 VICTORIA AVENUE", "city": "REGINA", "province": "SK", "country": "CA", "postalCode": "S4P0N6", "twitter": "None", "instagram": "None", "facebook": "None", "youtube": "None", "website": "None", "summary": "None", "logo": "None", "latitude": 50.447087488458806, "longitude": -104.59597305107044}, "118943737RR0001": {"name": "GRACE EVANGELICAL MISSIONARY CHURCH", "designationCode": "C", "categoryCode": "39", "address": "1132 LONG LAKE RD", "city": "PEMBROKE", "province": "ON", "country": "CA", "postalCode": "K8A0H7", "twitter": "None", "instagram": "None", "facebook": "None", "youtube": "None", "website": "None", "summary": "None", "logo": "None", "latitude": 45.7443364726471, "longitude": -77.31005446661625}, "118917301RR0001": {"name": "GRACE FAMILY BAPTIST CHURCH", "designationCode": "C", "categoryCode": "31", "address": "60 LIBERTON DRIVE", "city": "ST ALBERT", "province": "AB", "country": "CA", "postalCode": "T8N4L5", "twitter": "None", "instagram": "None", "facebook": "None", "youtube": "None", "website": "None", "summary": "None", "logo": "None", "latitude": 53.649302290870786, "longitude": -113.62991825038924}, "118944487RR0001": {"name": "GRACE FAMILY CHURCH", "designationCode": "C", "categoryCode": "39", "address": "426 BURTON AVE", "city": "SUDBURY", "province": "ON", "country": "CA", "postalCode": "P3C4K7", "twitter": "None", "instagram": "None", "facebook": "None", "youtube": "None", "website": "None", "summary": "None", "logo": "None", "latitude": 46.50302217396845, "longitude": -81.00312698423318}, "863055752RR0001": {"name": "GRACE FAMILY NETWORK FOUNDATION", "designationCode": "A", "categoryCode": "03", "address": "7175 ROYAL OAK AVE.", "city": "BURNABY", "province": "BC", "country": "CA", "postalCode": "V5J4J3", "twitter": "None", "instagram": "None", "facebook": "None", "youtube": "None", "website": "None", "summary": "None", "logo": "None", "latitude": 49.21865842413748, "longitude": -122.98858706334852}, "118943810RR0001": {"name": "GRACE FELLOWSHIP BAPTIST CHURCH", "designationCode": "C", "categoryCode": "31", "address": "5923-51 AVE", "city": "STETTLER", "province": "AB", "country": "CA", "postalCode": "T0C2L2", "twitter": "None", "instagram": "None", "facebook": "None", "youtube": "None", "website": "None", "summary": "None", "logo": "None", "latitude": 52.327120528420764, "longitude": -112.724181}, "134589159RR0001": {"name": "GRACE FELLOWSHIP CHURCH (ASSOCIATE REFORMED PRESBYTERIAN)", "designationCode": "C", "categoryCode": "39", "address": "894 SHORE RD", "city": "SYDNEY MINES", "province": "NS", "country": "CA", "postalCode": "B1V1B3", "twitter": "None", "instagram": "None", "facebook": "None", "youtube": "None", "website": "None", "summary": "None", "logo": "None", "latitude": 46.23424409492755, "longitude": -60.219479041375585}, "765374699RR0001": {"name": "GRACE FELLOWSHIP CHURCH CHILLIWACK", "designationCode": "C", "categoryCode": "39", "address": "PO BOX 31010 RPO LUCKAKUCK", "city": "CHILLIWACK", "province": "BC", "country": "CA", "postalCode": "V2R0C4", "twitter": "None", "instagram": "None", "facebook": "None", "youtube": "None", "website": "None", "summary": "None", "logo": "None", "latitude": 49.1423929473406, "longitude": -121.97273630924182}, "107444283RR0001": {"name": "GRACE FELLOWSHIP CHURCH INC.", "designationCode": "C", "categoryCode": "39", "address": "PO BOX 339", "city": "MACGREGOR", "province": "MB", "country": "CA", "postalCode": "R0H0R0", "twitter": "None", "instagram": "None", "facebook": "None", "youtube": "None", "website": "None", "summary": "None", "logo": "None", "latitude": 49.965220000000045, "longitude": -98.77929999999998}, "899482012RR0001": {"name": "GRACE FELLOWSHIP CHURCH OF WEST TORONTO", "designationCode": "C", "categoryCode": "39", "address": "28 ELMHURST DRIVE", "city": "ETOBICOKE", "province": "ON", "country": "CA", "postalCode": "M9W2J5", "twitter": "None", "instagram": "None", "facebook": "None", "youtube": "None", "website": "None", "summary": "None", "logo": "None", "latitude": 43.724420053061, "longitude": -79.5533871406023}, "837783521RR0001": {"name": "GRACE FELLOWSHIP MINISTRIS G.F.M. INC.", "designationCode": "C", "categoryCode": "39", "address": "BOX 307", "city": "RADISSON", "province": "SK", "country": "CA", "postalCode": "S0K3L0", "twitter": "None", "instagram": "None", "facebook": "None", "youtube": "None", "website": "None", "summary": "None", "logo": "None", "latitude": 52.46097000000003, "longitude": -107.39552999999995}, "808960678RR0001": {"name": "GRACE FELLOWSHIP OF LOON LAKE INC.", "designationCode": "C", "categoryCode": "39", "address": "P.O. BOX 704", "city": "LOON LAKE", "province": "SK", "country": "CA", "postalCode": "S0M1L0", "twitter": "None", "instagram": "None", "facebook": "None", "youtube": "None", "website": "None", "summary": "None", "logo": "None", "latitude": 53.8842735, "longitude": -109.57983525}, "139029243RR0001": {"name": "GRACE FREE REFORMED CHURCH", "designationCode": "C", "categoryCode": "39", "address": "17 PATTERSON AV", "city": "BRANTFORD", "province": "ON", "country": "CA", "postalCode": "N3S6W8", "twitter": "None", "instagram": "None", "facebook": "None", "youtube": "None", "website": "None", "summary": "None", "logo": "None", "latitude": 43.144655081049066, "longitude": -80.23101717260107}, "122136831RR0001": {"name": "GRACE GENERAL HOSPITAL (WINNIPEG) FOUNDATION INC", "designationCode": "A", "categoryCode": "13", "address": "300 BOOTH DRIVE", "city": "WINNIPEG", "province": "MB", "country": "CA", "postalCode": "R3J3M7", "twitter": "None", "instagram": "None", "facebook": "None", "youtube": "None", "website": "None", "summary": "None", "logo": "None", "latitude": 49.88253899225517, "longitude": -97.27484867109543}, "864596697RR0001": {"name": "GRACE GOOD NEWS MISSION", "designationCode": "C", "categoryCode": "47", "address": "7831 KENNEDY RD", "city": "MARKHAM", "province": "ON", "country": "CA", "postalCode": "L3R2C8", "twitter": "None", "instagram": "None", "facebook": "None", "youtube": "None", "website": "None", "summary": "None", "logo": "None", "latitude": 43.84572598557328, "longitude": -79.30545497789856}, "132463944RR0001": {"name": "GRACE GOSPEL CHAPEL OF SPIRIT RIVER,", "designationCode": "C", "categoryCode": "39", "address": "BOX 507", "city": "SPIRIT RIVER", "province": "AB", "country": "CA", "postalCode": "T0H3G0", "twitter": "None", "instagram": "None", "facebook": "None", "youtube": "None", "website": "None", "summary": "None", "logo": "None", "latitude": 58.38582002553528, "longitude": -116.01813004501088}, "107444333RR0001": {"name": "GRACE GOSPEL CHURCH", "designationCode": "C", "categoryCode": "39", "address": "5855 VALLEY WAY", "city": "NIAGARA FALLS", "province": "ON", "country": "CA", "postalCode": "L2E1X9", "twitter": "None", "instagram": "None", "facebook": "None", "youtube": "None", "website": "None", "summary": "None", "logo": "None", "latitude": 43.09786241329543, "longitude": -79.09155622315191}, "107444341RR0001": {"name": "GRACE GOSPEL CHURCH", "designationCode": "C", "categoryCode": "39", "address": "8 SILVER ST", "city": "PARIS", "province": "ON", "country": "CA", "postalCode": "N3L1T6", "twitter": "None", "instagram": "None", "facebook": "None", "youtube": "None", "website": "None", "summary": "None", "logo": "None", "latitude": 43.206301688845464, "longitude": -80.38759835330953}, "118943893RR0001": {"name": "GRACE GOSPEL CHURCH", "designationCode": "C", "categoryCode": "39", "address": "4079 MARGARET ORR BLVD", "city": "ORILLIA", "province": "ON", "country": "CA", "postalCode": "L3V6H6", "twitter": "None", "instagram": "None", "facebook": "None", "youtube": "None", "website": "None", "summary": "None", "logo": "None", "latitude": 44.61834362546357, "longitude": -79.31947862665054}, "893556886RR0001": {"name": "GRACE GOSPEL CHURCH CANADA", "designationCode": "B", "categoryCode": "39", "address": "63 RUE EDOUARD CHARLES CROTEAU", "city": "GATINEAU", "province": "QC", "country": "CA", "postalCode": "J8L0B5", "twitter": "None", "instagram": "None", "facebook": "None", "youtube": "None", "website": "None", "summary": "None", "logo": "None", "latitude": 45.57718056174627, "longitude": -75.40416835053956}, "893286435RR0001": {"name": "GRACE GOSPEL FELLOWSHIP INC.", "designationCode": "C", "categoryCode": "39", "address": "302 LAKERIDGE DR", "city": "WARMAN", "province": "SK", "country": "CA", "postalCode": "S0K1A0", "twitter": "None", "instagram": "None", "facebook": "None", "youtube": "None", "website": "None", "summary": "None", "logo": "None", "latitude": 52.324461366639724, "longitude": -106.59837763070587}, "118943935RR0001": {"name": "GRACE GOSPEL FELLOWSHIP OF CANADA", "designationCode": "C", "categoryCode": "39", "address": "82 - 5721 213A ST", "city": "LANGLEY", "province": "BC", "country": "CA", "postalCode": "V2Y2N2", "twitter": "None", "instagram": "None", "facebook": "None", "youtube": "None", "website": "None", "summary": "None", "logo": "None", "latitude": 49.10574233938199, "longitude": -122.63206800819076}, "885843698RR0001": {"name": "GRACE GOSPEL TAMIL CHURCH", "designationCode": "C", "categoryCode": "39", "address": "45 DUNSDALE SQUARE", "city": "TORONTO", "province": "ON", "country": "CA", "postalCode": "M1S2L7", "twitter": "None", "instagram": "None", "facebook": "None", "youtube": "None", "website": "None", "summary": "None", "logo": "None", "latitude": 43.80041101584036, "longitude": -79.27528731447276}, "862397551RR0001": {"name": "GRACE HANIN COMMUNITY CHURCH", "designationCode": "C", "categoryCode": "39", "address": "9770 KING GEORGE BLVD", "city": "SURREY", "province": "BC", "country": "CA", "postalCode": "V3T2V6", "twitter": "None", "instagram": "None", "facebook": "None", "youtube": "None", "website": "None", "summary": "None", "logo": "None", "latitude": 49.17992156924808, "longitude": -122.84541862986916}, "118943968RR0001": {"name": "GRACE HOUSE INCORPORATED", "designationCode": "C", "categoryCode": "01", "address": "130 CORNWALL ROAD", "city": "OAKVILLE", "province": "ON", "country": "CA", "postalCode": "L6J7V8", "twitter": "None", "instagram": "None", "facebook": "None", "youtube": "None", "website": "None", "summary": "None", "logo": "None", "latitude": 43.4538231876047, "longitude": -79.68187419842475}, "733119523RR0001": {"name": "GRACE HOUSE INTERNATIONAL MINISTRIES", "designationCode": "C", "categoryCode": "39", "address": "806 - 6707 ELBOW DR SW", "city": "CALGARY", "province": "AB", "country": "CA", "postalCode": "T2V0E5", "twitter": "None", "instagram": "None", "facebook": "None", "youtube": "None", "website": "None", "summary": "None", "logo": "None", "latitude": 50.993198580904846, "longitude": -114.08315368197788}, "135709640RR0001": {"name": "GRACE INDEPENDENT BAPTIST CHURCH", "designationCode": "C", "categoryCode": "39", "address": "295 GLENWOOD DR", "city": "TRURO", "province": "NS", "country": "CA", "postalCode": "B2N1R1", "twitter": "None", "instagram": "None", "facebook": "None", "youtube": "None", "website": "None", "summary": "None", "logo": "None", "latitude": 45.352825248975606, "longitude": -63.276616817242726}, "740941695RR0001": {"name": "GRACE INN SHELTER", "designationCode": "C", "categoryCode": "01", "address": "10 DUNDAS STREET WEST,", "city": "BELLEVILLE", "province": "ON", "country": "CA", "postalCode": "K8P1A1", "twitter": "None", "instagram": "None", "facebook": "None", "youtube": "None", "website": "None", "summary": "None", "logo": "None", "latitude": 44.16018724176224, "longitude": -77.38621759423505}, "892321845RR0001": {"name": "GRACE INSTITUTE OF THE HOLY EUCHARIST", "designationCode": "C", "categoryCode": "49", "address": "20 EDGECLIFFE GOLFWAY         APT. 1817", "city": "NORTH YORK", "province": "ON", "country": "CA", "postalCode": "M3C3A4", "twitter": "None", "instagram": "None", "facebook": "None", "youtube": "None", "website": "None", "summary": "None", "logo": "None", "latitude": 43.7193210996594, "longitude": -79.32492323703038}, "107444465RR0001": {"name": "GRACE INTERNATIONAL BAPTIST CHURCH", "designationCode": "C", "categoryCode": "31", "address": "7650 JASPER CRES", "city": "VANCOUVER", "province": "BC", "country": "CA", "postalCode": "V5P3S5", "twitter": "None", "instagram": "None", "facebook": "None", "youtube": "None", "website": "None", "summary": "None", "logo": "None"}, "865575138RR0001": {"name": "GRACE JAPANESE CHRISTIAN CHURCH OF ALBERTA", "designationCode": "C", "categoryCode": "39", "address": "243 LADY MACDONALD DRIVE", "city": "CANMORE", "province": "AB", "country": "CA", "postalCode": "T1W1H9", "twitter": "None", "instagram": "None", "facebook": "None", "youtube": "None", "website": "None", "summary": "None", "logo": "None", "latitude": 51.08224265306711, "longitude": -115.32748656872847}, "871315818RR0001": {"name": "GRACE KOREAN CHURCH", "designationCode": "C", "categoryCode": "39", "address": "45625 SOUTH SUMAS RD", "city": "CHILLIWACK", "province": "BC", "country": "CA", "postalCode": "V2R4M7", "twitter": "None", "instagram": "None", "facebook": "None", "youtube": "None", "website": "None", "summary": "None", "logo": "None", "latitude": 49.11843051875454, "longitude": -121.96176325145709}, "807825740RR0001": {"name": "GRACE LAO CHRISTIAN FELLOWSHIP", "designationCode": "C", "categoryCode": "49", "address": "221 CARLSON DR", "city": "NEWMARKET", "province": "ON", "country": "CA", "postalCode": "L3Y3H4", "twitter": "None", "instagram": "None", "facebook": "None", "youtube": "None", "website": "None", "summary": "None", "logo": "None", "latitude": 44.05609276363254, "longitude": -79.43567787417113}, "885794636RR0001": {"name": "GRACE LAO MENNONITE CHURCH", "designationCode": "C", "categoryCode": "34", "address": "575 LANCASTER STREET WEST", "city": "KITCHENER", "province": "ON", "country": "CA", "postalCode": "N2K1M5", "twitter": "None", "instagram": "None", "facebook": "None", "youtube": "None", "website": "None", "summary": "None", "logo": "None"}, "889870663RR0001": {"name": "GRACE LIFE MINISTRIES", "designationCode": "C", "categoryCode": "49", "address": "P.O. BOX 3583", "city": "COURTENAY", "province": "BC", "country": "CA", "postalCode": "V9N6Z8", "twitter": "None", "instagram": "None", "facebook": "None", "youtube": "None", "website": "None", "summary": "None", "logo": "None", "latitude": 49.68669300000006, "longitude": -124.99317349999993}, "870459070RR0001": {"name": "GRACE LING LIANG CHURCH", "designationCode": "C", "categoryCode": "39", "address": "95 ROYAL CREST COURT          UNITS 7 & 8", "city": "MARKHAM", "province": "ON", "country": "CA", "postalCode": "L3R9X5", "twitter": "None", "instagram": "None", "facebook": "None", "youtube": "None", "website": "None", "summary": "None", "logo": "None", "latitude": 43.840872800941014, "longitude": -79.32669733969085}, "107444580RR0001": {"name": "GRACE LUTHERAN CHURCH", "designationCode": "C", "categoryCode": "32", "address": "40 CALDWELL RD", "city": "DARTMOUTH", "province": "NS", "country": "CA", "postalCode": "B2V2S2", "twitter": "None", "instagram": "None", "facebook": "None", "youtube": "None", "website": "None", "summary": "None", "logo": "None", "latitude": 44.66902769138427, "longitude": -63.50110820534965}, "107444598RR0001": {"name": "GRACE LUTHERAN CHURCH", "designationCode": "C", "categoryCode": "32", "address": "BOX 129", "city": "EGANVILLE", "province": "ON", "country": "CA", "postalCode": "K0J1T0", "twitter": "None", "instagram": "None", "facebook": "None", "youtube": "None", "website": "None", "summary": "None", "logo": "None", "latitude": 45.57147000000006, "longitude": -77.04741949999993}, "107444622RR0001": {"name": "GRACE LUTHERAN CHURCH", "designationCode": "C", "categoryCode": "32", "address": "BOX 607", "city": "MITCHELL", "province": "ON", "country": "CA", "postalCode": "N0K1N0", "twitter": "None", "instagram": "None", "facebook": "None", "youtube": "None", "website": "None", "summary": "None", "logo": "None", "latitude": 43.461771000000056, "longitude": -81.20430349999994}, "107444663RR0001": {"name": "GRACE LUTHERAN CHURCH", "designationCode": "C", "categoryCode": "32", "address": "211 KIMBERLY AVE", "city": "WINNIPEG", "province": "MB", "country": "CA", "postalCode": "R2K0X3", "twitter": "None", "instagram": "None", "facebook": "None", "youtube": "None", "website": "None", "summary": "None", "logo": "None", "latitude": 49.927090859310816, "longitude": -97.10246128654295}, "107444705RR0001": {"name": "GRACE LUTHERAN CHURCH", "designationCode": "C", "categoryCode": "32", "address": "4407-7 AVE", "city": "EDSON", "province": "AB", "country": "CA", "postalCode": "T7E1B5", "twitter": "None", "instagram": "None", "facebook": "None", "youtube": "None", "website": "None", "summary": "None", "logo": "None", "latitude": 53.589847882595656, "longitude": -116.42077460560334}, "107444762RR0001": {"name": "GRACE LUTHERAN CHURCH", "designationCode": "C", "categoryCode": "32", "address": "102 SUNWAPTA DRIVE", "city": "HINTON", "province": "AB", "country": "CA", "postalCode": "T7V1G3", "twitter": "None", "instagram": "None", "facebook": "None", "youtube": "None", "website": "None", "summary": "None", "logo": "None", "latitude": 53.41725562614692, "longitude": -117.55297970534966}, "107444788RR0001": {"name": "GRACE LUTHERAN CHURCH", "designationCode": "C", "categoryCode": "32", "address": "P.O.BOX 203                   6 FINCH CRESCENT", "city": "OSOYOOS", "province": "BC", "country": "CA", "postalCode": "V0H1V0", "twitter": "None", "instagram": "None", "facebook": "None", "youtube": "None", "website": "None", "summary": "None", "logo": "None", "latitude": 49.03098863696696, "longitude": -119.47328667750581}, "107444820RR0001": {"name": "GRACE LUTHERAN CHURCH", "designationCode": "C", "categoryCode": "32", "address": "4408 REDFORD ST", "city": "PORT ALBERNI", "province": "BC", "country": "CA", "postalCode": "V9Y3R1", "twitter": "None", "instagram": "None", "facebook": "None", "youtube": "None", "website": "None", "summary": "None", "logo": "None", "latitude": 49.245122500586994, "longitude": -124.79950633294212}, "118944032RR0001": {"name": "GRACE LUTHERAN CHURCH", "designationCode": "C", "categoryCode": "32", "address": "PO BOX 638", "city": "LUNENBURG", "province": "NS", "country": "CA", "postalCode": "B0J2C0", "twitter": "None", "instagram": "None", "facebook": "None", "youtube": "None", "website": "None", "summary": "None", "logo": "None", "latitude": 44.37886006217898, "longitude": -64.31792993782098}, "118944065RR0001": {"name": "GRACE LUTHERAN CHURCH", "designationCode": "C", "categoryCode": "32", "address": "213 LINWELL ROAD", "city": "ST CATHARINES", "province": "ON", "country": "CA", "postalCode": "L2N1S1", "twitter": "None", "instagram": "None", "facebook": "None", "youtube": "None", "website": "None", "summary": "None", "logo": "None", "latitude": 43.19303688874117, "longitude": -79.24514810548777}, "118944081RR0001": {"name": "GRACE LUTHERAN CHURCH", "designationCode": "C", "categoryCode": "32", "address": "108 GRAHAM ST", "city": "WEST LORNE", "province": "ON", "country": "CA", "postalCode": "N0L2P0", "twitter": "None", "instagram": "None", "facebook": "None", "youtube": "None", "website": "None", "summary": "None", "logo": "None", "latitude": 42.60030030916904, "longitude": -81.60227601457164}, "118944107RR0001": {"name": "GRACE LUTHERAN CHURCH", "designationCode": "C", "categoryCode": "32", "address": "BOX 240", "city": "ASHERN", "province": "MB", "country": "CA", "postalCode": "R0C0E0", "twitter": "None", "instagram": "None", "facebook": "None", "youtube": "None", "website": "None", "summary": "None", "logo": "None", "latitude": 51.18065000000007, "longitude": -98.35010999999997}, "118944115RR0001": {"name": "GRACE LUTHERAN CHURCH", "designationCode": "C", "categoryCode": "32", "address": "BOX 538", "city": "BEAUSEJOUR", "province": "MB", "country": "CA", "postalCode": "R0E0C0", "twitter": "None", "instagram": "None", "facebook": "None", "youtube": "None", "website": "None", "summary": "None", "logo": "None", "latitude": 50.061750000000075, "longitude": -96.50519999999995}, "118944123RR0001": {"name": "GRACE LUTHERAN CHURCH", "designationCode": "C", "categoryCode": "32", "address": "BOX 575", "city": "CARMAN", "province": "MB", "country": "CA", "postalCode": "R0G0J0", "twitter": "None", "instagram": "None", "facebook": "None", "youtube": "None", "website": "None", "summary": "None", "logo": "None", "latitude": 49.50860000000006, "longitude": -98.00231999999994}, "118944149RR0001": {"name": "GRACE LUTHERAN CHURCH", "designationCode": "C", "categoryCode": "32", "address": "PO BOX 517", "city": "WYNYARD", "province": "SK", "country": "CA", "postalCode": "S0A4T0", "twitter": "None", "instagram": "None", "facebook": "None", "youtube": "None", "website": "None", "summary": "None", "logo": "None", "latitude": 51.76523000000003, "longitude": -104.18008999999995}, "118944180RR0001": {"name": "GRACE LUTHERAN CHURCH", "designationCode": "C", "categoryCode": "32", "address": "620 2ND AVE WEST", "city": "DRUMHELLER", "province": "AB", "country": "CA", "postalCode": "T0J0Y3", "twitter": "None", "instagram": "None", "facebook": "None", "youtube": "None", "website": "None", "summary": "None", "logo": "None", "latitude": 51.4647150000941, "longitude": -112.71744803389511}, "118944206RR0001": {"name": "GRACE LUTHERAN CHURCH", "designationCode": "C", "categoryCode": "32", "address": "3610 SARCEE ROAD SW           PASTOR", "city": "CALGARY", "province": "AB", "country": "CA", "postalCode": "T3E6V6", "twitter": "None", "instagram": "None", "facebook": "None", "youtube": "None", "website": "None", "summary": "None", "logo": "None", "latitude": 51.022421697184, "longitude": -114.12973429819971}, "118944222RR0001": {"name": "GRACE LUTHERAN CHURCH", "designationCode": "C", "categoryCode": "32", "address": "9907 114 STREET NW", "city": "EDMONTON", "province": "AB", "country": "CA", "postalCode": "T5K1P7", "twitter": "None", "instagram": "None", "facebook": "None", "youtube": "None", "website": "None", "summary": "None", "logo": "None", "latitude": 53.53777741326678, "longitude": -113.51757430013295}, "118944230RR0001": {"name": "GRACE LUTHERAN CHURCH", "designationCode": "C", "categoryCode": "32", "address": "4218-56 AVE", "city": "WETASKIWIN", "province": "AB", "country": "CA", "postalCode": "T9A2W3", "twitter": "None", "instagram": "None", "facebook": "None", "youtube": "None", "website": "None", "summary": "None", "logo": "None", "latitude": 52.97431947157925, "longitude": -113.35076141531371}, "118944255RR0001": {"name": "GRACE LUTHERAN CHURCH", "designationCode": "C", "categoryCode": "32", "address": "11101 17TH STREET", "city": "DAWSON CREEK", "province": "BC", "country": "CA", "postalCode": "V1G4Z3", "twitter": "None", "instagram": "None", "facebook": "None", "youtube": "None", "website": "None", "summary": "None", "logo": "None", "latitude": 55.74875399999999, "longitude": -120.25054935322261}, "131964264RR0001": {"name": "GRACE LUTHERAN CHURCH", "designationCode": "C", "categoryCode": "32", "address": "5306-50 AVENUE", "city": "CAMROSE", "province": "AB", "country": "CA", "postalCode": "T4V0T3", "twitter": "None", "instagram": "None", "facebook": "None", "youtube": "None", "website": "None", "summary": "None", "logo": "None", "latitude": 53.02283123397197, "longitude": -112.83186944685208}, "118944313RR0001": {"name": "GRACE LUTHERAN CHURCH - ZORRA", "designationCode": "C", "categoryCode": "32", "address": "BOX 168", "city": "ROBLIN", "province": "MB", "country": "CA", "postalCode": "R0L1P0", "twitter": "None", "instagram": "None", "facebook": "None", "youtube": "None", "website": "None", "summary": "None", "logo": "None", "latitude": 51.22816000000006, "longitude": -101.35248999999999}, "107444713RR0001": {"name": "GRACE LUTHERAN CHURCH OF OKOTOKS, ALBERTA", "designationCode": "C", "categoryCode": "32", "address": "114 WALDRON AVENUE", "city": "OKOTOKS", "province": "AB", "country": "CA", "postalCode": "T1S1C8", "twitter": "None", "instagram": "None", "facebook": "None", "youtube": "None", "website": "None", "summary": "None", "logo": "None", "latitude": 50.73383741046817, "longitude": -113.9674491429109}, "107444846RR0001": {"name": "GRACE LUTHERAN CHURCH OF SASKATOON INC.", "designationCode": "C", "categoryCode": "32", "address": "603 115TH ST EAST", "city": "SASKATOON", "province": "SK", "country": "CA", "postalCode": "S7N3K4", "twitter": "None", "instagram": "None", "facebook": "None", "youtube": "None", "website": "None", "summary": "None", "logo": "None", "latitude": 52.14369478496338, "longitude": -106.58468340053813}, "107444812RR0001": {"name": "GRACE LUTHERAN CHURCH OF SOUTH BURNABY, BRITISH COLUMBIA", "designationCode": "C", "categoryCode": "32", "address": "7283 NELSON AVE", "city": "BURNABY", "province": "BC", "country": "CA", "postalCode": "V5J4C2", "twitter": "None", "instagram": "None", "facebook": "None", "youtube": "None", "website": "None", "summary": "None", "logo": "None", "latitude": 49.217466739322134, "longitude": -122.9940631374575}, "118944297RR0001": {"name": "GRACE LUTHERAN CHURCH OF WEST BANK", "designationCode": "C", "categoryCode": "32", "address": "1162 HUDSON ROAD", "city": "KELOWNA", "province": "BC", "country": "CA", "postalCode": "V1Z1J3", "twitter": "None", "instagram": "None", "facebook": "None", "youtube": "None", "website": "None", "summary": "None", "logo": "None", "latitude": 49.862676351116484, "longitude": -119.56298789327147}, "129854949RR0001": {"name": "GRACE LUTHERAN CHURCH,", "designationCode": "C", "categoryCode": "32", "address": "136 MARGARET AVE", "city": "KITCHENER", "province": "ON", "country": "CA", "postalCode": "N2H4H9", "twitter": "None", "instagram": "None", "facebook": "None", "youtube": "None", "website": "None", "summary": "None", "logo": "None", "latitude": 43.45974840135021, "longitude": -80.49107705060909}, "888437597RR0001": {"name": "GRACE LUTHERAN CHURCH,", "designationCode": "C", "categoryCode": "32", "address": "BOX 201", "city": "BIRCH RIVER", "province": "MB", "country": "CA", "postalCode": "R0L0E0", "twitter": "None", "instagram": "None", "facebook": "None", "youtube": "None", "website": "None", "summary": "None", "logo": "None", "latitude": 51.99323480715113, "longitude": -100.14777643531698}, "890146848RR0001": {"name": "GRACE LUTHERAN CHURCH,", "designationCode": "C", "categoryCode": "32", "address": "BOX 298", "city": "BENTLEY", "province": "AB", "country": "CA", "postalCode": "T0C0J0", "twitter": "None", "instagram": "None", "facebook": "None", "youtube": "None", "website": "None", "summary": "None", "logo": "None", "latitude": 52.45537747553501, "longitude": -113.96484692260027}, "118944347RR0001": {"name": "GRACE MEMORIAL UNITED BAPTIST CHURCH INC.", "designationCode": "C", "categoryCode": "31", "address": "536 NORTHUMBERLAND ST", "city": "FREDERICTON", "province": "NB", "country": "CA", "postalCode": "E3B3K8", "twitter": "None", "instagram": "None", "facebook": "None", "youtube": "None", "website": "None", "summary": "None", "logo": "None", "latitude": 45.95582153121937, "longitude": -66.65544575838199}, "107444937RR0001": {"name": "GRACE MEMORIAL UNITED CHURCH", "designationCode": "C", "categoryCode": "44", "address": "803 16TH AVE E", "city": "VANCOUVER", "province": "BC", "country": "CA", "postalCode": "V5T2V7", "twitter": "None", "instagram": "None", "facebook": "None", "youtube": "None", "website": "None", "summary": "None", "logo": "None", "latitude": 49.25651036406286, "longitude": -123.08735866763759}, "867905010RR0001": {"name": "GRACE MENNONITE BRETHREN CHURCH", "designationCode": "C", "categoryCode": "34", "address": "546 BELMONT AVE W", "city": "KITCHENER", "province": "ON", "country": "CA", "postalCode": "N2M5E3", "twitter": "None", "instagram": "None", "facebook": "None", "youtube": "None", "website": "None", "summary": "None", "logo": "None", "latitude": 43.449180715246065, "longitude": -80.51524501967819}, "888780764RR0001": {"name": "GRACE MENNONITE BRETHREN CHURCH", "designationCode": "C", "categoryCode": "39", "address": "74 PENTICTON AVE", "city": "PENTICTON", "province": "BC", "country": "CA", "postalCode": "V2A2M3", "twitter": "None", "instagram": "None", "facebook": "None", "youtube": "None", "website": "None", "summary": "None", "logo": "None", "latitude": 49.48671862003007, "longitude": -119.58628987745978}, "118944362RR0001": {"name": "GRACE MENNONITE CHURCH", "designationCode": "C", "categoryCode": "34", "address": "430 THIRD STREET", "city": "STEINBACH", "province": "MB", "country": "CA", "postalCode": "R5G0K5", "twitter": "None", "instagram": "None", "facebook": "None", "youtube": "None", "website": "None", "summary": "None", "logo": "None", "latitude": 49.519371852258075, "longitude": -96.68273351628659}, "118944388RR0001": {"name": "GRACE MENNONITE CHURCH", "designationCode": "C", "categoryCode": "34", "address": "951-10TH ST", "city": "BRANDON", "province": "MB", "country": "CA", "postalCode": "R7A4H2", "twitter": "None", "instagram": "None", "facebook": "None", "youtube": "None", "website": "None", "summary": "None", "logo": "None", "latitude": 49.83540219712299, "longitude": -99.95139130267542}, "836702621RR0001": {"name": "GRACE MENNONITE CHURCH INC.", "designationCode": "C", "categoryCode": "34", "address": "PO BOX 1616", "city": "WINKLER", "province": "MB", "country": "CA", "postalCode": "R6W4B5", "twitter": "None", "instagram": "None", "facebook": "None", "youtube": "None", "website": "None", "summary": "None", "logo": "None", "latitude": 49.17773400000006, "longitude": -97.93841299999994}, "107445017RR0001": {"name": "GRACE MENNONITE CHURCH OF REGINA, SASKATCHEWAN", "designationCode": "C", "categoryCode": "34", "address": "2935 PASQUA STREET", "city": "REGINA", "province": "SK", "country": "CA", "postalCode": "S4S2H4", "twitter": "None", "instagram": "None", "facebook": "None", "youtube": "None", "website": "None", "summary": "None", "logo": "None", "latitude": 50.431985999999995, "longitude": -104.64085036089827}, "118944404RR0001": {"name": "GRACE MENNONITE CHURCH OF ST. CATHARINES", "designationCode": "C", "categoryCode": "34", "address": "677 NIAGARA ST.", "city": "ST CATHARINES", "province": "ON", "country": "CA", "postalCode": "L2M3R4", "twitter": "None", "instagram": "None", "facebook": "None", "youtube": "None", "website": "None", "summary": "None", "logo": "None", "latitude": 43.20653201806207, "longitude": -79.21963472796975}, "118944412RR0001": {"name": "GRACE MENNONITE CHURCH, PRINCE ALBERT", "designationCode": "C", "categoryCode": "34", "address": "250 28TH ST W", "city": "PRINCE ALBERT", "province": "SK", "country": "CA", "postalCode": "S6V4S9", "twitter": "None", "instagram": "None", "facebook": "None", "youtube": "None", "website": "None", "summary": "None", "logo": "None"}, "118944420RR0001": {"name": "GRACE MENNONITE FELLOWSHIP CHURCH", "designationCode": "C", "categoryCode": "34", "address": "44 CENTENNIAL CRES", "city": "NEW HAMBURG", "province": "ON", "country": "CA", "postalCode": "N3A1K9", "twitter": "None", "instagram": "None", "facebook": "None", "youtube": "None", "website": "None", "summary": "None", "logo": "None", "latitude": 43.37263013183105, "longitude": -80.72014199976886}, "886781293RR0001": {"name": "GRACE MINISTRIES", "designationCode": "C", "categoryCode": "39", "address": "12 OLYMPIA COURT", "city": "LINDSAY", "province": "ON", "country": "CA", "postalCode": "K9V6C8", "twitter": "None", "instagram": "None", "facebook": "None", "youtube": "None", "website": "None", "summary": "None", "logo": "None", "latitude": 44.3657064663198, "longitude": -78.74402374165653}, "861367191RR0001": {"name": "GRACE MINISTRIES WINDSOR", "designationCode": "C", "categoryCode": "39", "address": "3180 GRAND MARAIS RD. EAST", "city": "WINDSOR", "province": "ON", "country": "CA", "postalCode": "N8W4W5", "twitter": "None", "instagram": "None", "facebook": "None", "youtube": "None", "website": "None", "summary": "None", "logo": "None", "latitude": 42.29280218946936, "longitude": -82.97745758711436}, "118944453RR0001": {"name": "GRACE MISSION INC.", "designationCode": "C", "categoryCode": "47", "address": "PO BOX 339", "city": "OAK LAKE", "province": "MB", "country": "CA", "postalCode": "R0M1P0", "twitter": "None", "instagram": "None", "facebook": "None", "youtube": "None", "website": "None", "summary": "None", "logo": "None", "latitude": 49.76430756929151, "longitude": -100.63254783087561}, "107445025RR0001": {"name": "GRACE MISSIONARY CHURCH", "designationCode": "C", "categoryCode": "39", "address": "2 CENTENNIAL DR", "city": "PORT HOPE", "province": "ON", "country": "CA", "postalCode": "L1A4C5", "twitter": "None", "instagram": "None", "facebook": "None", "youtube": "None", "website": "None", "summary": "None", "logo": "None", "latitude": 43.96766873609084, "longitude": -78.29699837975292}, "127642841RR0001": {"name": "GRACE MOUNT ZION APOSTOLIC CHURCH", "designationCode": "C", "categoryCode": "39", "address": "1239 FIELD DRIVE", "city": "MILTON", "province": "ON", "country": "CA", "postalCode": "L9T6G4", "twitter": "None", "instagram": "None", "facebook": "None", "youtube": "None", "website": "None", "summary": "None", "logo": "None", "latitude": 43.521958937561244, "longitude": -79.84755087872918}, "879455814RR0001": {"name": "GRACE MULTICULTURAL COMMUNITY CHURCH", "designationCode": "C", "categoryCode": "39", "address": "PO BOX 47060                  RPO EDMONTON CTR", "city": "EDMONTON", "province": "AB", "country": "CA", "postalCode": "T5J4N1", "twitter": "None", "instagram": "None", "facebook": "None", "youtube": "None", "website": "None", "summary": "None", "logo": "None", "latitude": 53.54623500000005, "longitude": -113.49037249999994}, "118944479RR0001": {"name": "GRACE NEW COVENANT PENTECOSTAL CHURCH", "designationCode": "C", "categoryCode": "39", "address": "1800 ELLESMERE ROAD", "city": "SCARBOROUGH", "province": "ON", "country": "CA", "postalCode": "M1H2V5", "twitter": "None", "instagram": "None", "facebook": "None", "youtube": "None", "website": "None", "summary": "None", "logo": "None", "latitude": 43.77375110470839, "longitude": -79.2444380577642}, "866141880RR0001": {"name": "GRACE PATTERSON MINISTRIES", "designationCode": "C", "categoryCode": "39", "address": "COBEQUID RD                   PO BOX 70013", "city": "LR. SACKVILLE", "province": "NS", "country": "CA", "postalCode": "B4C2N1", "twitter": "None", "instagram": "None", "facebook": "None", "youtube": "None", "website": "None", "summary": "None", "logo": "None", "latitude": 44.76514894360227, "longitude": -63.649038724751}, "107833394RR0054": {"name": "GRACE PENTECOSTAL CHURCH", "designationCode": "C", "categoryCode": "36", "address": "P.O.BOX 70", "city": "BONAVISTA", "province": "NL", "country": "CA", "postalCode": "A0C1B0", "twitter": "None", "instagram": "None", "facebook": "None", "youtube": "None", "website": "None", "summary": "None", "logo": "None", "latitude": 48.60760000000005, "longitude": -53.09807999999998}, "875176422RR0001": {"name": "GRACE PENTECOSTAL CHURCH", "designationCode": "C", "categoryCode": "36", "address": "RR 3                          14 MAIN STREET", "city": "POWASSAN", "province": "ON", "country": "CA", "postalCode": "P0H1Z0", "twitter": "None", "instagram": "None", "facebook": "None", "youtube": "None", "website": "None", "summary": "None", "logo": "None"}, "890642168RR0001": {"name": "GRACE PENTECOSTAL CHURCH EDMONTON", "designationCode": "C", "categoryCode": "36", "address": "POST OFFICE BOX 1445          STATION MAIN", "city": "EDMONTON", "province": "AB", "country": "CA", "postalCode": "T5J2N5", "twitter": "None", "instagram": "None", "facebook": "None", "youtube": "None", "website": "None", "summary": "None", "logo": "None", "latitude": 53.54623500000005, "longitude": -113.49037249999994}, "107833394RR0077": {"name": "GRACE PENTECOSTAL TABERNACLE", "designationCode": "C", "categoryCode": "36", "address": "BOX 60 RR 1                   SHIP COVE", "city": "RALEIGH", "province": "NL", "country": "CA", "postalCode": "A0K4J0", "twitter": "None", "instagram": "None", "facebook": "None", "youtube": "None", "website": "None", "summary": "None", "logo": "None", "latitude": 51.55804090385529, "longitude": -55.71565964641995}, "107282568RR0001": {"name": "GRACE POINT CHURCH OF GOD(EDMONTON)", "designationCode": "C", "categoryCode": "39", "address": "720 - 62 ST SW", "city": "EDMONTON", "province": "AB", "country": "CA", "postalCode": "T6X0G3", "twitter": "None", "instagram": "None", "facebook": "None", "youtube": "None", "website": "None", "summary": "None", "logo": "None", "latitude": 53.42588119900168, "longitude": -113.43635910003383}, "118944503RR0001": {"name": "GRACE PRESBYTERIAN CHURCH", "designationCode": "C", "categoryCode": "37", "address": "4981 HWY 108", "city": "MILLERTON", "province": "NB", "country": "CA", "postalCode": "E1V5B8", "twitter": "None", "instagram": "None", "facebook": "None", "youtube": "None", "website": "None", "summary": "None", "logo": "None", "latitude": 46.90154566101883, "longitude": -65.63285206257834}, "118944537RR0001": {"name": "GRACE PRESBYTERIAN CHURCH", "designationCode": "C", "categoryCode": "37", "address": "447 PORT UNION RD", "city": "TORONTO", "province": "ON", "country": "CA", "postalCode": "M1C2L6", "twitter": "None", "instagram": "None", "facebook": "None", "youtube": "None", "website": "None", "summary": "None", "logo": "None", "latitude": 43.79457316795519, "longitude": -79.14289006544078}, "118944552RR0001": {"name": "GRACE PRESBYTERIAN CHURCH", "designationCode": "C", "categoryCode": "37", "address": "1009-15TH AVENUE S.W.", "city": "CALGARY", "province": "AB", "country": "CA", "postalCode": "T2R0S5", "twitter": "None", "instagram": "None", "facebook": "None", "youtube": "None", "website": "None", "summary": "None", "logo": "None", "latitude": 51.039137495672186, "longitude": -114.08490386081135}, "130091879RR0001": {"name": "GRACE PRESBYTERIAN CHURCH", "designationCode": "C", "categoryCode": "37", "address": "1220 TENTH LINE ROAD", "city": "ORLEANS", "province": "ON", "country": "CA", "postalCode": "K1E3W7", "twitter": "None", "instagram": "None", "facebook": "None", "youtube": "None", "website": "None", "summary": "None", "logo": "None", "latitude": 45.46100211334397, "longitude": -75.48796020049402}, "892677113RR0001": {"name": "GRACE PRESBYTERIAN CHURCH", "designationCode": "C", "categoryCode": "39", "address": "50 FINKLE ST", "city": "WOODSTOCK", "province": "ON", "country": "CA", "postalCode": "N4S3C8", "twitter": "None", "instagram": "None", "facebook": "None", "youtube": "None", "website": "None", "summary": "None", "logo": "None", "latitude": 43.128243188729904, "longitude": -80.75741605274388}, "135165421RR0001": {"name": "GRACE REFORMED CHURCH", "designationCode": "C", "categoryCode": "39", "address": "PO BOX 85", "city": "DUNNVILLE", "province": "ON", "country": "CA", "postalCode": "N1A2X1", "twitter": "None", "instagram": "None", "facebook": "None", "youtube": "None", "website": "None", "summary": "None", "logo": "None", "latitude": 42.90442800000005, "longitude": -79.62015049999994}, "131936320RR0001": {"name": "GRACE REFORMED CHURCH IN KELOWNA", "designationCode": "C", "categoryCode": "39", "address": "#101-2293 LECKIE RD", "city": "KELOWNA", "province": "BC", "country": "CA", "postalCode": "V1X6Y5", "twitter": "None", "instagram": "None", "facebook": "None", "youtube": "None", "website": "None", "summary": "None", "logo": "None", "latitude": 49.885512860500555, "longitude": -119.4358529242949}, "882644388RR0001": {"name": "GRACE REFORMED CHURCH OF LEDUC", "designationCode": "C", "categoryCode": "39", "address": "BOX 3244", "city": "LEDUC", "province": "AB", "country": "CA", "postalCode": "T9E6M1", "twitter": "None", "instagram": "None", "facebook": "None", "youtube": "None", "website": "None", "summary": "None", "logo": "None", "latitude": 53.26051200000006, "longitude": -113.54857099999992}, "889396719RR0001": {"name": "GRACE RESTORATION INTERNATIONAL MINISTRIES", "designationCode": "C", "categoryCode": "39", "address": "53 TOWNLEY AVE", "city": "MARKHAM", "province": "ON", "country": "CA", "postalCode": "L3S2Y1", "twitter": "None", "instagram": "None", "facebook": "None", "youtube": "None", "website": "None", "summary": "None", "logo": "None", "latitude": 43.84449578296493, "longitude": -79.28177749636467}, "889320669RR0001": {"name": "GRACE RESTORATION MINISTRIES", "designationCode": "C", "categoryCode": "39", "address": "38 JASPER STREET", "city": "BRANTFORD", "province": "ON", "country": "CA", "postalCode": "N3P1K4", "twitter": "None", "instagram": "None", "facebook": "None", "youtube": "None", "website": "None", "summary": "None", "logo": "None", "latitude": 43.18723593698434, "longitude": -80.2379970165042}}