{"121610133RR0001": {"name": "SAAMIS IMMIGRATION SERVICES ASSOCIATION", "designationCode": "C", "categoryCode": "09", "address": "659 3RD ST SE", "city": "MEDICINE HAT", "province": "AB", "country": "CA", "postalCode": "T1A0H4", "twitter": "None", "instagram": "None", "facebook": "None", "youtube": "None", "website": "None", "summary": "None", "logo": "None", "latitude": 50.04018772608815, "longitude": -110.67428540521752}, "129780508RR0001": {"name": "SAANICH BAPTIST CHURCH", "designationCode": "C", "categoryCode": "31", "address": "4347 WILKINSON ROAD", "city": "VICTORIA", "province": "BC", "country": "CA", "postalCode": "V8Z5B8", "twitter": "None", "instagram": "None", "facebook": "None", "youtube": "None", "website": "None", "summary": "None", "logo": "None", "latitude": 48.487308569796355, "longitude": -123.40263567150454}, "865213433RR0001": {"name": "SAANICH COMMUNITY CHURCH", "designationCode": "C", "categoryCode": "34", "address": "4566 WEST SAANICH ROAD", "city": "VICTORIA", "province": "BC", "country": "CA", "postalCode": "V8Z3G4", "twitter": "None", "instagram": "None", "facebook": "None", "youtube": "None", "website": "None", "summary": "None", "logo": "None", "latitude": 48.49740856310258, "longitude": -123.39159184947171}, "868879149RR0001": {"name": "SAANICH COMMUNITY LEGACY FOUNDATION", "designationCode": "C", "categoryCode": "56", "address": "P.O. BOX 48204", "city": "VICTORIA", "province": "BC", "country": "CA", "postalCode": "V8Z7H6", "twitter": "None", "instagram": "None", "facebook": "None", "youtube": "None", "website": "None", "summary": "None", "logo": "None", "latitude": 48.481719000000055, "longitude": -123.40460599999994}, "119288918RR0090": {"name": "SAANICH CONGREGATION OF JEHOVAH'S WITNESSES, VICTORIA, BRITISH COLUMBIA", "designationCode": "C", "categoryCode": "61", "address": "722 SNOWDROP", "city": "VICTORIA", "province": "BC", "country": "CA", "postalCode": "V8Z2N2", "twitter": "None", "instagram": "None", "facebook": "None", "youtube": "None", "website": "None", "summary": "None", "logo": "None", "latitude": 48.46382440357193, "longitude": -123.40122076475865}, "879025211RR0001": {"name": "SAANICH FIRE FIGHTERS CHARITABLE FOUNDATION", "designationCode": "C", "categoryCode": "03", "address": "POST OFFICE BOX 48056", "city": "VICTORIA", "province": "BC", "country": "CA", "postalCode": "V8Z7H5", "twitter": "None", "instagram": "None", "facebook": "None", "youtube": "None", "website": "None", "summary": "None", "logo": "None", "latitude": 48.481719000000055, "longitude": -123.40460599999994}, "119130508RR0001": {"name": "SAANICH HISTORICAL ARTIFACTS SOCIETY", "designationCode": "C", "categoryCode": "50", "address": "7321 LOCHSIDE DRIVE", "city": "SAANICHTON", "province": "BC", "country": "CA", "postalCode": "V8M1W4", "twitter": "None", "instagram": "None", "facebook": "None", "youtube": "None", "website": "None", "summary": "None", "logo": "None", "latitude": 48.57534205672563, "longitude": -123.39705381221923}, "887432268RR0001": {"name": "SAANICH INLET PROTECTION SOCIETY", "designationCode": "C", "categoryCode": "59", "address": "6963 W.SANRICH RD", "city": "BRENTWOOD BAY", "province": "BC", "country": "CA", "postalCode": "V0S1A0", "twitter": "None", "instagram": "None", "facebook": "None", "youtube": "None", "website": "None", "summary": "None", "logo": "None", "latitude": 48.63194500000003, "longitude": -124.22154051785708}, "138240940RR0001": {"name": "SAANICH MARINE RESCUE SOCIETY", "designationCode": "C", "categoryCode": "59", "address": "PO BOX 2364", "city": "SIDNEY", "province": "BC", "country": "CA", "postalCode": "V8L3Y3", "twitter": "None", "instagram": "None", "facebook": "None", "youtube": "None", "website": "None", "summary": "None", "logo": "None", "latitude": 48.65020800000005, "longitude": -123.39842299999994}, "886149236RR0001": {"name": "SAANICH NEIGHBOURHOOD PLACE", "designationCode": "C", "categoryCode": "09", "address": "3100 TILLICUM RD", "city": "VICTORIA", "province": "BC", "country": "CA", "postalCode": "V9A6T2", "twitter": "None", "instagram": "None", "facebook": "None", "youtube": "None", "website": "None", "summary": "None", "logo": "None", "latitude": 48.451842575364935, "longitude": -123.39591189275188}, "119130524RR0001": {"name": "SAANICH PENINSULA ARTS & CRAFTS SOCIETY", "designationCode": "C", "categoryCode": "22", "address": "PO BOX 2542", "city": "SIDNEY", "province": "BC", "country": "CA", "postalCode": "V8L4B9", "twitter": "None", "instagram": "None", "facebook": "None", "youtube": "None", "website": "None", "summary": "None", "logo": "None", "latitude": 48.65020800000005, "longitude": -123.39842299999994}, "890884067RR0001": {"name": "SAANICH PENINSULA BRANCH #37 POPPY TRUST FUND", "designationCode": "C", "categoryCode": "09", "address": "PO BOX 2152 STN MAIN", "city": "SIDNEY", "province": "BC", "country": "CA", "postalCode": "V8L3S6", "twitter": "None", "instagram": "None", "facebook": "None", "youtube": "None", "website": "None", "summary": "None", "logo": "None", "latitude": 48.65020800000005, "longitude": -123.39842299999994}, "888138047RR0001": {"name": "SAANICH PENINSULA CHRISTADELPHIAN ECCLESIA", "designationCode": "C", "categoryCode": "39", "address": "2371 OAKVILLE AVE", "city": "SIDNEY", "province": "BC", "country": "CA", "postalCode": "V8L1V8", "twitter": "None", "instagram": "None", "facebook": "None", "youtube": "None", "website": "None", "summary": "None", "logo": "None", "latitude": 48.64666984284613, "longitude": -123.40145478172872}, "119130540RR0001": {"name": "SAANICH PENINSULA HOSPITAL FOUNDATION", "designationCode": "A", "categoryCode": "13", "address": "2166 MOUNT NEWTON CROSS ROAD", "city": "VICTORIA", "province": "BC", "country": "CA", "postalCode": "V8M2B2", "twitter": "None", "instagram": "None", "facebook": "None", "youtube": "None", "website": "None", "summary": "None", "logo": "None", "latitude": 48.59419492048082, "longitude": -123.4100479829488}, "870911716RR0001": {"name": "SAANICH PENINSULA MONTHLY MEETING, RELIGIOUS SOCIETY OF FRIENDS", "designationCode": "C", "categoryCode": "39", "address": "123-2600 FERGUSON ROAD", "city": "SAANICHTON", "province": "BC", "country": "CA", "postalCode": "V8M2C1", "twitter": "None", "instagram": "None", "facebook": "None", "youtube": "None", "website": "None", "summary": "None", "logo": "None", "latitude": 48.59541688105114, "longitude": -123.39279039226658}, "129950804RR0013": {"name": "SAANICH PENINSULA PARISH,", "designationCode": "C", "categoryCode": "38", "address": "10030 THIRD ST", "city": "SIDNEY", "province": "BC", "country": "CA", "postalCode": "V8L3B3", "twitter": "None", "instagram": "None", "facebook": "None", "youtube": "None", "website": "None", "summary": "None", "logo": "None", "latitude": 48.65410255556972, "longitude": -123.39784108725912}, "119130565RR0001": {"name": "SAANICH PENINSULA PREBYTERIAN CHURCH", "designationCode": "C", "categoryCode": "37", "address": "9296 EAST SAANICH RD", "city": "NORTH SAANICH", "province": "BC", "country": "CA", "postalCode": "V8L1H8", "twitter": "None", "instagram": "None", "facebook": "None", "youtube": "None", "website": "None", "summary": "None", "logo": "None", "latitude": 48.635031007426626, "longitude": -123.42066709896605}, "871694691RR0001": {"name": "SAANICH PIONEERS' SOCIETY", "designationCode": "C", "categoryCode": "50", "address": "7910 POLO PARK CRES", "city": "SAANICHTON", "province": "BC", "country": "CA", "postalCode": "V8M2J4", "twitter": "None", "instagram": "None", "facebook": "None", "youtube": "None", "website": "None", "summary": "None", "logo": "None", "latitude": 48.5970457743111, "longitude": -123.41746716363244}, "140487240RR0001": {"name": "SAANICH VOLUNTEER SERVICES SOCIETY", "designationCode": "C", "categoryCode": "09", "address": "1445 OCEAN VIEW ROAD", "city": "VICTORIA", "province": "BC", "country": "CA", "postalCode": "V8P1J8", "twitter": "None", "instagram": "None", "facebook": "None", "youtube": "None", "website": "None", "summary": "None", "logo": "None", "latitude": 48.45198877021201, "longitude": -123.34179533876086}, "129989570RR0001": {"name": "SAANICHTON BIBLE FELLOWSHIP", "designationCode": "C", "categoryCode": "39", "address": "2159 MOUNT NEWTON CROSS RD", "city": "SAANICHTON", "province": "BC", "country": "CA", "postalCode": "V8M1T8", "twitter": "None", "instagram": "None", "facebook": "None", "youtube": "None", "website": "None", "summary": "None", "logo": "None", "latitude": 48.59403463371194, "longitude": -123.41132721035495}, "816604078RR0001": {"name": "SABAD VARTARA INTERNATIONAL (CANADA) INC.", "designationCode": "B", "categoryCode": "62", "address": "63 STORER DRIVE", "city": "NORTH YORK", "province": "ON", "country": "CA", "postalCode": "M9M1X6", "twitter": "None", "instagram": "None", "facebook": "None", "youtube": "None", "website": "None", "summary": "None", "logo": "None", "latitude": 43.74441158338634, "longitude": -79.54799558687745}, "827368879RR0001": {"name": "SABAOTH RESCUE MISSION", "designationCode": "C", "categoryCode": "36", "address": "100 BRICKYARD WAY UNIT 82", "city": "BRAMPTON", "province": "ON", "country": "CA", "postalCode": "L6V4L9", "twitter": "None", "instagram": "None", "facebook": "None", "youtube": "None", "website": "None", "summary": "None", "logo": "None", "latitude": 43.70175775353457, "longitude": -79.77900296526086}, "891118176RR0001": {"name": "SABBATH REST ADVENT CHURCH IN CANADA", "designationCode": "C", "categoryCode": "47", "address": "7 LUPUS PL", "city": "LONDON", "province": "ON", "country": "CA", "postalCode": "N6C4X2", "twitter": "None", "instagram": "None", "facebook": "None", "youtube": "None", "website": "None", "summary": "None", "logo": "None", "latitude": 42.95216048211083, "longitude": -81.20624348167814}, "853104461RR0001": {"name": "SABEL FAMILY FOUNDATION", "designationCode": "B", "categoryCode": "03", "address": "201 BRIDGELAND AVENUE,", "city": "TORONTO", "province": "ON", "country": "CA", "postalCode": "M6A1Y7", "twitter": "None", "instagram": "None", "facebook": "None", "youtube": "None", "website": "None", "summary": "None", "logo": "None", "latitude": 43.724679896445465, "longitude": -79.46720435899367}, "892176736RR0001": {"name": "SABLIER", "designationCode": "C", "categoryCode": "09", "address": "224, RUE BRIERE", "city": "ST-JEROME", "province": "QC", "country": "CA", "postalCode": "J7Y3A8", "twitter": "None", "instagram": "None", "facebook": "None", "youtube": "None", "website": "None", "summary": "None", "logo": "None", "latitude": 45.77379584929882, "longitude": -74.01015829130347}, "133876094RR0001": {"name": "SACAJAWEA NON-PROFIT HOUSING INC.", "designationCode": "C", "categoryCode": "09", "address": "200 - 370 MAIN ST E", "city": "HAMILTON", "province": "ON", "country": "CA", "postalCode": "L8N1J6", "twitter": "None", "instagram": "None", "facebook": "None", "youtube": "None", "website": "None", "summary": "None", "logo": "None", "latitude": 43.251575984159636, "longitude": -79.85511040259095}, "881765028RR0001": {"name": "SACHA SAUDA GURMAT PARCHAR SOCIETY", "designationCode": "C", "categoryCode": "62", "address": "PO BOX 38593", "city": "BRAMPTON", "province": "ON", "country": "CA", "postalCode": "L6Y4W5", "twitter": "None", "instagram": "None", "facebook": "None", "youtube": "None", "website": "None", "summary": "None", "logo": "None", "latitude": 43.68430500000005, "longitude": -79.75872349999993}, "852487677RR0001": {"name": "SACKS FAMILY FOUNDATION", "designationCode": "B", "categoryCode": "05", "address": "1975 MCLEAN DRIVE             SACKS INDUSTRIAL CORP.,", "city": "VANCOUVER", "province": "BC", "country": "CA", "postalCode": "V5N3J7", "twitter": "None", "instagram": "None", "facebook": "None", "youtube": "None", "website": "None", "summary": "None", "logo": "None", "latitude": 49.267188000000004, "longitude": -123.07551314106364}, "870717147RR0001": {"name": "SACKS FAMILY FOUNDATION", "designationCode": "B", "categoryCode": "05", "address": "3100 STEELES AVE EAST         SUITE 718", "city": "MARKHAM", "province": "ON", "country": "CA", "postalCode": "L3R8T3", "twitter": "None", "instagram": "None", "facebook": "None", "youtube": "None", "website": "None", "summary": "None", "logo": "None", "latitude": 43.814403195163855, "longitude": -79.34666936790913}, "885728808RR0001": {"name": "SACKVILLE & DISTRICT ASSISTANCE CENTRE INC.", "designationCode": "C", "categoryCode": "01", "address": "PO BOX 6335 STN MAIN", "city": "SACKVILLE", "province": "NB", "country": "CA", "postalCode": "E4L1G6", "twitter": "None", "instagram": "None", "facebook": "None", "youtube": "None", "website": "None", "summary": "None", "logo": "None", "latitude": 45.926131695268, "longitude": -64.3573668135333}, "107947020RR0001": {"name": "SACKVILLE BEDFORD EARLY INTERVENTION SOCIETY", "designationCode": "C", "categoryCode": "11", "address": "P.O. BOX 617", "city": "LOWER SACKVILLE", "province": "NS", "country": "CA", "postalCode": "B4C3J1", "twitter": "None", "instagram": "None", "facebook": "None", "youtube": "None", "website": "None", "summary": "None", "logo": "None", "latitude": 44.76871500000006, "longitude": -63.65960449999993}, "843393075RR0001": {"name": "SACKVILLE CEMETERY COMPANY INC.", "designationCode": "C", "categoryCode": "59", "address": "70 BRIDGE STREET", "city": "SACKVILLE", "province": "NB", "country": "CA", "postalCode": "E4L3N9", "twitter": "None", "instagram": "None", "facebook": "None", "youtube": "None", "website": "None", "summary": "None", "logo": "None", "latitude": 45.896733251321066, "longitude": -64.36105590534254}, "899977177RR0001": {"name": "SACKVILLE CHRISTIAN FELLOWSHIP SOCIETY", "designationCode": "B", "categoryCode": "39", "address": "387 OLD SACKVILLE RD", "city": "LOWER SACKVILLE", "province": "NS", "country": "CA", "postalCode": "B4C2J8", "twitter": "None", "instagram": "None", "facebook": "None", "youtube": "None", "website": "None", "summary": "None", "logo": "None", "latitude": 44.76034952928613, "longitude": -63.6818257648742}, "119130623RR0001": {"name": "SACKVILLE COMMUNITY FUND ASSOCIATION", "designationCode": "C", "categoryCode": "09", "address": "P.O.BOX 6465", "city": "SACKVILLE", "province": "NB", "country": "CA", "postalCode": "E4L1G6", "twitter": "None", "instagram": "None", "facebook": "None", "youtube": "None", "website": "None", "summary": "None", "logo": "None", "latitude": 45.89997900000006, "longitude": -64.37448349999994}, "119288918RR0365": {"name": "SACKVILLE CONGREGATION OF JEHOVAH'S WITNESSES", "designationCode": "C", "categoryCode": "61", "address": "71 KING STREET", "city": "SACKVILLE", "province": "NB", "country": "CA", "postalCode": "E4L3G4", "twitter": "None", "instagram": "None", "facebook": "None", "youtube": "None", "website": "None", "summary": "None", "logo": "None", "latitude": 45.90478207801932, "longitude": -64.38275652801673}, "119130672RR0001": {"name": "SACKVILLE HIGHLAND DANCING ASSOCIATION", "designationCode": "C", "categoryCode": "22", "address": "28 WEST AVENUE", "city": "SACKVILLE", "province": "NB", "country": "CA", "postalCode": "E4L4P1", "twitter": "None", "instagram": "None", "facebook": "None", "youtube": "None", "website": "None", "summary": "None", "logo": "None", "latitude": 45.89773005216696, "longitude": -64.38122746029785}, "107947111RR0001": {"name": "SACKVILLE INDEPENDENT BAPTIST CHURCH", "designationCode": "C", "categoryCode": "31", "address": "92 BEAVERBANK ROAD", "city": "LOWER SACKVILLE", "province": "NS", "country": "CA", "postalCode": "B4E1J7", "twitter": "None", "instagram": "None", "facebook": "None", "youtube": "None", "website": "None", "summary": "None", "logo": "None", "latitude": 44.78419085483874, "longitude": -63.69217400946372}, "107655029RR0001": {"name": "SACKVILLE MAIN STREET UNITED BAPTIST CHURCH", "designationCode": "C", "categoryCode": "31", "address": "20 MAIN ST", "city": "SACKVILLE", "province": "NB", "country": "CA", "postalCode": "E4L4A5", "twitter": "None", "instagram": "None", "facebook": "None", "youtube": "None", "website": "None", "summary": "None", "logo": "None", "latitude": 45.89321515182636, "longitude": -64.37089859830307}, "119130698RR0001": {"name": "SACKVILLE MEMORIAL HOSPITAL AUXILIARY", "designationCode": "C", "categoryCode": "19", "address": "8 MAIN ST", "city": "SACKVILLE", "province": "NB", "country": "CA", "postalCode": "E4L4A3", "twitter": "None", "instagram": "None", "facebook": "None", "youtube": "None", "website": "None", "summary": "None", "logo": "None", "latitude": 45.891708641150544, "longitude": -64.3718205686129}, "119130730RR0001": {"name": "SACKVILLE MUSIC FESTIVAL ASSOCIATION", "designationCode": "C", "categoryCode": "25", "address": "67 POINT DE BUTE RD", "city": "POINT DE BUTE", "province": "NB", "country": "CA", "postalCode": "E4L2T4", "twitter": "None", "instagram": "None", "facebook": "None", "youtube": "None", "website": "None", "summary": "None", "logo": "None", "latitude": 45.90323764977755, "longitude": -64.24975959639941}, "107947210RR0001": {"name": "SACKVILLE PASTORAL CHARGE", "designationCode": "C", "categoryCode": "44", "address": "110 MAIN ST", "city": "SACKVILLE", "province": "NB", "country": "CA", "postalCode": "E4L1A1", "twitter": "None", "instagram": "None", "facebook": "None", "youtube": "None", "website": "None", "summary": "None", "logo": "None", "latitude": 45.897873222603664, "longitude": -64.36820673552982}, "139462196RR0001": {"name": "SACKVILLE RIVERS ASSOCIATION", "designationCode": "C", "categoryCode": "52", "address": "P.O. BOX 45071", "city": "SACKVILLE", "province": "NS", "country": "CA", "postalCode": "B4E2Z6", "twitter": "None", "instagram": "None", "facebook": "None", "youtube": "None", "website": "None", "summary": "None", "logo": "None", "latitude": 44.8232186933617, "longitude": -63.776060173340426}, "899099337RR0001": {"name": "SACKVILLE SENIORS ADVISORY COUNCIL", "designationCode": "C", "categoryCode": "56", "address": "45 CONNOLLY RD", "city": "LOWER SACKVILLE", "province": "NS", "country": "CA", "postalCode": "B4E1S6", "twitter": "None", "instagram": "None", "facebook": "None", "youtube": "None", "website": "None", "summary": "None", "logo": "None", "latitude": 44.7770960366688, "longitude": -63.69980191495753}, "851365304RR0001": {"name": "SACKVILLE UNITED BAPTIST CHURCH", "designationCode": "C", "categoryCode": "31", "address": "1240 OLD SACKVILLE ROAD", "city": "SACKVILLE", "province": "NS", "country": "CA", "postalCode": "B4E3A6", "twitter": "None", "instagram": "None", "facebook": "None", "youtube": "None", "website": "None", "summary": "None", "logo": "None", "latitude": 44.78308060698832, "longitude": -63.71513981989711}, "893861864RR0001": {"name": "SACKVILLE-BEDFORD MEALS ON WHEELS SOCIETY", "designationCode": "C", "categoryCode": "09", "address": "40 FREER LANE", "city": "LOWER SACKVILLE", "province": "NS", "country": "CA", "postalCode": "B4C0A2", "twitter": "None", "instagram": "None", "facebook": "None", "youtube": "None", "website": "None", "summary": "None", "logo": "None", "latitude": 44.7579502308237, "longitude": -63.66059080394118}, "119109817RR0096": {"name": "SACRED HEART", "designationCode": "C", "categoryCode": "38", "address": "1025 WALLACE AVE. N.", "city": "LISTOWEL", "province": "ON", "country": "CA", "postalCode": "N4W1M6", "twitter": "None", "instagram": "None", "facebook": "None", "youtube": "None", "website": "None", "summary": "None", "logo": "None", "latitude": 43.74128721509577, "longitude": -80.94555489647398}, "119109817RR0057": {"name": "SACRED HEART - INGERSOLL", "designationCode": "C", "categoryCode": "38", "address": "131 THAMES ST N", "city": "INGERSOLL", "province": "ON", "country": "CA", "postalCode": "N5C3C9", "twitter": "None", "instagram": "None", "facebook": "None", "youtube": "None", "website": "None", "summary": "None", "logo": "None", "latitude": 43.042972107680825, "longitude": -80.88831251347443}, "106880073RR0017": {"name": "SACRED HEART CATHEDRAL PARISH", "designationCode": "C", "categoryCode": "38", "address": "635A TRANQUILLE RD", "city": "KAMLOOPS", "province": "BC", "country": "CA", "postalCode": "V2B3H5", "twitter": "None", "instagram": "None", "facebook": "None", "youtube": "None", "website": "None", "summary": "None", "logo": "None", "latitude": 50.69513785619937, "longitude": -120.36046005142083}, "107585085RR0036": {"name": "SACRED HEART CATHEDRAL PARISH", "designationCode": "C", "categoryCode": "38", "address": "1401-4TH AVE W.", "city": "PRINCE ALBERT", "province": "SK", "country": "CA", "postalCode": "S6V5H1", "twitter": "None", "instagram": "None", "facebook": "None", "youtube": "None", "website": "None", "summary": "None", "logo": "None", "latitude": 53.20081371581209, "longitude": -105.76518520260977}, "137059648RR0001": {"name": "SACRED HEART CHAPEL", "designationCode": "C", "categoryCode": "38", "address": "PO BOX 197", "city": "KENOSEE LAKE", "province": "SK", "country": "CA", "postalCode": "S0C2S0", "twitter": "None", "instagram": "None", "facebook": "None", "youtube": "None", "website": "None", "summary": "None", "logo": "None"}, "107307191RR0067": {"name": "SACRED HEART CHURCH", "designationCode": "C", "categoryCode": "38", "address": "BOX 67", "city": "LANCER", "province": "SK", "country": "CA", "postalCode": "S0N1G0", "twitter": "None", "instagram": "None", "facebook": "None", "youtube": "None", "website": "None", "summary": "None", "logo": "None", "latitude": 50.801780000000065, "longitude": -108.88612999999998}, "107909939RR0009": {"name": "SACRED HEART CHURCH", "designationCode": "C", "categoryCode": "38", "address": "1304 - 14TH STREET SW", "city": "CALGARY", "province": "AB", "country": "CA", "postalCode": "T3C1C6", "twitter": "None", "instagram": "None", "facebook": "None", "youtube": "None", "website": "None", "summary": "None", "logo": "None", "latitude": 51.041043, "longitude": -114.09466832249419}, "107909939RR0046": {"name": "SACRED HEART CHURCH", "designationCode": "C", "categoryCode": "38", "address": "P.O. BOX 629", "city": "OYEN", "province": "AB", "country": "CA", "postalCode": "T0J2J0", "twitter": "None", "instagram": "None", "facebook": "None", "youtube": "None", "website": "None", "summary": "None", "logo": "None", "latitude": 51.366820000000075, "longitude": -110.46831999999995}, "107909939RR0079": {"name": "SACRED HEART CHURCH", "designationCode": "C", "categoryCode": "38", "address": "23 STRATHMORE LAKES WAY", "city": "STRATHMORE", "province": "AB", "country": "CA", "postalCode": "T1P1L7", "twitter": "None", "instagram": "None", "facebook": "None", "youtube": "None", "website": "None", "summary": "None", "logo": "None", "latitude": 51.04413933527613, "longitude": -113.40668727474196}, "119109791RR0039": {"name": "SACRED HEART CHURCH", "designationCode": "C", "categoryCode": "38", "address": "3882 MAIN STREET", "city": "NIAGARA FALLS", "province": "ON", "country": "CA", "postalCode": "L2G6B6", "twitter": "None", "instagram": "None", "facebook": "None", "youtube": "None", "website": "None", "summary": "None", "logo": "None", "latitude": 43.05676023544785, "longitude": -79.05352268612884}, "119109817RR0060": {"name": "SACRED HEART CHURCH", "designationCode": "C", "categoryCode": "38", "address": "219 SACRED HEART DR.", "city": "LASALLE", "province": "ON", "country": "CA", "postalCode": "N9J1S8", "twitter": "None", "instagram": "None", "facebook": "None", "youtube": "None", "website": "None", "summary": "None", "logo": "None", "latitude": 42.23206845972793, "longitude": -83.09914525485526}, "119109817RR0083": {"name": "SACRED HEART CHURCH", "designationCode": "C", "categoryCode": "38", "address": "159 ANN ST", "city": "PARKHILL", "province": "ON", "country": "CA", "postalCode": "N0M2K0", "twitter": "None", "instagram": "None", "facebook": "None", "youtube": "None", "website": "None", "summary": "None", "logo": "None", "latitude": 43.159477299780896, "longitude": -81.68683684681254}, "119109817RR0127": {"name": "SACRED HEART CHURCH", "designationCode": "C", "categoryCode": "38", "address": "1465 LECARON AVE", "city": "SARNIA", "province": "ON", "country": "CA", "postalCode": "N7V3J4", "twitter": "None", "instagram": "None", "facebook": "None", "youtube": "None", "website": "None", "summary": "None", "logo": "None", "latitude": 43.00735215746618, "longitude": -82.38958696317167}, "119110443RR0005": {"name": "SACRED HEART CHURCH", "designationCode": "C", "categoryCode": "38", "address": "P.O. BOX 119", "city": "WOLFE ISLAND", "province": "ON", "country": "CA", "postalCode": "K0H2Y0", "twitter": "None", "instagram": "None", "facebook": "None", "youtube": "None", "website": "None", "summary": "None", "logo": "None", "latitude": 44.194210000000055, "longitude": -76.43937999999997}, "119110443RR0014": {"name": "SACRED HEART CHURCH", "designationCode": "C", "categoryCode": "38", "address": "BOX 104", "city": "MARMORA", "province": "ON", "country": "CA", "postalCode": "K0K2M0", "twitter": "None", "instagram": "None", "facebook": "None", "youtube": "None", "website": "None", "summary": "None", "logo": "None", "latitude": 44.424105000000054, "longitude": -77.62367149999993}, "119110443RR0049": {"name": "SACRED HEART CHURCH", "designationCode": "C", "categoryCode": "38", "address": "2905 WESTPORT ROAD            RR2", "city": "GODFREY", "province": "ON", "country": "CA", "postalCode": "K0H1T0", "twitter": "None", "instagram": "None", "facebook": "None", "youtube": "None", "website": "None", "summary": "None", "logo": "None", "latitude": 44.629611352988846, "longitude": -76.56223434086802}, "119110443RR0053": {"name": "SACRED HEART CHURCH", "designationCode": "C", "categoryCode": "38", "address": "160 DIBBLE ST WEST BOX 234", "city": "PRESCOTT", "province": "ON", "country": "CA", "postalCode": "K0E1T0", "twitter": "None", "instagram": "None", "facebook": "None", "youtube": "None", "website": "None", "summary": "None", "logo": "None", "latitude": 44.71124457591318, "longitude": -75.51546576034389}, "119110450RR0008": {"name": "SACRED HEART CHURCH", "designationCode": "C", "categoryCode": "38", "address": "66 SHANLEY ST", "city": "KITCHENER", "province": "ON", "country": "CA", "postalCode": "N2H5N9", "twitter": "None", "instagram": "None", "facebook": "None", "youtube": "None", "website": "None", "summary": "None", "logo": "None", "latitude": 43.45650371720795, "longitude": -80.50250922496959}, "119131118RR0001": {"name": "SACRED HEART CHURCH", "designationCode": "C", "categoryCode": "38", "address": "PO BOX 1026", "city": "ROBLIN", "province": "MB", "country": "CA", "postalCode": "R0L1P0", "twitter": "None", "instagram": "None", "facebook": "None", "youtube": "None", "website": "None", "summary": "None", "logo": "None", "latitude": 51.22816000000006, "longitude": -101.35248999999999}, "119131126RR0001": {"name": "SACRED HEART CHURCH", "designationCode": "C", "categoryCode": "38", "address": "BOX 1780", "city": "SWAN RIVER", "province": "MB", "country": "CA", "postalCode": "R0L1Z0", "twitter": "None", "instagram": "None", "facebook": "None", "youtube": "None", "website": "None", "summary": "None", "logo": "None", "latitude": 52.11672730414978, "longitude": -101.25989472758229}, "119131159RR0001": {"name": "SACRED HEART CHURCH", "designationCode": "C", "categoryCode": "38", "address": "PO BOX 111", "city": "TORQUAY", "province": "SK", "country": "CA", "postalCode": "S0C2L0", "twitter": "None", "instagram": "None", "facebook": "None", "youtube": "None", "website": "None", "summary": "None", "logo": "None", "latitude": 49.15007000000003, "longitude": -103.50095999999996}, "119264174RR0024": {"name": "SACRED HEART CHURCH", "designationCode": "C", "categoryCode": "38", "address": "222 FIRST ST N", "city": "KENORA", "province": "ON", "country": "CA", "postalCode": "P9N2K4", "twitter": "None", "instagram": "None", "facebook": "None", "youtube": "None", "website": "None", "summary": "None", "logo": "None", "latitude": 49.769191026371956, "longitude": -94.48743341243006}, "129090833RR0001": {"name": "SACRED HEART CHURCH", "designationCode": "C", "categoryCode": "38", "address": "BOX 867", "city": "MELITA", "province": "MB", "country": "CA", "postalCode": "R0M1L0", "twitter": "None", "instagram": "None", "facebook": "None", "youtube": "None", "website": "None", "summary": "None", "logo": "None", "latitude": 49.26665000000003, "longitude": -100.96985999999998}, "133411926RR0001": {"name": "SACRED HEART CHURCH", "designationCode": "C", "categoryCode": "38", "address": "BOX 129", "city": "BENSON", "province": "SK", "country": "CA", "postalCode": "S0C0L0", "twitter": "None", "instagram": "None", "facebook": "None", "youtube": "None", "website": "None", "summary": "None", "logo": "None", "latitude": 49.6440462417121, "longitude": -104.66217827333533}, "119130847RR0001": {"name": "SACRED HEART CHURCH (EGLISE DU SACRE-COEUR)", "designationCode": "C", "categoryCode": "38", "address": "PO BOX 100", "city": "LEBRET", "province": "SK", "country": "CA", "postalCode": "S0G2Y0", "twitter": "None", "instagram": "None", "facebook": "None", "youtube": "None", "website": "None", "summary": "None", "logo": "None", "latitude": 50.757840000000044, "longitude": -103.70525999999995}, "119122786RR0022": {"name": "SACRED HEART CHURCH PARISH", "designationCode": "C", "categoryCode": "38", "address": "6500 SOUTHRIDGE AVE", "city": "PRINCE GEORGE", "province": "BC", "country": "CA", "postalCode": "V2N5P9", "twitter": "None", "instagram": "None", "facebook": "None", "youtube": "None", "website": "None", "summary": "None", "logo": "None", "latitude": 53.86420563941114, "longitude": -122.78374828519728}, "131479826RR0001": {"name": "SACRED HEART CHURCH,", "designationCode": "C", "categoryCode": "38", "address": "PO BOX 157", "city": "RAYMORE", "province": "SK", "country": "CA", "postalCode": "S0A3J0", "twitter": "None", "instagram": "None", "facebook": "None", "youtube": "None", "website": "None", "summary": "None", "logo": "None", "latitude": 51.409260000000074, "longitude": -104.52537999999998}, "865570030RR0001": {"name": "SACRED HEART ELEMENTARY SCHOOL COUNCIL", "designationCode": "C", "categoryCode": "20", "address": "P.O. BOX 79", "city": "MARYSTOWN", "province": "NL", "country": "CA", "postalCode": "A0E2M0", "twitter": "None", "instagram": "None", "facebook": "None", "youtube": "None", "website": "None", "summary": "None", "logo": "None", "latitude": 47.17724000000004, "longitude": -55.15096999999997}, "135897700RR0001": {"name": "SACRED HEART HOSPITAL CHARITABLE FOUNDATION", "designationCode": "A", "categoryCode": "13", "address": "P.O. BOX 962", "city": "CHETICAMP", "province": "NS", "country": "CA", "postalCode": "B0E1H0", "twitter": "None", "instagram": "None", "facebook": "None", "youtube": "None", "website": "None", "summary": "None", "logo": "None", "latitude": 46.60719600312706, "longitude": -61.03849596133188}, "107307191RR0032": {"name": "SACRED HEART MISSION MARENGO SASKATCHEWAN", "designationCode": "C", "categoryCode": "38", "address": "BOX 40", "city": "KINDERSLEY", "province": "SK", "country": "CA", "postalCode": "S0L1S0", "twitter": "None", "instagram": "None", "facebook": "None", "youtube": "None", "website": "None", "summary": "None", "logo": "None", "latitude": 51.46791900000005, "longitude": -109.15522999999993}, "119110443RR0027": {"name": "SACRED HEART OF JESUS CHRUCH", "designationCode": "C", "categoryCode": "38", "address": "BOX 61", "city": "LANARK", "province": "ON", "country": "CA", "postalCode": "K0G1K0", "twitter": "None", "instagram": "None", "facebook": "None", "youtube": "None", "website": "None", "summary": "None", "logo": "None", "latitude": 45.05259300000006, "longitude": -76.40778049999993}, "107307191RR0004": {"name": "SACRED HEART OF JESUS PARISH", "designationCode": "C", "categoryCode": "38", "address": "BOX 39", "city": "ESTON", "province": "SK", "country": "CA", "postalCode": "S0L1A0", "twitter": "None", "instagram": "None", "facebook": "None", "youtube": "None", "website": "None", "summary": "None", "logo": "None", "latitude": 51.15382000000005, "longitude": -108.75371999999999}, "107910259RR0229": {"name": "SACRED HEART OF JESUS PARISH - YE SU SUNG SHIM PARISH", "designationCode": "C", "categoryCode": "39", "address": "296 JUDSON STREET", "city": "ETOBICOKE", "province": "ON", "country": "CA", "postalCode": "M8Z5T6", "twitter": "None", "instagram": "None", "facebook": "None", "youtube": "None", "website": "None", "summary": "None", "logo": "None", "latitude": 43.612733122453314, "longitude": -79.51284783516056}, "107947780RR0001": {"name": "SACRED HEART OF JESUS UKRAINIAN CATHOLIC CHURCH", "designationCode": "C", "categoryCode": "38", "address": "PO BOX 895", "city": "ARBORG", "province": "MB", "country": "CA", "postalCode": "R0C0A0", "twitter": "None", "instagram": "None", "facebook": "None", "youtube": "None", "website": "None", "summary": "None", "logo": "None", "latitude": 50.91022850109325, "longitude": -97.2043884534773}, "119110443RR0015": {"name": "SACRED HEART OF MARY CHURCH", "designationCode": "C", "categoryCode": "38", "address": "P.O. BOX 599", "city": "MADOC", "province": "ON", "country": "CA", "postalCode": "K0K2K0", "twitter": "None", "instagram": "None", "facebook": "None", "youtube": "None", "website": "None", "summary": "None", "logo": "None", "latitude": 44.506080000000054, "longitude": -77.47461999999996}, "118880012RR0001": {"name": "SACRED HEART OF MARY PARISH", "designationCode": "C", "categoryCode": "38", "address": "BOX 129", "city": "COWESSESS", "province": "SK", "country": "CA", "postalCode": "S0G5L0", "twitter": "None", "instagram": "None", "facebook": "None", "youtube": "None", "website": "None", "summary": "None", "logo": "None", "latitude": 50.53722000000005, "longitude": -102.65943999999996}, "107020331RR0047": {"name": "SACRED HEART PARISH", "designationCode": "C", "categoryCode": "38", "address": "114 CHURCH AVENUE", "city": "SUSSEX", "province": "NB", "country": "CA", "postalCode": "E4E1Z1", "twitter": "None", "instagram": "None", "facebook": "None", "youtube": "None", "website": "None", "summary": "None", "logo": "None", "latitude": 45.71941002283968, "longitude": -65.50963631372562}, "107307191RR0019": {"name": "SACRED HEART PARISH", "designationCode": "C", "categoryCode": "38", "address": "BOX 158", "city": "DENZIL", "province": "SK", "country": "CA", "postalCode": "S0L0S0", "twitter": "None", "instagram": "None", "facebook": "None", "youtube": "None", "website": "None", "summary": "None", "logo": "None", "latitude": 52.16909059214003, "longitude": -109.51099966768491}, "107910176RR0002": {"name": "SACRED HEART PARISH", "designationCode": "C", "categoryCode": "38", "address": "PO BOX 1363", "city": "ST. JOHN'S", "province": "NL", "country": "CA", "postalCode": "A1C5N5", "twitter": "None", "instagram": "None", "facebook": "None", "youtube": "None", "website": "None", "summary": "None", "logo": "None", "latitude": 47.56082100000006, "longitude": -52.71219349999993}, "107910176RR0013": {"name": "SACRED HEART PARISH", "designationCode": "C", "categoryCode": "38", "address": "PO BOX 1363 STN C", "city": "ST. JOHN", "province": "NL", "country": "CA", "postalCode": "A1C5N5", "twitter": "None", "instagram": "None", "facebook": "None", "youtube": "None", "website": "None", "summary": "None", "logo": "None", "latitude": 47.56082100000006, "longitude": -52.71219349999993}, "107910176RR0024": {"name": "SACRED HEART PARISH", "designationCode": "C", "categoryCode": "38", "address": "PO BOX 1363", "city": "ST JOHN'S", "province": "NL", "country": "CA", "postalCode": "A1C5N5", "twitter": "None", "instagram": "None", "facebook": "None", "youtube": "None", "website": "None", "summary": "None", "logo": "None", "latitude": 47.56082100000006, "longitude": -52.71219349999993}, "107910192RR0011": {"name": "SACRED HEART PARISH", "designationCode": "C", "categoryCode": "38", "address": "P.O. BOX 40", "city": "CONCHE", "province": "NL", "country": "CA", "postalCode": "A0K1Y0", "twitter": "None", "instagram": "None", "facebook": "None", "youtube": "None", "website": "None", "summary": "None", "logo": "None", "latitude": 50.883380000000045, "longitude": -55.898079999999936}, "107910192RR0016": {"name": "SACRED HEART PARISH", "designationCode": "C", "categoryCode": "38", "address": "465 CURLING ST", "city": "CORNER BROOK", "province": "NL", "country": "CA", "postalCode": "A2H3K8", "twitter": "None", "instagram": "None", "facebook": "None", "youtube": "None", "website": "None", "summary": "None", "logo": "None", "latitude": 48.96083653448029, "longitude": -58.00791192881868}, "107947947RR0001": {"name": "SACRED HEART PARISH", "designationCode": "C", "categoryCode": "38", "address": "BOX 1060", "city": "DAVIDSON", "province": "SK", "country": "CA", "postalCode": "S0G1A0", "twitter": "None", "instagram": "None", "facebook": "None", "youtube": "None", "website": "None", "summary": "None", "logo": "None", "latitude": 51.26742000000007, "longitude": -105.99597999999997}, "107947954RR0001": {"name": "SACRED HEART PARISH", "designationCode": "C", "categoryCode": "38", "address": "PO BOX 270", "city": "MONTMARTRE", "province": "SK", "country": "CA", "postalCode": "S0G3M0", "twitter": "None", "instagram": "None", "facebook": "None", "youtube": "None", "website": "None", "summary": "None", "logo": "None", "latitude": 50.23335000000003, "longitude": -103.45104999999995}, "108094392RR0015": {"name": "SACRED HEART PARISH", "designationCode": "C", "categoryCode": "38", "address": "BOX 289", "city": "GOLDEN", "province": "BC", "country": "CA", "postalCode": "V0A1H0", "twitter": "None", "instagram": "None", "facebook": "None", "youtube": "None", "website": "None", "summary": "None", "logo": "None", "latitude": 51.30019925579286, "longitude": -117.05412925860504}, "108094392RR0016": {"name": "SACRED HEART PARISH", "designationCode": "C", "categoryCode": "38", "address": "BOX 459", "city": "GRAND FORKS", "province": "BC", "country": "CA", "postalCode": "V0H1H0", "twitter": "None", "instagram": "None", "facebook": "None", "youtube": "None", "website": "None", "summary": "None", "logo": "None", "latitude": 49.032020000000045, "longitude": -118.43659999999994}, "108094392RR0017": {"name": "SACRED HEART PARISH", "designationCode": "C", "categoryCode": "38", "address": "PO BOX 459", "city": "GRAND FORKS", "province": "BC", "country": "CA", "postalCode": "V0H1H0", "twitter": "None", "instagram": "None", "facebook": "None", "youtube": "None", "website": "None", "summary": "None", "logo": "None", "latitude": 49.03245000000004, "longitude": -118.44297999999998}, "108094392RR0024": {"name": "SACRED HEART PARISH", "designationCode": "C", "categoryCode": "38", "address": "502 CHURCH ST.", "city": "KIMBERLEY", "province": "BC", "country": "CA", "postalCode": "V1A2L3", "twitter": "None", "instagram": "None", "facebook": "None", "youtube": "None", "website": "None", "summary": "None", "logo": "None", "latitude": 49.68344474825446, "longitude": -115.9787788222917}, "108094392RR0032": {"name": "SACRED HEART PARISH", "designationCode": "C", "categoryCode": "38", "address": "BOX 909", "city": "ROSSLAND", "province": "BC", "country": "CA", "postalCode": "V0G1Y0", "twitter": "None", "instagram": "None", "facebook": "None", "youtube": "None", "website": "None", "summary": "None", "logo": "None", "latitude": 49.07693000000006, "longitude": -117.79933999999997}, "118841055RR0010": {"name": "SACRED HEART PARISH", "designationCode": "C", "categoryCode": "38", "address": "406 STEELE ST.", "city": "WHITEHORSE", "province": "YT", "country": "CA", "postalCode": "Y1A2C8", "twitter": "None", "instagram": "None", "facebook": "None", "youtube": "None", "website": "None", "summary": "None", "logo": "None", "latitude": 60.71978910916279, "longitude": -135.05711122243767}, "118849470RR0050": {"name": "SACRED HEART PARISH", "designationCode": "C", "categoryCode": "38", "address": "525 CAMPBELL AVE", "city": "VANCOUVER", "province": "BC", "country": "CA", "postalCode": "V6A3K5", "twitter": "None", "instagram": "None", "facebook": "None", "youtube": "None", "website": "None", "summary": "None", "logo": "None", "latitude": 49.279825623925205, "longitude": -123.08485288123934}, "118849470RR0078": {"name": "SACRED HEART PARISH", "designationCode": "C", "categoryCode": "38", "address": "3900 ARTHUR DR                PO BOX 10", "city": "DELTA", "province": "BC", "country": "CA", "postalCode": "V4K3N5", "twitter": "None", "instagram": "None", "facebook": "None", "youtube": "None", "website": "None", "summary": "None", "logo": "None", "latitude": 49.07484653733623, "longitude": -123.0790586010453}, "119109817RR0099": {"name": "SACRED HEART PARISH", "designationCode": "C", "categoryCode": "38", "address": "P.O. BOX 8", "city": "LANGTON", "province": "ON", "country": "CA", "postalCode": "N0E1G0", "twitter": "None", "instagram": "None", "facebook": "None", "youtube": "None", "website": "None", "summary": "None", "logo": "None", "latitude": 42.74150000000003, "longitude": -80.57731999999999}, "119109817RR0123": {"name": "SACRED HEART PARISH", "designationCode": "C", "categoryCode": "38", "address": "P.O. BOX 11", "city": "DELAWARE", "province": "ON", "country": "CA", "postalCode": "N0L1E0", "twitter": "None", "instagram": "None", "facebook": "None", "youtube": "None", "website": "None", "summary": "None", "logo": "None", "latitude": 42.798673886909775, "longitude": -81.48267947172744}}