{"107702334RR0001": {"name": "MILLAR COLLEGE OF THE BIBLE", "designationCode": "C", "categoryCode": "20", "address": "BOX 25", "city": "PAMBRUN", "province": "SK", "country": "CA", "postalCode": "S0N1W0", "twitter": "None", "instagram": "None", "facebook": "None", "youtube": "None", "website": "None", "summary": "None", "logo": "None", "latitude": 49.93772000000007, "longitude": -107.45986999999997}, "107702342RR0001": {"name": "MILLARVILLE COMMUNITY CHURCH", "designationCode": "C", "categoryCode": "39", "address": "BOX 32", "city": "MILLARVILLE", "province": "AB", "country": "CA", "postalCode": "T0L1K0", "twitter": "None", "instagram": "None", "facebook": "None", "youtube": "None", "website": "None", "summary": "None", "logo": "None", "latitude": 50.75641123619168, "longitude": -114.32131746209967}, "133512665RR0001": {"name": "MILLARVILLE COMMUNITY LIBRARY ASSOCIATION", "designationCode": "C", "categoryCode": "50", "address": "BOX-59", "city": "MILLARVILLE", "province": "AB", "country": "CA", "postalCode": "T0L1K0", "twitter": "None", "instagram": "None", "facebook": "None", "youtube": "None", "website": "None", "summary": "None", "logo": "None", "latitude": 50.75641123619168, "longitude": -114.32131746209967}, "120435177RR0001": {"name": "MILLARVILLE EARLY LEARNING SOCIETY", "designationCode": "C", "categoryCode": "20", "address": "BOX 30", "city": "MILLARVILLE", "province": "AB", "country": "CA", "postalCode": "T0L1K0", "twitter": "None", "instagram": "None", "facebook": "None", "youtube": "None", "website": "None", "summary": "None", "logo": "None", "latitude": 50.75641123619168, "longitude": -114.32131746209967}, "119040913RR0001": {"name": "MILLBANK-HAMPSTEAD PASTORAL CHARGE", "designationCode": "C", "categoryCode": "44", "address": "2208 47 LINE, RR#1", "city": "GADSHILL", "province": "ON", "country": "CA", "postalCode": "N0K1J0", "twitter": "None", "instagram": "None", "facebook": "None", "youtube": "None", "website": "None", "summary": "None", "logo": "None", "latitude": 43.46200673342719, "longitude": -80.84020406580068}, "119040939RR0001": {"name": "MILLBOURNE ALLIANCE CHURCH", "designationCode": "C", "categoryCode": "39", "address": "2101 MILLBOURNE ROAD WEST NW", "city": "EDMONTON", "province": "AB", "country": "CA", "postalCode": "T6K0Y3", "twitter": "None", "instagram": "None", "facebook": "None", "youtube": "None", "website": "None", "summary": "None", "logo": "None", "latitude": 53.48107332524698, "longitude": -113.454918526671}, "892760802RR0001": {"name": "MILLBROOK & CAVAN HISTORICAL SOCIETY", "designationCode": "C", "categoryCode": "50", "address": "P.O. BOX 334", "city": "MILLBROOK", "province": "ON", "country": "CA", "postalCode": "L0A1G0", "twitter": "None", "instagram": "None", "facebook": "None", "youtube": "None", "website": "None", "summary": "None", "logo": "None", "latitude": 44.12605200000006, "longitude": -78.43440499999993}, "869686071RR0001": {"name": "MILLBROOK AND DISTRICT FOOD SHARE", "designationCode": "C", "categoryCode": "09", "address": "1 DUFFERIN ST.", "city": "MILLBROOK", "province": "ON", "country": "CA", "postalCode": "L0A1G0", "twitter": "None", "instagram": "None", "facebook": "None", "youtube": "None", "website": "None", "summary": "None", "logo": "None", "latitude": 44.15023890365884, "longitude": -78.44500511474995}, "876618224RR0001": {"name": "MILLBROOK CHRISTIAN ASSEMBLY", "designationCode": "C", "categoryCode": "36", "address": "71 KING STREET WEST", "city": "MILLBROOK", "province": "ON", "country": "CA", "postalCode": "L0A1G0", "twitter": "None", "instagram": "None", "facebook": "None", "youtube": "None", "website": "None", "summary": "None", "logo": "None", "latitude": 44.148100415984715, "longitude": -78.45955204045839}, "134370378RR0001": {"name": "MILLCREEK CHRISTIAN FELLOWSHIP CHURCH", "designationCode": "C", "categoryCode": "39", "address": "8114 75 ST NW", "city": "EDMONTON", "province": "AB", "country": "CA", "postalCode": "T6C2G8", "twitter": "None", "instagram": "None", "facebook": "None", "youtube": "None", "website": "None", "summary": "None", "logo": "None", "latitude": 53.517582000000004, "longitude": -113.443368739829}, "837340561RR0002": {"name": "MILLCREST ACADEMY FOUNDATION", "designationCode": "C", "categoryCode": "21", "address": "1 ST. CATHERINE STREET", "city": "GRAND FALLS-WINDSOR", "province": "NL", "country": "CA", "postalCode": "A2A1V7", "twitter": "None", "instagram": "None", "facebook": "None", "youtube": "None", "website": "None", "summary": "None", "logo": "None", "latitude": 48.937163087586676, "longitude": -55.655741209367264}, "119041002RR0001": {"name": "MILLE ISLES PRESBYTERIAN CHURCH", "designationCode": "C", "categoryCode": "37", "address": "1247 CH MILLE ISLES", "city": "MILLE ISLES", "province": "QC", "country": "CA", "postalCode": "J0R1A0", "twitter": "None", "instagram": "None", "facebook": "None", "youtube": "None", "website": "None", "summary": "None", "logo": "None", "latitude": 45.815444034162226, "longitude": -74.21899488591389}, "863281457RR0001": {"name": "MILLENIUM SCHOLARSHIP FUND", "designationCode": "C", "categoryCode": "21", "address": "170 MAIN STREET E", "city": "KINGSVILLE", "province": "ON", "country": "CA", "postalCode": "N9Y1A5", "twitter": "None", "instagram": "None", "facebook": "None", "youtube": "None", "website": "None", "summary": "None", "logo": "None", "latitude": 42.03851029980549, "longitude": -82.73155103752752}, "837169473RR0001": {"name": "MILLENNIUM CHORAL ORGANIZATION", "designationCode": "C", "categoryCode": "22", "address": "10 - 525 HIGHLAND RD W", "city": "KITCHENER", "province": "ON", "country": "CA", "postalCode": "N2M5P4", "twitter": "None", "instagram": "None", "facebook": "None", "youtube": "None", "website": "None", "summary": "None", "logo": "None", "latitude": 43.43533340931432, "longitude": -80.51576421640084}, "855664439RR0001": {"name": "MILLENNIUM RELIEF AND DEVELOPMENT SERVICES (CANADA)", "designationCode": "C", "categoryCode": "09", "address": "PO BOX 902", "city": "FORT LANGLEY", "province": "BC", "country": "CA", "postalCode": "V1M2S3", "twitter": "None", "instagram": "None", "facebook": "None", "youtube": "None", "website": "None", "summary": "None", "logo": "None", "latitude": 49.16854007718262, "longitude": -122.57416995556595}, "898915921RR0001": {"name": "MILLENNIUM SUPPORT & CARE GROUP", "designationCode": "C", "categoryCode": "09", "address": "303-7 HAYDEN ST", "city": "TORONTO", "province": "ON", "country": "CA", "postalCode": "M4Y2P2", "twitter": "None", "instagram": "None", "facebook": "None", "youtube": "None", "website": "None", "summary": "None", "logo": "None", "latitude": 43.66940483873857, "longitude": -79.38613594670785}, "134370246RR0001": {"name": "MILLER LAKE CAMP INCORPORATED", "designationCode": "C", "categoryCode": "56", "address": "35 FALL HARVEST DR W", "city": "KITCHENER", "province": "ON", "country": "CA", "postalCode": "N2P2M2", "twitter": "None", "instagram": "None", "facebook": "None", "youtube": "None", "website": "None", "summary": "None", "logo": "None", "latitude": 43.40464458811821, "longitude": -80.41000652250547}, "892500364RR0001": {"name": "MILLER MEMORIAL FOUNDATION", "designationCode": "B", "categoryCode": "05", "address": "130 KING STREET WEST, 20TH FLOBOX 430 STN FIRST CANADIAN PL", "city": "TORONTO", "province": "ON", "country": "CA", "postalCode": "M5X1K1", "twitter": "None", "instagram": "None", "facebook": "None", "youtube": "None", "website": "None", "summary": "None", "logo": "None", "latitude": 43.64868300000006, "longitude": -79.38544399999994}, "891180747RR0001": {"name": "MILLER THOMSON FOUNDATION", "designationCode": "B", "categoryCode": "23", "address": "40 KING STREET W. SUITE 5800  P.O.BOX 1011", "city": "TORONTO", "province": "ON", "country": "CA", "postalCode": "M5H3S1", "twitter": "None", "instagram": "None", "facebook": "None", "youtube": "None", "website": "None", "summary": "None", "logo": "None", "latitude": 43.649634071037106, "longitude": -79.37885526054544}, "118887702RR0001": {"name": "MILLERTON PASTORAL CHARGE", "designationCode": "C", "categoryCode": "44", "address": "4414 ROUTE 108", "city": "BRYENTON", "province": "NB", "country": "CA", "postalCode": "E1V5C8", "twitter": "None", "instagram": "None", "facebook": "None", "youtube": "None", "website": "None", "summary": "None", "logo": "None", "latitude": 46.87093296915471, "longitude": -65.68144727038484}, "130284755RR0001": {"name": "MILLET AND DISTRICT RECREATIONAL AND AGRICULTURAL SOCIETY", "designationCode": "C", "categoryCode": "56", "address": "BOX 714", "city": "MILLET", "province": "AB", "country": "CA", "postalCode": "T0C1Z0", "twitter": "None", "instagram": "None", "facebook": "None", "youtube": "None", "website": "None", "summary": "None", "logo": "None", "latitude": 53.09068000000008, "longitude": -113.46958999999998}, "132429234RR0001": {"name": "MILLET EVANGELICAL FREE CHURCH", "designationCode": "C", "categoryCode": "39", "address": "BOX 339", "city": "MILLET", "province": "AB", "country": "CA", "postalCode": "T0C1Z0", "twitter": "None", "instagram": "None", "facebook": "None", "youtube": "None", "website": "None", "summary": "None", "logo": "None", "latitude": 53.09068000000008, "longitude": -113.46958999999998}, "889888665RR0001": {"name": "MILLFORD CEMETARY, INC", "designationCode": "C", "categoryCode": "59", "address": "BOX 125", "city": "WAWANESA", "province": "MB", "country": "CA", "postalCode": "R0K2G0", "twitter": "None", "instagram": "None", "facebook": "None", "youtube": "None", "website": "None", "summary": "None", "logo": "None", "latitude": 49.59522000000004, "longitude": -99.68362999999994}, "119041044RR0001": {"name": "MILLGROVE UNITED CHURCH", "designationCode": "C", "categoryCode": "44", "address": "PO BOX 261", "city": "MILLGROVE", "province": "ON", "country": "CA", "postalCode": "L0R1V0", "twitter": "None", "instagram": "None", "facebook": "None", "youtube": "None", "website": "None", "summary": "None", "logo": "None", "latitude": 43.340847391152266, "longitude": -79.95963354867318}, "107702722RR0001": {"name": "MILLICAN-OGDEN COMMUNITY ASSOCIATION", "designationCode": "C", "categoryCode": "56", "address": "6901 - 20A ST SE", "city": "CALGARY", "province": "AB", "country": "CA", "postalCode": "T2C0R5", "twitter": "None", "instagram": "None", "facebook": "None", "youtube": "None", "website": "None", "summary": "None", "logo": "None", "latitude": 50.991839999999996, "longitude": -114.01024565918395}, "135244390RR0001": {"name": "MILLIKEN GOSPEL CHURCH", "designationCode": "C", "categoryCode": "39", "address": "8 ELSON STREET", "city": "MARKHAM", "province": "ON", "country": "CA", "postalCode": "L3S2C4", "twitter": "None", "instagram": "None", "facebook": "None", "youtube": "None", "website": "None", "summary": "None", "logo": "None", "latitude": 43.83533622069907, "longitude": -79.27563759091682}, "119041085RR0001": {"name": "MILLIKEN WESLEYAN METHODIST CHURCH", "designationCode": "C", "categoryCode": "39", "address": "3 CLAYTON DRIVE", "city": "MARKHAM", "province": "ON", "country": "CA", "postalCode": "L3R8N3", "twitter": "None", "instagram": "None", "facebook": "None", "youtube": "None", "website": "None", "summary": "None", "logo": "None", "latitude": 43.8277632823011, "longitude": -79.30849825408282}, "892801978RR0001": {"name": "MILLION DOLLAR ROUND TABLE CANADIAN CHARITABLE FOUNDATION", "designationCode": "A", "categoryCode": "03", "address": "209-390 QUEENS QUAY W", "city": "TORONTO", "province": "ON", "country": "CA", "postalCode": "M5V3A2", "twitter": "None", "instagram": "None", "facebook": "None", "youtube": "None", "website": "None", "summary": "None", "logo": "None", "latitude": 43.63801715404808, "longitude": -79.39058818526743}, "128791696RR0001": {"name": "MILLS COMMUNITY SUPPORT CORPORATION", "designationCode": "C", "categoryCode": "09", "address": "67 INDUSTRIAL DR", "city": "ALMONTE", "province": "ON", "country": "CA", "postalCode": "K0A1A0", "twitter": "None", "instagram": "None", "facebook": "None", "youtube": "None", "website": "None", "summary": "None", "logo": "None", "latitude": 45.2324336465875, "longitude": -76.18108083350381}, "130499908RR0001": {"name": "MILLSTREAM PASTORAL CHARGE", "designationCode": "C", "categoryCode": "44", "address": "410 PEARSONVILLE ROAD", "city": "PEARSONVILLE", "province": "NB", "country": "CA", "postalCode": "E5P1S3", "twitter": "None", "instagram": "None", "facebook": "None", "youtube": "None", "website": "None", "summary": "None", "logo": "None", "latitude": 45.804730625339474, "longitude": -65.70191834502698}, "119041119RR0001": {"name": "MILLTOWN BAPTIST CHURCH", "designationCode": "C", "categoryCode": "31", "address": "PO BOX 223", "city": "ST. STEPHEN", "province": "NB", "country": "CA", "postalCode": "E3L2X1", "twitter": "None", "instagram": "None", "facebook": "None", "youtube": "None", "website": "None", "summary": "None", "logo": "None", "latitude": 45.19456800000006, "longitude": -67.27532299999993}, "891424848RR0001": {"name": "MILLTOWN CHARITABLE TRUST", "designationCode": "B", "categoryCode": "39", "address": "780 SASKATCHEWAN AVE W", "city": "PORTAGE LA PRAIRIE", "province": "MB", "country": "CA", "postalCode": "R1N0M7", "twitter": "None", "instagram": "None", "facebook": "None", "youtube": "None", "website": "None", "summary": "None", "logo": "None", "latitude": 49.97373494820344, "longitude": -98.30132080652011}, "135608859RR0001": {"name": "MILLTOWN UNITED CHURCH PASTORAL CHARGE", "designationCode": "C", "categoryCode": "44", "address": "452 MILLTOWN BLVD", "city": "ST. STEPHEN", "province": "NB", "country": "CA", "postalCode": "E3L1K1", "twitter": "None", "instagram": "None", "facebook": "None", "youtube": "None", "website": "None", "summary": "None", "logo": "None", "latitude": 45.173117902302494, "longitude": -67.29676569995395}, "119041127RR0001": {"name": "MILLVALE UNITED BAPTIST CEMETARY", "designationCode": "C", "categoryCode": "59", "address": "PO BOX 82, 146 RUSSEL ST", "city": "PUGWASH", "province": "NS", "country": "CA", "postalCode": "B0K1L0", "twitter": "None", "instagram": "None", "facebook": "None", "youtube": "None", "website": "None", "summary": "None", "logo": "None", "latitude": 45.85313390787108, "longitude": -63.66175830786592}, "119041135RR0001": {"name": "MILLVALE UNITED BAPTIST CHURCH", "designationCode": "C", "categoryCode": "31", "address": "808 THOMSON RD.               RR #1", "city": "COLLINGWOOD", "province": "NS", "country": "CA", "postalCode": "B0M1E0", "twitter": "None", "instagram": "None", "facebook": "None", "youtube": "None", "website": "None", "summary": "None", "logo": "None", "latitude": 45.621982834295174, "longitude": -63.818203314011406}, "890175144RR0001": {"name": "MILLVALE UNITED CEMETERY COMPANY", "designationCode": "C", "categoryCode": "59", "address": "728 THOMSON ROAD", "city": "COLLINGWOOD", "province": "NS", "country": "CA", "postalCode": "B0M1E0", "twitter": "None", "instagram": "None", "facebook": "None", "youtube": "None", "website": "None", "summary": "None", "logo": "None", "latitude": 45.618480000000005, "longitude": -63.81858420604213}, "119041150RR0001": {"name": "MILLVILLE BAPTIST CHURCH", "designationCode": "C", "categoryCode": "31", "address": "1469 ROUTE 605", "city": "MILLVILLE", "province": "NB", "country": "CA", "postalCode": "E6E2J9", "twitter": "None", "instagram": "None", "facebook": "None", "youtube": "None", "website": "None", "summary": "None", "logo": "None", "latitude": 46.12574704946578, "longitude": -67.19405356874091}, "889443719RR0001": {"name": "MILLVILLE CEMETERY ASSOCIATION", "designationCode": "C", "categoryCode": "59", "address": "3890 ROUTE 104", "city": "MILLVILLE", "province": "NB", "country": "CA", "postalCode": "E6E1S7", "twitter": "None", "instagram": "None", "facebook": "None", "youtube": "None", "website": "None", "summary": "None", "logo": "None", "latitude": 46.12900618891598, "longitude": -67.1939041465842}, "119288918RR0459": {"name": "MILLVILLE NB CONGREGATION OF JEHOVAH'S WITNESSES", "designationCode": "C", "categoryCode": "61", "address": "2965 ROUTE 105", "city": "BEAR ISLAND", "province": "NB", "country": "CA", "postalCode": "E6L1H3", "twitter": "None", "instagram": "None", "facebook": "None", "youtube": "None", "website": "None", "summary": "None", "logo": "None", "latitude": 45.91080126490899, "longitude": -67.01132007348738}, "130004625RR0001": {"name": "MILLWOODS CHRISTIAN SCHOOL SOCIETY", "designationCode": "C", "categoryCode": "20", "address": "8704 MILLWOODS RD NW", "city": "EDMONTON", "province": "AB", "country": "CA", "postalCode": "T6K3J3", "twitter": "None", "instagram": "None", "facebook": "None", "youtube": "None", "website": "None", "summary": "None", "logo": "None", "latitude": 53.47418353159381, "longitude": -113.4631935}, "107703076RR0001": {"name": "MILLWOODS CULTURAL SOCIETY OF RETIRED AND SEMI RETIRED", "designationCode": "C", "categoryCode": "56", "address": "1560 - 48TH STREET NW", "city": "EDMONTON", "province": "AB", "country": "CA", "postalCode": "T6L6H9", "twitter": "None", "instagram": "None", "facebook": "None", "youtube": "None", "website": "None", "summary": "None", "logo": "None", "latitude": 53.44480745490218, "longitude": -113.41346124150243}, "119041176RR0001": {"name": "MILLWOODS EVANGELICAL FREE CHURCH", "designationCode": "C", "categoryCode": "39", "address": "1559 - 80 STREET NORTH WEST", "city": "EDMONTON", "province": "AB", "country": "CA", "postalCode": "T6K4A8", "twitter": "None", "instagram": "None", "facebook": "None", "youtube": "None", "website": "None", "summary": "None", "logo": "None", "latitude": 53.44571400000005, "longitude": -113.45310349999994}, "893659920RR0001": {"name": "MILLWOODS PENTECOSTAL ASSEMBLY", "designationCode": "C", "categoryCode": "36", "address": "2225 66TH STREET", "city": "EDMONTON", "province": "AB", "country": "CA", "postalCode": "T6K4E6", "twitter": "None", "instagram": "None", "facebook": "None", "youtube": "None", "website": "None", "summary": "None", "logo": "None", "latitude": 53.45239753871017, "longitude": -113.43464095929289}, "119041226RR0001": {"name": "MILLWOODS PRESBYTERIAN CHURCH", "designationCode": "C", "categoryCode": "37", "address": "6607 31 AVE N.W.", "city": "EDMONTON", "province": "AB", "country": "CA", "postalCode": "T6K4B3", "twitter": "None", "instagram": "None", "facebook": "None", "youtube": "None", "website": "None", "summary": "None", "logo": "None", "latitude": 53.46201059723614, "longitude": -113.43535026712456}, "887621597RR0001": {"name": "MILNER COMMUNITY ASSOCIATION", "designationCode": "C", "categoryCode": "56", "address": "BOX 177", "city": "MILNER", "province": "BC", "country": "CA", "postalCode": "V0X1T0", "twitter": "None", "instagram": "None", "facebook": "None", "youtube": "None", "website": "None", "summary": "None", "logo": "None", "latitude": 49.127680000000055, "longitude": -122.62306999999998}, "886753615RR0001": {"name": "MILNER GARDENS AND WOODLAND SOCIETY", "designationCode": "C", "categoryCode": "52", "address": "2179 WEST ISLAND HWY", "city": "QUALICUM BEACH", "province": "BC", "country": "CA", "postalCode": "V9K1G1", "twitter": "None", "instagram": "None", "facebook": "None", "youtube": "None", "website": "None", "summary": "None", "logo": "None", "latitude": 49.353295224256605, "longitude": -124.41402014813298}, "119041259RR0001": {"name": "MILO AND DISTRICT AGRICULTURAL SOCIETY", "designationCode": "C", "categoryCode": "56", "address": "BOX 156", "city": "MILO", "province": "AB", "country": "CA", "postalCode": "T0L1L0", "twitter": "None", "instagram": "None", "facebook": "None", "youtube": "None", "website": "None", "summary": "None", "logo": "None", "latitude": 50.56902000000001, "longitude": -112.88643074999999}, "879622363RR0001": {"name": "MILPLEX A CARE GROUP INTERNATIONAL FUND", "designationCode": "C", "categoryCode": "23", "address": "70 MAYBROOK DR", "city": "SCARBOROUGH", "province": "ON", "country": "CA", "postalCode": "M1V4B6", "twitter": "None", "instagram": "None", "facebook": "None", "youtube": "None", "website": "None", "summary": "None", "logo": "None", "latitude": 43.825192785446426, "longitude": -79.26122491609405}, "841379571RR0001": {"name": "MILROY FAMILY FOUNDATION", "designationCode": "B", "categoryCode": "03", "address": "73 LYNWOOD AVENUE", "city": "TORONTO", "province": "ON", "country": "CA", "postalCode": "M4V1K5", "twitter": "None", "instagram": "None", "facebook": "None", "youtube": "None", "website": "None", "summary": "None", "logo": "None", "latitude": 43.68486184205681, "longitude": -79.40474423812688}, "879820603RR0001": {"name": "MILTON AREA CHRISTIAN CHURCHES WORKING TOGETHER", "designationCode": "C", "categoryCode": "49", "address": "420 MAIN STREET EAST          SUITE 482", "city": "MILTON", "province": "ON", "country": "CA", "postalCode": "L9T5G3", "twitter": "None", "instagram": "None", "facebook": "None", "youtube": "None", "website": "None", "summary": "None", "logo": "None", "latitude": 43.51784021896831, "longitude": -79.87805026377768}, "107703639RR0001": {"name": "MILTON BAPTIST CHURCH", "designationCode": "C", "categoryCode": "31", "address": "BOX 100", "city": "MILTON", "province": "NS", "country": "CA", "postalCode": "B0T1P0", "twitter": "None", "instagram": "None", "facebook": "None", "youtube": "None", "website": "None", "summary": "None", "logo": "None", "latitude": 44.04603947901783, "longitude": -64.72496115525942}, "845492115RR0001": {"name": "MILTON BAPTIST CHURCH", "designationCode": "C", "categoryCode": "31", "address": "900 NIPISSING RD", "city": "MILTON", "province": "ON", "country": "CA", "postalCode": "L9T4Z9", "twitter": "None", "instagram": "None", "facebook": "None", "youtube": "None", "website": "None", "summary": "None", "logo": "None", "latitude": 43.524109667753635, "longitude": -79.86268612681074}, "118898659RR0001": {"name": "MILTON BIBLE BAPTIST CHURCH", "designationCode": "C", "categoryCode": "31", "address": "121 CHISHOLM DR", "city": "MILTON", "province": "ON", "country": "CA", "postalCode": "L9T4A6", "twitter": "None", "instagram": "None", "facebook": "None", "youtube": "None", "website": "None", "summary": "None", "logo": "None", "latitude": 43.524707170205545, "longitude": -79.90533692780907}, "888295599RR0001": {"name": "MILTON CEMETERY COMPANY", "designationCode": "B", "categoryCode": "59", "address": "PO BOX 98", "city": "MILTON", "province": "NS", "country": "CA", "postalCode": "B0T1P0", "twitter": "None", "instagram": "None", "facebook": "None", "youtube": "None", "website": "None", "summary": "None", "logo": "None", "latitude": 44.04603947901783, "longitude": -64.72496115525942}, "119041317RR0001": {"name": "MILTON CHORISTERS", "designationCode": "C", "categoryCode": "22", "address": "PO BOX 405", "city": "MILTON", "province": "ON", "country": "CA", "postalCode": "L9T4Y9", "twitter": "None", "instagram": "None", "facebook": "None", "youtube": "None", "website": "None", "summary": "None", "logo": "None", "latitude": 43.51104600000005, "longitude": -79.88386399999993}, "118859966RR0001": {"name": "MILTON CHRISTIAN CHURCH (DISCIPLES OF CHRIST)", "designationCode": "C", "categoryCode": "39", "address": "PO BOX 90", "city": "MILTON", "province": "NS", "country": "CA", "postalCode": "B0T1P0", "twitter": "None", "instagram": "None", "facebook": "None", "youtube": "None", "website": "None", "summary": "None", "logo": "None", "latitude": 44.04603947901783, "longitude": -64.72496115525942}, "856381546RR0001": {"name": "MILTON CHRISTIAN EDUCATION ASSOCIATION", "designationCode": "C", "categoryCode": "20", "address": "45 BRUCE ST", "city": "MILTON", "province": "ON", "country": "CA", "postalCode": "L9T1L2", "twitter": "None", "instagram": "None", "facebook": "None", "youtube": "None", "website": "None", "summary": "None", "logo": "None", "latitude": 43.51627252995976, "longitude": -79.87655647422943}, "119041325RR0001": {"name": "MILTON COMMUNITY RESOURCE CENTRE", "designationCode": "C", "categoryCode": "59", "address": "410 BRONTE ST. S.", "city": "MILTON", "province": "ON", "country": "CA", "postalCode": "L9T0H8", "twitter": "None", "instagram": "None", "facebook": "None", "youtube": "None", "website": "None", "summary": "None", "logo": "None", "latitude": 43.50036662140886, "longitude": -79.8772084647925}, "868187196RR0001": {"name": "MILTON CONCERT PRESENTATIONS", "designationCode": "C", "categoryCode": "22", "address": "P.O. BOX 483", "city": "MILTON", "province": "ON", "country": "CA", "postalCode": "L9T4Z1", "twitter": "None", "instagram": "None", "facebook": "None", "youtube": "None", "website": "None", "summary": "None", "logo": "None", "latitude": 43.51104600000005, "longitude": -79.88386399999993}, "834456428RR0001": {"name": "MILTON GOSPEL HALL", "designationCode": "C", "categoryCode": "39", "address": "80 ROBARTS DRIVE", "city": "MILTON", "province": "ON", "country": "CA", "postalCode": "L9T5P3", "twitter": "None", "instagram": "None", "facebook": "None", "youtube": "None", "website": "None", "summary": "None", "logo": "None", "latitude": 43.532641090743944, "longitude": -79.8681776265796}, "119041358RR0001": {"name": "MILTON HISTORICAL SOCIETY", "designationCode": "C", "categoryCode": "50", "address": "16 JAMES ST", "city": "MILTON", "province": "ON", "country": "CA", "postalCode": "L9T2P4", "twitter": "None", "instagram": "None", "facebook": "None", "youtube": "None", "website": "None", "summary": "None", "logo": "None", "latitude": 43.51175855508117, "longitude": -79.88556784805806}, "893988469RR0001": {"name": "MILTON MEALS ON WHEELS", "designationCode": "C", "categoryCode": "09", "address": "185 ONTARIO STREET SOUTH", "city": "MILTON", "province": "ON", "country": "CA", "postalCode": "L9T2M4", "twitter": "None", "instagram": "None", "facebook": "None", "youtube": "None", "website": "None", "summary": "None", "logo": "None", "latitude": 43.514881387108616, "longitude": -79.87271544038141}, "140643008RR0001": {"name": "MILTON PLAYERS THEATRE GROUP", "designationCode": "C", "categoryCode": "22", "address": "P.O. BOX 325,", "city": "MILTON", "province": "ON", "country": "CA", "postalCode": "L9T4Y9", "twitter": "None", "instagram": "None", "facebook": "None", "youtube": "None", "website": "None", "summary": "None", "logo": "None", "latitude": 43.51104600000005, "longitude": -79.88386399999993}, "108128257RR0001": {"name": "MILTON PUBLIC LIBRARY BOARD", "designationCode": "C", "categoryCode": "50", "address": "150 MARY STREET", "city": "MILTON", "province": "ON", "country": "CA", "postalCode": "L9T6Z5", "twitter": "None", "instagram": "None", "facebook": "None", "youtube": "None", "website": "None", "summary": "None", "logo": "None", "latitude": 43.51109276509726, "longitude": -79.88370865295609}, "119041374RR0002": {"name": "MILTON-RUSTICO PARISH", "designationCode": "C", "categoryCode": "30", "address": "PO BOX 215", "city": "WINSLOE", "province": "PE", "country": "CA", "postalCode": "C1E1Z2", "twitter": "None", "instagram": "None", "facebook": "None", "youtube": "None", "website": "None", "summary": "None", "logo": "None", "latitude": 46.36059431764367, "longitude": -63.20273892607865}, "141049908RR0001": {"name": "MILTOW CHARITABLE TRUST", "designationCode": "B", "categoryCode": "39", "address": "3425 2 AVE S", "city": "LETHBRIDGE", "province": "AB", "country": "CA", "postalCode": "T1J4V1", "twitter": "None", "instagram": "None", "facebook": "None", "youtube": "None", "website": "None", "summary": "None", "logo": "None", "latitude": 49.696839530439966, "longitude": -112.78914308381903}, "891566044RR0001": {"name": "MILVERTON AGRICULTURAL SOCIETY", "designationCode": "C", "categoryCode": "56", "address": "BOX 489", "city": "MILVERTON", "province": "ON", "country": "CA", "postalCode": "N0K1M0", "twitter": "None", "instagram": "None", "facebook": "None", "youtube": "None", "website": "None", "summary": "None", "logo": "None", "latitude": 43.567990000000066, "longitude": -80.92049999999995}, "107703662RR0001": {"name": "MILVERTON MENNONITE FELLOWSHIP", "designationCode": "C", "categoryCode": "34", "address": "P.O. BOX 323", "city": "MILVERTON", "province": "ON", "country": "CA", "postalCode": "N0K1M0", "twitter": "None", "instagram": "None", "facebook": "None", "youtube": "None", "website": "None", "summary": "None", "logo": "None", "latitude": 43.567990000000066, "longitude": -80.92049999999995}, "890703663RR0001": {"name": "MIMICO BAPTIST CHURCH", "designationCode": "C", "categoryCode": "31", "address": "80 HILLSIDE AVE", "city": "ETOBICOKE", "province": "ON", "country": "CA", "postalCode": "M8V1S9", "twitter": "None", "instagram": "None", "facebook": "None", "youtube": "None", "website": "None", "summary": "None", "logo": "None", "latitude": 43.61052916183836, "longitude": -79.49434649169011}, "119288918RR0233": {"name": "MIMICO CONGREGATION OF JEHOVAH'S WITNESSES, TORONTO, ONTARIO", "designationCode": "C", "categoryCode": "61", "address": "124, 5TH STREET", "city": "TORONTO", "province": "ON", "country": "CA", "postalCode": "M8V2Z3", "twitter": "None", "instagram": "None", "facebook": "None", "youtube": "None", "website": "None", "summary": "None", "logo": "None", "latitude": 43.60097047494209, "longitude": -79.50295282343592}, "119041457RR0001": {"name": "MIMICO PRESBYTERIAN CHURCH", "designationCode": "C", "categoryCode": "37", "address": "119 MIMICO AVE.", "city": "TORONTO", "province": "ON", "country": "CA", "postalCode": "M8V1R6", "twitter": "None", "instagram": "None", "facebook": "None", "youtube": "None", "website": "None", "summary": "None", "logo": "None", "latitude": 43.612236860378665, "longitude": -79.49652387010218}, "119041465RR0001": {"name": "MIMOSA UNITED CHURCH", "designationCode": "C", "categoryCode": "44", "address": "8492 WELLINGTON RD 22         RR 1", "city": "ROCKWOOD", "province": "ON", "country": "CA", "postalCode": "N0B2K0", "twitter": "None", "instagram": "None", "facebook": "None", "youtube": "None", "website": "None", "summary": "None", "logo": "None", "latitude": 43.70616090803801, "longitude": -80.24582762258532}, "119041473RR0001": {"name": "MINAKI FOUNDATION", "designationCode": "C", "categoryCode": "52", "address": "BOX 109", "city": "MINAKI", "province": "ON", "country": "CA", "postalCode": "P0X1J0", "twitter": "None", "instagram": "None", "facebook": "None", "youtube": "None", "website": "None", "summary": "None", "logo": "None", "latitude": 49.98536000000007, "longitude": -94.67070999999999}, "867615296RR0001": {"name": "MINASVILLE COMMUNITY CENTRE ASSOCIATION", "designationCode": "C", "categoryCode": "56", "address": "2677 HWY 215, RR-1 WALTON", "city": "HANTS CO.", "province": "NS", "country": "CA", "postalCode": "B0N2R0", "twitter": "None", "instagram": "None", "facebook": "None", "youtube": "None", "website": "None", "summary": "None", "logo": "None", "latitude": 45.2710875930693, "longitude": -63.863917801153406}, "119041515RR0001": {"name": "MINBURN CEMETERY FUND", "designationCode": "C", "categoryCode": "59", "address": "P.O.BOX 135", "city": "MINBURN", "province": "AB", "country": "CA", "postalCode": "T0B3B0", "twitter": "None", "instagram": "None", "facebook": "None", "youtube": "None", "website": "None", "summary": "None", "logo": "None", "latitude": 53.32140900000002, "longitude": -111.3943944392483}, "888848843RR0001": {"name": "MINCHAS SOLES CONGREGATION", "designationCode": "C", "categoryCode": "42", "address": "1750 GLENDALE AVENUE", "city": "OUTREMONT", "province": "QC", "country": "CA", "postalCode": "H2V1B3", "twitter": "None", "instagram": "None", "facebook": "None", "youtube": "None", "website": "None", "summary": "None", "logo": "None", "latitude": 45.51746852732425, "longitude": -73.62399950204882}, "130230469RR0001": {"name": "MIND MONTESSORI IN DELTA SOCIETY", "designationCode": "C", "categoryCode": "21", "address": "3800-72ND ST", "city": "DELTA", "province": "BC", "country": "CA", "postalCode": "V4K3N2", "twitter": "None", "instagram": "None", "facebook": "None", "youtube": "None", "website": "None", "summary": "None", "logo": "None", "latitude": 49.07081741901003, "longitude": -123.02414671254695}, "873630529RR0001": {"name": "MINDEMOYA HOSPITAL AUXILIARY, INC.", "designationCode": "C", "categoryCode": "19", "address": "PO BOX 284", "city": "MINDEMOYA", "province": "ON", "country": "CA", "postalCode": "P0P1S0", "twitter": "None", "instagram": "None", "facebook": "None", "youtube": "None", "website": "None", "summary": "None", "logo": "None", "latitude": 45.741940000000056, "longitude": -82.14143999999999}, "891265944RR0002": {"name": "MINDEMOYA MISSIONARY CHURCH", "designationCode": "C", "categoryCode": "39", "address": "P.O.BOX 192", "city": "MINDEMOYA", "province": "ON", "country": "CA", "postalCode": "P0P1S0", "twitter": "None", "instagram": "None", "facebook": "None", "youtube": "None", "website": "None", "summary": "None", "logo": "None", "latitude": 45.741940000000056, "longitude": -82.14143999999999}, "119041549RR0001": {"name": "MINDEMOYA UNITED CHURCH PASTORAL CHARGE", "designationCode": "C", "categoryCode": "44", "address": "P.O. BOX 10                   6070 KING ST.", "city": "MINDEMOYA", "province": "ON", "country": "CA", "postalCode": "P0P1S0", "twitter": "None", "instagram": "None", "facebook": "None", "youtube": "None", "website": "None", "summary": "None", "logo": "None", "latitude": 48.494332247495464, "longitude": -81.16466189593584}, "871771325RR0001": {"name": "MINDEN AGRICULTURAL SOCIETY", "designationCode": "C", "categoryCode": "56", "address": "P.O. BOX 978", "city": "MINDEN", "province": "ON", "country": "CA", "postalCode": "K0M2K0", "twitter": "None", "instagram": "None", "facebook": "None", "youtube": "None", "website": "None", "summary": "None", "logo": "None", "latitude": 45.00243600000006, "longitude": -78.58882699999994}, "107703944RR0001": {"name": "MINDEN BIBLE CHURCH", "designationCode": "C", "categoryCode": "39", "address": "BOX 485", "city": "MINDEN", "province": "ON", "country": "CA", "postalCode": "K0M2K0", "twitter": "None", "instagram": "None", "facebook": "None", "youtube": "None", "website": "None", "summary": "None", "logo": "None", "latitude": 45.00243600000006, "longitude": -78.58882699999994}, "885243048RR0001": {"name": "MINDEN FOOD BANK", "designationCode": "C", "categoryCode": "09", "address": "P.O. BOX 893", "city": "MINDEN", "province": "ON", "country": "CA", "postalCode": "K0M2K0", "twitter": "None", "instagram": "None", "facebook": "None", "youtube": "None", "website": "None", "summary": "None", "logo": "None", "latitude": 45.00243600000006, "longitude": -78.58882699999994}, "899294110RR0001": {"name": "MINDEN HEALTH CARE AUXILIARY", "designationCode": "C", "categoryCode": "19", "address": "BOX 30", "city": "MINDEN", "province": "ON", "country": "CA", "postalCode": "K0M2K0", "twitter": "None", "instagram": "None", "facebook": "None", "youtube": "None", "website": "None", "summary": "None", "logo": "None", "latitude": 45.00243600000006, "longitude": -78.58882699999994}, "885511808RR0001": {"name": "MINDEN HILLS CULTURAL CENTRE FOUNDATION", "designationCode": "A", "categoryCode": "53", "address": "176 BOBCAYGEON ROAD           PO BOX 653", "city": "MINDEN", "province": "ON", "country": "CA", "postalCode": "K0M2K0", "twitter": "None", "instagram": "None", "facebook": "None", "youtube": "None", "website": "None", "summary": "None", "logo": "None", "latitude": 44.92963579466151, "longitude": -78.72769646957471}, "119041580RR0001": {"name": "MINDEN UNITED CHURCH", "designationCode": "C", "categoryCode": "44", "address": "P.O.BOX 247", "city": "MINDEN", "province": "ON", "country": "CA", "postalCode": "K0M2K0", "twitter": "None", "instagram": "None", "facebook": "None", "youtube": "None", "website": "None", "summary": "None", "logo": "None", "latitude": 45.00243600000006, "longitude": -78.58882699999994}, "864635438RR0001": {"name": "MINDSET SOCIAL INNOVATION FOUNDATION", "designationCode": "B", "categoryCode": "29", "address": "1500-1040 WEST GEORGIA STREET", "city": "VANCOUVER", "province": "BC", "country": "CA", "postalCode": "V6E4H8", "twitter": "None", "instagram": "None", "facebook": "None", "youtube": "None", "website": "None", "summary": "None", "logo": "None", "latitude": 49.28530146015363, "longitude": -123.12258915309577}, "841788524RR0001": {"name": "MINDWERX 4 KIDS FOUNDATION", "designationCode": "B", "categoryCode": "23", "address": "171 PRINCESS ANNE CRESCENT", "city": "TORONTO", "province": "ON", "country": "CA", "postalCode": "M9A2R8", "twitter": "None", "instagram": "None", "facebook": "None", "youtube": "None", "website": "None", "summary": "None", "logo": "None", "latitude": 43.6769806788908, "longitude": -79.54803347657091}, "852282326RR0001": {"name": "MINDWERX 4 KIDS LEARNING CENTRE", "designationCode": "B", "categoryCode": "20", "address": "3825 BLOOR STREET WEST", "city": "TORONTO", "province": "ON", "country": "CA", "postalCode": "M9B1K9", "twitter": "None", "instagram": "None", "facebook": "None", "youtube": "None", "website": "None", "summary": "None", "logo": "None", "latitude": 43.64126495141106, "longitude": -79.5376451740147}, "119041606RR0001": {"name": "MINE CENTRE CONSERVATIVE MENNONITE CHURCH", "designationCode": "C", "categoryCode": "34", "address": "PO BOX 142", "city": "MINE CENTRE", "province": "ON", "country": "CA", "postalCode": "P0W1H0", "twitter": "None", "instagram": "None", "facebook": "None", "youtube": "None", "website": "None", "summary": "None", "logo": "None", "latitude": 48.76087000000007, "longitude": -92.63533999999999}, "888330669RR0001": {"name": "MINERAL RESOURCES EDUCATION PROGRAM OF BRITISH COLUMBIA", "designationCode": "C", "categoryCode": "29", "address": "900-808 HASTINGS ST W", "city": "VANCOUVER", "province": "BC", "country": "CA", "postalCode": "V6C2X4", "twitter": "None", "instagram": "None", "facebook": "None", "youtube": "None", "website": "None", "summary": "None", "logo": "None", "latitude": 49.28600167886215, "longitude": -123.11500732364802}, "890473846RR0001": {"name": "MINERAL SPRINGS HOSPITAL AUXILIARY", "designationCode": "C", "categoryCode": "19", "address": "BOX 263", "city": "BANFF", "province": "AB", "country": "CA", "postalCode": "T0L0C0", "twitter": "None", "instagram": "None", "facebook": "None", "youtube": "None", "website": "None", "summary": "None", "logo": "None", "latitude": 51.196792161531704, "longitude": -115.5390300022172}, "888673175RR0001": {"name": "MINERALOGICAL ASSOCIATION OF CANADA FOUNDATION", "designationCode": "A", "categoryCode": "23", "address": "490, RUE DE LA COURONNE", "city": "QU\u00c9BEC", "province": "QC", "country": "CA", "postalCode": "G1K9A9", "twitter": "None", "instagram": "None", "facebook": "None", "youtube": "None", "website": "None", "summary": "None", "logo": "None", "latitude": 46.812928580327934, "longitude": -71.22372043317516}, "867490021RR0001": {"name": "MINERVA FOUNDATION FOR BC WOMEN", "designationCode": "A", "categoryCode": "03", "address": "320-111 HASTINGS ST W", "city": "VANCOUVER", "province": "BC", "country": "CA", "postalCode": "V6B1H4", "twitter": "None", "instagram": "None", "facebook": "None", "youtube": "None", "website": "None", "summary": "None", "logo": "None", "latitude": 49.282138914441255, "longitude": -123.10753795129177}, "888292992RR0001": {"name": "MINESING UNITED CHURCH", "designationCode": "C", "categoryCode": "44", "address": "BOX 114", "city": "MINESING", "province": "ON", "country": "CA", "postalCode": "L0L1Y0", "twitter": "None", "instagram": "None", "facebook": "None", "youtube": "None", "website": "None", "summary": "None", "logo": "None", "latitude": 44.44183000000004, "longitude": -79.84120999999999}, "893577254RR0001": {"name": "MING SING TAO-TAK TEMPLE", "designationCode": "C", "categoryCode": "39", "address": "38 ST PATRICK ST", "city": "TORONTO", "province": "ON", "country": "CA", "postalCode": "M5T1V1", "twitter": "None", "instagram": "None", "facebook": "None", "youtube": "None", "website": "None", "summary": "None", "logo": "None", "latitude": 43.65152260338165, "longitude": -79.38909320402199}, "887141224RR0001": {"name": "MINH DANG QUANG TEMPLE", "designationCode": "C", "categoryCode": "35", "address": "228 CLARENCE STREET", "city": "LONDON", "province": "ON", "country": "CA", "postalCode": "N6B3L3", "twitter": "None", "instagram": "None", "facebook": "None", "youtube": "None", "website": "None", "summary": "None", "logo": "None", "latitude": 42.9790305431646, "longitude": -81.24485094252425}, "119041721RR0001": {"name": "MINI YO WE INC. CAMP", "designationCode": "C", "categoryCode": "56", "address": "1878 MUSKOKA RD 10W           RR 2", "city": "PORT SYDNEY", "province": "ON", "country": "CA", "postalCode": "P0B1L0", "twitter": "None", "instagram": "None", "facebook": "None", "youtube": "None", "website": "None", "summary": "None", "logo": "None", "latitude": 45.17807990556459, "longitude": -79.28586773243295}, "891436669RR0001": {"name": "MINI-TRAIL COMMUNITY CENTRE ASSOCIATION", "designationCode": "C", "categoryCode": "56", "address": "344 ANTIGONISH LANDING-RR#4", "city": "ANTIGONISH", "province": "NS", "country": "CA", "postalCode": "B2G2L2", "twitter": "None", "instagram": "None", "facebook": "None", "youtube": "None", "website": "None", "summary": "None", "logo": "None", "latitude": 45.6011097089099, "longitude": -61.690175442259886}, "119814671RR0001": {"name": "MINIOTA MUNICIPAL MUSEUM INC", "designationCode": "C", "categoryCode": "50", "address": "BOX 59", "city": "MINIOTA", "province": "MB", "country": "CA", "postalCode": "R0M1M0", "twitter": "None", "instagram": "None", "facebook": "None", "youtube": "None", "website": "None", "summary": "None", "logo": "None", "latitude": 50.14250000000004, "longitude": -101.03465999999997}}