{"107502148RR0001": {"name": "IGNACE NURSERY SCHOOL", "designationCode": "C", "categoryCode": "01", "address": "BOX 870", "city": "IGNACE", "province": "ON", "country": "CA", "postalCode": "P0T1T0", "twitter": "None", "instagram": "None", "facebook": "None", "youtube": "None", "website": "None", "summary": "None", "logo": "None", "latitude": 49.41689000000008, "longitude": -91.66378999999995}, "118966381RR0001": {"name": "IGNAT KANEFF CHARITABLE FOUNDATION", "designationCode": "B", "categoryCode": "03", "address": "8501 MISSISSAUGA ROAD         UNIT #200", "city": "BRAMPTON", "province": "ON", "country": "CA", "postalCode": "L6Y5G8", "twitter": "None", "instagram": "None", "facebook": "None", "youtube": "None", "website": "None", "summary": "None", "logo": "None", "latitude": 43.63733834863498, "longitude": -79.78944283467055}, "896965019RR0001": {"name": "IGNITE ADULT LEARNING FOUNDATION CORPORATION", "designationCode": "A", "categoryCode": "23", "address": "103 1112 WINNIPEG ST", "city": "REGINA", "province": "SK", "country": "CA", "postalCode": "S4R1J6", "twitter": "None", "instagram": "None", "facebook": "None", "youtube": "None", "website": "None", "summary": "None", "logo": "None", "latitude": 50.46115509950385, "longitude": -104.59528077363004}, "719480725RR0001": {"name": "IGNITE THE WARMTH SOCIETY", "designationCode": "C", "categoryCode": "09", "address": "7806 HUDSON STREET", "city": "VANCOUVER", "province": "BC", "country": "CA", "postalCode": "V6P4L8", "twitter": "None", "instagram": "None", "facebook": "None", "youtube": "None", "website": "None", "summary": "None", "logo": "None", "latitude": 49.214878072162264, "longitude": -123.13406903494162}, "119090082RR0001": {"name": "IGNITED CHURCH AND MINISTRIES OF DRAYTON VALLEY", "designationCode": "C", "categoryCode": "36", "address": "PO BOX 6843", "city": "DRAYTON-VALLEY", "province": "AB", "country": "CA", "postalCode": "T7A1S2", "twitter": "None", "instagram": "None", "facebook": "None", "youtube": "None", "website": "None", "summary": "None", "logo": "None", "latitude": 53.22798600000006, "longitude": -114.98692399999993}, "867509580RR0001": {"name": "IGREJA DO CENTRO MUNDIAL DE MISSOES", "designationCode": "C", "categoryCode": "39", "address": "9 STONE ST", "city": "GEORGETOWN", "province": "ON", "country": "CA", "postalCode": "L7G5W6", "twitter": "None", "instagram": "None", "facebook": "None", "youtube": "None", "website": "None", "summary": "None", "logo": "None", "latitude": 43.62873265335557, "longitude": -79.89437350931948}, "872987151RR0001": {"name": "IGREJA EVANGELICA VIDA NOVA", "designationCode": "C", "categoryCode": "47", "address": "2365 ST CLAIR WEST", "city": "TORONTO", "province": "ON", "country": "CA", "postalCode": "M6N1K9", "twitter": "None", "instagram": "None", "facebook": "None", "youtube": "None", "website": "None", "summary": "None", "logo": "None", "latitude": 43.66967786759203, "longitude": -79.48030676074792}, "118966399RR0001": {"name": "IGREJA PRESBITERIANA PORTUGUESA", "designationCode": "C", "categoryCode": "37", "address": "100 HEPBOURNE STREET", "city": "TORONTO", "province": "ON", "country": "CA", "postalCode": "M6H1K5", "twitter": "None", "instagram": "None", "facebook": "None", "youtube": "None", "website": "None", "summary": "None", "logo": "None", "latitude": 43.658961190691784, "longitude": -79.42860534277796}, "139372833RR0001": {"name": "IGREJA UNIVERSAL DO REINO DE DEUS", "designationCode": "C", "categoryCode": "39", "address": "2420 DUFFERIN STREET", "city": "TORONTO", "province": "ON", "country": "CA", "postalCode": "M6E3S8", "twitter": "None", "instagram": "None", "facebook": "None", "youtube": "None", "website": "None", "summary": "None", "logo": "None", "latitude": 43.697460792948256, "longitude": -79.45105777979094}, "873223168RR0001": {"name": "IHUMAN YOUTH SOCIETY", "designationCode": "C", "categoryCode": "22", "address": "BOX 62013", "city": "EDMONTON", "province": "AB", "country": "CA", "postalCode": "T5M4B5", "twitter": "None", "instagram": "None", "facebook": "None", "youtube": "None", "website": "None", "summary": "None", "logo": "None", "latitude": 53.55989700000005, "longitude": -113.57346499999994}, "850309576RR0001": {"name": "IISD Experimental Lakes Area Inc.", "designationCode": "C", "categoryCode": "21", "address": "325 - 111 LOMBARD AVE", "city": "WINNIPEG", "province": "MB", "country": "CA", "postalCode": "R3B0T4", "twitter": "None", "instagram": "None", "facebook": "None", "youtube": "None", "website": "None", "summary": "None", "logo": "None", "latitude": 49.89568526008409, "longitude": -97.1348164428127}, "875707804RR0001": {"name": "IKH FOUNDATION INC.", "designationCode": "A", "categoryCode": "03", "address": "196 WATERFORD BRIDGE RD", "city": "ST. JOHN'S", "province": "NL", "country": "CA", "postalCode": "A1E1E2", "twitter": "None", "instagram": "None", "facebook": "None", "youtube": "None", "website": "None", "summary": "None", "logo": "None", "latitude": 47.53299677381834, "longitude": -52.738622902071356}, "889225884RR0001": {"name": "IKTUS SERVICE D'ANIMATION BIBLIQUE ET PASTORALE", "designationCode": "C", "categoryCode": "47", "address": "C.P. 8888, SUCC. CENTRE-VILLE UQAM, LOCAL DS-3290", "city": "MONTREAL", "province": "QC", "country": "CA", "postalCode": "H3C3P8", "twitter": "None", "instagram": "None", "facebook": "None", "youtube": "None", "website": "None", "summary": "None", "logo": "None", "latitude": 45.49833600000005, "longitude": -73.55148649999994}, "118966407RR0001": {"name": "IKWE - WIDDJIITIWIN INC.", "designationCode": "C", "categoryCode": "09", "address": "BOX 1056", "city": "WINNIPEG", "province": "MB", "country": "CA", "postalCode": "R3C2X4", "twitter": "None", "instagram": "None", "facebook": "None", "youtube": "None", "website": "None", "summary": "None", "logo": "None", "latitude": 49.899525000000054, "longitude": -97.14112999999993}, "118966415RR0001": {"name": "ILDERTON AGRICULTURAL SOCIETY", "designationCode": "C", "categoryCode": "20", "address": "BOX 205", "city": "ILDERTON", "province": "ON", "country": "CA", "postalCode": "N0M2A0", "twitter": "None", "instagram": "None", "facebook": "None", "youtube": "None", "website": "None", "summary": "None", "logo": "None", "latitude": 42.996924570878505, "longitude": -81.5264312436531}, "894049139RR0001": {"name": "ILDERTON BIRR PASTORAL CHARGE", "designationCode": "C", "categoryCode": "44", "address": "PO BOX 216", "city": "ILDERTON", "province": "ON", "country": "CA", "postalCode": "N0M2A0", "twitter": "None", "instagram": "None", "facebook": "None", "youtube": "None", "website": "None", "summary": "None", "logo": "None", "latitude": 42.996924570878505, "longitude": -81.5264312436531}, "889366779RR0001": {"name": "ILDERTON COMMUNITY NON-PROFIT APARTMENT CORPORATION", "designationCode": "C", "categoryCode": "09", "address": "102 KENNEDY AVE", "city": "ILDERTON", "province": "ON", "country": "CA", "postalCode": "N0M2A0", "twitter": "None", "instagram": "None", "facebook": "None", "youtube": "None", "website": "None", "summary": "None", "logo": "None", "latitude": 43.07922791333267, "longitude": -81.37849811336268}, "889186995RR0001": {"name": "ILDERTON LIONS CLUB CHARITABLE TRUST", "designationCode": "A", "categoryCode": "65", "address": "BOX 23", "city": "ILDERTON", "province": "ON", "country": "CA", "postalCode": "N0M2A0", "twitter": "None", "instagram": "None", "facebook": "None", "youtube": "None", "website": "None", "summary": "None", "logo": "None", "latitude": 42.996924570878505, "longitude": -81.5264312436531}, "107502452RR0001": {"name": "ILE A LA CROSSE SCHOOL DIVISION # 112", "designationCode": "C", "categoryCode": "20", "address": "BOX 89", "city": "ILE A LA CROSSE", "province": "SK", "country": "CA", "postalCode": "S0M1C0", "twitter": "None", "instagram": "None", "facebook": "None", "youtube": "None", "website": "None", "summary": "None", "logo": "None", "latitude": 55.44529000000006, "longitude": -107.89890999999994}, "118966449RR0001": {"name": "ILE PERROT PRESBYTERIAN CHURCH", "designationCode": "C", "categoryCode": "37", "address": "242 5TH AVE", "city": "PINCOURT", "province": "QC", "country": "CA", "postalCode": "J7V5L3", "twitter": "None", "instagram": "None", "facebook": "None", "youtube": "None", "website": "None", "summary": "None", "logo": "None", "latitude": 45.39455306253203, "longitude": -73.95889512054785}, "894255868RR0001": {"name": "ILE-A-LA CROSSE FRIENDSHIP CENTRE INCORPORATED", "designationCode": "C", "categoryCode": "56", "address": "BOX 160", "city": "ILE A LE CROSSE", "province": "SK", "country": "CA", "postalCode": "S0M1C0", "twitter": "None", "instagram": "None", "facebook": "None", "youtube": "None", "website": "None", "summary": "None", "logo": "None", "latitude": 55.44529000000006, "longitude": -107.89890999999994}, "886642693RR0001": {"name": "ILISAQSIVIK SOCIETY", "designationCode": "C", "categoryCode": "09", "address": "BOX 150", "city": "CLYDE RIVER", "province": "NU", "country": "CA", "postalCode": "X0A0E0", "twitter": "None", "instagram": "None", "facebook": "None", "youtube": "None", "website": "None", "summary": "None", "logo": "None", "latitude": 70.47291000000007, "longitude": -68.58603999999997}, "890790462RR0001": {"name": "ILLECILLEWAET GREENBELT SOCIETY", "designationCode": "C", "categoryCode": "52", "address": "BOX 306", "city": "REVELSTOKE", "province": "BC", "country": "CA", "postalCode": "V0E2S0", "twitter": "None", "instagram": "None", "facebook": "None", "youtube": "None", "website": "None", "summary": "None", "logo": "None"}, "118966464RR0001": {"name": "ILOT D'OR INC.", "designationCode": "C", "categoryCode": "09", "address": "951, RUE DE LA CLINIQUE", "city": "SENNETERRE", "province": "QC", "country": "CA", "postalCode": "J0Y2M0", "twitter": "None", "instagram": "None", "facebook": "None", "youtube": "None", "website": "None", "summary": "None", "logo": "None", "latitude": 48.38409552178431, "longitude": -77.2520940313636}, "888268117RR0001": {"name": "ILRI FOUNDATION", "designationCode": "A", "categoryCode": "59", "address": "1500 WEST GEORGIA STREET      SUITE 1250   BOX 62", "city": "VANCOUVER", "province": "BC", "country": "CA", "postalCode": "V6G2Z6", "twitter": "None", "instagram": "None", "facebook": "None", "youtube": "None", "website": "None", "summary": "None", "logo": "None", "latitude": 49.2900638104334, "longitude": -123.12989899362336}, "118966498RR0001": {"name": "IMADENE FOUNDATION", "designationCode": "C", "categoryCode": "49", "address": "PO BOX 374", "city": "MESACHIE LAKE", "province": "BC", "country": "CA", "postalCode": "V0R2N0", "twitter": "None", "instagram": "None", "facebook": "None", "youtube": "None", "website": "None", "summary": "None", "logo": "None", "latitude": 48.808530000000076, "longitude": -124.12555999999995}, "868495029RR0001": {"name": "IMAGINATION INK", "designationCode": "C", "categoryCode": "21", "address": "300 TOWANDA BLVD              RR 3", "city": "BLENHEIM", "province": "ON", "country": "CA", "postalCode": "N0P1A0", "twitter": "None", "instagram": "None", "facebook": "None", "youtube": "None", "website": "None", "summary": "None", "logo": "None", "latitude": 42.26575951485941, "longitude": -82.00689319900167}, "839646320RR0001": {"name": "IMAGINE A CURE FOR LEUKEMIA", "designationCode": "B", "categoryCode": "13", "address": "59 AUBURNDALE DR.", "city": "THORNHILL", "province": "ON", "country": "CA", "postalCode": "L4J8W8", "twitter": "None", "instagram": "None", "facebook": "None", "youtube": "None", "website": "None", "summary": "None", "logo": "None", "latitude": 43.838024678054076, "longitude": -79.47119018717201}, "119218790RR0001": {"name": "IMAGINE CANADA", "designationCode": "C", "categoryCode": "29", "address": "700-65 ST CLAIR AVE E", "city": "TORONTO", "province": "ON", "country": "CA", "postalCode": "M4T2Y3", "twitter": "None", "instagram": "None", "facebook": "None", "youtube": "None", "website": "None", "summary": "None", "logo": "None", "latitude": 43.690058011175346, "longitude": -79.38485244552025}, "835895475RR0001": {"name": "IMAGINE 1 DAY INTERNATIONAL ORGANIZATION", "designationCode": "C", "categoryCode": "09", "address": "SUITE 600 - 21 WATER STREET", "city": "VANCOUVER", "province": "BC", "country": "CA", "postalCode": "V6B1A1", "twitter": "None", "instagram": "None", "facebook": "None", "youtube": "None", "website": "None", "summary": "None", "logo": "None", "latitude": 49.2835963183679, "longitude": -123.10471838314393}, "118966530RR0001": {"name": "IMAGO", "designationCode": "C", "categoryCode": "47", "address": "630 INDIAN RD", "city": "TORONTO", "province": "ON", "country": "CA", "postalCode": "M6P2C6", "twitter": "None", "instagram": "None", "facebook": "None", "youtube": "None", "website": "None", "summary": "None", "logo": "None", "latitude": 43.659774, "longitude": -79.45752801056024}, "869021907RR0001": {"name": "IMAGO DEI CHRISTIAN COMMUNITY", "designationCode": "C", "categoryCode": "34", "address": "1620 192ND STREET", "city": "SURREY", "province": "BC", "country": "CA", "postalCode": "V3Z9V2", "twitter": "None", "instagram": "None", "facebook": "None", "youtube": "None", "website": "None", "summary": "None", "logo": "None", "latitude": 49.031757140515374, "longitude": -122.6913915612008}, "118966548RR0001": {"name": "IMAGO THEATRE, INC.", "designationCode": "C", "categoryCode": "22", "address": "5143 ST. LAURENT BLVD.", "city": "MONTREAL", "province": "QC", "country": "CA", "postalCode": "H2T1R9", "twitter": "None", "instagram": "None", "facebook": "None", "youtube": "None", "website": "None", "summary": "None", "logo": "None", "latitude": 45.52349425036058, "longitude": -73.59370963376429}, "892495045RR0001": {"name": "IMAI PARK FOUNDATION", "designationCode": "A", "categoryCode": "56", "address": "6245 LINE 17 RD", "city": "MAGNA BAY", "province": "BC", "country": "CA", "postalCode": "V0E1M7", "twitter": "None", "instagram": "None", "facebook": "None", "youtube": "None", "website": "None", "summary": "None", "logo": "None", "latitude": 50.961789808739226, "longitude": -119.28354805753938}, "137408209RR0001": {"name": "IMAM ALI ISLAMIC CENTRE", "designationCode": "B", "categoryCode": "60", "address": "880 GANA COURT", "city": "MISSISSAUGA", "province": "ON", "country": "CA", "postalCode": "L5S1N8", "twitter": "None", "instagram": "None", "facebook": "None", "youtube": "None", "website": "None", "summary": "None", "logo": "None", "latitude": 43.66441300715605, "longitude": -79.6896142864847}, "860321561RR0001": {"name": "IMAM MAHDI ISLAMIC CENTRE INC.", "designationCode": "C", "categoryCode": "60", "address": "263A BAY THORN DR", "city": "THORNHILL", "province": "ON", "country": "CA", "postalCode": "L3T3V8", "twitter": "None", "instagram": "None", "facebook": "None", "youtube": "None", "website": "None", "summary": "None", "logo": "None", "latitude": 43.82550186330658, "longitude": -79.42490521759007}, "118966555RR0001": {"name": "IMDADUL ISLAMIC JAMAT OF TORONTO", "designationCode": "C", "categoryCode": "60", "address": "26 LEPAGE COURT", "city": "DOWNSVIEW", "province": "ON", "country": "CA", "postalCode": "M3J1Z9", "twitter": "None", "instagram": "None", "facebook": "None", "youtube": "None", "website": "None", "summary": "None", "logo": "None", "latitude": 43.1731610250723, "longitude": -80.25619816851504}, "854773041RR0001": {"name": "IMHOFF HERITAGE SOCIETY", "designationCode": "C", "categoryCode": "52", "address": "BOX 313", "city": "ST WALBURG", "province": "SK", "country": "CA", "postalCode": "S0M2T0", "twitter": "None", "instagram": "None", "facebook": "None", "youtube": "None", "website": "None", "summary": "None", "logo": "None", "latitude": 53.63522000000006, "longitude": -109.20051999999998}, "821731676RR0001": {"name": "IMI Charitable Foundation", "designationCode": "C", "categoryCode": "11", "address": "2302 - 246 STEWART GREEN SW", "city": "CALGARY", "province": "AB", "country": "CA", "postalCode": "T3H3C8", "twitter": "None", "instagram": "None", "facebook": "None", "youtube": "None", "website": "None", "summary": "None", "logo": "None", "latitude": 51.01512416856595, "longitude": -114.1699139965962}, "118966563RR0001": {"name": "IMMACULATA HIGH SCHOOL FOUNDATION INC.", "designationCode": "A", "categoryCode": "23", "address": "SUITE 3102                    38 METROPOLE PRIVATE", "city": "OTTAWA", "province": "ON", "country": "CA", "postalCode": "K1Z1E9", "twitter": "None", "instagram": "None", "facebook": "None", "youtube": "None", "website": "None", "summary": "None", "logo": "None", "latitude": 45.39831885706045, "longitude": -75.75037738550985}, "107909939RR0088": {"name": "IMMACULATE CONCEPTION CATHOLIC PARISH", "designationCode": "C", "categoryCode": "38", "address": "BOX 123", "city": "STANDOFF", "province": "AB", "country": "CA", "postalCode": "T0L1Y0", "twitter": "None", "instagram": "None", "facebook": "None", "youtube": "None", "website": "None", "summary": "None", "logo": "None", "latitude": 49.46847000000005, "longitude": -113.30507149999994}, "107503062RR0001": {"name": "IMMACULATE CONCEPTION CHURCH", "designationCode": "C", "categoryCode": "38", "address": "181 AUSTIN ST NORTH", "city": "WINNIPEG", "province": "MB", "country": "CA", "postalCode": "R2W3M7", "twitter": "None", "instagram": "None", "facebook": "None", "youtube": "None", "website": "None", "summary": "None", "logo": "None", "latitude": 49.90779309103241, "longitude": -97.13175016316599}, "107503104RR0001": {"name": "IMMACULATE CONCEPTION CHURCH", "designationCode": "C", "categoryCode": "38", "address": "BOX 490", "city": "RIVERS", "province": "MB", "country": "CA", "postalCode": "R0K1X0", "twitter": "None", "instagram": "None", "facebook": "None", "youtube": "None", "website": "None", "summary": "None", "logo": "None", "latitude": 49.55658299999999, "longitude": -99.0937665}, "107503195RR0001": {"name": "IMMACULATE CONCEPTION CHURCH", "designationCode": "C", "categoryCode": "38", "address": "96 VANHORNE AVE", "city": "DRYDEN", "province": "ON", "country": "CA", "postalCode": "P8N2B4", "twitter": "None", "instagram": "None", "facebook": "None", "youtube": "None", "website": "None", "summary": "None", "logo": "None", "latitude": 49.78043700000005, "longitude": -92.83637599999993}, "119109817RR0050": {"name": "IMMACULATE CONCEPTION CHURCH", "designationCode": "C", "categoryCode": "38", "address": "96 HURON ST", "city": "STRATFORD", "province": "ON", "country": "CA", "postalCode": "N5A5S6", "twitter": "None", "instagram": "None", "facebook": "None", "youtube": "None", "website": "None", "summary": "None", "logo": "None", "latitude": 43.373626006693776, "longitude": -80.9873107712222}, "119109833RR0047": {"name": "IMMACULATE CONCEPTION CHURCH", "designationCode": "C", "categoryCode": "38", "address": "P.O. BOX 25050                669 PRINCE ST.", "city": "TRURO", "province": "NS", "country": "CA", "postalCode": "B2N7B8", "twitter": "None", "instagram": "None", "facebook": "None", "youtube": "None", "website": "None", "summary": "None", "logo": "None", "latitude": 45.36517737665171, "longitude": -63.281026938657774}, "130091135RR0046": {"name": "IMMACULATE CONCEPTION CHURCH", "designationCode": "C", "categoryCode": "38", "address": "10 SCHOOL ST", "city": "REXTON", "province": "NB", "country": "CA", "postalCode": "E4W2E5", "twitter": "None", "instagram": "None", "facebook": "None", "youtube": "None", "website": "None", "summary": "None", "logo": "None", "latitude": 46.640483717202585, "longitude": -64.87050609426579}, "132410671RR0350": {"name": "IMMACULATE CONCEPTION CHURCH-TRURO CONFERENCE, SOCIETY OF ST-VINCENT DE PAUL", "designationCode": "C", "categoryCode": "09", "address": "P.O. BOX 25053", "city": "TRURO", "province": "NS", "country": "CA", "postalCode": "B2N7B8", "twitter": "None", "instagram": "None", "facebook": "None", "youtube": "None", "website": "None", "summary": "None", "logo": "None", "latitude": 45.36602700000006, "longitude": -63.289042999999936}, "898741723RR0001": {"name": "IMMACULATE CONCEPTION COUNCIL NO. 8951 CHARITABLE WELFARE TRUST", "designationCode": "A", "categoryCode": "03", "address": "BOX 46", "city": "PORT PERRY", "province": "ON", "country": "CA", "postalCode": "L9L1A2", "twitter": "None", "instagram": "None", "facebook": "None", "youtube": "None", "website": "None", "summary": "None", "logo": "None", "latitude": 44.10681900000006, "longitude": -78.94273399999993}, "891851040RR0001": {"name": "IMMACULATE CONCEPTION COUNCIL 3320 CHARITABLE TRUST", "designationCode": "A", "categoryCode": "65", "address": "1 COLUMBUS DRIVE", "city": "FORT ERIE", "province": "ON", "country": "CA", "postalCode": "L2A6V1", "twitter": "None", "instagram": "None", "facebook": "None", "youtube": "None", "website": "None", "summary": "None", "logo": "None", "latitude": 42.920246074383975, "longitude": -78.91675711076789}, "873493845RR0001": {"name": "IMMACULATE CONCEPTION DROP-IN CENTRE", "designationCode": "C", "categoryCode": "01", "address": "302 - 90 BOLE ST", "city": "WINNIPEG", "province": "MB", "country": "CA", "postalCode": "R3L1X5", "twitter": "None", "instagram": "None", "facebook": "None", "youtube": "None", "website": "None", "summary": "None", "logo": "None", "latitude": 49.879553384961596, "longitude": -97.14397372840337}, "107307191RR0021": {"name": "IMMACULATE CONCEPTION PARISH", "designationCode": "C", "categoryCode": "38", "address": "BOX 7", "city": "MAJOR", "province": "SK", "country": "CA", "postalCode": "S0L2H0", "twitter": "None", "instagram": "None", "facebook": "None", "youtube": "None", "website": "None", "summary": "None", "logo": "None", "latitude": 51.78236218889466, "longitude": -108.63988837790264}, "107910192RR0003": {"name": "IMMACULATE CONCEPTION PARISH", "designationCode": "C", "categoryCode": "38", "address": "21 UPPER NICHOLSVILLE RD", "city": "DEER LAKE", "province": "NL", "country": "CA", "postalCode": "A8A2E8", "twitter": "None", "instagram": "None", "facebook": "None", "youtube": "None", "website": "None", "summary": "None", "logo": "None", "latitude": 49.17058351080613, "longitude": -57.43246261667595}, "108094392RR0020": {"name": "IMMACULATE CONCEPTION PARISH", "designationCode": "C", "categoryCode": "38", "address": "839 SUTHERLAND AVENUE", "city": "KELOWNA", "province": "BC", "country": "CA", "postalCode": "V1Y5X4", "twitter": "None", "instagram": "None", "facebook": "None", "youtube": "None", "website": "None", "summary": "None", "logo": "None", "latitude": 49.87974392461985, "longitude": -119.48453987949574}, "118849470RR0042": {"name": "IMMACULATE CONCEPTION PARISH", "designationCode": "C", "categoryCode": "38", "address": "3778 W 28TH AVE", "city": "VANCOUVER", "province": "BC", "country": "CA", "postalCode": "V6S1S6", "twitter": "None", "instagram": "None", "facebook": "None", "youtube": "None", "website": "None", "summary": "None", "logo": "None", "latitude": 49.24705237388932, "longitude": -123.18771625870212}, "118849470RR0080": {"name": "IMMACULATE CONCEPTION PARISH", "designationCode": "C", "categoryCode": "38", "address": "8842 119TH ST", "city": "DELTA", "province": "BC", "country": "CA", "postalCode": "V4C6M4", "twitter": "None", "instagram": "None", "facebook": "None", "youtube": "None", "website": "None", "summary": "None", "logo": "None", "latitude": 49.16353983884021, "longitude": -122.89267049349912}, "118966845RR0001": {"name": "IMMACULATE CONCEPTION PARISH", "designationCode": "C", "categoryCode": "38", "address": "BOX 364", "city": "FISHER BRANCH", "province": "MB", "country": "CA", "postalCode": "R0C0Z0", "twitter": "None", "instagram": "None", "facebook": "None", "youtube": "None", "website": "None", "summary": "None", "logo": "None", "latitude": 51.08144020941467, "longitude": -97.61850910684359}, "118966852RR0001": {"name": "IMMACULATE CONCEPTION PARISH", "designationCode": "C", "categoryCode": "38", "address": "BOX 136", "city": "QUINTON", "province": "SK", "country": "CA", "postalCode": "S0A3G0", "twitter": "None", "instagram": "None", "facebook": "None", "youtube": "None", "website": "None", "summary": "None", "logo": "None", "latitude": 51.387110000000064, "longitude": -104.40623999999997}, "118966860RR0001": {"name": "IMMACULATE CONCEPTION PARISH", "designationCode": "C", "categoryCode": "38", "address": "PO BOX 29", "city": "QU'APPELLE", "province": "SK", "country": "CA", "postalCode": "S0G4A0", "twitter": "None", "instagram": "None", "facebook": "None", "youtube": "None", "website": "None", "summary": "None", "logo": "None", "latitude": 50.33098795842485, "longitude": -102.28109602986969}, "118966886RR0003": {"name": "IMMACULATE CONCEPTION PARISH", "designationCode": "C", "categoryCode": "38", "address": "PO BOX 299                    9928 97 STREET", "city": "SEXSMITH", "province": "AB", "country": "CA", "postalCode": "T0H3C0", "twitter": "None", "instagram": "None", "facebook": "None", "youtube": "None", "website": "None", "summary": "None", "logo": "None", "latitude": 55.35092078821638, "longitude": -118.78077980506636}, "119109817RR0004": {"name": "IMMACULATE CONCEPTION PARISH", "designationCode": "C", "categoryCode": "38", "address": "24152 WINTERLINE RD.          P.O. BOX 29", "city": "PAIN COURT", "province": "ON", "country": "CA", "postalCode": "N0P1Z0", "twitter": "None", "instagram": "None", "facebook": "None", "youtube": "None", "website": "None", "summary": "None", "logo": "None", "latitude": 42.40134385332751, "longitude": -82.28706272991944}, "119109833RR0022": {"name": "IMMACULATE CONCEPTION PARISH", "designationCode": "C", "categoryCode": "38", "address": "337 PLEASANT ST", "city": "DARTMOUTH", "province": "NS", "country": "CA", "postalCode": "B2Y3S4", "twitter": "None", "instagram": "None", "facebook": "None", "youtube": "None", "website": "None", "summary": "None", "logo": "None", "latitude": 44.65182591563273, "longitude": -63.547421151653474}, "119110450RR0012": {"name": "IMMACULATE CONCEPTION PARISH", "designationCode": "C", "categoryCode": "38", "address": "212 CONCESSION 12             P.O. BOX 83", "city": "FORMOSA", "province": "ON", "country": "CA", "postalCode": "N0G1W0", "twitter": "None", "instagram": "None", "facebook": "None", "youtube": "None", "website": "None", "summary": "None", "logo": "None", "latitude": 44.06779642242708, "longitude": -81.2125343908332}, "119122786RR0001": {"name": "IMMACULATE CONCEPTION PARISH", "designationCode": "C", "categoryCode": "38", "address": "6500 SOUTHRIDGE AVE", "city": "PRINCE GEORGE", "province": "BC", "country": "CA", "postalCode": "V2N5P9", "twitter": "None", "instagram": "None", "facebook": "None", "youtube": "None", "website": "None", "summary": "None", "logo": "None", "latitude": 53.86420563941114, "longitude": -122.78374828519728}, "106880107RR0034": {"name": "IMMACULATE CONCEPTION PARISH, BRIDGEPORT", "designationCode": "C", "categoryCode": "38", "address": "468 KINGS RD", "city": "DOMMINION", "province": "NS", "country": "CA", "postalCode": "B1G1K1", "twitter": "None", "instagram": "None", "facebook": "None", "youtube": "None", "website": "None", "summary": "None", "logo": "None", "latitude": 46.21095471769892, "longitude": -60.00010604844472}, "106880107RR0025": {"name": "IMMACULATE CONCEPTION PARISH, HEATHERTON", "designationCode": "C", "categoryCode": "38", "address": "18 SUMMERSIDE ROAD            BOX 24 HEATHERTON", "city": "ANTIGONISH COUNTY", "province": "NS", "country": "CA", "postalCode": "B0H1R0", "twitter": "None", "instagram": "None", "facebook": "None", "youtube": "None", "website": "None", "summary": "None", "logo": "None", "latitude": 45.58870703635527, "longitude": -61.79163850747316}, "106880107RR0052": {"name": "IMMACULATE CONCEPTION PARISH, MAIN-A-DIEU", "designationCode": "C", "categoryCode": "38", "address": "2881 MAIN-A-DIEU RD", "city": "MAIN-A-DIEU", "province": "NS", "country": "CA", "postalCode": "B1C1X4", "twitter": "None", "instagram": "None", "facebook": "None", "youtube": "None", "website": "None", "summary": "None", "logo": "None", "latitude": 46.006149758368345, "longitude": -59.84328641485298}, "107585085RR0011": {"name": "IMMACULATE CONCEPTION PARISH, TISDALE, SK", "designationCode": "C", "categoryCode": "38", "address": "PO BOX 148", "city": "TISDALE", "province": "SK", "country": "CA", "postalCode": "S0E1T0", "twitter": "None", "instagram": "None", "facebook": "None", "youtube": "None", "website": "None", "summary": "None", "logo": "None", "latitude": 52.84785000000005, "longitude": -104.04749999999996}, "812299402RR0001": {"name": "IMMACULATE CONCEPTION ROMAN CATHOLIC PARISH (BRAE) INC.", "designationCode": "C", "categoryCode": "38", "address": "R.R. 3", "city": "O'LEARY", "province": "PE", "country": "CA", "postalCode": "C0B1V0", "twitter": "None", "instagram": "None", "facebook": "None", "youtube": "None", "website": "None", "summary": "None", "logo": "None", "latitude": 46.71305115704506, "longitude": -64.19110057190973}, "812242600RR0001": {"name": "IMMACULATE CONCEPTION ROMAN CATHOLIC PARISH (PALMER ROAW) INC.", "designationCode": "C", "categoryCode": "38", "address": "PALMER RD", "city": "ST LOUIS", "province": "PE", "country": "CA", "postalCode": "C0B1Z0", "twitter": "None", "instagram": "None", "facebook": "None", "youtube": "None", "website": "None", "summary": "None", "logo": "None", "latitude": 46.90763176962275, "longitude": -64.1658618183037}, "817142318RR0001": {"name": "IMMACULATE CONCEPTION ROMAN CATHOLIC PARISH (WELLINGTON) INC.", "designationCode": "C", "categoryCode": "38", "address": "31013 ROUTE 2", "city": "RICHMOND", "province": "PE", "country": "CA", "postalCode": "C0B1Y0", "twitter": "None", "instagram": "None", "facebook": "None", "youtube": "None", "website": "None", "summary": "None", "logo": "None", "latitude": 46.49128977158264, "longitude": -63.98776997232844}, "119109817RR0140": {"name": "IMMACULATE CONCEPTION SACRED HEART FAITH COMMUNITY", "designationCode": "C", "categoryCode": "38", "address": "2153 PARKWOOD AVENUE", "city": "WINDSOR", "province": "ON", "country": "CA", "postalCode": "N8W2J8", "twitter": "None", "instagram": "None", "facebook": "None", "youtube": "None", "website": "None", "summary": "None", "logo": "None", "latitude": 42.29884713154261, "longitude": -83.00632920820559}, "118966944RR0001": {"name": "IMMACULATE CONCEPTION UKRAINIAN CATHOLIC PARISH", "designationCode": "C", "categoryCode": "38", "address": "BOX 35 GRP 23 RR2", "city": "DUGALD", "province": "MB", "country": "CA", "postalCode": "R0E0K0", "twitter": "None", "instagram": "None", "facebook": "None", "youtube": "None", "website": "None", "summary": "None", "logo": "None", "latitude": 49.88499864004564, "longitude": -96.36123557915003}, "891483745RR0001": {"name": "IMMACULATE CONCEPTION UKRANIAN CATHOLIC CHURCH OF CALMAR, ALBERTA", "designationCode": "C", "categoryCode": "38", "address": "BOX 368", "city": "CALMAR", "province": "AB", "country": "CA", "postalCode": "T0C0V0", "twitter": "None", "instagram": "None", "facebook": "None", "youtube": "None", "website": "None", "summary": "None", "logo": "None", "latitude": 53.265040000000056, "longitude": -113.80454999999995}, "140728973RR0001": {"name": "IMMACULATE HEART DAY CARE SOCIETY", "designationCode": "C", "categoryCode": "49", "address": "747 ALDERSON AVE.", "city": "VANCOUVER", "province": "BC", "country": "CA", "postalCode": "V3K1T9", "twitter": "None", "instagram": "None", "facebook": "None", "youtube": "None", "website": "None", "summary": "None", "logo": "None", "latitude": 49.23974952264969, "longitude": -122.87751380682671}, "118966977RR0001": {"name": "IMMACULATE HEART OF MARY CHURCH", "designationCode": "C", "categoryCode": "38", "address": "1082 HIGHWAY 17B, EAST", "city": "GARDEN RIVER", "province": "ON", "country": "CA", "postalCode": "P6A6Z5", "twitter": "None", "instagram": "None", "facebook": "None", "youtube": "None", "website": "None", "summary": "None", "logo": "None", "latitude": 46.54692711274082, "longitude": -84.16444761026654}, "119109817RR0055": {"name": "IMMACULATE HEART OF MARY CHURCH", "designationCode": "C", "categoryCode": "38", "address": "159 ANN ST", "city": "PARKHILL", "province": "ON", "country": "CA", "postalCode": "N0M2K0", "twitter": "None", "instagram": "None", "facebook": "None", "youtube": "None", "website": "None", "summary": "None", "logo": "None", "latitude": 43.159477299780896, "longitude": -81.68683684681254}, "118841055RR0008": {"name": "IMMACULATE HEART OF MARY MISSION", "designationCode": "C", "categoryCode": "38", "address": "26 JOHNSTON AVE.              PO BOX 68", "city": "TESLIN", "province": "YT", "country": "CA", "postalCode": "Y0A1B0", "twitter": "None", "instagram": "None", "facebook": "None", "youtube": "None", "website": "None", "summary": "None", "logo": "None", "latitude": 60.16457482632574, "longitude": -132.72386840397476}, "118966993RR0001": {"name": "IMMACULATE HEART OF MARY MISSION, HINES CREEK", "designationCode": "C", "categoryCode": "38", "address": "P.O. BOX 634", "city": "HINES CREEK", "province": "AB", "country": "CA", "postalCode": "T0H2A0", "twitter": "None", "instagram": "None", "facebook": "None", "youtube": "None", "website": "None", "summary": "None", "logo": "None", "latitude": 56.250050000000044, "longitude": -118.60277999999994}, "107307191RR0055": {"name": "IMMACULATE HEART OF MARY PARISH", "designationCode": "C", "categoryCode": "38", "address": "BOX 367", "city": "ELROSE", "province": "SK", "country": "CA", "postalCode": "S0L0Z0", "twitter": "None", "instagram": "None", "facebook": "None", "youtube": "None", "website": "None", "summary": "None", "logo": "None", "latitude": 51.20151000000004, "longitude": -108.02729999999997}, "118849470RR0022": {"name": "IMMACULATE HEART OF MARY PARISH", "designationCode": "C", "categoryCode": "38", "address": "3105 1ST AVE E", "city": "VANCOUVER", "province": "BC", "country": "CA", "postalCode": "V5M1B6", "twitter": "None", "instagram": "None", "facebook": "None", "youtube": "None", "website": "None", "summary": "None", "logo": "None", "latitude": 49.26959646768411, "longitude": -123.03875233236194}, "119110450RR0055": {"name": "IMMACULATE HEART OF MARY PARISH", "designationCode": "C", "categoryCode": "38", "address": "934 HIGHWAY #8", "city": "STONEY CREEK", "province": "ON", "country": "CA", "postalCode": "L8E5H7", "twitter": "None", "instagram": "None", "facebook": "None", "youtube": "None", "website": "None", "summary": "None", "logo": "None", "latitude": 43.20920041359674, "longitude": -79.67963072875115}, "119122786RR0011": {"name": "IMMACULATE HEART OF MARY PARISH", "designationCode": "C", "categoryCode": "38", "address": "6500 SOUTHRIDGE AVE", "city": "PRINCE GEORGE", "province": "BC", "country": "CA", "postalCode": "V2N5P9", "twitter": "None", "instagram": "None", "facebook": "None", "youtube": "None", "website": "None", "summary": "None", "logo": "None", "latitude": 53.86420563941114, "longitude": -122.78374828519728}, "130091135RR0015": {"name": "IMMACULATE HEART OF MARY PARISH", "designationCode": "C", "categoryCode": "38", "address": "5 FATIMA DR", "city": "RIVERVIEW", "province": "NB", "country": "CA", "postalCode": "E1B2X8", "twitter": "None", "instagram": "None", "facebook": "None", "youtube": "None", "website": "None", "summary": "None", "logo": "None", "latitude": 46.06098423454887, "longitude": -64.80547883556459}, "107503369RR0001": {"name": "IMMACULATE HEART OF MARY SCHOOL INC.", "designationCode": "C", "categoryCode": "20", "address": "650 FLORA AVENUE", "city": "WINNIPEG", "province": "MB", "country": "CA", "postalCode": "R2W2S5", "twitter": "None", "instagram": "None", "facebook": "None", "youtube": "None", "website": "None", "summary": "None", "logo": "None"}, "128967353RR0003": {"name": "IMMACULATE HEART OF MARY'S PARISH,", "designationCode": "C", "categoryCode": "38", "address": "1758 ALTA VISTA DR", "city": "OTTAWA", "province": "ON", "country": "CA", "postalCode": "K1G0G6", "twitter": "None", "instagram": "None", "facebook": "None", "youtube": "None", "website": "None", "summary": "None", "logo": "None", "latitude": 45.4024646594724, "longitude": -75.66199231383759}, "107503401RR0002": {"name": "IMMANUEL ANGLICAN CHURCH", "designationCode": "C", "categoryCode": "30", "address": "123 HILLSIDE DRIVE,           BOX 472", "city": "MILLET", "province": "AB", "country": "CA", "postalCode": "T0C1Z0", "twitter": "None", "instagram": "None", "facebook": "None", "youtube": "None", "website": "None", "summary": "None", "logo": "None", "latitude": 53.08656204827184, "longitude": -113.48134872935566}, "118967116RR0001": {"name": "IMMANUEL ASSEMBLY OF GOD CHURCH OF CALGARY", "designationCode": "C", "categoryCode": "36", "address": "1512 FIRST ST S W", "city": "CALGARY", "province": "AB", "country": "CA", "postalCode": "T2R0W1", "twitter": "None", "instagram": "None", "facebook": "None", "youtube": "None", "website": "None", "summary": "None", "logo": "None", "latitude": 51.03805379516996, "longitude": -114.06595745348852}, "107503435RR0001": {"name": "IMMANUEL BAPTIST CHURCH", "designationCode": "C", "categoryCode": "31", "address": "BOX 747", "city": "FENELON FALLS", "province": "ON", "country": "CA", "postalCode": "K0M1N0", "twitter": "None", "instagram": "None", "facebook": "None", "youtube": "None", "website": "None", "summary": "None", "logo": "None", "latitude": 44.53769008050088, "longitude": -78.74108993782103}, "107503443RR0001": {"name": "IMMANUEL BAPTIST CHURCH", "designationCode": "C", "categoryCode": "31", "address": "605 VINE ST", "city": "ST CATHARINES", "province": "ON", "country": "CA", "postalCode": "L2M3V4", "twitter": "None", "instagram": "None", "facebook": "None", "youtube": "None", "website": "None", "summary": "None", "logo": "None", "latitude": 43.20739738190318, "longitude": -79.23174066922459}, "107503468RR0001": {"name": "IMMANUEL BAPTIST CHURCH", "designationCode": "C", "categoryCode": "31", "address": "66 PORT ST                    (AT ERIE AVE)", "city": "BRANTFORD", "province": "ON", "country": "CA", "postalCode": "N3S1Y4", "twitter": "None", "instagram": "None", "facebook": "None", "youtube": "None", "website": "None", "summary": "None", "logo": "None", "latitude": 43.1314002035463, "longitude": -80.25794970285095}, "118967140RR0001": {"name": "IMMANUEL BAPTIST CHURCH", "designationCode": "C", "categoryCode": "31", "address": "1100 FINCH AVE E", "city": "WILLOWDALE", "province": "ON", "country": "CA", "postalCode": "M2J2X4", "twitter": "None", "instagram": "None", "facebook": "None", "youtube": "None", "website": "None", "summary": "None", "logo": "None", "latitude": 43.792360078596225, "longitude": -79.3563290523112}, "795459890RR0001": {"name": "IMMANUEL BAPTIST CHURCH", "designationCode": "C", "categoryCode": "31", "address": "109 40TH AVE E", "city": "VANCOUVER", "province": "BC", "country": "CA", "postalCode": "V5W1L6", "twitter": "None", "instagram": "None", "facebook": "None", "youtube": "None", "website": "None", "summary": "None", "logo": "None", "latitude": 49.23454250432783, "longitude": -123.10348016472386}, "869795302RR0001": {"name": "IMMANUEL BAPTIST CHURCH (BLIND RIVER)", "designationCode": "C", "categoryCode": "31", "address": "P.O. BOX 3", "city": "BLIND RIVER", "province": "ON", "country": "CA", "postalCode": "P0R1B0", "twitter": "None", "instagram": "None", "facebook": "None", "youtube": "None", "website": "None", "summary": "None", "logo": "None", "latitude": 46.18674000000004, "longitude": -82.95378999999997}, "107503500RR0001": {"name": "IMMANUEL CANADIAN REFORMED CHURCH", "designationCode": "C", "categoryCode": "39", "address": "21112-35 AVE", "city": "EDMONTON", "province": "AB", "country": "CA", "postalCode": "T6M2P6", "twitter": "None", "instagram": "None", "facebook": "None", "youtube": "None", "website": "None", "summary": "None", "logo": "None", "latitude": 53.46861048268775, "longitude": -113.68370160935426}, "868478108RR0001": {"name": "IMMANUEL CHRISTIAN FELLOWSHIP", "designationCode": "C", "categoryCode": "39", "address": "4798 GLADSTONE STREET", "city": "VANCOUVER", "province": "BC", "country": "CA", "postalCode": "V5N5A5", "twitter": "None", "instagram": "None", "facebook": "None", "youtube": "None", "website": "None", "summary": "None", "logo": "None", "latitude": 49.241726046627036, "longitude": -123.0627720094064}, "118967215RR0001": {"name": "IMMANUEL CHRISTIAN REFORMED CHURCH", "designationCode": "C", "categoryCode": "39", "address": "7600 NO.4 RD", "city": "RICHMOND", "province": "BC", "country": "CA", "postalCode": "V6Y2T5", "twitter": "None", "instagram": "None", "facebook": "None", "youtube": "None", "website": "None", "summary": "None", "logo": "None", "latitude": 49.15732474854292, "longitude": -123.11408051546591}, "107503526RR0001": {"name": "IMMANUEL CHRISTIAN REFORMED CHURCH of Cornwall, Ontario", "designationCode": "C", "categoryCode": "39", "address": "2264 PITT STREET", "city": "CORNWALL", "province": "ON", "country": "CA", "postalCode": "K6K1A3", "twitter": "None", "instagram": "None", "facebook": "None", "youtube": "None", "website": "None", "summary": "None", "logo": "None", "latitude": 45.058276510935606, "longitude": -74.76068993845529}, "107503567RR0001": {"name": "IMMANUEL CHRISTIAN REFORMED CHURCH OF HAMILTON", "designationCode": "C", "categoryCode": "39", "address": "61 MOHAWK ROAD WEST", "city": "HAMILTON", "province": "ON", "country": "CA", "postalCode": "L9C1V9", "twitter": "None", "instagram": "None", "facebook": "None", "youtube": "None", "website": "None", "summary": "None", "logo": "None", "latitude": 43.229724983005795, "longitude": -79.8853994031679}, "118967207RR0001": {"name": "IMMANUEL CHRISTIAN REFORMED CHURCH OF SIMCOE", "designationCode": "C", "categoryCode": "39", "address": "758 NORFOLK ST N", "city": "SIMCOE", "province": "ON", "country": "CA", "postalCode": "N3Y3R5", "twitter": "None", "instagram": "None", "facebook": "None", "youtube": "None", "website": "None", "summary": "None", "logo": "None", "latitude": 42.855786911737574, "longitude": -80.31055520304103}}