{"803847375RR0001": {"name": "The Coptic Orthodox Diocese of Mississauga, Vancouver & Western Canada", "designationCode": "C", "categoryCode": "49", "address": "1245 EGLINTON AVENUE WEST", "city": "MISSISSAUGA", "province": "ON", "country": "CA", "postalCode": "L5V2M4", "twitter": "None", "instagram": "None", "facebook": "None", "youtube": "None", "website": "None", "summary": "None", "logo": "None", "latitude": 43.580229043597285, "longitude": -79.68276072998991}, "804829729RR0001": {"name": "The Coptic Orthodox Diocese of Ottawa, Montr\u00e9al & Eastern Canada", "designationCode": "C", "categoryCode": "39", "address": "1081 CADBORO ROAD", "city": "GLOUCESTER", "province": "ON", "country": "CA", "postalCode": "K1J7T8", "twitter": "None", "instagram": "None", "facebook": "None", "youtube": "None", "website": "None", "summary": "None", "logo": "None", "latitude": 45.43271886652417, "longitude": -75.62185052461251}, "868709973RR0001": {"name": "The CornerStone Academy of Biblical Studies (CABS) Inc", "designationCode": "C", "categoryCode": "20", "address": "1196 WELLINGTON ST", "city": "OTTAWA", "province": "ON", "country": "CA", "postalCode": "K1Y2Z5", "twitter": "None", "instagram": "None", "facebook": "None", "youtube": "None", "website": "None", "summary": "None", "logo": "None", "latitude": 45.40049723561673, "longitude": -75.72981387425712}, "865965685RR0001": {"name": "The Cornwallis Reformed Presbyterian Association", "designationCode": "C", "categoryCode": "52", "address": "43 SHERWOOD DRIVE", "city": "WOLFVILLE", "province": "NS", "country": "CA", "postalCode": "B4P2K5", "twitter": "None", "instagram": "None", "facebook": "None", "youtube": "None", "website": "None", "summary": "None", "logo": "None", "latitude": 45.08900705551385, "longitude": -64.34762697749453}, "119212512RR0001": {"name": "The Corporation of the Anglican Parish of the Nerepis and St. John", "designationCode": "C", "categoryCode": "30", "address": "20 MACDONALD AVENUE", "city": "GRAND BAY-WESTFIELD", "province": "NB", "country": "CA", "postalCode": "E5K0B3", "twitter": "None", "instagram": "None", "facebook": "None", "youtube": "None", "website": "None", "summary": "None", "logo": "None", "latitude": 45.30694466357739, "longitude": -66.19558638001651}, "118784248RR0001": {"name": "The Corporation of the Municipality of Mississippi Mills Public Library Board", "designationCode": "C", "categoryCode": "50", "address": "BOX 820", "city": "ALMONTE", "province": "ON", "country": "CA", "postalCode": "K0A1A0", "twitter": "None", "instagram": "None", "facebook": "None", "youtube": "None", "website": "None", "summary": "None", "logo": "None", "latitude": 45.223665000000054, "longitude": -76.20363799999993}, "825754237RR0001": {"name": "The Corporation of Bloor West Village Baptist Church", "designationCode": "C", "categoryCode": "31", "address": "293 SOUTH KINGSWAY", "city": "TORONTO", "province": "ON", "country": "CA", "postalCode": "M6S3V4", "twitter": "None", "instagram": "None", "facebook": "None", "youtube": "None", "website": "None", "summary": "None", "logo": "None", "latitude": 43.64771502527542, "longitude": -79.4847907700101}, "832876445RR0001": {"name": "The Corporation of First Baptist Church, Barrie", "designationCode": "C", "categoryCode": "31", "address": "550 GROVE STREET E", "city": "BARRIE", "province": "ON", "country": "CA", "postalCode": "L4M5Z5", "twitter": "None", "instagram": "None", "facebook": "None", "youtube": "None", "website": "None", "summary": "None", "logo": "None", "latitude": 44.404594394973564, "longitude": -79.64845958076062}, "119228641RR0001": {"name": "The Corporation of Spanish and Portugese Jews, Shearith Isr ael, of Montreal", "designationCode": "C", "categoryCode": "42", "address": "4894 ST KEVIN AVENUE", "city": "MONTREAL", "province": "QC", "country": "CA", "postalCode": "H3W1P2", "twitter": "None", "instagram": "None", "facebook": "None", "youtube": "None", "website": "None", "summary": "None", "logo": "None", "latitude": 45.48995616651289, "longitude": -73.63202667981442}, "119163160RR0001": {"name": "The Corporation of St. Andrew, Alliston", "designationCode": "C", "categoryCode": "30", "address": "125 WELLINGTON ST W", "city": "ALLISTON", "province": "ON", "country": "CA", "postalCode": "L9R1H8", "twitter": "None", "instagram": "None", "facebook": "None", "youtube": "None", "website": "None", "summary": "None", "logo": "None", "latitude": 44.15166979819972, "longitude": -79.87486577087547}, "832265029RR0001": {"name": "The Corpus Christi Foundation", "designationCode": "B", "categoryCode": "03", "address": "383 HURON STREET EAST", "city": "TORONTO", "province": "ON", "country": "CA", "postalCode": "M5S2G5", "twitter": "None", "instagram": "None", "facebook": "None", "youtube": "None", "website": "None", "summary": "None", "logo": "None", "latitude": 43.66585592506776, "longitude": -79.40096721507317}, "842265498RR0001": {"name": "The Cote Sharp Family Foundation", "designationCode": "B", "categoryCode": "03", "address": "400 EAU CLAIRE AVENUE S.W.    #2204", "city": "CALGARY", "province": "AB", "country": "CA", "postalCode": "T2P4X2", "twitter": "None", "instagram": "None", "facebook": "None", "youtube": "None", "website": "None", "summary": "None", "logo": "None", "latitude": 51.05252436235344, "longitude": -114.07158574533746}, "120259510RR0001": {"name": "The Counselling Centre for Hope, Healing and Encouragement, Inc.", "designationCode": "C", "categoryCode": "49", "address": "335 9TH ST", "city": "BRANDON", "province": "MB", "country": "CA", "postalCode": "R7A4A8", "twitter": "None", "instagram": "None", "facebook": "None", "youtube": "None", "website": "None", "summary": "None", "logo": "None", "latitude": 49.84447500000002, "longitude": -99.95005038602946}, "119233716RR0001": {"name": "The Cowan Foundation", "designationCode": "B", "categoryCode": "23", "address": "705 FOUNTAIN ST N", "city": "CAMBRIDGE", "province": "ON", "country": "CA", "postalCode": "N1R5T2", "twitter": "None", "instagram": "None", "facebook": "None", "youtube": "None", "website": "None", "summary": "None", "logo": "None", "latitude": 43.4064410130704, "longitude": -80.37159568769162}, "842267692RR0001": {"name": "The Cowansville Cemetery Company", "designationCode": "C", "categoryCode": "50", "address": "127, RUE PRINCIPALE           SUITE 105", "city": "COWANSVILLE", "province": "QC", "country": "CA", "postalCode": "J2K1J3", "twitter": "None", "instagram": "None", "facebook": "None", "youtube": "None", "website": "None", "summary": "None", "logo": "None", "latitude": 45.20770304527071, "longitude": -72.74698908133753}, "713755890RR0001": {"name": "The Cowell Foundation", "designationCode": "B", "categoryCode": "13", "address": "13611 SMALLWOOD PL", "city": "RICHMOND", "province": "BC", "country": "CA", "postalCode": "V6V1W8", "twitter": "None", "instagram": "None", "facebook": "None", "youtube": "None", "website": "None", "summary": "None", "logo": "None", "latitude": 49.172466575596076, "longitude": -123.07739666056894}, "816584056RR0001": {"name": "The Cranery Foundation", "designationCode": "B", "categoryCode": "05", "address": "184 ALEXANDRA BOULEVARD", "city": "TORONTO", "province": "ON", "country": "CA", "postalCode": "M4R1M4", "twitter": "None", "instagram": "None", "facebook": "None", "youtube": "None", "website": "None", "summary": "None", "logo": "None", "latitude": 43.71534911408613, "longitude": -79.41008851333021}, "836111153RR0001": {"name": "The Creamery Square Heritage Society", "designationCode": "C", "categoryCode": "50", "address": "PO BOX 402", "city": "TATAMAGOUCHE", "province": "NS", "country": "CA", "postalCode": "B0K1V0", "twitter": "None", "instagram": "None", "facebook": "None", "youtube": "None", "website": "None", "summary": "None", "logo": "None", "latitude": 45.71288526208159, "longitude": -63.415849046616174}, "886568252RR0001": {"name": "The Create Institute", "designationCode": "C", "categoryCode": "20", "address": "PO BOX 31046 725 COLLEGE ST W", "city": "TORONTO", "province": "ON", "country": "CA", "postalCode": "M6G1C1", "twitter": "None", "instagram": "None", "facebook": "None", "youtube": "None", "website": "None", "summary": "None", "logo": "None", "latitude": 43.65508779315075, "longitude": -79.41934570771558}, "119192615RR0001": {"name": "The Creek Community Church of The Christian and Missionary Alliance in Canada", "designationCode": "C", "categoryCode": "39", "address": "#1-168 BARTON ST.", "city": "STONEYCREEK", "province": "ON", "country": "CA", "postalCode": "L8E4V6", "twitter": "None", "instagram": "None", "facebook": "None", "youtube": "None", "website": "None", "summary": "None", "logo": "None", "latitude": 43.23234580483615, "longitude": -79.73925539774353}, "837901628RR0001": {"name": "The Crescent Valley Resource Centre Inc.", "designationCode": "C", "categoryCode": "09", "address": "130 MACLAREN BOULEVARD", "city": "SAINT JOHN", "province": "NB", "country": "CA", "postalCode": "E2K3G3", "twitter": "None", "instagram": "None", "facebook": "None", "youtube": "None", "website": "None", "summary": "None", "logo": "None", "latitude": 45.28985611656763, "longitude": -66.07510456757463}, "850053828RR0001": {"name": "The Crinoline Foundation", "designationCode": "B", "categoryCode": "05", "address": "1402-1 KING ST W", "city": "HAMILTON", "province": "ON", "country": "CA", "postalCode": "L8P1A4", "twitter": "None", "instagram": "None", "facebook": "None", "youtube": "None", "website": "None", "summary": "None", "logo": "None", "latitude": 43.26019321073324, "longitude": -79.88135629363086}, "779644715RR0001": {"name": "The Crooked Lake Cemetery Company", "designationCode": "C", "categoryCode": "59", "address": "669 3 AVE NW", "city": "CALGARY", "province": "AB", "country": "CA", "postalCode": "T2N0J2", "twitter": "None", "instagram": "None", "facebook": "None", "youtube": "None", "website": "None", "summary": "None", "logo": "None", "latitude": 51.05894991006414, "longitude": -114.07857899443141}, "752047126RR0001": {"name": "The Cross Church", "designationCode": "C", "categoryCode": "39", "address": "15 LAMBETH RD ETOBICOKE ON", "city": "ETOBICOKE", "province": "ON", "country": "CA", "postalCode": "M9A2Y5", "twitter": "None", "instagram": "None", "facebook": "None", "youtube": "None", "website": "None", "summary": "None", "logo": "None", "latitude": 43.66131611376901, "longitude": -79.52084494866975}, "815252168RR0001": {"name": "The Crossing Christian Church", "designationCode": "C", "categoryCode": "39", "address": "29 DEERBROOKE DR", "city": "DARTMOUTH", "province": "NS", "country": "CA", "postalCode": "B2V1W4", "twitter": "None", "instagram": "None", "facebook": "None", "youtube": "None", "website": "None", "summary": "None", "logo": "None", "latitude": 44.66250990201405, "longitude": -63.49311102472716}, "118818491RR0111": {"name": "The Crossing Seventh-day Adventist Church", "designationCode": "C", "categoryCode": "41", "address": "PO 1000", "city": "ABBOTSFORD", "province": "BC", "country": "CA", "postalCode": "V2S4P5", "twitter": "None", "instagram": "None", "facebook": "None", "youtube": "None", "website": "None", "summary": "None", "logo": "None", "latitude": 49.03851300000005, "longitude": -122.29441549999993}, "844513978RR0001": {"name": "The Crossway Ministries", "designationCode": "C", "categoryCode": "39", "address": "28 PICTORIAL STREET", "city": "TORONTO", "province": "ON", "country": "CA", "postalCode": "M1C4J5", "twitter": "None", "instagram": "None", "facebook": "None", "youtube": "None", "website": "None", "summary": "None", "logo": "None", "latitude": 43.796890131831056, "longitude": -79.18176520693618}, "856553185RR0001": {"name": "The CrossCurrent", "designationCode": "C", "categoryCode": "39", "address": "8211 KUDO DR", "city": "MISSION", "province": "BC", "country": "CA", "postalCode": "V2V7J5", "twitter": "None", "instagram": "None", "facebook": "None", "youtube": "None", "website": "None", "summary": "None", "logo": "None", "latitude": 49.15136468443072, "longitude": -122.3212739689535}, "836214650RR0001": {"name": "The Crowsnest Community Foundation", "designationCode": "A", "categoryCode": "03", "address": "POST OFFICE BOX 123", "city": "BLAIRMORE", "province": "AB", "country": "CA", "postalCode": "T0K0E0", "twitter": "None", "instagram": "None", "facebook": "None", "youtube": "None", "website": "None", "summary": "None", "logo": "None", "latitude": 49.491268008524564, "longitude": -113.94719278131039}, "821543667RR0001": {"name": "The Curly Adams Fund Inc.", "designationCode": "C", "categoryCode": "54", "address": "1 CAMPBELL DR", "city": "ROTHESAY", "province": "NB", "country": "CA", "postalCode": "E2E5B6", "twitter": "None", "instagram": "None", "facebook": "None", "youtube": "None", "website": "None", "summary": "None", "logo": "None", "latitude": 45.381637654740565, "longitude": -65.97964710770947}, "720100726RR0001": {"name": "The CE Academy", "designationCode": "C", "categoryCode": "20", "address": "155 QUEEN STREET EAST", "city": "MISSISSAUGA", "province": "ON", "country": "CA", "postalCode": "L5G1N2", "twitter": "None", "instagram": "None", "facebook": "None", "youtube": "None", "website": "None", "summary": "None", "logo": "None", "latitude": 43.56092425561203, "longitude": -79.58131070217566}, "822847026RR0001": {"name": "The CLAC Foundation", "designationCode": "C", "categoryCode": "29", "address": "14920 118 AVE NW", "city": "EDMONTON", "province": "AB", "country": "CA", "postalCode": "T5V1B8", "twitter": "None", "instagram": "None", "facebook": "None", "youtube": "None", "website": "None", "summary": "None", "logo": "None", "latitude": 53.57050816740698, "longitude": -113.57964919419344}, "819209107RR0001": {"name": "The D.A.R.T.S. Foundation", "designationCode": "A", "categoryCode": "03", "address": "235 BIRCH AVENUE,", "city": "HAMILTON", "province": "ON", "country": "CA", "postalCode": "L8L0B7", "twitter": "None", "instagram": "None", "facebook": "None", "youtube": "None", "website": "None", "summary": "None", "logo": "None", "latitude": 43.26105196476992, "longitude": -79.838213673668}, "807075171RR0001": {"name": "The Daccord Family Foundation", "designationCode": "B", "categoryCode": "03", "address": "206 - 2421 BRISTOL CIR", "city": "OAKVILLE", "province": "ON", "country": "CA", "postalCode": "L6H5S9", "twitter": "None", "instagram": "None", "facebook": "None", "youtube": "None", "website": "None", "summary": "None", "logo": "None", "latitude": 43.519618413555236, "longitude": -79.67967458338634}, "860666619RR0001": {"name": "The Dale Howard Lastman Charitable Foundation", "designationCode": "B", "categoryCode": "05", "address": "BAY ADELAIDE CENTRE           333 BAY STREET SUITE 3400", "city": "TORONTO", "province": "ON", "country": "CA", "postalCode": "M5H2S7", "twitter": "None", "instagram": "None", "facebook": "None", "youtube": "None", "website": "None", "summary": "None", "logo": "None", "latitude": 43.65025349737428, "longitude": -79.38084819908858}, "830171773RR0001": {"name": "The Dalt Hicks Family Foundation", "designationCode": "B", "categoryCode": "03", "address": "3250 LLOYDTOWN-AURORA RD", "city": "KING", "province": "ON", "country": "CA", "postalCode": "L7B0G3", "twitter": "None", "instagram": "None", "facebook": "None", "youtube": "None", "website": "None", "summary": "None", "logo": "None", "latitude": 44.0034196717634, "longitude": -79.58070013079185}, "889327466RR0001": {"name": "The Dam - Develop Assist Mentor", "designationCode": "C", "categoryCode": "49", "address": "PO BOX 21217 RPO MEADOWVALE", "city": "MISSISSAUGA", "province": "ON", "country": "CA", "postalCode": "L5N6A2", "twitter": "None", "instagram": "None", "facebook": "None", "youtube": "None", "website": "None", "summary": "None", "logo": "None", "latitude": 43.6057725179135, "longitude": -79.75966853445514}, "706656329RR0001": {"name": "The Damascus Road Foundation", "designationCode": "B", "categoryCode": "43", "address": "605 AVENUE ROAD", "city": "CAMBRIDGE", "province": "ON", "country": "CA", "postalCode": "N1R5S4", "twitter": "None", "instagram": "None", "facebook": "None", "youtube": "None", "website": "None", "summary": "None", "logo": "None", "latitude": 43.38320720237721, "longitude": -80.28376537220831}, "832744791RR0001": {"name": "The Daniel Family Foundation", "designationCode": "B", "categoryCode": "03", "address": "200 - 116 8 AVE SE", "city": "CALGARY", "province": "AB", "country": "CA", "postalCode": "T2G0K6", "twitter": "None", "instagram": "None", "facebook": "None", "youtube": "None", "website": "None", "summary": "None", "logo": "None", "latitude": 51.04551346378896, "longitude": -114.06208988773155}, "752073726RR0001": {"name": "The Daniel Generation Ministries", "designationCode": "A", "categoryCode": "03", "address": "311 GLENWOOD ST.", "city": "PETERBOROUGH", "province": "ON", "country": "CA", "postalCode": "K9L2B2", "twitter": "None", "instagram": "None", "facebook": "None", "youtube": "None", "website": "None", "summary": "None", "logo": "None", "latitude": 44.35743493089616, "longitude": -78.31106771798736}, "743403297RR0001": {"name": "The Daniel J. and Ann Marie Thompson Foundation", "designationCode": "B", "categoryCode": "23", "address": "2361 MAIN STREET", "city": "LONDON", "province": "ON", "country": "CA", "postalCode": "N6P1A7", "twitter": "None", "instagram": "None", "facebook": "None", "youtube": "None", "website": "None", "summary": "None", "logo": "None", "latitude": 42.91119208191446, "longitude": -81.29360611099902}, "821105467RR0001": {"name": "The Daughters for Life Foundation", "designationCode": "C", "categoryCode": "21", "address": "200-158 PEARL ST", "city": "TORONTO", "province": "ON", "country": "CA", "postalCode": "M5H1L3", "twitter": "None", "instagram": "None", "facebook": "None", "youtube": "None", "website": "None", "summary": "None", "logo": "None", "latitude": 43.647696197905155, "longitude": -79.38790996225976}, "839270691RR0001": {"name": "The Dave Andreychuk Foundation", "designationCode": "C", "categoryCode": "09", "address": "2-558 UPPER GAGE AVENUE", "city": "HAMILTON", "province": "ON", "country": "CA", "postalCode": "L8V4J6", "twitter": "None", "instagram": "None", "facebook": "None", "youtube": "None", "website": "None", "summary": "None", "logo": "None", "latitude": 43.22840842076861, "longitude": -79.83889320208874}, "834696577RR0001": {"name": "The David and Judy Rothschild Charitable Foundation / La fondation de bienfaisance David et Judy Rothschild", "designationCode": "B", "categoryCode": "03", "address": "6125 DE VIMY AVENUE", "city": "MONTR\u00c9AL", "province": "QC", "country": "CA", "postalCode": "H3S2R2", "twitter": "None", "instagram": "None", "facebook": "None", "youtube": "None", "website": "None", "summary": "None", "logo": "None", "latitude": 45.51293229421766, "longitude": -73.6196115345376}, "757720693RR0001": {"name": "The David and Miray Granovsky Family Foundation", "designationCode": "B", "categoryCode": "05", "address": "1605 MCEWEN DR", "city": "WHITBY", "province": "ON", "country": "CA", "postalCode": "L1N7L4", "twitter": "None", "instagram": "None", "facebook": "None", "youtube": "None", "website": "None", "summary": "None", "logo": "None", "latitude": 43.85853131138568, "longitude": -78.89788306754505}, "860217959RR0001": {"name": "The David and Stacey Cynamon Family Foundation", "designationCode": "B", "categoryCode": "05", "address": "486 RUSSELL HILL ROAD", "city": "TORONTO", "province": "ON", "country": "CA", "postalCode": "M5P2S7", "twitter": "None", "instagram": "None", "facebook": "None", "youtube": "None", "website": "None", "summary": "None", "logo": "None", "latitude": 43.6985574626638, "longitude": -79.41349383308308}, "819861733RR0001": {"name": "The David Alexander Stein Memorial Foundation", "designationCode": "A", "categoryCode": "03", "address": "200 BAY STREET                SUITE 2600", "city": "TORONTO", "province": "ON", "country": "CA", "postalCode": "M5J2J1", "twitter": "None", "instagram": "None", "facebook": "None", "youtube": "None", "website": "None", "summary": "None", "logo": "None", "latitude": 43.64635885622373, "longitude": -79.37932458843532}, "835241415RR0001": {"name": "The David Cornfield Melanoma Fund", "designationCode": "C", "categoryCode": "11", "address": "328 GLEN MANOR DRIVE", "city": "TORONTO", "province": "ON", "country": "CA", "postalCode": "M4E2X7", "twitter": "None", "instagram": "None", "facebook": "None", "youtube": "None", "website": "None", "summary": "None", "logo": "None", "latitude": 43.67646273301967, "longitude": -79.29407552097625}, "801010802RR0001": {"name": "The David Family Foundation / La Fondation de la Famille David", "designationCode": "B", "categoryCode": "03", "address": "5690 ROYALMOUNT", "city": "TOWN OF MOUNT ROYAL", "province": "QC", "country": "CA", "postalCode": "H4P1K4", "twitter": "None", "instagram": "None", "facebook": "None", "youtube": "None", "website": "None", "summary": "None", "logo": "None", "latitude": 45.49195374686948, "longitude": -73.66939301206078}, "119229441RR0001": {"name": "The David Gelber Family Foundation/La Fondation Famille David Gelber", "designationCode": "B", "categoryCode": "03", "address": "600 - 615 BOUL RENE-LEVESQUE O", "city": "MONTREAL", "province": "QC", "country": "CA", "postalCode": "H3B1P5", "twitter": "None", "instagram": "None", "facebook": "None", "youtube": "None", "website": "None", "summary": "None", "logo": "None", "latitude": 45.50281258618496, "longitude": -73.56671187818093}, "845386705RR0001": {"name": "The David Gregory MacKinnon Memorial Foundation", "designationCode": "B", "categoryCode": "03", "address": "2032 PORTAGE ROAD,", "city": "NIAGARA FALLS", "province": "ON", "country": "CA", "postalCode": "L2J4J7", "twitter": "None", "instagram": "None", "facebook": "None", "youtube": "None", "website": "None", "summary": "None", "logo": "None", "latitude": 43.13956198415965, "longitude": -79.08134809576426}, "819566183RR0001": {"name": "The David Hearn Foundation", "designationCode": "B", "categoryCode": "03", "address": "200 - 532 QUEEN ST E", "city": "TORONTO", "province": "ON", "country": "CA", "postalCode": "M5A1V2", "twitter": "None", "instagram": "None", "facebook": "None", "youtube": "None", "website": "None", "summary": "None", "logo": "None", "latitude": 43.657106132407975, "longitude": -79.3578282320387}, "820550986RR0001": {"name": "The David J.D. Harris Foundation", "designationCode": "B", "categoryCode": "05", "address": "300 - 77 CITY CENTRE DR", "city": "MISSISSAUGA", "province": "ON", "country": "CA", "postalCode": "L5B1M5", "twitter": "None", "instagram": "None", "facebook": "None", "youtube": "None", "website": "None", "summary": "None", "logo": "None", "latitude": 43.592433717987355, "longitude": -79.63885024626389}, "830552493RR0001": {"name": "The David S. Howes Foundation", "designationCode": "B", "categoryCode": "03", "address": "300 - 20 CORPORATE PARK DR", "city": "ST CATHARINES", "province": "ON", "country": "CA", "postalCode": "L2S3W2", "twitter": "None", "instagram": "None", "facebook": "None", "youtube": "None", "website": "None", "summary": "None", "logo": "None", "latitude": 43.176616703272195, "longitude": -79.2739951090658}, "833896152RR0001": {"name": "The David/Jonathan Project", "designationCode": "C", "categoryCode": "09", "address": "5074 EIGHTH LINE              RR 101", "city": "GEORGETOWN", "province": "ON", "country": "CA", "postalCode": "L7G4S4", "twitter": "None", "instagram": "None", "facebook": "None", "youtube": "None", "website": "None", "summary": "None", "logo": "None", "latitude": 43.68558476865224, "longitude": -79.9744043055013}, "831656038RR0001": {"name": "The Dawson and Patricia Campbell Charitable Foundation", "designationCode": "B", "categoryCode": "03", "address": "2644 ROSEBERY AVE", "city": "WEST VANCOUVER", "province": "BC", "country": "CA", "postalCode": "V7V3A2", "twitter": "None", "instagram": "None", "facebook": "None", "youtube": "None", "website": "None", "summary": "None", "logo": "None", "latitude": 49.343445736020776, "longitude": -123.18674577396256}, "820127934RR0001": {"name": "The Dawson Family Sharing Foundation", "designationCode": "B", "categoryCode": "03", "address": "51 MOREAU TRAIL", "city": "SCARBOROUGH", "province": "ON", "country": "CA", "postalCode": "M1L4V3", "twitter": "None", "instagram": "None", "facebook": "None", "youtube": "None", "website": "None", "summary": "None", "logo": "None", "latitude": 43.708926373304834, "longitude": -79.28324391476733}, "840441232RR0001": {"name": "The Daylight Project", "designationCode": "C", "categoryCode": "09", "address": "56 FAIRWAY DRIVE", "city": "AURORA", "province": "ON", "country": "CA", "postalCode": "L4G2H1", "twitter": "None", "instagram": "None", "facebook": "None", "youtube": "None", "website": "None", "summary": "None", "logo": "None", "latitude": 43.988637161838355, "longitude": -79.47111803165207}, "850142050RR0001": {"name": "The Deep River Environmental Support Group", "designationCode": "C", "categoryCode": "59", "address": "BOX 463 30 THOMAS ST", "city": "DEEP RIVER", "province": "ON", "country": "CA", "postalCode": "K0J1P0", "twitter": "None", "instagram": "None", "facebook": "None", "youtube": "None", "website": "None", "summary": "None", "logo": "None", "latitude": 46.10732264917197, "longitude": -77.50863728876465}, "829383983RR0001": {"name": "The Deker Bauer Foundation For Suicide Prevention", "designationCode": "C", "categoryCode": "09", "address": "385 LONDON RD", "city": "SARNIA", "province": "ON", "country": "CA", "postalCode": "N7T4W4", "twitter": "None", "instagram": "None", "facebook": "None", "youtube": "None", "website": "None", "summary": "None", "logo": "None", "latitude": 42.97794690637161, "longitude": -82.39223712215745}, "870983343RR0001": {"name": "The Deloraine and Area Donor's Choice", "designationCode": "A", "categoryCode": "05", "address": "BOX 345", "city": "DELORAINE", "province": "MB", "country": "CA", "postalCode": "R0M0M0", "twitter": "None", "instagram": "None", "facebook": "None", "youtube": "None", "website": "None", "summary": "None", "logo": "None", "latitude": 49.19157000000007, "longitude": -100.49399999999997}, "118785013RR0001": {"name": "The Dementia Society of Ottawa and Renfrew County/La Soci\u00e9t\u00e9de la d\u00e9mence d'Ottawa et du comte de Renfrew", "designationCode": "C", "categoryCode": "11", "address": "1750 RUSSELL RD", "city": "OTTAWA", "province": "ON", "country": "CA", "postalCode": "K1G5Z6", "twitter": "None", "instagram": "None", "facebook": "None", "youtube": "None", "website": "None", "summary": "None", "logo": "None", "latitude": 45.40545686727489, "longitude": -75.63413763685045}, "816137814RR0001": {"name": "The Denham Family Legacy Foundation", "designationCode": "B", "categoryCode": "09", "address": "6050,47TH STREET", "city": "INNISFAIL", "province": "AB", "country": "CA", "postalCode": "T4G1V8", "twitter": "None", "instagram": "None", "facebook": "None", "youtube": "None", "website": "None", "summary": "None", "logo": "None", "latitude": 52.02601635858966, "longitude": -113.97852347876395}, "871943973RR0001": {"name": "The Department of Everything", "designationCode": "C", "categoryCode": "21", "address": "849 ST CATHERINES ROAD", "city": "BONSHAW", "province": "PE", "country": "CA", "postalCode": "C0A1C0", "twitter": "None", "instagram": "None", "facebook": "None", "youtube": "None", "website": "None", "summary": "None", "logo": "None", "latitude": 46.19689874606139, "longitude": -63.30725469940569}, "824899397RR0001": {"name": "The Derrick Outreach Fellowship of Leduc", "designationCode": "C", "categoryCode": "39", "address": "4301 34 AVE", "city": "LEDUC", "province": "AB", "country": "CA", "postalCode": "T9E6B3", "twitter": "None", "instagram": "None", "facebook": "None", "youtube": "None", "website": "None", "summary": "None", "logo": "None", "latitude": 53.24662854674261, "longitude": -113.53506338773155}, "131604464RR0001": {"name": "The Dharma Centre of Canada", "designationCode": "C", "categoryCode": "49", "address": "1886 GALWAY ROAD", "city": "KINMOUNT", "province": "ON", "country": "CA", "postalCode": "K0M2A0", "twitter": "None", "instagram": "None", "facebook": "None", "youtube": "None", "website": "None", "summary": "None", "logo": "None", "latitude": 44.773662236456786, "longitude": -78.52815033459848}, "808422307RR0001": {"name": "The Di Marco Family Foundation", "designationCode": "B", "categoryCode": "03", "address": "330 APPLEWOOD CRESCENT", "city": "CONCORD", "province": "ON", "country": "CA", "postalCode": "L4K4V2", "twitter": "None", "instagram": "None", "facebook": "None", "youtube": "None", "website": "None", "summary": "None", "logo": "None", "latitude": 43.80695148346717, "longitude": -79.53947460571798}, "817849235RR0001": {"name": "The Diabetes Leadership Foundation", "designationCode": "B", "categoryCode": "13", "address": "11 CHURCH STREET              SUITE 200", "city": "TORONTO", "province": "ON", "country": "CA", "postalCode": "M5E1W1", "twitter": "None", "instagram": "None", "facebook": "None", "youtube": "None", "website": "None", "summary": "None", "logo": "None", "latitude": 43.6478392872641, "longitude": -79.37349023048084}, "843760331RR0001": {"name": "The Diaper Bank of Toronto", "designationCode": "A", "categoryCode": "03", "address": "300 DOUGLAS DRIVE", "city": "TORONTO", "province": "ON", "country": "CA", "postalCode": "M4W2C2", "twitter": "None", "instagram": "None", "facebook": "None", "youtube": "None", "website": "None", "summary": "None", "logo": "None", "latitude": 43.68737709354256, "longitude": -79.3703168519532}, "711218925RR0001": {"name": "The Dickhout Family Foundation", "designationCode": "B", "categoryCode": "03", "address": "361 BLYTHWOOD RD", "city": "TORONTO", "province": "ON", "country": "CA", "postalCode": "M4N1A7", "twitter": "None", "instagram": "None", "facebook": "None", "youtube": "None", "website": "None", "summary": "None", "logo": "None", "latitude": 43.71893275102441, "longitude": -79.38873523382772}, "854004496RR0001": {"name": "The Dickson Family Foundation", "designationCode": "B", "categoryCode": "05", "address": "P.O.BOX 45", "city": "THORNBURY", "province": "ON", "country": "CA", "postalCode": "N0H2P0", "twitter": "None", "instagram": "None", "facebook": "None", "youtube": "None", "website": "None", "summary": "None", "logo": "None", "latitude": 44.561600000000055, "longitude": -80.45108999999997}, "811199785RR0001": {"name": "The Diener Cultural Foundation", "designationCode": "A", "categoryCode": "03", "address": "6199 SUNSHINE COAST HWY", "city": "SECHELT", "province": "BC", "country": "CA", "postalCode": "V0N3A7", "twitter": "None", "instagram": "None", "facebook": "None", "youtube": "None", "website": "None", "summary": "None", "logo": "None", "latitude": 49.46775635550259, "longitude": -123.78542163471658}, "832915227RR0001": {"name": "The Dignity Fund", "designationCode": "C", "categoryCode": "09", "address": "5123 - 51 AVENUE", "city": "STONY PLAIN", "province": "AB", "country": "CA", "postalCode": "T7Z1C2", "twitter": "None", "instagram": "None", "facebook": "None", "youtube": "None", "website": "None", "summary": "None", "logo": "None", "latitude": 53.528394434935514, "longitude": -114.01295152706443}, "808892905RR0001": {"name": "The Dilawri Foundation", "designationCode": "B", "categoryCode": "03", "address": "300 - 133 KING ST E", "city": "TORONTO", "province": "ON", "country": "CA", "postalCode": "M5C1G6", "twitter": "None", "instagram": "None", "facebook": "None", "youtube": "None", "website": "None", "summary": "None", "logo": "None", "latitude": 43.65010771827583, "longitude": -79.3733854299152}, "828227264RR0001": {"name": "The Diocese of Central & Eastern Canada of the Reformed Episcopal Church", "designationCode": "C", "categoryCode": "39", "address": "134 EMERSON STREET", "city": "HAMILTON", "province": "ON", "country": "CA", "postalCode": "L8S2X8", "twitter": "None", "instagram": "None", "facebook": "None", "youtube": "None", "website": "None", "summary": "None", "logo": "None", "latitude": 43.25386540827511, "longitude": -79.92140123232717}, "886708395RR0001": {"name": "The Divine Avataric Holy Institution of Global Adidam Ruchiradam, Canada", "designationCode": "C", "categoryCode": "39", "address": "302-44 EMMERSON AVE", "city": "OTTAWA", "province": "ON", "country": "CA", "postalCode": "K1Y2L8", "twitter": "None", "instagram": "None", "facebook": "None", "youtube": "None", "website": "None", "summary": "None", "logo": "None", "latitude": 45.40997999858636, "longitude": -75.73377563445679}, "801015009RR0001": {"name": "The DiCapo Family Foundation", "designationCode": "B", "categoryCode": "03", "address": "130 KING STREET WEST          SUITE 2210", "city": "TORONTO", "province": "ON", "country": "CA", "postalCode": "M5X1E4", "twitter": "None", "instagram": "None", "facebook": "None", "youtube": "None", "website": "None", "summary": "None", "logo": "None", "latitude": 43.64798216515656, "longitude": -79.38336717805407}, "820269595RR0001": {"name": "The Doctor Bird Project", "designationCode": "C", "categoryCode": "11", "address": "915 KING STREET WEST          SUITE 401", "city": "TORONTO", "province": "ON", "country": "CA", "postalCode": "M6K3M2", "twitter": "None", "instagram": "None", "facebook": "None", "youtube": "None", "website": "None", "summary": "None", "logo": "None", "latitude": 43.64162204801202, "longitude": -79.41259450986774}, "849989314RR0001": {"name": "The Dominion Faith Center", "designationCode": "C", "categoryCode": "39", "address": "1694 RADCLIFFE DRIVE", "city": "OSHAWA", "province": "ON", "country": "CA", "postalCode": "L1K2T3", "twitter": "None", "instagram": "None", "facebook": "None", "youtube": "None", "website": "None", "summary": "None", "logo": "None", "latitude": 43.94644171827583, "longitude": -78.87080796364472}, "805600251RR0001": {"name": "The Dominion Ordnance Museum Inc.", "designationCode": "C", "categoryCode": "50", "address": "1557 HON. J. ANGUS MACLEAN RD RR 3", "city": "BELLE RIVER", "province": "PE", "country": "CA", "postalCode": "C0A1B0", "twitter": "None", "instagram": "None", "facebook": "None", "youtube": "None", "website": "None", "summary": "None", "logo": "None", "latitude": 46.04705272938434, "longitude": -62.78191634318197}, "823290192RR0001": {"name": "The Don and Joan Walker Family Charitable Trust", "designationCode": "B", "categoryCode": "03", "address": "15180 BATHURST ST", "city": "KING CITY", "province": "ON", "country": "CA", "postalCode": "L7B1K5", "twitter": "None", "instagram": "None", "facebook": "None", "youtube": "None", "website": "None", "summary": "None", "logo": "None", "latitude": 43.9912120038665, "longitude": -79.49368859357028}, "843389693RR0001": {"name": "The Don and Marion McDougall Foundation", "designationCode": "B", "categoryCode": "05", "address": "39 HAIG STREET", "city": "STRATFORD", "province": "ON", "country": "CA", "postalCode": "N5A5J4", "twitter": "None", "instagram": "None", "facebook": "None", "youtube": "None", "website": "None", "summary": "None", "logo": "None", "latitude": 43.37830783236194, "longitude": -80.97204623310658}, "721547891RR0001": {"name": "The Don And Nita Reed Family Foundation", "designationCode": "B", "categoryCode": "03", "address": "53 DINNICK CRESCENT", "city": "TORONTO", "province": "ON", "country": "CA", "postalCode": "M4N1L7", "twitter": "None", "instagram": "None", "facebook": "None", "youtube": "None", "website": "None", "summary": "None", "logo": "None", "latitude": 43.72291714181438, "longitude": -79.39742035250147}, "802416552RR0001": {"name": "The Don Doucet Memorial Scholarship Fund", "designationCode": "C", "categoryCode": "21", "address": "580 SECOND LINE EAST", "city": "SAULT STE MARIE", "province": "ON", "country": "CA", "postalCode": "P6B4K1", "twitter": "None", "instagram": "None", "facebook": "None", "youtube": "None", "website": "None", "summary": "None", "logo": "None", "latitude": 46.53840752380355, "longitude": -84.3221028820474}, "810503003RR0001": {"name": "The Donald K.Jackson Family Foundation", "designationCode": "B", "categoryCode": "03", "address": "105 BEDFORD ROAD", "city": "TORONTO", "province": "ON", "country": "CA", "postalCode": "M5R2K4", "twitter": "None", "instagram": "None", "facebook": "None", "youtube": "None", "website": "None", "summary": "None", "logo": "None", "latitude": 43.67190342215359, "longitude": -79.3987807704428}, "820717064RR0001": {"name": "The Donald Kaye Foundation", "designationCode": "B", "categoryCode": "03", "address": "3400-10180 101 ST NW          MANULIFE PLACE", "city": "EDMONTON", "province": "AB", "country": "CA", "postalCode": "T5J3S4", "twitter": "None", "instagram": "None", "facebook": "None", "youtube": "None", "website": "None", "summary": "None", "logo": "None", "latitude": 53.54248000000007, "longitude": -113.4937400678048}, "841934615RR0001": {"name": "The Door Church", "designationCode": "C", "categoryCode": "39", "address": "2009 CINNABAR DRIVE", "city": "NANAIMO", "province": "BC", "country": "CA", "postalCode": "V9X1B3", "twitter": "None", "instagram": "None", "facebook": "None", "youtube": "None", "website": "None", "summary": "None", "logo": "None", "latitude": 49.104153408823386, "longitude": -123.93207175197576}, "118795269RR0001": {"name": "The Dormition of the Mother of God Ukrainian Catholic Parish", "designationCode": "C", "categoryCode": "38", "address": "8700 RAILWAY AVE", "city": "RICHMOND", "province": "BC", "country": "CA", "postalCode": "V7C3K3", "twitter": "None", "instagram": "None", "facebook": "None", "youtube": "None", "website": "None", "summary": "None", "logo": "None", "latitude": 49.14924300000001, "longitude": -123.16980903378779}, "135010304RR0001": {"name": "The Dormition of the Mother of God Ukrainian Catholic Parish", "designationCode": "C", "categoryCode": "38", "address": "1091 CORONATION AVE.,", "city": "KELOWNA", "province": "BC", "country": "CA", "postalCode": "V1Y7A8", "twitter": "None", "instagram": "None", "facebook": "None", "youtube": "None", "website": "None", "summary": "None", "logo": "None", "latitude": 49.892502278168806, "longitude": -119.47731877576457}, "831882832RR0001": {"name": "The Doug & Gloria MacDonald Foundation Inc.", "designationCode": "B", "categoryCode": "03", "address": "POST OFFICE BOX 893", "city": "MONCTON", "province": "NB", "country": "CA", "postalCode": "E1C8N8", "twitter": "None", "instagram": "None", "facebook": "None", "youtube": "None", "website": "None", "summary": "None", "logo": "None", "latitude": 46.08834900000005, "longitude": -64.77824149999994}, "809714090RR0001": {"name": "The Doug and June Barber Family Foundation", "designationCode": "B", "categoryCode": "05", "address": "134 GRANT BOULEVARD", "city": "DUNDAS", "province": "ON", "country": "CA", "postalCode": "L9H6J4", "twitter": "None", "instagram": "None", "facebook": "None", "youtube": "None", "website": "None", "summary": "None", "logo": "None", "latitude": 43.26422349708582, "longitude": -79.92973768307439}, "813883485RR0001": {"name": "The Douglas A. Smith Family Foundation", "designationCode": "B", "categoryCode": "03", "address": "154 HIGHWAY 540B              PO BOX 390", "city": "GORE BAY", "province": "ON", "country": "CA", "postalCode": "P0P1H0", "twitter": "None", "instagram": "None", "facebook": "None", "youtube": "None", "website": "None", "summary": "None", "logo": "None", "latitude": 45.909011923770045, "longitude": -82.47094688500917}, "836328989RR0001": {"name": "The Douglas Family Foundation", "designationCode": "B", "categoryCode": "03", "address": "140 GLEN ROAD", "city": "TORONTO", "province": "ON", "country": "CA", "postalCode": "M8W2W3", "twitter": "None", "instagram": "None", "facebook": "None", "youtube": "None", "website": "None", "summary": "None", "logo": "None", "latitude": 43.68343091450753, "longitude": -79.37352031308778}, "871860391RR0001": {"name": "The Downright Canadian Theatre Company", "designationCode": "C", "categoryCode": "22", "address": "UNIT 12 12110 40TH ST SE", "city": "CALGARY", "province": "AB", "country": "CA", "postalCode": "T2V0E5", "twitter": "None", "instagram": "None", "facebook": "None", "youtube": "None", "website": "None", "summary": "None", "logo": "None", "latitude": 50.942327447140535, "longitude": -113.97508410444951}, "855474060RR0001": {"name": "The Downsview Youth Covenant", "designationCode": "C", "categoryCode": "09", "address": "2259 JANE STREET,", "city": "TORONTO", "province": "ON", "country": "CA", "postalCode": "M3M1A6", "twitter": "None", "instagram": "None", "facebook": "None", "youtube": "None", "website": "None", "summary": "None", "logo": "None", "latitude": 43.726654812106844, "longitude": -79.50998497108924}, "833816259RR0001": {"name": "The Dr. and Mrs. H. Patrick Higgins Memorial Scholarship Fund", "designationCode": "B", "categoryCode": "03", "address": "177 GLENROSE AVENUE", "city": "TORONTO", "province": "ON", "country": "CA", "postalCode": "M4T1K7", "twitter": "None", "instagram": "None", "facebook": "None", "youtube": "None", "website": "None", "summary": "None", "logo": "None", "latitude": 43.68999880930822, "longitude": -79.38009676366211}, "864383674RR0001": {"name": "The Dr. Dasha Goody Memorial Foundation", "designationCode": "C", "categoryCode": "22", "address": "95 VALLEYVIEW CRESCENT", "city": "EDMONTON", "province": "AB", "country": "CA", "postalCode": "T5R5T2", "twitter": "None", "instagram": "None", "facebook": "None", "youtube": "None", "website": "None", "summary": "None", "logo": "None", "latitude": 53.51716648043738, "longitude": -113.55603268910525}, "837548304RR0001": {"name": "The Dr. Frederick Mechner Barnard Scholarship Trust", "designationCode": "B", "categoryCode": "25", "address": "2560-255 QUEENS AVE", "city": "LONDON", "province": "ON", "country": "CA", "postalCode": "N6A5R8", "twitter": "None", "instagram": "None", "facebook": "None", "youtube": "None", "website": "None", "summary": "None", "logo": "None", "latitude": 42.98595510794062, "longitude": -81.24674240853491}, "739002699RR0001": {"name": "The Dr. Gerard and Judy Losier Family Foundation Inc.", "designationCode": "B", "categoryCode": "03", "address": "30 NICHOL ST", "city": "MIRAMICHI", "province": "NB", "country": "CA", "postalCode": "E1N2Z4", "twitter": "None", "instagram": "None", "facebook": "None", "youtube": "None", "website": "None", "summary": "None", "logo": "None", "latitude": 47.017483837901864, "longitude": -65.47213313685137}, "824220792RR0001": {"name": "The Dr. Michael Smith Science Fair Endowment", "designationCode": "A", "categoryCode": "21", "address": "PO BOX 72067                  UNIT 31,4429 KINGSWAY", "city": "BURNABY", "province": "BC", "country": "CA", "postalCode": "V5H4P9", "twitter": "None", "instagram": "None", "facebook": "None", "youtube": "None", "website": "None", "summary": "None", "logo": "None", "latitude": 49.230641907639935, "longitude": -123.00609421227455}}