{"812584662RR0001": {"name": "Association for Nonprofit and Social Economy Research of Canada / L'Association de recherche sur les organismes sans but lucratif et de l'\u00e9conomie sociale du Canada", "designationCode": "C", "categoryCode": "21", "address": "138 UNION STREET              317, SUTHERLAND HALL", "city": "KINGSTON", "province": "ON", "country": "CA", "postalCode": "K7L3N6", "twitter": "None", "instagram": "None", "facebook": "None", "youtube": "None", "website": "None", "summary": "None", "logo": "None", "latitude": 44.22754237720843, "longitude": -76.49814863065494}, "106732027RR0001": {"name": "Association foresti\u00e8re du sud du Qu\u00e9bec inc.", "designationCode": "B", "categoryCode": "52", "address": "138 WELLINGTON NORD STE 100", "city": "SHERBROOKE", "province": "QC", "country": "CA", "postalCode": "J1H5C5", "twitter": "None", "instagram": "None", "facebook": "None", "youtube": "None", "website": "None", "summary": "None", "logo": "None", "latitude": 45.403581373304846, "longitude": -71.89164417150454}, "860685882RR0001": {"name": "Association internationale des droits de l'enfant en difficult\u00e9 et dans la souffrance / International Association for the Rights of Needy and Suffering Children", "designationCode": "C", "categoryCode": "09", "address": "410 - 4035 RUE SAINT-AMBROISE", "city": "MONTREAL", "province": "QC", "country": "CA", "postalCode": "H4C2E1", "twitter": "None", "instagram": "None", "facebook": "None", "youtube": "None", "website": "None", "summary": "None", "logo": "None", "latitude": 45.47570931141435, "longitude": -73.5802494296554}, "809293137RR0001": {"name": "Association le chemin id\u00e9al / Ideal Way Association", "designationCode": "C", "categoryCode": "09", "address": "18 - 10 RUE NOEL", "city": "GATINEAU", "province": "QC", "country": "CA", "postalCode": "J8Z3G5", "twitter": "None", "instagram": "None", "facebook": "None", "youtube": "None", "website": "None", "summary": "None", "logo": "None", "latitude": 45.46720399832656, "longitude": -75.7353792924869}, "868063090RR0001": {"name": "Association of Canadian Peacemakers International", "designationCode": "C", "categoryCode": "03", "address": "8107 44TH AVENUE", "city": "EDMONTON", "province": "AB", "country": "CA", "postalCode": "T6K0Z3", "twitter": "None", "instagram": "None", "facebook": "None", "youtube": "None", "website": "None", "summary": "None", "logo": "None", "latitude": 53.48296863056166, "longitude": -113.4579954770905}, "139537724RR0001": {"name": "Association of Christian Evangelical Ministries (Canada)", "designationCode": "C", "categoryCode": "39", "address": "2750. 14TH AVENUE             SUITE G- 05", "city": "MARKHAM", "province": "ON", "country": "CA", "postalCode": "L3R0B6", "twitter": "None", "instagram": "None", "facebook": "None", "youtube": "None", "website": "None", "summary": "None", "logo": "None", "latitude": 43.83015298424562, "longitude": -79.35888136612013}, "880753215RR0001": {"name": "Association of Christian Ministries (Vancouver)", "designationCode": "C", "categoryCode": "39", "address": "15881 28 AVE", "city": "SURREY", "province": "BC", "country": "CA", "postalCode": "V3Z0E5", "twitter": "None", "instagram": "None", "facebook": "None", "youtube": "None", "website": "None", "summary": "None", "logo": "None", "latitude": 49.05290416126973, "longitude": -122.78265932800228}, "824903223RR0001": {"name": "Association of Family and Conciliation Courts (AFCC), Ontario Chapter", "designationCode": "C", "categoryCode": "21", "address": "2200 - 393 UNIVERSITY AVE", "city": "TORONTO", "province": "ON", "country": "CA", "postalCode": "M5G1E6", "twitter": "None", "instagram": "None", "facebook": "None", "youtube": "None", "website": "None", "summary": "None", "logo": "None", "latitude": 43.653861019995304, "longitude": -79.38771027999343}, "823654694RR0001": {"name": "Association of Friends of the Annapolis Royal Library", "designationCode": "C", "categoryCode": "50", "address": "285 ST GEORGE ST", "city": "ANNAPOLIS ROYAL", "province": "NS", "country": "CA", "postalCode": "B0S1A0", "twitter": "None", "instagram": "None", "facebook": "None", "youtube": "None", "website": "None", "summary": "None", "logo": "None", "latitude": 44.74313471022575, "longitude": -65.51928875148575}, "814517801RR0001": {"name": "Association of Health Sciences Archives and Museums of Nova Scotia", "designationCode": "C", "categoryCode": "53", "address": "5845 INGLEWOOD DR", "city": "HALIFAX", "province": "NS", "country": "CA", "postalCode": "B3H1B2", "twitter": "None", "instagram": "None", "facebook": "None", "youtube": "None", "website": "None", "summary": "None", "logo": "None", "latitude": 44.624143885105816, "longitude": -63.57536161131615}, "835949595RR0001": {"name": "Association of Related Churches Canada", "designationCode": "C", "categoryCode": "59", "address": "6788 152 ST", "city": "SURREY", "province": "BC", "country": "CA", "postalCode": "V3S3L4", "twitter": "None", "instagram": "None", "facebook": "None", "youtube": "None", "website": "None", "summary": "None", "logo": "None", "latitude": 49.125788360811356, "longitude": -122.80094805326348}, "106733876RR0001": {"name": "Association pour int\u00e9gration communautaire de N\u00e9guac Inc.", "designationCode": "C", "categoryCode": "59", "address": "978 ROUTE 445", "city": "FAIRISLE", "province": "NB", "country": "CA", "postalCode": "E9G2X7", "twitter": "None", "instagram": "None", "facebook": "None", "youtube": "None", "website": "None", "summary": "None", "logo": "None", "latitude": 47.2875718723947, "longitude": -65.11840426137543}, "892305673RR0001": {"name": "Association pour l'int\u00e9gration sociale (Rouyn-Noranda) inc.", "designationCode": "C", "categoryCode": "09", "address": "1249 AVENUE GRANADA", "city": "ROUYN-NORANDA", "province": "QC", "country": "CA", "postalCode": "J9Y1G8", "twitter": "None", "instagram": "None", "facebook": "None", "youtube": "None", "website": "None", "summary": "None", "logo": "None", "latitude": 48.209768925356244, "longitude": -79.02127449789481}, "848881066RR0001": {"name": "Association pour la diffusion de l'\u00e9vangile de Puvirnituq / Full Gospel Messenger of Puvirnituq", "designationCode": "C", "categoryCode": "39", "address": "1795 PARKHURST", "city": "LONDON", "province": "ON", "country": "CA", "postalCode": "N5V2C4", "twitter": "None", "instagram": "None", "facebook": "None", "youtube": "None", "website": "None", "summary": "None", "logo": "None", "latitude": 43.007119042443456, "longitude": -81.18372245960536}, "837804178RR0001": {"name": "Association pour la diffusion de la musique d'Auguste Descarries (ADMAD)", "designationCode": "C", "categoryCode": "22", "address": "3785 RUE DROLET", "city": "MONTR\u00c9AL", "province": "QC", "country": "CA", "postalCode": "H2W2L1", "twitter": "None", "instagram": "None", "facebook": "None", "youtube": "None", "website": "None", "summary": "None", "logo": "None", "latitude": 45.518593064400655, "longitude": -73.57287103981771}, "815590914RR0001": {"name": "Association pour la protection des milieux humides de la Cumberland", "designationCode": "C", "categoryCode": "59", "address": "517 ROUTE TAYLOR", "city": "ST-GEORGES", "province": "QC", "country": "CA", "postalCode": "G5Y5C2", "twitter": "None", "instagram": "None", "facebook": "None", "youtube": "None", "website": "None", "summary": "None", "logo": "None", "latitude": 46.19460036522609, "longitude": -70.62152597241597}, "810116624RR0001": {"name": "Association pour la sant\u00e9 environnementale du Qu\u00e9bec (ASEQ)", "designationCode": "C", "categoryCode": "11", "address": "1065 MONT\u00c9E ST-ELMIRE", "city": "ST-SAUVEUR", "province": "QC", "country": "CA", "postalCode": "J0R1R1", "twitter": "None", "instagram": "None", "facebook": "None", "youtube": "None", "website": "None", "summary": "None", "logo": "None", "latitude": 45.84359006301568, "longitude": -74.18891077061568}, "829023001RR0001": {"name": "Association pour les personnes ayant une d\u00e9ficience intellectuelle du suroit (APDIS)", "designationCode": "B", "categoryCode": "09", "address": "150 ST-EUG\u00c8NE", "city": "VALLEYFIELD", "province": "QC", "country": "CA", "postalCode": "J6S2G7", "twitter": "None", "instagram": "None", "facebook": "None", "youtube": "None", "website": "None", "summary": "None", "logo": "None", "latitude": 45.26388200248151, "longitude": -74.11473115696225}, "850080557RR0001": {"name": "Association pour venir en aide aux enfants des pays en voie de d\u00e9veloppement - La Vie", "designationCode": "C", "categoryCode": "09", "address": "2211 RUE PALERME", "city": "LAVAL", "province": "QC", "country": "CA", "postalCode": "H7K2E8", "twitter": "None", "instagram": "None", "facebook": "None", "youtube": "None", "website": "None", "summary": "None", "logo": "None", "latitude": 45.61627648600597, "longitude": -73.72980355689883}, "131768467RR0002": {"name": "Association pour L'integration communautaire de Grand-Sault inc.", "designationCode": "C", "categoryCode": "21", "address": "475 TERRACE STREET", "city": "GRAND FALLS", "province": "NB", "country": "CA", "postalCode": "E3Z1B3", "twitter": "None", "instagram": "None", "facebook": "None", "youtube": "None", "website": "None", "summary": "None", "logo": "None", "latitude": 47.047860808471505, "longitude": -67.75208076120927}, "118794809RR0001": {"name": "Association pour Personnes Handicap\u00e9es de Papineau", "designationCode": "C", "categoryCode": "09", "address": "1165 ROUTE 321 NORD", "city": "ST-ANDRE AVELLIN", "province": "QC", "country": "CA", "postalCode": "J0V1W0", "twitter": "None", "instagram": "None", "facebook": "None", "youtube": "None", "website": "None", "summary": "None", "logo": "None", "latitude": 45.800057043527225, "longitude": -75.06445636308253}, "888700135RR0001": {"name": "Association pour Personnes Handicap\u00e9es Visuelles de L'Abitibi-T\u00e9miscamingue", "designationCode": "C", "categoryCode": "11", "address": "380, RUE RICHARD              BUREAU 230", "city": "ROUYN-NORANDA", "province": "QC", "country": "CA", "postalCode": "J9X4L3", "twitter": "None", "instagram": "None", "facebook": "None", "youtube": "None", "website": "None", "summary": "None", "logo": "None", "latitude": 47.62731530416289, "longitude": -79.49091167452076}, "863691374RR0001": {"name": "Association pr\u00e9vention suicide Premi\u00e8res Nations et Inuits du Qu\u00e9bec", "designationCode": "C", "categoryCode": "09", "address": "202 - 3177 RUE SAINT-JACQUES", "city": "MONTREAL", "province": "QC", "country": "CA", "postalCode": "H4C1G7", "twitter": "None", "instagram": "None", "facebook": "None", "youtube": "None", "website": "None", "summary": "None", "logo": "None", "latitude": 45.48345054705975, "longitude": -73.580204534018}, "822256368RR0001": {"name": "Association qu\u00e9b\u00e9coise de parents d'enfants souffrant de certains handicaps", "designationCode": "C", "categoryCode": "09", "address": "1155 BOUL RENE-LEVESQUE O     UNITE 4000", "city": "MONTREAL", "province": "QC", "country": "CA", "postalCode": "H3B3V2", "twitter": "None", "instagram": "None", "facebook": "None", "youtube": "None", "website": "None", "summary": "None", "logo": "None", "latitude": 45.498612132119526, "longitude": -73.5705753094811}, "890853187RR0001": {"name": "Association qu\u00e9b\u00e9coise des centres communautaires pour ain\u00e9s", "designationCode": "C", "categoryCode": "09", "address": "7715, AV. PAPINEAU, PORTE 102", "city": "MONTREAL", "province": "QC", "country": "CA", "postalCode": "H2E2H4", "twitter": "None", "instagram": "None", "facebook": "None", "youtube": "None", "website": "None", "summary": "None", "logo": "None", "latitude": 45.55139124314722, "longitude": -73.61481241796999}, "851882019RR0001": {"name": "Association qu\u00e9b\u00e9coise des troubles d'apprentissage (AQETA) Section r\u00e9gionale Estrie", "designationCode": "C", "categoryCode": "11", "address": "1265 RUE BELVEDERE S", "city": "SHERBROOKE", "province": "QC", "country": "CA", "postalCode": "J1H4E2", "twitter": "None", "instagram": "None", "facebook": "None", "youtube": "None", "website": "None", "summary": "None", "logo": "None", "latitude": 45.387105841797, "longitude": -71.89628018890276}, "868288978RR0001": {"name": "Association qu\u00e9b\u00e9coise du lymphoed\u00e8me (1999) /Lymphedema Association of Quebec (1999)", "designationCode": "C", "categoryCode": "11", "address": "6565 RUE SAINT HUBERT", "city": "MONTREAL", "province": "QC", "country": "CA", "postalCode": "H2S2M5", "twitter": "None", "instagram": "None", "facebook": "None", "youtube": "None", "website": "None", "summary": "None", "logo": "None", "latitude": 45.53666222482536, "longitude": -73.60410815929951}, "816630644RR0001": {"name": "Association qu\u00e9b\u00e9coise du lymphoed\u00e8me / Lymphedema Association of Qu\u00e9bec", "designationCode": "C", "categoryCode": "11", "address": "6565 SAINT-HUBERT STREET", "city": "MONTREAL", "province": "QC", "country": "CA", "postalCode": "H2S2M5", "twitter": "None", "instagram": "None", "facebook": "None", "youtube": "None", "website": "None", "summary": "None", "logo": "None", "latitude": 45.53666222482536, "longitude": -73.60410815929951}, "885047969RR0001": {"name": "Association qu\u00e9b\u00e9coise pour l'apprentissage continue/Quebec Association for Lifelong Learning (QALL)", "designationCode": "C", "categoryCode": "21", "address": "11 RUE STAIRS", "city": "KNOWLTON", "province": "QC", "country": "CA", "postalCode": "J0E1V0", "twitter": "None", "instagram": "None", "facebook": "None", "youtube": "None", "website": "None", "summary": "None", "logo": "None", "latitude": 45.2037259221456, "longitude": -72.55568503410417}, "840486906RR0001": {"name": "Association scl\u00e9rose en plaques Gasp\u00e9sie", "designationCode": "C", "categoryCode": "11", "address": "17 ROUTE CORMIER", "city": "PABOS-MILLS", "province": "QC", "country": "CA", "postalCode": "G0C2J0", "twitter": "None", "instagram": "None", "facebook": "None", "youtube": "None", "website": "None", "summary": "None", "logo": "None", "latitude": 48.33738187099622, "longitude": -64.73533027661695}, "815775739RR0001": {"name": "Association Bouddhique Tue Quang Temple Buddhist Association", "designationCode": "C", "categoryCode": "35", "address": "337 ROLLING HILLS DRIVE", "city": "WAVERLEY", "province": "NS", "country": "CA", "postalCode": "B2R1B7", "twitter": "None", "instagram": "None", "facebook": "None", "youtube": "None", "website": "None", "summary": "None", "logo": "None", "latitude": 44.76255330062297, "longitude": -63.57318526715323}, "822382792RR0001": {"name": "Association Chabad sur le Campus", "designationCode": "C", "categoryCode": "39", "address": "545 GRANDE ALLEE E", "city": "QUEBEC", "province": "QC", "country": "CA", "postalCode": "G1R2J5", "twitter": "None", "instagram": "None", "facebook": "None", "youtube": "None", "website": "None", "summary": "None", "logo": "None", "latitude": 46.805289434618395, "longitude": -71.21830937105446}, "855933396RR0001": {"name": "Association Chr\u00e9tienne pour la Francophonie (ACF)", "designationCode": "C", "categoryCode": "49", "address": "365 RUE DU PARC-INDUSTRIEL", "city": "LONGUEUIL", "province": "QC", "country": "CA", "postalCode": "J4H3V7", "twitter": "None", "instagram": "None", "facebook": "None", "youtube": "None", "website": "None", "summary": "None", "logo": "None", "latitude": 45.54690681239531, "longitude": -73.4965638235907}, "813841442RR0001": {"name": "Association Culturelle La Vie en Mouvement", "designationCode": "C", "categoryCode": "22", "address": "8532 RUE BROWN", "city": "LASALLE", "province": "QC", "country": "CA", "postalCode": "H8N1Z5", "twitter": "None", "instagram": "None", "facebook": "None", "youtube": "None", "website": "None", "summary": "None", "logo": "None", "latitude": 45.430262927001, "longitude": -73.62857023339504}, "891351645RR0001": {"name": "Association Jeannoise pour l'int\u00e9gration sociale inc.", "designationCode": "C", "categoryCode": "01", "address": "1005 RUE VERCHERES", "city": "SAINT-FELICIEN", "province": "QC", "country": "CA", "postalCode": "G8K2Z5", "twitter": "None", "instagram": "None", "facebook": "None", "youtube": "None", "website": "None", "summary": "None", "logo": "None", "latitude": 48.648203687460494, "longitude": -72.44316850276996}, "860182708RR0001": {"name": "Association Lavalloise des personnes Aidantes (ALPA)", "designationCode": "C", "categoryCode": "01", "address": "1717, BOUL. SAINT-MARTIN O    PORTE 350-A", "city": "LAVAL", "province": "QC", "country": "CA", "postalCode": "H7S1N2", "twitter": "None", "instagram": "None", "facebook": "None", "youtube": "None", "website": "None", "summary": "None", "logo": "None", "latitude": 45.56766974802332, "longitude": -73.72847386404266}, "824216220RR0001": {"name": "Association Le Savoir", "designationCode": "C", "categoryCode": "20", "address": "11950, BLVD GOUIN OUEST", "city": "MONTREAL", "province": "QC", "country": "CA", "postalCode": "H8Z1V6", "twitter": "None", "instagram": "None", "facebook": "None", "youtube": "None", "website": "None", "summary": "None", "logo": "None", "latitude": 45.50698790755396, "longitude": -73.82582393989851}, "839216330RR0001": {"name": "Association M\u00e9dicale Hell\u00e9nique du Qu\u00e9bec / Hellenic Medical Association of Qu\u00e9bec", "designationCode": "C", "categoryCode": "11", "address": "2875, AVENUE DOUGLAS", "city": "MONTR\u00c9AL", "province": "QC", "country": "CA", "postalCode": "H3R2C7", "twitter": "None", "instagram": "None", "facebook": "None", "youtube": "None", "website": "None", "summary": "None", "logo": "None", "latitude": 45.512538820156934, "longitude": -73.63636357441263}, "817923261RR0001": {"name": "Association Maison Doucet Hennessy House Association Inc.", "designationCode": "C", "categoryCode": "52", "address": "375 ST. PETER AVE", "city": "BATHURST", "province": "NB", "country": "CA", "postalCode": "E2A2Y4", "twitter": "None", "instagram": "None", "facebook": "None", "youtube": "None", "website": "None", "summary": "None", "logo": "None", "latitude": 47.62805815096098, "longitude": -65.66416434364332}, "867871477RR0001": {"name": "Association Panda Brome-Missisquoi", "designationCode": "C", "categoryCode": "09", "address": "52 RUE DUPONT                 C.P. 1734", "city": "BEDFORD", "province": "QC", "country": "CA", "postalCode": "J0J1A0", "twitter": "None", "instagram": "None", "facebook": "None", "youtube": "None", "website": "None", "summary": "None", "logo": "None", "latitude": 45.125124000000056, "longitude": -72.97295749999994}, "897515623RR0001": {"name": "Association Panda Saguenay Lac Saint-Jean", "designationCode": "C", "categoryCode": "11", "address": "1936 RUE DAVIS", "city": "JONQUIERE", "province": "QC", "country": "CA", "postalCode": "G7S3B6", "twitter": "None", "instagram": "None", "facebook": "None", "youtube": "None", "website": "None", "summary": "None", "logo": "None", "latitude": 48.42503438467314, "longitude": -71.18274945951845}, "130302235RR0001": {"name": "Association Pulmonaire du Qu\u00e9bec / Qu\u00e9bec Lung Association", "designationCode": "C", "categoryCode": "11", "address": "6070, RUE SHERBROOKE EST      BUREAU 104", "city": "MONTR\u00c9AL", "province": "QC", "country": "CA", "postalCode": "H1N1C1", "twitter": "None", "instagram": "None", "facebook": "None", "youtube": "None", "website": "None", "summary": "None", "logo": "None", "latitude": 45.57793995669118, "longitude": -73.5459023013737}, "840028971RR0001": {"name": "Association PANDA Abitibi-Ouest", "designationCode": "C", "categoryCode": "11", "address": "257 RUE PRINCIPALE            C.P 231", "city": "LA SARRE", "province": "QC", "country": "CA", "postalCode": "J9Z2X5", "twitter": "None", "instagram": "None", "facebook": "None", "youtube": "None", "website": "None", "summary": "None", "logo": "None", "latitude": 48.804848329447736, "longitude": -79.20524876807686}, "130410210RR0001": {"name": "Association PAUSE (Pour l'Accessibilit\u00e9 Universelle, le Soutien et l'Engagement)", "designationCode": "C", "categoryCode": "59", "address": "375 AVENUE BESSETTE", "city": "SAINT-JEAN-SUR-RICHELIEU", "province": "QC", "country": "CA", "postalCode": "J2X2N8", "twitter": "None", "instagram": "None", "facebook": "None", "youtube": "None", "website": "None", "summary": "None", "logo": "None", "latitude": 45.29761750562683, "longitude": -73.2331538068267}, "120587415RR0001": {"name": "Association Qu\u00e9b\u00e9coise de la Dysphasie R\u00e9gion Saguenay Lac St-Jean", "designationCode": "C", "categoryCode": "11", "address": "C.P. PLACE CENTRE-VILLE       B.P. 120", "city": "JONQUIERE", "province": "QC", "country": "CA", "postalCode": "G7X7V8", "twitter": "None", "instagram": "None", "facebook": "None", "youtube": "None", "website": "None", "summary": "None", "logo": "None", "latitude": 48.38709381188563, "longitude": -71.51813859407957}, "804791184RR0001": {"name": "Association Qu\u00e9b\u00e9coise de la Maladie de Lyme", "designationCode": "C", "categoryCode": "11", "address": "485 RTE MARIE-VICTORIN", "city": "SAINT-PIERRE-LES-BECQUETS", "province": "QC", "country": "CA", "postalCode": "G0X2Z0", "twitter": "None", "instagram": "None", "facebook": "None", "youtube": "None", "website": "None", "summary": "None", "logo": "None", "latitude": 46.485824437965285, "longitude": -72.20889460251625}, "893253377RR0001": {"name": "Association Qu\u00e9b\u00e9coise des amis du patrimoine", "designationCode": "C", "categoryCode": "52", "address": "CP 742", "city": "VICTORIAVILLE", "province": "QC", "country": "CA", "postalCode": "G6P7W7", "twitter": "None", "instagram": "None", "facebook": "None", "youtube": "None", "website": "None", "summary": "None", "logo": "None", "latitude": 46.05566100000006, "longitude": -71.95945399999994}, "140614959RR0002": {"name": "Association Qu\u00e9b\u00e9coise pour la R\u00e9adaptation Psychosociale", "designationCode": "C", "categoryCode": "11", "address": "2380 AV DU MONT-THABOR        SUITE 205", "city": "QUEBEC", "province": "QC", "country": "CA", "postalCode": "G1J3W7", "twitter": "None", "instagram": "None", "facebook": "None", "youtube": "None", "website": "None", "summary": "None", "logo": "None", "latitude": 46.83942069054757, "longitude": -71.2327553974264}, "883865016RR0001": {"name": "Association R\u00e9gionale de la Fibromyalgie de Lanaudi\u00e8re", "designationCode": "C", "categoryCode": "11", "address": "200 DE SALABERRY", "city": "JOLIETTE", "province": "QC", "country": "CA", "postalCode": "J6E4G1", "twitter": "None", "instagram": "None", "facebook": "None", "youtube": "None", "website": "None", "summary": "None", "logo": "None", "latitude": 46.018426513762904, "longitude": -73.43291349685467}, "842695942RR0001": {"name": "Association R\u00e9pit Communautaire", "designationCode": "C", "categoryCode": "01", "address": "933 NOTRE-DAME", "city": "GATINEAU", "province": "QC", "country": "CA", "postalCode": "J8P1P2", "twitter": "None", "instagram": "None", "facebook": "None", "youtube": "None", "website": "None", "summary": "None", "logo": "None", "latitude": 45.48703519790515, "longitude": -75.60119940397594}, "780802526RR0001": {"name": "Association Simon de Cyr\u00e8ne du Qu\u00e9bec", "designationCode": "C", "categoryCode": "09", "address": "500 - 1460 BOUL CREMAZIE E", "city": "MONTREAL", "province": "QC", "country": "CA", "postalCode": "H2E1A2", "twitter": "None", "instagram": "None", "facebook": "None", "youtube": "None", "website": "None", "summary": "None", "logo": "None", "latitude": 45.553144342432184, "longitude": -73.62394741667191}, "835957598RR0001": {"name": "Association Tout \u00e0 Toi / Societas Totus Tuus", "designationCode": "C", "categoryCode": "47", "address": "83 CH. DE LACHALADE", "city": "LORRAINE", "province": "QC", "country": "CA", "postalCode": "J6Z1W7", "twitter": "None", "instagram": "None", "facebook": "None", "youtube": "None", "website": "None", "summary": "None", "logo": "None", "latitude": 45.677779878988986, "longitude": -73.79097081207817}, "839103173RR0001": {"name": "Association Zil\u00e9os", "designationCode": "C", "categoryCode": "49", "address": "71 RUE, SAINT-LOUIS", "city": "VICTORIAVILLE", "province": "QC", "country": "CA", "postalCode": "G6P3P6", "twitter": "None", "instagram": "None", "facebook": "None", "youtube": "None", "website": "None", "summary": "None", "logo": "None", "latitude": 46.0562892423105, "longitude": -71.9596722226323}, "107910259RR0133": {"name": "Assomption de Notre-Dame", "designationCode": "C", "categoryCode": "38", "address": "384 HILLSIDE AVENUE", "city": "OSHAWA", "province": "ON", "country": "CA", "postalCode": "L1J6L7", "twitter": "None", "instagram": "None", "facebook": "None", "youtube": "None", "website": "None", "summary": "None", "logo": "None", "latitude": 43.88131547016764, "longitude": -78.87145777122925}, "119130144RR0001": {"name": "Assumption of the Blessed Virgin Mary Ukrainian Catholic Parish at Star-Peno", "designationCode": "C", "categoryCode": "39", "address": "PO BOX 540", "city": "LAMONT", "province": "AB", "country": "CA", "postalCode": "T0B2R0", "twitter": "None", "instagram": "None", "facebook": "None", "youtube": "None", "website": "None", "summary": "None", "logo": "None", "latitude": 53.759960000000035, "longitude": -112.77838999999994}, "848623575RR0012": {"name": "Assumption of Blessed Virgin Mary St.Mary's Church", "designationCode": "C", "categoryCode": "38", "address": "103 LYLE STREET SOUTH         PO BOX 239", "city": "GRAFTON", "province": "ON", "country": "CA", "postalCode": "K0K2G0", "twitter": "None", "instagram": "None", "facebook": "None", "youtube": "None", "website": "None", "summary": "None", "logo": "None", "latitude": 43.990485973507575, "longitude": -78.0229443024879}, "840312359RR0001": {"name": "Assumption College Catholic High School Foundation", "designationCode": "A", "categoryCode": "23", "address": "1100 HURON CHURCH ROAD", "city": "WINDSOR", "province": "ON", "country": "CA", "postalCode": "N9C2K7", "twitter": "None", "instagram": "None", "facebook": "None", "youtube": "None", "website": "None", "summary": "None", "logo": "None", "latitude": 42.29478835020726, "longitude": -83.0624360398331}, "824454847RR0001": {"name": "Assyrian TV Christian Faith Ministries", "designationCode": "C", "categoryCode": "47", "address": "777 GLEESON ROAD", "city": "MILTON", "province": "ON", "country": "CA", "postalCode": "L9T0C1", "twitter": "None", "instagram": "None", "facebook": "None", "youtube": "None", "website": "None", "summary": "None", "logo": "None", "latitude": 43.50453574438797, "longitude": -79.8439152140053}, "898537048RR0001": {"name": "Asthma Society of Canada / Soci\u00e9t\u00e9 canadienne de l'asthme", "designationCode": "C", "categoryCode": "13", "address": "401-124 MERTON ST.", "city": "TORONTO", "province": "ON", "country": "CA", "postalCode": "M4S2Z2", "twitter": "None", "instagram": "None", "facebook": "None", "youtube": "None", "website": "None", "summary": "None", "logo": "None", "latitude": 43.696880180160214, "longitude": -79.39256824744639}, "814507299RR0001": {"name": "AsthGlau Health Foundation", "designationCode": "B", "categoryCode": "13", "address": "205-190 SOMERSET STREET WEST", "city": "OTTAWA", "province": "ON", "country": "CA", "postalCode": "K2P0J4", "twitter": "None", "instagram": "None", "facebook": "None", "youtube": "None", "website": "None", "summary": "None", "logo": "None", "latitude": 45.417282214316984, "longitude": -75.69176495203543}, "815040548RR0001": {"name": "Astley Family Foundation", "designationCode": "B", "categoryCode": "03", "address": "551 NEW BEDFORD DR.", "city": "WATERLOO", "province": "ON", "country": "CA", "postalCode": "N2K4M7", "twitter": "None", "instagram": "None", "facebook": "None", "youtube": "None", "website": "None", "summary": "None", "logo": "None", "latitude": 43.51083737050622, "longitude": -80.50371414833525}, "816588313RR0001": {"name": "Aston Family Foundation", "designationCode": "B", "categoryCode": "03", "address": "1 TANNER COURT,", "city": "TORONTO", "province": "ON", "country": "CA", "postalCode": "M2M3J6", "twitter": "None", "instagram": "None", "facebook": "None", "youtube": "None", "website": "None", "summary": "None", "logo": "None", "latitude": 43.78838287036197, "longitude": -79.39808505741843}, "872374897RR0001": {"name": "Astrid Dance Society", "designationCode": "C", "categoryCode": "22", "address": "212 - 2141 HASTINGS ST E", "city": "VANCOUVER", "province": "BC", "country": "CA", "postalCode": "V5L1V2", "twitter": "None", "instagram": "None", "facebook": "None", "youtube": "None", "website": "None", "summary": "None", "logo": "None", "latitude": 49.281248812144895, "longitude": -123.06087738579878}, "819832254RR0001": {"name": "Astrolabe Musik Theatre Society", "designationCode": "C", "categoryCode": "22", "address": "6-1436 PENDRELL ST", "city": "VANCOUVER", "province": "BC", "country": "CA", "postalCode": "V6G1S4", "twitter": "None", "instagram": "None", "facebook": "None", "youtube": "None", "website": "None", "summary": "None", "logo": "None", "latitude": 49.28474176268118, "longitude": -123.13581926827841}, "819683202RR0001": {"name": "At the Cross Ministries", "designationCode": "C", "categoryCode": "49", "address": "213 WHITCHURCH MEWS,", "city": "MISSISSAUGA", "province": "ON", "country": "CA", "postalCode": "L5A4B2", "twitter": "None", "instagram": "None", "facebook": "None", "youtube": "None", "website": "None", "summary": "None", "logo": "None", "latitude": 43.58642156815156, "longitude": -79.61346304151981}, "118834456RR0008": {"name": "At the Crossroads Church", "designationCode": "C", "categoryCode": "39", "address": "P.O. BOX 231", "city": "SELKIRK", "province": "MB", "country": "CA", "postalCode": "R1A2R2", "twitter": "None", "instagram": "None", "facebook": "None", "youtube": "None", "website": "None", "summary": "None", "logo": "None", "latitude": 50.09354700000006, "longitude": -96.94742749999993}, "812695088RR0001": {"name": "At Home in Lennox & Addington", "designationCode": "C", "categoryCode": "09", "address": "76 BRIDGE ST W", "city": "NAPANEE", "province": "ON", "country": "CA", "postalCode": "K7R2C6", "twitter": "None", "instagram": "None", "facebook": "None", "youtube": "None", "website": "None", "summary": "None", "logo": "None", "latitude": 44.24701819758804, "longitude": -76.95461829597801}, "107601445RR0001": {"name": "Atelier d'histoire Mercier-Hochelaga-Maisoneuve Inc.", "designationCode": "C", "categoryCode": "22", "address": "1875 AV MORGAN", "city": "MONTREAL", "province": "QC", "country": "CA", "postalCode": "H1V2R1", "twitter": "None", "instagram": "None", "facebook": "None", "youtube": "None", "website": "None", "summary": "None", "logo": "None", "latitude": 45.55329188816426, "longitude": -73.53843214695027}, "100316132RR0001": {"name": "Atelier de l'\u00cele inc.", "designationCode": "C", "categoryCode": "22", "address": "1289, JEAN-BAPTISTE DUFRESNE", "city": "VAL-DAVID", "province": "QC", "country": "CA", "postalCode": "J0T2N0", "twitter": "None", "instagram": "None", "facebook": "None", "youtube": "None", "website": "None", "summary": "None", "logo": "None", "latitude": 46.02952914100632, "longitude": -74.20547979848817}, "840120232RR0001": {"name": "Atelier seconde chance inc./Second Chance Workshop Inc.", "designationCode": "C", "categoryCode": "59", "address": "CASE POSTALE 22", "city": "MONCTON", "province": "NB", "country": "CA", "postalCode": "E1C8R8", "twitter": "None", "instagram": "None", "facebook": "None", "youtube": "None", "website": "None", "summary": "None", "logo": "None", "latitude": 46.08834900000005, "longitude": -64.77824149999994}, "869134981RR0001": {"name": "Atelier signes d'espoir", "designationCode": "C", "categoryCode": "59", "address": "4155, 4E AVENUE OUEST", "city": "QU\u00c9BEC", "province": "QC", "country": "CA", "postalCode": "G1H7A6", "twitter": "None", "instagram": "None", "facebook": "None", "youtube": "None", "website": "None", "summary": "None", "logo": "None", "latitude": 46.839042232010044, "longitude": -71.25622507123865}, "829014760RR0001": {"name": "Atelier 850", "designationCode": "C", "categoryCode": "09", "address": "850 RUE DES SEIGNEURS         LOCAL 102", "city": "MONTREAL", "province": "QC", "country": "CA", "postalCode": "H3J1Y5", "twitter": "None", "instagram": "None", "facebook": "None", "youtube": "None", "website": "None", "summary": "None", "logo": "None", "latitude": 45.48905381903173, "longitude": -73.5719320155519}, "818900821RR0001": {"name": "Ateliers Je suis capable", "designationCode": "C", "categoryCode": "21", "address": "191 RUE DU ROI", "city": "SOREL-TRACY", "province": "QC", "country": "CA", "postalCode": "J3P4N7", "twitter": "None", "instagram": "None", "facebook": "None", "youtube": "None", "website": "None", "summary": "None", "logo": "None", "latitude": 46.03885884124874, "longitude": -73.11390629736299}, "819539461RR0001": {"name": "Athabasca Recreational Trails Association", "designationCode": "C", "categoryCode": "56", "address": "PO BOX 231", "city": "ATHABASCA", "province": "AB", "country": "CA", "postalCode": "T9S2A3", "twitter": "None", "instagram": "None", "facebook": "None", "youtube": "None", "website": "None", "summary": "None", "logo": "None", "latitude": 54.721284000000054, "longitude": -113.28321049999994}, "106735830RR0001": {"name": "Athabasca University", "designationCode": "C", "categoryCode": "20", "address": "1 UNIVERSITY DR", "city": "ATHABASCA", "province": "AB", "country": "CA", "postalCode": "T9S3A3", "twitter": "None", "instagram": "None", "facebook": "None", "youtube": "None", "website": "None", "summary": "None", "logo": "None", "latitude": 54.71745623722034, "longitude": -113.30815766596913}, "853089258RR0001": {"name": "Athens FoodBank/Crisis Fund Association", "designationCode": "C", "categoryCode": "09", "address": "PO BOX 115", "city": "ATHENS", "province": "ON", "country": "CA", "postalCode": "K0E1B0", "twitter": "None", "instagram": "None", "facebook": "None", "youtube": "None", "website": "None", "summary": "None", "logo": "None", "latitude": 44.62545000000006, "longitude": -75.95340999999996}, "830754990RR0001": {"name": "Atikokan Community Food Bank", "designationCode": "C", "categoryCode": "09", "address": "PO BOX 1747", "city": "ATIKOKAN", "province": "ON", "country": "CA", "postalCode": "P0T1C0", "twitter": "None", "instagram": "None", "facebook": "None", "youtube": "None", "website": "None", "summary": "None", "logo": "None", "latitude": 48.78243202695454, "longitude": -91.62784818644623}, "829099217RR0001": {"name": "Atikokan Youth Initiatives Incorporated", "designationCode": "C", "categoryCode": "09", "address": "PO BOX 838                    215 MAIN STREET", "city": "ATIKOKAN", "province": "ON", "country": "CA", "postalCode": "P0T1C0", "twitter": "None", "instagram": "None", "facebook": "None", "youtube": "None", "website": "None", "summary": "None", "logo": "None", "latitude": 48.75747147071387, "longitude": -91.62477016763806}, "844533158RR0001": {"name": "Atisha Buddhist Centre", "designationCode": "C", "categoryCode": "35", "address": "1823 GERRARD STREET EAST", "city": "TORONTO", "province": "ON", "country": "CA", "postalCode": "M4L2B5", "twitter": "None", "instagram": "None", "facebook": "None", "youtube": "None", "website": "None", "summary": "None", "logo": "None", "latitude": 43.67848277961806, "longitude": -79.31435393836931}, "851162461RR0001": {"name": "Atken Armenian Fund/Fondation Atken Armenian", "designationCode": "C", "categoryCode": "22", "address": "2110 RUE HARBOUR", "city": "LAVAL", "province": "QC", "country": "CA", "postalCode": "H7T2M5", "twitter": "None", "instagram": "None", "facebook": "None", "youtube": "None", "website": "None", "summary": "None", "logo": "None", "latitude": 45.551560023861796, "longitude": -73.77727932612953}, "834652695RR0001": {"name": "Atlantic Book Awards Society", "designationCode": "C", "categoryCode": "22", "address": "1480 CARLTON STREET", "city": "HALIFAX", "province": "NS", "country": "CA", "postalCode": "B3H3B7", "twitter": "None", "instagram": "None", "facebook": "None", "youtube": "None", "website": "None", "summary": "None", "logo": "None", "latitude": 44.64043858006813, "longitude": -63.584913916757884}, "827272634RR0001": {"name": "Atlantic Community Church Inc.", "designationCode": "C", "categoryCode": "31", "address": "78 RTE 880                    PO BOX 245", "city": "APOHAQUI", "province": "NB", "country": "CA", "postalCode": "E5P3L8", "twitter": "None", "instagram": "None", "facebook": "None", "youtube": "None", "website": "None", "summary": "None", "logo": "None", "latitude": 45.702805758496, "longitude": -65.6021589509025}, "859766354RR0001": {"name": "Atlantic Flamenco Productions Society", "designationCode": "C", "categoryCode": "22", "address": "35 LAKEVIEW AVE.", "city": "DARTMOUTH", "province": "NS", "country": "CA", "postalCode": "B3A3S8", "twitter": "None", "instagram": "None", "facebook": "None", "youtube": "None", "website": "None", "summary": "None", "logo": "None", "latitude": 44.67936583126541, "longitude": -63.564739350943604}, "107396905RR0018": {"name": "Atlantic Foursquare Gospel Church", "designationCode": "C", "categoryCode": "39", "address": "37 BACKLAND ROAD", "city": "KINGSTON", "province": "NB", "country": "CA", "postalCode": "E5N1E3", "twitter": "None", "instagram": "None", "facebook": "None", "youtube": "None", "website": "None", "summary": "None", "logo": "None", "latitude": 45.492775127195245, "longitude": -65.98703541314572}, "876796715RR0001": {"name": "Atlantic Journalism Awards Corporation", "designationCode": "C", "categoryCode": "21", "address": "46 SWANTON DRIVE", "city": "DARTMOUTH", "province": "NS", "country": "CA", "postalCode": "B2W2C5", "twitter": "None", "instagram": "None", "facebook": "None", "youtube": "None", "website": "None", "summary": "None", "logo": "None", "latitude": 44.67472246127881, "longitude": -63.50749421414953}, "106736390RR0001": {"name": "Atlantic Provinces Economic Council / Conseil \u00c9conomique Des Provinces De L'Atlantique", "designationCode": "C", "categoryCode": "21", "address": "5121 SACKVILLE ST, SUITE 500", "city": "HALIFAX", "province": "NS", "country": "CA", "postalCode": "B3J1K1", "twitter": "None", "instagram": "None", "facebook": "None", "youtube": "None", "website": "None", "summary": "None", "logo": "None", "latitude": 44.6468300774424, "longitude": -63.57140741701769}, "805705894RR0001": {"name": "Atlantic Society for Biblical Equality", "designationCode": "C", "categoryCode": "39", "address": "25 MERRITT DR", "city": "CANAAN.", "province": "NS", "country": "CA", "postalCode": "B4N4K1", "twitter": "None", "instagram": "None", "facebook": "None", "youtube": "None", "website": "None", "summary": "None", "logo": "None", "latitude": 45.049775299497774, "longitude": -64.46276636167673}, "822092722RR0001": {"name": "Atlantic Theravada Buddhist Cultural and Meditation Society", "designationCode": "C", "categoryCode": "35", "address": "817 HERRING COVE RD", "city": "HALIFAX", "province": "NS", "country": "CA", "postalCode": "B3R1Z1", "twitter": "None", "instagram": "None", "facebook": "None", "youtube": "None", "website": "None", "summary": "None", "logo": "None", "latitude": 44.58189195723945, "longitude": -63.58371360618027}, "846554285RR0001": {"name": "Atlantic Wellness Community Center Incorporated", "designationCode": "C", "categoryCode": "09", "address": "225 LUTZ ST", "city": "MONCTON", "province": "NB", "country": "CA", "postalCode": "E1C5G2", "twitter": "None", "instagram": "None", "facebook": "None", "youtube": "None", "website": "None", "summary": "None", "logo": "None", "latitude": 46.08955943519532, "longitude": -64.78093628253224}, "118796192RR0001": {"name": "Atlas Graham Furgale Ltd. Employees Charity Trust", "designationCode": "B", "categoryCode": "75", "address": "PO BOX 1978", "city": "WINNIPEG", "province": "MB", "country": "CA", "postalCode": "R3C3R3", "twitter": "None", "instagram": "None", "facebook": "None", "youtube": "None", "website": "None", "summary": "None", "logo": "None", "latitude": 49.899525000000054, "longitude": -97.14112999999993}, "119208221RR0001": {"name": "Atmosphere Church", "designationCode": "C", "categoryCode": "36", "address": "150-4113 STEELES AVE W", "city": "TORONTO", "province": "ON", "country": "CA", "postalCode": "M3N1V7", "twitter": "None", "instagram": "None", "facebook": "None", "youtube": "None", "website": "None", "summary": "None", "logo": "None", "latitude": 43.77420715917119, "longitude": -79.52701738751614}, "826085557RR0001": {"name": "Attachment Association of Canada", "designationCode": "B", "categoryCode": "11", "address": "1 ST. EDMUND'S DRIVE", "city": "TORONTO", "province": "ON", "country": "CA", "postalCode": "M4N2P6", "twitter": "None", "instagram": "None", "facebook": "None", "youtube": "None", "website": "None", "summary": "None", "logo": "None", "latitude": 43.72222500000001, "longitude": -79.40076343779238}, "871022703RR0001": {"name": "Attitudes for Education", "designationCode": "C", "categoryCode": "21", "address": "200 DIVISION STREET           POST OFFICE BOX 880", "city": "COBOURG", "province": "ON", "country": "CA", "postalCode": "K9A4S3", "twitter": "None", "instagram": "None", "facebook": "None", "youtube": "None", "website": "None", "summary": "None", "logo": "None", "latitude": 43.958940421532255, "longitude": -78.16502297341248}, "827894411RR0001": {"name": "Atzin Canada", "designationCode": "C", "categoryCode": "09", "address": "17 AVENUE ROAD", "city": "OTTAWA", "province": "ON", "country": "CA", "postalCode": "K1S0N5", "twitter": "None", "instagram": "None", "facebook": "None", "youtube": "None", "website": "None", "summary": "None", "logo": "None", "latitude": 45.39844541078527, "longitude": -75.67741296976158}, "889744173RR0001": {"name": "Au rayon d'espoir inc.", "designationCode": "C", "categoryCode": "09", "address": "C.P. 3212                     SUCCURSALE BUREAU CHEF", "city": "TRACADIE-SHEILA", "province": "NB", "country": "CA", "postalCode": "E1X1G5", "twitter": "None", "instagram": "None", "facebook": "None", "youtube": "None", "website": "None", "summary": "None", "logo": "None", "latitude": 47.52130200000006, "longitude": -64.91063149999994}, "791303720RR0001": {"name": "Au sein des femmes Qu\u00e9bec", "designationCode": "C", "categoryCode": "11", "address": "584 AV GUERTIN", "city": "ROUYN-NORANDA", "province": "QC", "country": "CA", "postalCode": "J9X5S7", "twitter": "None", "instagram": "None", "facebook": "None", "youtube": "None", "website": "None", "summary": "None", "logo": "None", "latitude": 48.226271943620766, "longitude": -78.99246000862699}, "813535762RR0001": {"name": "Au Bois\u00e9 d'\u00c9lodie", "designationCode": "C", "categoryCode": "46", "address": "1820 RUE GALT O", "city": "SHERBROOKE", "province": "QC", "country": "CA", "postalCode": "J1K1H9", "twitter": "None", "instagram": "None", "facebook": "None", "youtube": "None", "website": "None", "summary": "None", "logo": "None", "latitude": 45.386774648475146, "longitude": -71.9172799320736}, "762303923RR0001": {"name": "Au Camp des Pers\u00e9ides", "designationCode": "C", "categoryCode": "11", "address": "1199 RUE MAIN", "city": "AYER'S CLIFF", "province": "QC", "country": "CA", "postalCode": "J0B1C0", "twitter": "None", "instagram": "None", "facebook": "None", "youtube": "None", "website": "None", "summary": "None", "logo": "None", "latitude": 45.16597801027179, "longitude": -72.03845913362007}, "856250063RR0001": {"name": "Au Nom de l'amour", "designationCode": "C", "categoryCode": "09", "address": "6071 BOUL. MONK", "city": "MONTREAL", "province": "QC", "country": "CA", "postalCode": "H4E3H5", "twitter": "None", "instagram": "None", "facebook": "None", "youtube": "None", "website": "None", "summary": "None", "logo": "None", "latitude": 45.45739004801204, "longitude": -73.5956370451265}, "846480739RR0001": {"name": "Audain Art Museum", "designationCode": "C", "categoryCode": "50", "address": "PO BOX 5", "city": "WHISTLER", "province": "BC", "country": "CA", "postalCode": "V0N1B0", "twitter": "None", "instagram": "None", "facebook": "None", "youtube": "None", "website": "None", "summary": "None", "logo": "None", "latitude": 50.11956600000006, "longitude": -122.95408399999994}}