{"108099771RR0102": {"name": "ST. JOHN' S ANGLICAN CHURCH", "designationCode": "C", "categoryCode": "30", "address": "14 CHANTELAY CRES             RR 102", "city": "GEORGETOWN", "province": "ON", "country": "CA", "postalCode": "L7G4S5", "twitter": "None", "instagram": "None", "facebook": "None", "youtube": "None", "website": "None", "summary": "None", "logo": "None", "latitude": 43.63132373792536, "longitude": -79.9223950454159}, "868944695RR0001": {"name": "ST. JOHN'S (ANGLICAN) CHURCH", "designationCode": "C", "categoryCode": "30", "address": "99 SUNNYHOLME RD", "city": "JEDDORE OYSTER PONDS", "province": "NS", "country": "CA", "postalCode": "B0J1W0", "twitter": "None", "instagram": "None", "facebook": "None", "youtube": "None", "website": "None", "summary": "None", "logo": "None", "latitude": 44.78408213073453, "longitude": -63.00488656111108}, "890254543RR0001": {"name": "ST. JOHN'S - ANGLICAN CATHOLIC CHURCH", "designationCode": "C", "categoryCode": "30", "address": "136 WILLIAM STREET", "city": "PARRY SOUND", "province": "ON", "country": "CA", "postalCode": "P2A1W2", "twitter": "None", "instagram": "None", "facebook": "None", "youtube": "None", "website": "None", "summary": "None", "logo": "None", "latitude": 45.3600191626464, "longitude": -80.01932165142232}, "858447634RR0001": {"name": "ST. JOHN'S AND AREA COUNCIL OF CHURCHES, INC.", "designationCode": "A", "categoryCode": "03", "address": "21 ADAMS AVE", "city": "ST JOHN'S", "province": "NL", "country": "CA", "postalCode": "A1C4Z1", "twitter": "None", "instagram": "None", "facebook": "None", "youtube": "None", "website": "None", "summary": "None", "logo": "None", "latitude": 47.56165289229053, "longitude": -52.72371247991778}, "107020323RR0024": {"name": "ST. JOHN'S ANGLICAN CHURCH", "designationCode": "C", "categoryCode": "30", "address": "BOX 81", "city": "FOLEYET", "province": "ON", "country": "CA", "postalCode": "P0M1T0", "twitter": "None", "instagram": "None", "facebook": "None", "youtube": "None", "website": "None", "summary": "None", "logo": "None", "latitude": 48.24386000000004, "longitude": -82.44074999999998}, "108022799RR0002": {"name": "ST. JOHN'S ANGLICAN CHURCH", "designationCode": "C", "categoryCode": "30", "address": "567 QUEENSTON RD", "city": "CAMBRIDGE", "province": "ON", "country": "CA", "postalCode": "N3H3J9", "twitter": "None", "instagram": "None", "facebook": "None", "youtube": "None", "website": "None", "summary": "None", "logo": "None", "latitude": 43.395761733019675, "longitude": -80.36077003009419}, "119179430RR0002": {"name": "ST. JOHN'S ANGLICAN CHURCH", "designationCode": "C", "categoryCode": "30", "address": "BOX 933", "city": "ONOWAY", "province": "AB", "country": "CA", "postalCode": "T0E1V0", "twitter": "None", "instagram": "None", "facebook": "None", "youtube": "None", "website": "None", "summary": "None", "logo": "None", "latitude": 53.70302000000004, "longitude": -114.19152999999994}, "889871646RR0002": {"name": "ST. JOHN'S ANGLICAN CHURCH", "designationCode": "C", "categoryCode": "30", "address": "787 KEARNEY LAKE ROAD", "city": "BEDFORD", "province": "NS", "country": "CA", "postalCode": "B4B1E2", "twitter": "None", "instagram": "None", "facebook": "None", "youtube": "None", "website": "None", "summary": "None", "logo": "None", "latitude": 44.700160890008924, "longitude": -63.70060291307669}, "108099771RR0075": {"name": "ST. JOHN'S ANGLICAN CHURCH NASSAGAWEYA", "designationCode": "C", "categoryCode": "30", "address": "11331 4TH LINE                RR 2", "city": "ROCKWOOD", "province": "ON", "country": "CA", "postalCode": "N0B2K0", "twitter": "None", "instagram": "None", "facebook": "None", "youtube": "None", "website": "None", "summary": "None", "logo": "None", "latitude": 43.62386734320321, "longitude": -80.17557810508136}, "108099771RR0034": {"name": "ST. JOHN'S ANGLICAN CHURCH NELSON", "designationCode": "C", "categoryCode": "30", "address": "2464 DUNDAS STREET, RR#1", "city": "BURLINGTON", "province": "ON", "country": "CA", "postalCode": "L7P0S8", "twitter": "None", "instagram": "None", "facebook": "None", "youtube": "None", "website": "None", "summary": "None", "logo": "None", "latitude": 43.37584561723144, "longitude": -79.84188296941579}, "119179331RR0001": {"name": "ST. JOHN'S ANGLICAN CHURCH OF LAC DU BONNET", "designationCode": "C", "categoryCode": "30", "address": "P.O. BOX 1511", "city": "LAC DU BONNET", "province": "MB", "country": "CA", "postalCode": "R0E1A0", "twitter": "None", "instagram": "None", "facebook": "None", "youtube": "None", "website": "None", "summary": "None", "logo": "None", "latitude": 50.25160000000005, "longitude": -96.06180999999998}, "108099771RR0025": {"name": "ST. JOHN'S ANGLICAN CHURCH, JORDAN, ONTARIO", "designationCode": "C", "categoryCode": "30", "address": "2878 ST. JOHN'S DRIVE", "city": "JORDAN", "province": "ON", "country": "CA", "postalCode": "L0R1S0", "twitter": "None", "instagram": "None", "facebook": "None", "youtube": "None", "website": "None", "summary": "None", "logo": "None"}, "108022930RR0002": {"name": "ST. JOHN'S ANGLICAN CHURCH, PARISH OF HORTON", "designationCode": "C", "categoryCode": "30", "address": "67 WOODMAN RD #307", "city": "WOLFVILLE", "province": "NS", "country": "CA", "postalCode": "B4P0B4", "twitter": "None", "instagram": "None", "facebook": "None", "youtube": "None", "website": "None", "summary": "None", "logo": "None", "latitude": 45.09606249849946, "longitude": -64.34025308731013}, "107949422RR0002": {"name": "ST. JOHN'S CHURCH", "designationCode": "C", "categoryCode": "30", "address": "264 SELDON ST", "city": "THAMESFORD", "province": "ON", "country": "CA", "postalCode": "N0M2M0", "twitter": "None", "instagram": "None", "facebook": "None", "youtube": "None", "website": "None", "summary": "None", "logo": "None", "latitude": 43.05047250043269, "longitude": -81.00472046863639}, "108022732RR0001": {"name": "ST. JOHN'S CHURCH", "designationCode": "C", "categoryCode": "30", "address": "41 CHURCH ST", "city": "KINGSTON", "province": "ON", "country": "CA", "postalCode": "K7M1H2", "twitter": "None", "instagram": "None", "facebook": "None", "youtube": "None", "website": "None", "summary": "None", "logo": "None", "latitude": 42.9446071357262, "longitude": -71.05729778123417}, "108023185RR0002": {"name": "ST. JOHN'S CHURCH", "designationCode": "C", "categoryCode": "30", "address": "3305 SANDWICH ST", "city": "WINDSOR", "province": "ON", "country": "CA", "postalCode": "N9C1B2", "twitter": "None", "instagram": "None", "facebook": "None", "youtube": "None", "website": "None", "summary": "None", "logo": "None", "latitude": 42.29942249235396, "longitude": -83.07718133273731}, "108099771RR0014": {"name": "ST. JOHN'S CHURCH", "designationCode": "C", "categoryCode": "30", "address": "80 MAIN ST", "city": "ST CATHARINES", "province": "ON", "country": "CA", "postalCode": "L2N4V2", "twitter": "None", "instagram": "None", "facebook": "None", "youtube": "None", "website": "None", "summary": "None", "logo": "None", "latitude": 43.19970474883138, "longitude": -79.27148882696623}, "108099771RR0017": {"name": "ST. JOHN'S CHURCH", "designationCode": "C", "categoryCode": "30", "address": "2074 LAUR RD", "city": "FORT ERIE", "province": "ON", "country": "CA", "postalCode": "L2A5M4", "twitter": "None", "instagram": "None", "facebook": "None", "youtube": "None", "website": "None", "summary": "None", "logo": "None", "latitude": 42.931783990564945, "longitude": -78.99143338923211}, "108099771RR0106": {"name": "ST. JOHN'S CHURCH", "designationCode": "C", "categoryCode": "30", "address": "12 CARLETON ST S", "city": "THOROLD", "province": "ON", "country": "CA", "postalCode": "L2T2S8", "twitter": "None", "instagram": "None", "facebook": "None", "youtube": "None", "website": "None", "summary": "None", "logo": "None", "latitude": 43.12388820483005, "longitude": -79.19766647735031}, "118787142RR0021": {"name": "ST. JOHN'S CHURCH", "designationCode": "C", "categoryCode": "30", "address": "1611 QUADRA STREET", "city": "VICTORIA", "province": "BC", "country": "CA", "postalCode": "V8W2L5", "twitter": "None", "instagram": "None", "facebook": "None", "youtube": "None", "website": "None", "summary": "None", "logo": "None", "latitude": 48.42836917262972, "longitude": -123.35890255363886}, "118787142RR0045": {"name": "ST. JOHN'S CHURCH", "designationCode": "C", "categoryCode": "30", "address": "3295 COBBLE HILL ROAD", "city": "COBBLE HILL", "province": "BC", "country": "CA", "postalCode": "V0R1L6", "twitter": "None", "instagram": "None", "facebook": "None", "youtube": "None", "website": "None", "summary": "None", "logo": "None", "latitude": 48.677307716149706, "longitude": -123.5883469951068}, "119109833RR0046": {"name": "ST. JOHN'S CHURCH", "designationCode": "C", "categoryCode": "38", "address": "P.O. BOX 103", "city": "SPRINGHILL", "province": "NS", "country": "CA", "postalCode": "B0M1X0", "twitter": "None", "instagram": "None", "facebook": "None", "youtube": "None", "website": "None", "summary": "None", "logo": "None", "latitude": 45.65057000000007, "longitude": -64.05729999999994}, "119110443RR0022": {"name": "ST. JOHN'S CHURCH", "designationCode": "C", "categoryCode": "38", "address": "270 STONE STREET S", "city": "GANANOQUE", "province": "ON", "country": "CA", "postalCode": "K7G2A1", "twitter": "None", "instagram": "None", "facebook": "None", "youtube": "None", "website": "None", "summary": "None", "logo": "None", "latitude": 44.32773441072022, "longitude": -76.16032586705923}, "119180149RR0002": {"name": "ST. JOHN'S CHURCH", "designationCode": "C", "categoryCode": "39", "address": "186 MAIN ST", "city": "GLENCOE", "province": "ON", "country": "CA", "postalCode": "N0L1M0", "twitter": "None", "instagram": "None", "facebook": "None", "youtube": "None", "website": "None", "summary": "None", "logo": "None", "latitude": 42.746670125454436, "longitude": -81.70929450054825}, "131785503RR0002": {"name": "ST. JOHN'S CHURCH", "designationCode": "C", "categoryCode": "30", "address": "BOX 756", "city": "CHAPLEAU", "province": "ON", "country": "CA", "postalCode": "P0M1K0", "twitter": "None", "instagram": "None", "facebook": "None", "youtube": "None", "website": "None", "summary": "None", "logo": "None", "latitude": 47.84247000000005, "longitude": -83.40489999999994}, "889680468RR0002": {"name": "ST. JOHN'S CHURCH", "designationCode": "C", "categoryCode": "30", "address": "22 OXFORD ST                  BOX 352", "city": "OTTERVILLE", "province": "ON", "country": "CA", "postalCode": "N0J1R0", "twitter": "None", "instagram": "None", "facebook": "None", "youtube": "None", "website": "None", "summary": "None", "logo": "None", "latitude": 42.92496351012756, "longitude": -80.60157928117592}, "890258049RR0002": {"name": "ST. JOHN'S CHURCH", "designationCode": "C", "categoryCode": "30", "address": "18 KING STREET", "city": "HUNTINGDON", "province": "QC", "country": "CA", "postalCode": "J0S1H0", "twitter": "None", "instagram": "None", "facebook": "None", "youtube": "None", "website": "None", "summary": "None", "logo": "None", "latitude": 45.087649499884435, "longitude": -74.17510548684268}, "108084658RR0036": {"name": "ST. JOHN'S CHURCH (INNISVILLE)", "designationCode": "C", "categoryCode": "30", "address": "117 BRIDGE STREET", "city": "CARLETON PLACE", "province": "ON", "country": "CA", "postalCode": "K7C2V4", "twitter": "None", "instagram": "None", "facebook": "None", "youtube": "None", "website": "None", "summary": "None", "logo": "None", "latitude": 45.13927591064106, "longitude": -76.14529113722674}, "108084658RR0031": {"name": "ST. JOHN'S CHURCH (LANCASTER)", "designationCode": "C", "categoryCode": "30", "address": "P.O. BOX 129", "city": "SOUTH LANCASTER", "province": "ON", "country": "CA", "postalCode": "K0C2C0", "twitter": "None", "instagram": "None", "facebook": "None", "youtube": "None", "website": "None", "summary": "None", "logo": "None", "latitude": 45.14048994713368, "longitude": -74.50269970753655}, "108099771RR0039": {"name": "ST. JOHN'S CHURCH (SELKIRK)", "designationCode": "C", "categoryCode": "30", "address": "187 CHEAPSIDE RD.  R.R. #2", "city": "NANTICOKE", "province": "ON", "country": "CA", "postalCode": "N0A1L0", "twitter": "None", "instagram": "None", "facebook": "None", "youtube": "None", "website": "None", "summary": "None", "logo": "None", "latitude": 42.82044097861972, "longitude": -79.97323647867704}, "108084658RR0122": {"name": "ST. JOHN'S CHURCH (6TH LINE)", "designationCode": "C", "categoryCode": "30", "address": "1471 DONALD B. MUNROP DR. RR#1", "city": "CARP", "province": "ON", "country": "CA", "postalCode": "K0A1L0", "twitter": "None", "instagram": "None", "facebook": "None", "youtube": "None", "website": "None", "summary": "None", "logo": "None", "latitude": 45.337164167842424, "longitude": -76.09661953430272}, "887668192RR0002": {"name": "ST. JOHN'S CHURCH PARISH OF CORNWALLIS", "designationCode": "C", "categoryCode": "30", "address": "1105 CHURCH STREET            PO BOX 151", "city": "PORT WILLIAMS", "province": "NS", "country": "CA", "postalCode": "B0P1T0", "twitter": "None", "instagram": "None", "facebook": "None", "youtube": "None", "website": "None", "summary": "None", "logo": "None", "latitude": 45.10959597256021, "longitude": -64.43316140218693}, "873196695RR0001": {"name": "ST. JOHN'S CHURCH, BOWMANVILLE", "designationCode": "C", "categoryCode": "30", "address": "11 TEMPERANCE ST", "city": "BOWMANVILLE", "province": "ON", "country": "CA", "postalCode": "L1C3A3", "twitter": "None", "instagram": "None", "facebook": "None", "youtube": "None", "website": "None", "summary": "None", "logo": "None", "latitude": 43.91163069079243, "longitude": -78.68945056995966}, "887553063RR0002": {"name": "ST. JOHN'S CHURCH, EAGLE LAKE", "designationCode": "C", "categoryCode": "30", "address": "425 JIM YOUNG RD              RR 1", "city": "SOUTH RIVER", "province": "ON", "country": "CA", "postalCode": "P0A1X0", "twitter": "None", "instagram": "None", "facebook": "None", "youtube": "None", "website": "None", "summary": "None", "logo": "None", "latitude": 45.850391710197094, "longitude": -79.49662617583424}, "108023375RR0001": {"name": "ST. JOHN'S ESTONIAN EVANGELICAL LUTHERAN CHURCH", "designationCode": "C", "categoryCode": "32", "address": "4345 MARCIL AVE", "city": "MONTREAL", "province": "QC", "country": "CA", "postalCode": "H4A2Z9", "twitter": "None", "instagram": "None", "facebook": "None", "youtube": "None", "website": "None", "summary": "None", "logo": "None", "latitude": 45.47609116654154, "longitude": -73.62359060822907}, "108023540RR0001": {"name": "ST. JOHN'S EVANGELICAL LUTHERAN CHURCH", "designationCode": "C", "categoryCode": "32", "address": "PO BOX 70", "city": "MAHONE BAY", "province": "NS", "country": "CA", "postalCode": "B0J2E0", "twitter": "None", "instagram": "None", "facebook": "None", "youtube": "None", "website": "None", "summary": "None", "logo": "None", "latitude": 44.5107664683721, "longitude": -64.5603343504879}, "108023409RR0001": {"name": "ST. JOHN'S EVANGELICAL LUTHERAN CHURCH OF GOLDEN SPIKE ALBERTA", "designationCode": "C", "categoryCode": "32", "address": "51301 RANGE RD 274", "city": "SPRUCE GROVE", "province": "AB", "country": "CA", "postalCode": "T7Y1H8", "twitter": "None", "instagram": "None", "facebook": "None", "youtube": "None", "website": "None", "summary": "None", "logo": "None", "latitude": 53.42478495609795, "longitude": -113.93463147710858}, "119180594RR0001": {"name": "ST. JOHN'S EVANGELICAL LUTHERAN CHURCH OF HAMILTON", "designationCode": "C", "categoryCode": "32", "address": "104 HUGHSON STR NORTH", "city": "HAMILTON", "province": "ON", "country": "CA", "postalCode": "L8R1G6", "twitter": "None", "instagram": "None", "facebook": "None", "youtube": "None", "website": "None", "summary": "None", "logo": "None", "latitude": 43.25919187538725, "longitude": -79.8664833544442}, "108023813RR0001": {"name": "ST. JOHN'S EVANGELICAL LUTHERAN CHURCH OF PEMBROKE, ONTARIO", "designationCode": "C", "categoryCode": "32", "address": "357 MILLER STREET", "city": "PEMBROKE", "province": "ON", "country": "CA", "postalCode": "K8A5Y8", "twitter": "None", "instagram": "None", "facebook": "None", "youtube": "None", "website": "None", "summary": "None", "logo": "None", "latitude": 45.820551497114465, "longitude": -77.12034072147847}, "853277903RR0001": {"name": "ST. JOHN'S EVANGELICAL LUTHERAN CHURCH OF SUMMERLAND, BRITISH COLUMBIA, CANADA", "designationCode": "C", "categoryCode": "32", "address": "15244 VICTORIA RD N", "city": "SUMMERLAND", "province": "BC", "country": "CA", "postalCode": "V0H1Z3", "twitter": "None", "instagram": "None", "facebook": "None", "youtube": "None", "website": "None", "summary": "None", "logo": "None"}, "108023672RR0001": {"name": "ST. JOHN'S EVANGELICAL LUTHERAN CHURCH OF WINNIPEG", "designationCode": "C", "categoryCode": "32", "address": "370 MCKENZIE ST", "city": "WINNIPEG", "province": "MB", "country": "CA", "postalCode": "R2W5B2", "twitter": "None", "instagram": "None", "facebook": "None", "youtube": "None", "website": "None", "summary": "None", "logo": "None", "latitude": 49.92419806800732, "longitude": -97.14652893883066}, "108023417RR0001": {"name": "ST. JOHN'S EVANGELICAL LUTHERAN CHURCH, EDMONTON, ALBERTA", "designationCode": "C", "categoryCode": "32", "address": "10759-96 STREET", "city": "EDMONTON", "province": "AB", "country": "CA", "postalCode": "T5H2J7", "twitter": "None", "instagram": "None", "facebook": "None", "youtube": "None", "website": "None", "summary": "None", "logo": "None", "latitude": 53.55368720669669, "longitude": -113.48682153647786}, "108023433RR0001": {"name": "ST. JOHN'S EVANGELICAL LUTHERAN LATVIAN CHURCH OF TORONTO", "designationCode": "C", "categoryCode": "32", "address": "200 BALMORAL AVENUE", "city": "TORONTO", "province": "ON", "country": "CA", "postalCode": "M4V1J6", "twitter": "None", "instagram": "None", "facebook": "None", "youtube": "None", "website": "None", "summary": "None", "logo": "None", "latitude": 43.68388615072985, "longitude": -79.40254825757393}, "858652209RR0001": {"name": "ST. JOHN'S HERITAGE FOUNDATION INCORPORATED", "designationCode": "A", "categoryCode": "52", "address": "PO BOX 158", "city": "LUNENBURG", "province": "NS", "country": "CA", "postalCode": "B0J2C0", "twitter": "None", "instagram": "None", "facebook": "None", "youtube": "None", "website": "None", "summary": "None", "logo": "None", "latitude": 44.37886006217898, "longitude": -64.31792993782098}, "863507646RR0001": {"name": "ST. JOHN'S INTERGROUP 2002 INC", "designationCode": "C", "categoryCode": "57", "address": "P O BOX 26074", "city": "ST JOHN'S", "province": "NL", "country": "CA", "postalCode": "A1E0A5", "twitter": "None", "instagram": "None", "facebook": "None", "youtube": "None", "website": "None", "summary": "None", "logo": "None", "latitude": 47.56082100000006, "longitude": -52.71219349999993}, "894464072RR0001": {"name": "ST. JOHN'S INTERNATIONAL WOMEN'S FILM & VIDEO FESTIVAL INC.", "designationCode": "C", "categoryCode": "22", "address": "P.O. BOX 984                  STATION C", "city": "ST. JOHN'S", "province": "NL", "country": "CA", "postalCode": "A1C5M3", "twitter": "None", "instagram": "None", "facebook": "None", "youtube": "None", "website": "None", "summary": "None", "logo": "None", "latitude": 47.56082100000006, "longitude": -52.71219349999993}, "106816036RR0001": {"name": "ST. JOHN'S LUTHERAN CHURCH", "designationCode": "C", "categoryCode": "32", "address": "P.O. BOX 1178", "city": "HUMBOLDT", "province": "SK", "country": "CA", "postalCode": "S0K2A0", "twitter": "None", "instagram": "None", "facebook": "None", "youtube": "None", "website": "None", "summary": "None", "logo": "None", "latitude": 51.7871843348964, "longitude": -104.71638483007007}, "108023441RR0001": {"name": "ST. JOHN'S LUTHERAN CHURCH", "designationCode": "C", "categoryCode": "32", "address": "P.O. BOX 115,7 CLARKE ST N.", "city": "CLIFFORD", "province": "ON", "country": "CA", "postalCode": "N0G1M0", "twitter": "None", "instagram": "None", "facebook": "None", "youtube": "None", "website": "None", "summary": "None", "logo": "None", "latitude": 43.96864077614212, "longitude": -80.98014731872306}, "108023607RR0001": {"name": "ST. JOHN'S LUTHERAN CHURCH", "designationCode": "C", "categoryCode": "32", "address": "3421 HWY #3, R.R. #1", "city": "PORT COLBORNE", "province": "ON", "country": "CA", "postalCode": "L3K5V3", "twitter": "None", "instagram": "None", "facebook": "None", "youtube": "None", "website": "None", "summary": "None", "logo": "None", "latitude": 42.89194734068763, "longitude": -79.16505667646818}, "108023656RR0001": {"name": "ST. JOHN'S LUTHERAN CHURCH", "designationCode": "C", "categoryCode": "32", "address": "78 WILLIAM AVE", "city": "SOUTH PORCUPINE", "province": "ON", "country": "CA", "postalCode": "P0N1H0", "twitter": "None", "instagram": "None", "facebook": "None", "youtube": "None", "website": "None", "summary": "None", "logo": "None", "latitude": 48.4845293839486, "longitude": -81.2114326017562}, "889035440RR0001": {"name": "ST. JOHN'S LUTHERAN CHURCH (HEIMTHAL) LEDUC, ALBERTA", "designationCode": "C", "categoryCode": "32", "address": "50510 RANGE ROAD 255", "city": "LEDUC COUNTY", "province": "AB", "country": "CA", "postalCode": "T9G0C8", "twitter": "None", "instagram": "None", "facebook": "None", "youtube": "None", "website": "None", "summary": "None", "logo": "None", "latitude": 53.35334983236194, "longitude": -113.63495756223627}, "119181246RR0001": {"name": "ST. JOHN'S MILLIKEN PRESBYTERIAN CHURCH", "designationCode": "C", "categoryCode": "37", "address": "410 GOLDHAWK TRAIL", "city": "SCARBOROUGH", "province": "ON", "country": "CA", "postalCode": "M1V4E7", "twitter": "None", "instagram": "None", "facebook": "None", "youtube": "None", "website": "None", "summary": "None", "logo": "None", "latitude": 43.82626404827183, "longitude": -79.27868345686406}, "885839696RR0001": {"name": "ST. JOHN'S NEWFOUNDLAND CHAPTER OF THE SOCIETY FOR THE PRESERVATION AND ENCOURAGEMENT OF BARBER SHOP QUARTET SINGING IN AMERICA, CORP.", "designationCode": "C", "categoryCode": "22", "address": "P.O. BOX 23116                CHURCHILL SQ. POSTAL OUTLET", "city": "ST. JOHN'S", "province": "NL", "country": "CA", "postalCode": "A1B4J9", "twitter": "None", "instagram": "None", "facebook": "None", "youtube": "None", "website": "None", "summary": "None", "logo": "None", "latitude": 47.57470538694076, "longitude": -52.7226658486743}, "119110450RR0005": {"name": "ST. JOHN'S PARISH", "designationCode": "C", "categoryCode": "38", "address": "45 VICTORIA ROAD NORTH", "city": "GUELPH", "province": "ON", "country": "CA", "postalCode": "N1E5G9", "twitter": "None", "instagram": "None", "facebook": "None", "youtube": "None", "website": "None", "summary": "None", "logo": "None", "latitude": 43.55888230088277, "longitude": -80.23355564928754}, "119110450RR0027": {"name": "ST. JOHN'S PARISH", "designationCode": "C", "categoryCode": "38", "address": "85 STRANGE ST", "city": "KITCHENER", "province": "ON", "country": "CA", "postalCode": "N2G1R4", "twitter": "None", "instagram": "None", "facebook": "None", "youtube": "None", "website": "None", "summary": "None", "logo": "None", "latitude": 43.44862128169553, "longitude": -80.50836635876253}, "119110450RR0072": {"name": "ST. JOHN'S PARISH", "designationCode": "C", "categoryCode": "38", "address": "2016 BLAIRHOLM AVENUE", "city": "BURLINGTON", "province": "ON", "country": "CA", "postalCode": "L7R1V4", "twitter": "None", "instagram": "None", "facebook": "None", "youtube": "None", "website": "None", "summary": "None", "logo": "None", "latitude": 43.33174481958, "longitude": -79.80526240172559}, "893373464RR0001": {"name": "ST. JOHN'S PARISH OF THE POLISH NATIONAL CATHOLIC CHURCH", "designationCode": "C", "categoryCode": "39", "address": "186 COWAN AVE", "city": "TORONTO", "province": "ON", "country": "CA", "postalCode": "M6K2N6", "twitter": "None", "instagram": "None", "facebook": "None", "youtube": "None", "website": "None", "summary": "None", "logo": "None", "latitude": 43.6397774671072, "longitude": -79.43250583071715}, "106805146RR0001": {"name": "ST. JOHN'S PRESBYTERIAN CHURCH", "designationCode": "C", "categoryCode": "37", "address": "BOX 286", "city": "BRADFORD", "province": "ON", "country": "CA", "postalCode": "L3Z2A8", "twitter": "None", "instagram": "None", "facebook": "None", "youtube": "None", "website": "None", "summary": "None", "logo": "None", "latitude": 44.11482000000005, "longitude": -79.56249199999993}, "108023946RR0001": {"name": "ST. JOHN'S PRESBYTERIAN CHURCH", "designationCode": "C", "categoryCode": "37", "address": "BOX 482", "city": "WINDSOR", "province": "NS", "country": "CA", "postalCode": "B0N2T0", "twitter": "None", "instagram": "None", "facebook": "None", "youtube": "None", "website": "None", "summary": "None", "logo": "None", "latitude": 44.990170000000035, "longitude": -64.12904999999995}, "108023987RR0001": {"name": "ST. JOHN'S PRESBYTERIAN CHURCH", "designationCode": "C", "categoryCode": "37", "address": "142 EDWARD ST", "city": "DALHOUSIE", "province": "NB", "country": "CA", "postalCode": "E8C1P8", "twitter": "None", "instagram": "None", "facebook": "None", "youtube": "None", "website": "None", "summary": "None", "logo": "None", "latitude": 48.06426491192805, "longitude": -66.38343330953735}, "108024027RR0001": {"name": "ST. JOHN'S PRESBYTERIAN CHURCH", "designationCode": "C", "categoryCode": "37", "address": "PO BOX 1135 319 QUEEN ST", "city": "PORT PERRY", "province": "ON", "country": "CA", "postalCode": "L9L1A9", "twitter": "None", "instagram": "None", "facebook": "None", "youtube": "None", "website": "None", "summary": "None", "logo": "None", "latitude": 44.10334279130349, "longitude": -78.94779338608677}, "108024084RR0001": {"name": "ST. JOHN'S PRESBYTERIAN CHURCH", "designationCode": "C", "categoryCode": "37", "address": "P.O BOX 280", "city": "BELAIR PO", "province": "MB", "country": "CA", "postalCode": "R0E0E0", "twitter": "None", "instagram": "None", "facebook": "None", "youtube": "None", "website": "None", "summary": "None", "logo": "None", "latitude": 50.60669400000002, "longitude": -96.5832834795896}, "108023037RR0001": {"name": "ST. JOHN'S RETIREMENT HOMES INC.", "designationCode": "C", "categoryCode": "01", "address": "440 WATER ST", "city": "PETERBOROUGH", "province": "ON", "country": "CA", "postalCode": "K9H7K6", "twitter": "None", "instagram": "None", "facebook": "None", "youtube": "None", "website": "None", "summary": "None", "logo": "None", "latitude": 44.306991817098485, "longitude": -78.31898382122478}, "831257522RR0001": {"name": "ST. JOHN'S RICHMOND CHURCH", "designationCode": "C", "categoryCode": "39", "address": "7100 GRANVILLE AVENUE", "city": "RICHMOND", "province": "BC", "country": "CA", "postalCode": "V6Y1N8", "twitter": "None", "instagram": "None", "facebook": "None", "youtube": "None", "website": "None", "summary": "None", "logo": "None", "latitude": 49.16265450230862, "longitude": -123.14618010935425}, "891464497RR0009": {"name": "ST. JOHN'S SEVENTH-DAY ADVENTIST CHURCH", "designationCode": "C", "categoryCode": "41", "address": "30 ALDERSHOT ST. PO BOX 5001", "city": "ST.JOHN'S", "province": "NL", "country": "CA", "postalCode": "A1C4R8", "twitter": "None", "instagram": "None", "facebook": "None", "youtube": "None", "website": "None", "summary": "None", "logo": "None", "latitude": 47.565435685844356, "longitude": -52.72296845097836}, "108024381RR0001": {"name": "ST. JOHN'S UNITED CHURCH", "designationCode": "C", "categoryCode": "44", "address": "75 ALMA ST", "city": "MONCTON", "province": "NB", "country": "CA", "postalCode": "E1C4Y3", "twitter": "None", "instagram": "None", "facebook": "None", "youtube": "None", "website": "None", "summary": "None", "logo": "None", "latitude": 46.0907733244561, "longitude": -64.7777780585436}, "108024407RR0001": {"name": "ST. JOHN'S UNITED CHURCH", "designationCode": "C", "categoryCode": "44", "address": "BOX 340", "city": "KEMPTVILLE", "province": "ON", "country": "CA", "postalCode": "K0G1J0", "twitter": "None", "instagram": "None", "facebook": "None", "youtube": "None", "website": "None", "summary": "None", "logo": "None", "latitude": 44.98774800000005, "longitude": -75.69332899999993}, "108024415RR0001": {"name": "ST. JOHN'S UNITED CHURCH", "designationCode": "C", "categoryCode": "44", "address": "P.O. BOX 158", "city": "TWEED", "province": "ON", "country": "CA", "postalCode": "K0K3J0", "twitter": "None", "instagram": "None", "facebook": "None", "youtube": "None", "website": "None", "summary": "None", "logo": "None", "latitude": 44.51884534534283, "longitude": -77.11593882304619}, "108024621RR0001": {"name": "ST. JOHN'S UNITED CHURCH", "designationCode": "C", "categoryCode": "44", "address": "2 NOBERT RD", "city": "AGINCOURT", "province": "ON", "country": "CA", "postalCode": "M1T1C1", "twitter": "None", "instagram": "None", "facebook": "None", "youtube": "None", "website": "None", "summary": "None", "logo": "None", "latitude": 43.77168951373424, "longitude": -79.31930338025839}, "124159047RR0001": {"name": "ST. JOHN'S UNITED CHURCH", "designationCode": "C", "categoryCode": "44", "address": "PO BOX 1779", "city": "CAMPBELLFORD", "province": "ON", "country": "CA", "postalCode": "K0L1L0", "twitter": "None", "instagram": "None", "facebook": "None", "youtube": "None", "website": "None", "summary": "None", "logo": "None", "latitude": 44.287060000000054, "longitude": -77.80936999999994}, "132349499RR0001": {"name": "ST. JOHN'S UNITED CHURCH", "designationCode": "C", "categoryCode": "44", "address": "56 VICTORIA STREET EAST", "city": "ALLISTON", "province": "ON", "country": "CA", "postalCode": "L9R1L5", "twitter": "None", "instagram": "None", "facebook": "None", "youtube": "None", "website": "None", "summary": "None", "logo": "None", "latitude": 44.15456647197981, "longitude": -79.8668092662464}, "878731025RR0001": {"name": "ST. JOHN'S UNITED CHURCH ALLISTON FOUNDATION", "designationCode": "B", "categoryCode": "03", "address": "56 VICTORIA STREET EAST", "city": "ALLISTON", "province": "ON", "country": "CA", "postalCode": "L9R1L5", "twitter": "None", "instagram": "None", "facebook": "None", "youtube": "None", "website": "None", "summary": "None", "logo": "None", "latitude": 44.15456647197981, "longitude": -79.8668092662464}, "139604946RR0001": {"name": "ST. JOHN'S UNITED CHURCH FOUNDATION", "designationCode": "A", "categoryCode": "43", "address": "50 BRIDGE STREET WEST         PO BOX 1779", "city": "CAMPBELLFORD", "province": "ON", "country": "CA", "postalCode": "K0L1L0", "twitter": "None", "instagram": "None", "facebook": "None", "youtube": "None", "website": "None", "summary": "None", "logo": "None", "latitude": 44.30869984782713, "longitude": -77.80187747519992}, "108024472RR0001": {"name": "ST. JOHN'S UNITED CHURCH OF GEORGETOWN AND GLEN WILLIAMS", "designationCode": "C", "categoryCode": "44", "address": "11 GUELPH ST", "city": "GEORGETOWN", "province": "ON", "country": "CA", "postalCode": "L7G3Z1", "twitter": "None", "instagram": "None", "facebook": "None", "youtube": "None", "website": "None", "summary": "None", "logo": "None", "latitude": 43.65150450490475, "longitude": -79.92751861503841}, "896056421RR0001": {"name": "ST. JOHN'S UNITED CHURCH, SUNSHINE COAST", "designationCode": "C", "categoryCode": "44", "address": "5085 DAVIS BAY RD", "city": "SECHELT", "province": "BC", "country": "CA", "postalCode": "V0N3A2", "twitter": "None", "instagram": "None", "facebook": "None", "youtube": "None", "website": "None", "summary": "None", "logo": "None", "latitude": 49.44330050346245, "longitude": -123.72360241326678}, "880779699RR0001": {"name": "ST. JOHN'S WOMEN'S CENTRE INC.", "designationCode": "C", "categoryCode": "09", "address": "170 CASHIN AVENUE EXTENSION", "city": "ST. JOHN'S", "province": "NL", "country": "CA", "postalCode": "A1E3B6", "twitter": "None", "instagram": "None", "facebook": "None", "youtube": "None", "website": "None", "summary": "None", "logo": "None", "latitude": 47.5542012356454, "longitude": -52.731208164839444}, "108022740RR0001": {"name": "ST. JOHNS ANGLICAN CHURCH", "designationCode": "C", "categoryCode": "30", "address": "99 BROCK ST.", "city": "PETERBOROUGH", "province": "ON", "country": "CA", "postalCode": "K9H2P2", "twitter": "None", "instagram": "None", "facebook": "None", "youtube": "None", "website": "None", "summary": "None", "logo": "None", "latitude": 44.307195477350305, "longitude": -78.31813878267647}, "108099771RR0030": {"name": "ST. JOHNS' ANGLICAN CHURCH", "designationCode": "C", "categoryCode": "30", "address": "272 WILSON ST EAST", "city": "ANCASTER", "province": "ON", "country": "CA", "postalCode": "L9G2B9", "twitter": "None", "instagram": "None", "facebook": "None", "youtube": "None", "website": "None", "summary": "None", "logo": "None", "latitude": 43.22439122647014, "longitude": -79.97767421285147}, "108025081RR0001": {"name": "ST. JOSAPHAT UKRAINIAN CATHOLIC CHURCH", "designationCode": "C", "categoryCode": "38", "address": "BOX 1471", "city": "KAMSASK", "province": "SK", "country": "CA", "postalCode": "S0A1S0", "twitter": "None", "instagram": "None", "facebook": "None", "youtube": "None", "website": "None", "summary": "None", "logo": "None", "latitude": 51.63817289172365, "longitude": -101.65758543154911}, "107876468RR0025": {"name": "ST. JOSEPH & ST. PARTICK PARISH", "designationCode": "C", "categoryCode": "38", "address": "P.O. BOX 68", "city": "PORT UNION", "province": "NL", "country": "CA", "postalCode": "A0C2J0", "twitter": "None", "instagram": "None", "facebook": "None", "youtube": "None", "website": "None", "summary": "None", "logo": "None", "latitude": 48.49989000000005, "longitude": -53.081349999999986}, "119109817RR0005": {"name": "ST. JOSEPH - ST. CHARLES PARISH", "designationCode": "C", "categoryCode": "38", "address": "346 - 1 BERESFORD ST", "city": "CORUNNA", "province": "ON", "country": "CA", "postalCode": "N0N1G0", "twitter": "None", "instagram": "None", "facebook": "None", "youtube": "None", "website": "None", "summary": "None", "logo": "None", "latitude": 42.89193601983822, "longitude": -82.45483873078003}, "107585085RR0006": {"name": "ST. JOSEPH CALASANCTIUS PARISH, NORTH BATTLEFORD, SASKATCHEWAN", "designationCode": "C", "categoryCode": "38", "address": "1942 98TH STREET", "city": "NORTH BATTLEFORD", "province": "SK", "country": "CA", "postalCode": "S9A0N4", "twitter": "None", "instagram": "None", "facebook": "None", "youtube": "None", "website": "None", "summary": "None", "logo": "None", "latitude": 52.78588174854292, "longitude": -108.30192761278805}, "119109817RR0162": {"name": "ST. JOSEPH CHALDEAN CATHOLIC CHURCH", "designationCode": "C", "categoryCode": "38", "address": "5800 - 40 KING ST W", "city": "TORONTO", "province": "ON", "country": "CA", "postalCode": "M5H3S1", "twitter": "None", "instagram": "None", "facebook": "None", "youtube": "None", "website": "None", "summary": "None", "logo": "None", "latitude": 43.64813467004466, "longitude": -79.38254906728791}, "894687789RR0001": {"name": "ST. JOSEPH COUNCIL NO. 8715 CHARITABLE WELFARE TRUST", "designationCode": "A", "categoryCode": "65", "address": "P.O.BOX 219", "city": "LANCASTER", "province": "ON", "country": "CA", "postalCode": "K0C1N0", "twitter": "None", "instagram": "None", "facebook": "None", "youtube": "None", "website": "None", "summary": "None", "logo": "None", "latitude": 45.256231809853304, "longitude": -74.59372027289841}, "118841055RR0002": {"name": "ST. JOSEPH MISSION", "designationCode": "C", "categoryCode": "38", "address": "PO BOX 93", "city": "ATLIN", "province": "BC", "country": "CA", "postalCode": "V0W1A0", "twitter": "None", "instagram": "None", "facebook": "None", "youtube": "None", "website": "None", "summary": "None", "logo": "None", "latitude": 59.57494800000006, "longitude": -133.70343199999994}, "108025263RR0001": {"name": "ST. JOSEPH OF NAZARETH BRAMALEA", "designationCode": "C", "categoryCode": "30", "address": "290 BALMORAL DR", "city": "BRAMPTON", "province": "ON", "country": "CA", "postalCode": "L6T1V6", "twitter": "None", "instagram": "None", "facebook": "None", "youtube": "None", "website": "None", "summary": "None", "logo": "None", "latitude": 43.70954339970543, "longitude": -79.71219809983228}, "107585085RR0050": {"name": "ST. JOSEPH PARISH, BARTHEL, SK", "designationCode": "C", "categoryCode": "38", "address": "BOX 179", "city": "MAKWA", "province": "SK", "country": "CA", "postalCode": "S0M1N0", "twitter": "None", "instagram": "None", "facebook": "None", "youtube": "None", "website": "None", "summary": "None", "logo": "None", "latitude": 54.03112674689661, "longitude": -109.18634142651366}, "107585085RR0025": {"name": "ST. JOSEPH PARISH, MARCELIN, SK", "designationCode": "C", "categoryCode": "39", "address": "PO BOX 102", "city": "MARCELIN", "province": "SK", "country": "CA", "postalCode": "S0J1R0", "twitter": "None", "instagram": "None", "facebook": "None", "youtube": "None", "website": "None", "summary": "None", "logo": "None", "latitude": 52.91679000000005, "longitude": -106.78444999999999}, "107585085RR0038": {"name": "ST. JOSEPH PARISH, PRINCE ALBERT, SK", "designationCode": "C", "categoryCode": "38", "address": "260-25TH ST EAST", "city": "PRINCE ALBERT", "province": "SK", "country": "CA", "postalCode": "S6V1S7", "twitter": "None", "instagram": "None", "facebook": "None", "youtube": "None", "website": "None", "summary": "None", "logo": "None", "latitude": 53.190532751647574, "longitude": -105.74768144288474}, "818304347RR0001": {"name": "ST. JOSEPH SYRIAC CATHOLIC PARISH", "designationCode": "C", "categoryCode": "39", "address": "999 LAKESHORE ROAD EAST", "city": "MISSISSAUGA", "province": "ON", "country": "CA", "postalCode": "L5E1E5", "twitter": "None", "instagram": "None", "facebook": "None", "youtube": "None", "website": "None", "summary": "None", "logo": "None", "latitude": 43.57619929643938, "longitude": -79.55953477869441}, "118849470RR0063": {"name": "ST. JOSEPH THE WORKER PARISH", "designationCode": "C", "categoryCode": "38", "address": "4451 WILLIAMS RD", "city": "RICHMOND", "province": "BC", "country": "CA", "postalCode": "V7E1J7", "twitter": "None", "instagram": "None", "facebook": "None", "youtube": "None", "website": "None", "summary": "None", "logo": "None", "latitude": 49.14117212823991, "longitude": -123.17559046540576}, "119110450RR0117": {"name": "ST. JOSEPH, PATRON OF CANADA", "designationCode": "C", "categoryCode": "38", "address": "39 JOHN STREET SOUTH", "city": "ACTON", "province": "ON", "country": "CA", "postalCode": "L7J2A8", "twitter": "None", "instagram": "None", "facebook": "None", "youtube": "None", "website": "None", "summary": "None", "logo": "None", "latitude": 43.63022325895893, "longitude": -80.03844594142774}, "129924254RR0001": {"name": "ST. JOSEPH'S AT FLEMING", "designationCode": "C", "categoryCode": "01", "address": "659 BREALEY DRIVE", "city": "PETERBOROUGH", "province": "ON", "country": "CA", "postalCode": "K9K2R8", "twitter": "None", "instagram": "None", "facebook": "None", "youtube": "None", "website": "None", "summary": "None", "logo": "None", "latitude": 44.269026937532594, "longitude": -78.36892413053205}, "108025982RR0001": {"name": "ST. JOSEPH'S CARE GROUP", "designationCode": "C", "categoryCode": "09", "address": "P. O. BOX 3251                35 N. ALGOMA STREET", "city": "THUNDER BAY", "province": "ON", "country": "CA", "postalCode": "P7B5G7", "twitter": "None", "instagram": "None", "facebook": "None", "youtube": "None", "website": "None", "summary": "None", "logo": "None", "latitude": 48.435599250898726, "longitude": -89.22541635197716}, "107910275RR0007": {"name": "ST. JOSEPH'S CATHEDRAL PARISH", "designationCode": "C", "categoryCode": "38", "address": "BOX 107", "city": "FORT SMITH", "province": "NT", "country": "CA", "postalCode": "X0E0P0", "twitter": "None", "instagram": "None", "facebook": "None", "youtube": "None", "website": "None", "summary": "None", "logo": "None", "latitude": 60.01262014865944, "longitude": -112.05264672940851}, "119110443RR0039": {"name": "ST. JOSEPH'S CATHOLIC CHURCH", "designationCode": "C", "categoryCode": "38", "address": "392 PALACE ROAD", "city": "KINGSTON", "province": "ON", "country": "CA", "postalCode": "K7L4T3", "twitter": "None", "instagram": "None", "facebook": "None", "youtube": "None", "website": "None", "summary": "None", "logo": "None", "latitude": 44.23668384901036, "longitude": -76.51417887018816}, "119122786RR0023": {"name": "ST. JOSEPH'S CATHOLIC PARISH", "designationCode": "C", "categoryCode": "38", "address": "6500 SOUTHRIDGE AVE", "city": "PRINCE GEORGE", "province": "BC", "country": "CA", "postalCode": "V2N5P9", "twitter": "None", "instagram": "None", "facebook": "None", "youtube": "None", "website": "None", "summary": "None", "logo": "None", "latitude": 53.86420563941114, "longitude": -122.78374828519728}, "108025388RR0001": {"name": "ST. JOSEPH'S CHILDREN'S CENTRE", "designationCode": "C", "categoryCode": "01", "address": "2155 MONASTARY LANE           #109", "city": "HALIFAX", "province": "NS", "country": "CA", "postalCode": "B3L4P9", "twitter": "None", "instagram": "None", "facebook": "None", "youtube": "None", "website": "None", "summary": "None", "logo": "None", "latitude": 44.64610408901949, "longitude": -63.5970601292288}, "107307191RR0057": {"name": "ST. JOSEPH'S CHURCH", "designationCode": "C", "categoryCode": "38", "address": "PO BOX 297", "city": "EATONIA", "province": "SK", "country": "CA", "postalCode": "S0L0Y0", "twitter": "None", "instagram": "None", "facebook": "None", "youtube": "None", "website": "None", "summary": "None", "logo": "None", "latitude": 51.216810000000066, "longitude": -109.38480999999996}, "107909939RR0020": {"name": "ST. JOSEPH'S CHURCH", "designationCode": "C", "categoryCode": "38", "address": "640-19TH AVENUE NW", "city": "CALGARY", "province": "AB", "country": "CA", "postalCode": "T2M0Y8", "twitter": "None", "instagram": "None", "facebook": "None", "youtube": "None", "website": "None", "summary": "None", "logo": "None", "latitude": 51.06964347879261, "longitude": -114.07589172300767}}