{"889452975RR0001": {"name": "NIPAWIN & DISTRICT DONORS CHOICE COMBINED APPEAL", "designationCode": "A", "categoryCode": "05", "address": "PO BOX 383", "city": "NIPAWIN", "province": "SK", "country": "CA", "postalCode": "S0E1E0", "twitter": "None", "instagram": "None", "facebook": "None", "youtube": "None", "website": "None", "summary": "None", "logo": "None", "latitude": 53.396118, "longitude": -104.00834700000001}, "133564633RR0001": {"name": "NIPAWIN AIR CADETS SQUADRON #190 INC", "designationCode": "C", "categoryCode": "29", "address": "P.O. BOX 190", "city": "NIPAWIN", "province": "SK", "country": "CA", "postalCode": "S0E1E0", "twitter": "None", "instagram": "None", "facebook": "None", "youtube": "None", "website": "None", "summary": "None", "logo": "None", "latitude": 53.396118, "longitude": -104.00834700000001}, "853054070RR0001": {"name": "NIPAWIN ALLIANCE CHURCH INC.", "designationCode": "C", "categoryCode": "39", "address": "PO BOX 1089", "city": "NIPAWIN", "province": "SK", "country": "CA", "postalCode": "S0E1E0", "twitter": "None", "instagram": "None", "facebook": "None", "youtube": "None", "website": "None", "summary": "None", "logo": "None", "latitude": 53.396118, "longitude": -104.00834700000001}, "107775363RR0001": {"name": "NIPAWIN AND DISTRICT SERVICES TO THE HANDICAPPED INC.", "designationCode": "C", "categoryCode": "01", "address": "P.O. BOX 3270", "city": "NIPAWIN", "province": "SK", "country": "CA", "postalCode": "S0E1E0", "twitter": "None", "instagram": "None", "facebook": "None", "youtube": "None", "website": "None", "summary": "None", "logo": "None", "latitude": 53.396118, "longitude": -104.00834700000001}, "107775298RR0001": {"name": "NIPAWIN BIBLE COLLEGE", "designationCode": "C", "categoryCode": "20", "address": "BOX 1986", "city": "NIPAWIN", "province": "SK", "country": "CA", "postalCode": "S0E1E0", "twitter": "None", "instagram": "None", "facebook": "None", "youtube": "None", "website": "None", "summary": "None", "logo": "None", "latitude": 53.396118, "longitude": -104.00834700000001}, "119057958RR0001": {"name": "NIPAWIN DAYCARE CO-OPERATIVE", "designationCode": "C", "categoryCode": "01", "address": "PO BOX 2847                   104-9TH AVENUE WEST", "city": "NIPAWIN", "province": "SK", "country": "CA", "postalCode": "S0E1E0", "twitter": "None", "instagram": "None", "facebook": "None", "youtube": "None", "website": "None", "summary": "None", "logo": "None", "latitude": 53.354411999999996, "longitude": -104.02054593709933}, "119057990RR0001": {"name": "NIPAWIN MUSIC FESTIVAL ASSOCIATION", "designationCode": "C", "categoryCode": "22", "address": "BOX 1298", "city": "NIPAWIN", "province": "SK", "country": "CA", "postalCode": "S0E1E0", "twitter": "None", "instagram": "None", "facebook": "None", "youtube": "None", "website": "None", "summary": "None", "logo": "None", "latitude": 53.396118, "longitude": -104.00834700000001}, "131552044RR0001": {"name": "NIPAWIN NUTRITION FOR KIDS INC.", "designationCode": "C", "categoryCode": "09", "address": "BOX 1441", "city": "NIPAWIN", "province": "SK", "country": "CA", "postalCode": "S0E1E0", "twitter": "None", "instagram": "None", "facebook": "None", "youtube": "None", "website": "None", "summary": "None", "logo": "None", "latitude": 53.396118, "longitude": -104.00834700000001}, "892127044RR0001": {"name": "NIPAWIN OASIS COMMUNITY CENTRE CO-OPERATIVE LTD.", "designationCode": "C", "categoryCode": "01", "address": "PO BOX 3146", "city": "NIPAWIN", "province": "SK", "country": "CA", "postalCode": "S0E1E0", "twitter": "None", "instagram": "None", "facebook": "None", "youtube": "None", "website": "None", "summary": "None", "logo": "None", "latitude": 53.396118, "longitude": -104.00834700000001}, "140910399RR0001": {"name": "NIPAWIN REGION HEALTH FOUNDATION INC.", "designationCode": "A", "categoryCode": "13", "address": "BOX 1586", "city": "NIPAWIN", "province": "SK", "country": "CA", "postalCode": "S0E1E0", "twitter": "None", "instagram": "None", "facebook": "None", "youtube": "None", "website": "None", "summary": "None", "logo": "None", "latitude": 53.396118, "longitude": -104.00834700000001}, "119058022RR0001": {"name": "NIPAWIN SENIOR CITIZENS ASSOCIATION INC.", "designationCode": "C", "categoryCode": "56", "address": "BOX 1136", "city": "NIPAWIN", "province": "SK", "country": "CA", "postalCode": "S0E1E0", "twitter": "None", "instagram": "None", "facebook": "None", "youtube": "None", "website": "None", "summary": "None", "logo": "None", "latitude": 53.396118, "longitude": -104.00834700000001}, "119030666RR0027": {"name": "NIPAWIN SEVENTH-DAY ADVENTIST CHURCH", "designationCode": "C", "categoryCode": "41", "address": "1004 VICTORIA AVE", "city": "SASKATOON", "province": "SK", "country": "CA", "postalCode": "S7N0Z8", "twitter": "None", "instagram": "None", "facebook": "None", "youtube": "None", "website": "None", "summary": "None", "logo": "None", "latitude": 52.115409, "longitude": -106.66240826773014}, "107775439RR0001": {"name": "NIPAWIN UNITED CHURCH", "designationCode": "C", "categoryCode": "44", "address": "BOX 3391", "city": "NIPAWIN", "province": "SK", "country": "CA", "postalCode": "S0E1E0", "twitter": "None", "instagram": "None", "facebook": "None", "youtube": "None", "website": "None", "summary": "None", "logo": "None", "latitude": 53.396118, "longitude": -104.00834700000001}, "119058055RR0001": {"name": "NIPIGON BAPTIST CHURCH", "designationCode": "C", "categoryCode": "31", "address": "BOX 368", "city": "NIPIGON", "province": "ON", "country": "CA", "postalCode": "P0T2J0", "twitter": "None", "instagram": "None", "facebook": "None", "youtube": "None", "website": "None", "summary": "None", "logo": "None", "latitude": 49.43220506449858, "longitude": -88.12945411505873}, "119058063RR0001": {"name": "NIPIGON DISTRICT MEMORIAL HOSPITAL", "designationCode": "C", "categoryCode": "10", "address": "BOX 37", "city": "NIPIGON", "province": "ON", "country": "CA", "postalCode": "P0T2J0", "twitter": "None", "instagram": "None", "facebook": "None", "youtube": "None", "website": "None", "summary": "None", "logo": "None", "latitude": 49.43220506449858, "longitude": -88.12945411505873}, "107775504RR0001": {"name": "NIPIGON PENTECOSTAL ASSEMBLY", "designationCode": "C", "categoryCode": "36", "address": "105 5TH ST                    BOX 838", "city": "NIPIGON", "province": "ON", "country": "CA", "postalCode": "P0T2J0", "twitter": "None", "instagram": "None", "facebook": "None", "youtube": "None", "website": "None", "summary": "None", "logo": "None", "latitude": 49.0146933871833, "longitude": -88.26328740299499}, "119058113RR0001": {"name": "NIPISSING ASSOCIATION FOR DISABLED YOUTH", "designationCode": "C", "categoryCode": "11", "address": "400 MCKEOWN AVENUE            SUITE A29", "city": "NORTH BAY", "province": "ON", "country": "CA", "postalCode": "P1B0B2", "twitter": "None", "instagram": "None", "facebook": "None", "youtube": "None", "website": "None", "summary": "None", "logo": "None", "latitude": 46.33396504693057, "longitude": -79.4867789651941}, "866558430RR0001": {"name": "NIPISSING COMMUNITY ACCESS PROGRAM SITE NETWORK", "designationCode": "C", "categoryCode": "59", "address": "WEST NIPISSING PUBLIC LIBRARY 225 HOLDITCH ST, SUITE 107", "city": "STURGEON FALLS", "province": "ON", "country": "CA", "postalCode": "P2B1T1", "twitter": "None", "instagram": "None", "facebook": "None", "youtube": "None", "website": "None", "summary": "None", "logo": "None"}, "861286805RR0001": {"name": "NIPISSING DISTRICT COMMUNITY HOME OWNERSHIP ACTION GROUP", "designationCode": "C", "categoryCode": "09", "address": "201 - 133 MAIN ST W", "city": "NORTH BAY", "province": "ON", "country": "CA", "postalCode": "P1B2T6", "twitter": "None", "instagram": "None", "facebook": "None", "youtube": "None", "website": "None", "summary": "None", "logo": "None", "latitude": 46.321452162305185, "longitude": -79.48136420420431}, "139138465RR0001": {"name": "NIPISSING DOWN SYNDROME SOCIETY", "designationCode": "C", "categoryCode": "09", "address": "344 ELMWOOD AVE", "city": "NORTH BAY", "province": "ON", "country": "CA", "postalCode": "P1B9N4", "twitter": "None", "instagram": "None", "facebook": "None", "youtube": "None", "website": "None", "summary": "None", "logo": "None", "latitude": 46.32714953318128, "longitude": -79.471611}, "107775645RR0001": {"name": "NIPISSING PASTORAL CHARGE", "designationCode": "C", "categoryCode": "44", "address": "123 OUR LANE                  RR 2", "city": "POWASSAN", "province": "ON", "country": "CA", "postalCode": "P0H1Z0", "twitter": "None", "instagram": "None", "facebook": "None", "youtube": "None", "website": "None", "summary": "None", "logo": "None", "latitude": 46.01275953398933, "longitude": -79.52146751684997}, "805419009RR0001": {"name": "NIPISSING REGIONAL COMMUNITY RESIDENTIAL HOSPICE/HOSPICE RESIDENTIELLE COMMUNAUTAIRE DE LA REGION DU NIPISSING", "designationCode": "C", "categoryCode": "01", "address": "251 CASSELLS STREET", "city": "NORTH BAY", "province": "ON", "country": "CA", "postalCode": "P1B3Z3", "twitter": "None", "instagram": "None", "facebook": "None", "youtube": "None", "website": "None", "summary": "None", "logo": "None", "latitude": 46.313340611431734, "longitude": -79.46672239203073}, "119058188RR0001": {"name": "NIPISSING TRANSITION HOUSE", "designationCode": "C", "categoryCode": "09", "address": "547 JOHN STREET", "city": "NORTH BAY", "province": "ON", "country": "CA", "postalCode": "P1B2M9", "twitter": "None", "instagram": "None", "facebook": "None", "youtube": "None", "website": "None", "summary": "None", "logo": "None", "latitude": 46.30493641436329, "longitude": -79.4553696680421}, "119058154RR0001": {"name": "NIPISSING UNIVERSITY", "designationCode": "C", "categoryCode": "20", "address": "100 COLLEGE DRIVE             BOX 5002", "city": "NORTH BAY", "province": "ON", "country": "CA", "postalCode": "P1B8L7", "twitter": "None", "instagram": "None", "facebook": "None", "youtube": "None", "website": "None", "summary": "None", "logo": "None", "latitude": 46.344540420039074, "longitude": -79.48723873451354}, "890341845RR0001": {"name": "NIPISSING UNIVERSITY SCHOLARSHIP FUND", "designationCode": "B", "categoryCode": "25", "address": "PO BOX 5002                   100 COLLEGE DRIVE", "city": "NORTH BAY", "province": "ON", "country": "CA", "postalCode": "P1B8L7", "twitter": "None", "instagram": "None", "facebook": "None", "youtube": "None", "website": "None", "summary": "None", "logo": "None", "latitude": 46.344540420039074, "longitude": -79.48723873451354}, "871257234RR0001": {"name": "NIPISSING-PARRY SOUND CATHOLIC DISTRICT SCHOOL BOARD", "designationCode": "C", "categoryCode": "20", "address": "1000 HIGH ST", "city": "NORTH BAY", "province": "ON", "country": "CA", "postalCode": "P1B6S6", "twitter": "None", "instagram": "None", "facebook": "None", "youtube": "None", "website": "None", "summary": "None", "logo": "None", "latitude": 46.32113951716708, "longitude": -79.45832424424374}, "107775694RR0001": {"name": "NIPPER'S HARBOUR PASTORAL CHARGE", "designationCode": "C", "categoryCode": "44", "address": "P O BOX 100", "city": "NIPPERS HARBOUR", "province": "NL", "country": "CA", "postalCode": "A0K3T0", "twitter": "None", "instagram": "None", "facebook": "None", "youtube": "None", "website": "None", "summary": "None", "logo": "None", "latitude": 49.88186676123502, "longitude": -55.819288015510615}, "861437341RR0001": {"name": "NIQINIK NUATSIVIK - NUNAVUT FOOD BANK", "designationCode": "C", "categoryCode": "09", "address": "PO BOX 2085", "city": "IQALUIT", "province": "NU", "country": "CA", "postalCode": "X0A0H0", "twitter": "None", "instagram": "None", "facebook": "None", "youtube": "None", "website": "None", "summary": "None", "logo": "None", "latitude": 62.81090700000006, "longitude": -92.08155949999994}, "887677029RR0001": {"name": "NISA/NORTHERN INITIATIVE FOR SOCIAL ACTION", "designationCode": "C", "categoryCode": "09", "address": "36 ELGIN ST", "city": "SUDBURY", "province": "ON", "country": "CA", "postalCode": "P3C5B4", "twitter": "None", "instagram": "None", "facebook": "None", "youtube": "None", "website": "None", "summary": "None", "logo": "None", "latitude": 46.493669607142095, "longitude": -80.99643066124845}, "107775736RR0001": {"name": "NISBET LODGE", "designationCode": "C", "categoryCode": "01", "address": "740 PAPE AVENUE", "city": "TORONTO", "province": "ON", "country": "CA", "postalCode": "M4K3S7", "twitter": "None", "instagram": "None", "facebook": "None", "youtube": "None", "website": "None", "summary": "None", "logo": "None", "latitude": 43.68058435775295, "longitude": -79.34552628354184}, "867926578RR0001": {"name": "NISGA'A ELEMENTARY-SECONDARY SCHOOL, PARENT ADVISORY COUNCIL", "designationCode": "C", "categoryCode": "21", "address": "P. O. BOX 239                 SKADEEN AVENUE", "city": "NEW AIYANSH", "province": "BC", "country": "CA", "postalCode": "V0J1A0", "twitter": "None", "instagram": "None", "facebook": "None", "youtube": "None", "website": "None", "summary": "None", "logo": "None", "latitude": 55.204930346636075, "longitude": -129.0767613465541}, "863589651RR0001": {"name": "NISHKAM SIKH WELFARE ORGANIZATION, CANADA", "designationCode": "C", "categoryCode": "09", "address": "98 CORDGRASS CRESCENT", "city": "BRAMPTON", "province": "ON", "country": "CA", "postalCode": "L6R2A2", "twitter": "None", "instagram": "None", "facebook": "None", "youtube": "None", "website": "None", "summary": "None", "logo": "None", "latitude": 43.7494119472561, "longitude": -79.74983200626106}, "135625713RR0001": {"name": "NISHMA-SOCIETAL ENDEAVOR IN UNDERSTANDING TORAH", "designationCode": "C", "categoryCode": "49", "address": "1057 STEELES AVENUE WEST      P.O. BOX  81684", "city": "TORONTO", "province": "ON", "country": "CA", "postalCode": "M2R3X1", "twitter": "None", "instagram": "None", "facebook": "None", "youtube": "None", "website": "None", "summary": "None", "logo": "None"}, "131791386RR0001": {"name": "NISHNAWBE HOMES INCORPORATED", "designationCode": "C", "categoryCode": "09", "address": "244 CHURCH STREET", "city": "TORONTO", "province": "ON", "country": "CA", "postalCode": "M5B1Z3", "twitter": "None", "instagram": "None", "facebook": "None", "youtube": "None", "website": "None", "summary": "None", "logo": "None", "latitude": 43.655995351924545, "longitude": -79.3769564525649}, "107775835RR0001": {"name": "NISHNAWBE-GAMIK FRIENDSHIP CENTRE INC.", "designationCode": "C", "categoryCode": "59", "address": "52 KING ST                    PO BOX 1299 STN MAIN", "city": "SIOUX LOOKOUT", "province": "ON", "country": "CA", "postalCode": "P8T1B8", "twitter": "None", "instagram": "None", "facebook": "None", "youtube": "None", "website": "None", "summary": "None", "logo": "None", "latitude": 50.09913047100234, "longitude": -91.91663027699232}, "107775892RR0001": {"name": "NISTAWOYOU ASSOCIATION FRIENDSHIP CENTRE", "designationCode": "C", "categoryCode": "56", "address": "8310 MANNING AVE", "city": "FORT MCMURRAY", "province": "AB", "country": "CA", "postalCode": "T9H1W1", "twitter": "None", "instagram": "None", "facebook": "None", "youtube": "None", "website": "None", "summary": "None", "logo": "None", "latitude": 56.717465855415654, "longitude": -111.35200350372224}, "886711118RR0001": {"name": "NITARTHA INTERNATIONAL CANADA CORPORATION - LA CORPORATION NITARTHA INTERNATIONAL CANADA", "designationCode": "C", "categoryCode": "35", "address": "P.O. BOX 2092 STN TERMINAL", "city": "VANCOUVER", "province": "BC", "country": "CA", "postalCode": "V6B3T2", "twitter": "None", "instagram": "None", "facebook": "None", "youtube": "None", "website": "None", "summary": "None", "logo": "None", "latitude": 49.28024400000005, "longitude": -123.11294749999993}, "832087068RR0001": {"name": "NITEO AFRICA SOCIETY", "designationCode": "C", "categoryCode": "09", "address": "PO BOX 29165                  RPO OKANAGAN MISS.", "city": "KELOWNA", "province": "BC", "country": "CA", "postalCode": "V1W4A7", "twitter": "None", "instagram": "None", "facebook": "None", "youtube": "None", "website": "None", "summary": "None", "logo": "None", "latitude": 49.900838066640205, "longitude": -119.48955944070437}, "119058253RR0001": {"name": "NITH VALLEY MENNONITE CHURCH", "designationCode": "C", "categoryCode": "34", "address": "P.O. BOX 6152", "city": "NEW HAMBURG", "province": "ON", "country": "CA", "postalCode": "N3A2K6", "twitter": "None", "instagram": "None", "facebook": "None", "youtube": "None", "website": "None", "summary": "None", "logo": "None", "latitude": 43.37823300000005, "longitude": -80.71132399999993}, "859698565RR0001": {"name": "NITHYANANDA MEDITATION ACADEMY", "designationCode": "C", "categoryCode": "48", "address": "10-1960 ELLESMERE RD", "city": "TORONTO", "province": "ON", "country": "CA", "postalCode": "M1H2V9", "twitter": "None", "instagram": "None", "facebook": "None", "youtube": "None", "website": "None", "summary": "None", "logo": "None", "latitude": 43.77500021521646, "longitude": -79.23865818642128}, "118897271RR0001": {"name": "NIVERVILLE COMMUNITY FELLOWSHIP INC.", "designationCode": "C", "categoryCode": "34", "address": "BOX 206", "city": "NIVERVILLE", "province": "MB", "country": "CA", "postalCode": "R0A1E0", "twitter": "None", "instagram": "None", "facebook": "None", "youtube": "None", "website": "None", "summary": "None", "logo": "None", "latitude": 49.60599000000006, "longitude": -97.04598199999994}, "888332475RR0001": {"name": "NIVERVILLE HEALTH & COMMUNITY FOUNDATION INC.", "designationCode": "A", "categoryCode": "13", "address": "BOX 354", "city": "NIVERVILLE", "province": "MB", "country": "CA", "postalCode": "R0A1E0", "twitter": "None", "instagram": "None", "facebook": "None", "youtube": "None", "website": "None", "summary": "None", "logo": "None", "latitude": 49.60599000000006, "longitude": -97.04598199999994}, "877461913RR0001": {"name": "NIVERVILLE HELPING HANDS MINISTRY INC.", "designationCode": "C", "categoryCode": "09", "address": "BOX 1201 116-3RD AVE SOUTH", "city": "NIVERVILLE", "province": "MB", "country": "CA", "postalCode": "R0A1E0", "twitter": "None", "instagram": "None", "facebook": "None", "youtube": "None", "website": "None", "summary": "None", "logo": "None", "latitude": 49.602935226082856, "longitude": -97.0426274651658}, "870444999RR0001": {"name": "NIVERVILLE M.C.C. COMMUNITY ASSISTANCE CENTRE INC.", "designationCode": "A", "categoryCode": "09", "address": "PO BOX 831", "city": "NIVERVILLE", "province": "MB", "country": "CA", "postalCode": "R0A1E0", "twitter": "None", "instagram": "None", "facebook": "None", "youtube": "None", "website": "None", "summary": "None", "logo": "None", "latitude": 49.60599000000006, "longitude": -97.04598199999994}, "107776015RR0001": {"name": "NIVERVILLE MENNONITE CHURCH", "designationCode": "C", "categoryCode": "34", "address": "BOX 206", "city": "NIVERVILLE", "province": "MB", "country": "CA", "postalCode": "R0A1E0", "twitter": "None", "instagram": "None", "facebook": "None", "youtube": "None", "website": "None", "summary": "None", "logo": "None", "latitude": 49.60599000000006, "longitude": -97.04598199999994}, "134864933RR0001": {"name": "NIVERVILLE SENIOR CITIZENS HOUSING INC", "designationCode": "C", "categoryCode": "09", "address": "12 - 200 2ND AVE S", "city": "NIVERVILLE", "province": "MB", "country": "CA", "postalCode": "R0A0A1", "twitter": "None", "instagram": "None", "facebook": "None", "youtube": "None", "website": "None", "summary": "None", "logo": "None", "latitude": 49.602672000000005, "longitude": -97.04519099999999}, "119058295RR0001": {"name": "NIVERVILLE UNITED CHURCH", "designationCode": "C", "categoryCode": "44", "address": "BOX 375", "city": "NIVERVILLE", "province": "MB", "country": "CA", "postalCode": "R0A1E0", "twitter": "None", "instagram": "None", "facebook": "None", "youtube": "None", "website": "None", "summary": "None", "logo": "None", "latitude": 49.60599000000006, "longitude": -97.04598199999994}, "134499870RR0001": {"name": "NIXON UNITED BAPTIST CHURCH", "designationCode": "C", "categoryCode": "31", "address": "57 NIXON RD.", "city": "COLPITTS SETTLEMENT", "province": "NB", "country": "CA", "postalCode": "E4J1J1", "twitter": "None", "instagram": "None", "facebook": "None", "youtube": "None", "website": "None", "summary": "None", "logo": "None", "latitude": 45.95912361551498, "longitude": -64.95362037795914}, "830312567RR0001": {"name": "NK'MIP DESERT HERITAGE SOCIETY", "designationCode": "C", "categoryCode": "21", "address": "1000 RANCHER CREEK ROAD", "city": "OSOYOOS", "province": "BC", "country": "CA", "postalCode": "V0H1V6", "twitter": "None", "instagram": "None", "facebook": "None", "youtube": "None", "website": "None", "summary": "None", "logo": "None", "latitude": 49.03850688078917, "longitude": -119.43806205208159}, "853242931RR0001": {"name": "NLCU CHARITABLE FOUNDATION CORPORATION", "designationCode": "A", "categoryCode": "03", "address": "341 FRESHWATER ROAD", "city": "ST. JOHN'S", "province": "NL", "country": "CA", "postalCode": "A1B1C4", "twitter": "None", "instagram": "None", "facebook": "None", "youtube": "None", "website": "None", "summary": "None", "logo": "None", "latitude": 47.56112516232929, "longitude": -52.74630202357332}, "860953298RR0001": {"name": "NLI CANADA", "designationCode": "C", "categoryCode": "47", "address": "PO BOX 21157", "city": "MAPLE RIDGE", "province": "BC", "country": "CA", "postalCode": "V2X1P7", "twitter": "None", "instagram": "None", "facebook": "None", "youtube": "None", "website": "None", "summary": "None", "logo": "None", "latitude": 49.21686600000005, "longitude": -122.60537449999993}, "136407608RR0001": {"name": "NMC Music Foundation", "designationCode": "C", "categoryCode": "22", "address": "134 - 11 AVE S.E. SECOND FLOOR", "city": "CALGARY", "province": "AB", "country": "CA", "postalCode": "T2G0X5", "twitter": "None", "instagram": "None", "facebook": "None", "youtube": "None", "website": "None", "summary": "None", "logo": "None", "latitude": 51.04232549321933, "longitude": -114.06118955245542}, "864165204RR0001": {"name": "NMDHS REUNION 2001 FOUNDATION", "designationCode": "C", "categoryCode": "21", "address": "R.R. #1, 11256 ARGYLE STREET", "city": "AILSA CRAIG", "province": "ON", "country": "CA", "postalCode": "N0M1A0", "twitter": "None", "instagram": "None", "facebook": "None", "youtube": "None", "website": "None", "summary": "None", "logo": "None", "latitude": 43.10519613108031, "longitude": -81.52783199122783}, "868787342RR0001": {"name": "NO 6 RCAF DUNNVILLE MUSEUM 1999 INC.", "designationCode": "C", "categoryCode": "50", "address": "BOX 232", "city": "DUNNVILLE", "province": "ON", "country": "CA", "postalCode": "N1A2X5", "twitter": "None", "instagram": "None", "facebook": "None", "youtube": "None", "website": "None", "summary": "None", "logo": "None", "latitude": 42.90442800000005, "longitude": -79.62015049999994}, "862741519RR0001": {"name": "NO. 185 OLDS PARENTS ASSOCIATION", "designationCode": "C", "categoryCode": "29", "address": "5205 52 STREET", "city": "OLDS", "province": "AB", "country": "CA", "postalCode": "T4H1H1", "twitter": "None", "instagram": "None", "facebook": "None", "youtube": "None", "website": "None", "summary": "None", "logo": "None", "latitude": 51.791220671100504, "longitude": -114.11111682154188}, "135130425RR0001": {"name": "NOBLEFORD AREA MUSEUM SOCIETY", "designationCode": "C", "categoryCode": "50", "address": "PO BOX 66", "city": "NOBLEFORD", "province": "AB", "country": "CA", "postalCode": "T0L1S0", "twitter": "None", "instagram": "None", "facebook": "None", "youtube": "None", "website": "None", "summary": "None", "logo": "None", "latitude": 49.87318000000005, "longitude": -113.05139999999994}, "119288918RR0273": {"name": "NOBLETON CONGREGATION OF JEHOVAH'S WITNESSES", "designationCode": "C", "categoryCode": "61", "address": "P.O. BOX 866", "city": "BOLTON", "province": "ON", "country": "CA", "postalCode": "L7E5T5", "twitter": "None", "instagram": "None", "facebook": "None", "youtube": "None", "website": "None", "summary": "None", "logo": "None", "latitude": 43.880838000000054, "longitude": -79.73942299999993}, "889506598RR0001": {"name": "NOBLETON UNITED CHURCH", "designationCode": "C", "categoryCode": "44", "address": "BOX 284", "city": "NOBLETON", "province": "ON", "country": "CA", "postalCode": "L0G1N0", "twitter": "None", "instagram": "None", "facebook": "None", "youtube": "None", "website": "None", "summary": "None", "logo": "None", "latitude": 43.93564213522746, "longitude": -79.64929161220155}, "893328369RR0001": {"name": "NOEL & DISTRICT VOLUNTEER FIRE DEPARTMENT", "designationCode": "C", "categoryCode": "59", "address": "1639 BURNTCOAT RD             RR1", "city": "NOEL", "province": "NS", "country": "CA", "postalCode": "B0N2C0", "twitter": "None", "instagram": "None", "facebook": "None", "youtube": "None", "website": "None", "summary": "None", "logo": "None", "latitude": 45.29609367084072, "longitude": -63.749597370650434}, "119058386RR0001": {"name": "NOEL DU PARTAGE, INC.", "designationCode": "A", "categoryCode": "09", "address": "2376, ST-ALPHONSE NORD", "city": "THETFORD MINES", "province": "QC", "country": "CA", "postalCode": "G6G7M2", "twitter": "None", "instagram": "None", "facebook": "None", "youtube": "None", "website": "None", "summary": "None", "logo": "None", "latitude": 46.119188213399724, "longitude": -71.32950898753518}, "862062882RR0001": {"name": "NOEL POUR TOUT LE MONDE", "designationCode": "C", "categoryCode": "09", "address": "CASE POSTALE 584", "city": "CHIBOUGAMAU", "province": "QC", "country": "CA", "postalCode": "G8P2Z3", "twitter": "None", "instagram": "None", "facebook": "None", "youtube": "None", "website": "None", "summary": "None", "logo": "None", "latitude": 49.90557300000006, "longitude": -74.38428349999994}, "119058402RR0001": {"name": "NOEL SHORE CEMETERY", "designationCode": "C", "categoryCode": "59", "address": "6309 ROUTE 215                RR #1 MAITLAND", "city": "HANTS COUNTY", "province": "NS", "country": "CA", "postalCode": "B0N1T0", "twitter": "None", "instagram": "None", "facebook": "None", "youtube": "None", "website": "None", "summary": "None", "logo": "None", "latitude": 45.31811100000006, "longitude": -63.50180299999994}, "135177574RR0001": {"name": "NOG-DA-WIN-DA-MIN FAMILY AND COMMUNITY SERVICES", "designationCode": "C", "categoryCode": "09", "address": "210B GRAN ST", "city": "BATCHEWANA FIRST NATION", "province": "ON", "country": "CA", "postalCode": "P6A0C4", "twitter": "None", "instagram": "None", "facebook": "None", "youtube": "None", "website": "None", "summary": "None", "logo": "None", "latitude": 46.53050771383176, "longitude": -84.26060822808194}, "119058410RR0001": {"name": "NOKEE KWE", "designationCode": "C", "categoryCode": "20", "address": "104-1069 WELLINGTON RD", "city": "LONDON", "province": "ON", "country": "CA", "postalCode": "N6E2H6", "twitter": "None", "instagram": "None", "facebook": "None", "youtube": "None", "website": "None", "summary": "None", "logo": "None", "latitude": 42.93560938966479, "longitude": -81.22394864412206}, "865717920RR0001": {"name": "NOKIIDAA TRAIL ASSOCIATION", "designationCode": "C", "categoryCode": "56", "address": "16 BARBERRY CRES", "city": "RICHMOND HILL", "province": "ON", "country": "CA", "postalCode": "L4E4S4", "twitter": "None", "instagram": "None", "facebook": "None", "youtube": "None", "website": "None", "summary": "None", "logo": "None", "latitude": 43.95576835720467, "longitude": -79.47444746436588}, "119058444RR0001": {"name": "NOKOMIS & DISTRICT COMBINED APPEAL DONORS CHOICE COMMITTEE", "designationCode": "A", "categoryCode": "05", "address": "PO BOX 189", "city": "NOKOMIS", "province": "SK", "country": "CA", "postalCode": "S0G3R0", "twitter": "None", "instagram": "None", "facebook": "None", "youtube": "None", "website": "None", "summary": "None", "logo": "None", "latitude": 51.50703000000004, "longitude": -105.01040999999998}, "859065690RR0001": {"name": "NOKOMIS AGRICULTURAL SOCIETY INC.", "designationCode": "C", "categoryCode": "56", "address": "P.O. BOX 483", "city": "NOKOMIS", "province": "SK", "country": "CA", "postalCode": "S0G3R0", "twitter": "None", "instagram": "None", "facebook": "None", "youtube": "None", "website": "None", "summary": "None", "logo": "None", "latitude": 51.50703000000004, "longitude": -105.01040999999998}, "888188067RR0001": {"name": "NOKOMIS ARENA SUPPORT FUND", "designationCode": "C", "categoryCode": "56", "address": "PO BOX 53", "city": "NOKOMIS", "province": "SK", "country": "CA", "postalCode": "S0G3R0", "twitter": "None", "instagram": "None", "facebook": "None", "youtube": "None", "website": "None", "summary": "None", "logo": "None", "latitude": 51.50703000000004, "longitude": -105.01040999999998}, "107776635RR0001": {"name": "NOKOMIS BAPTIST CHURCH", "designationCode": "C", "categoryCode": "31", "address": "BOX 85", "city": "NOKOMIS", "province": "SK", "country": "CA", "postalCode": "S0G3R0", "twitter": "None", "instagram": "None", "facebook": "None", "youtube": "None", "website": "None", "summary": "None", "logo": "None", "latitude": 51.50703000000004, "longitude": -105.01040999999998}, "889748372RR0001": {"name": "NOKOMIS CEMETERY COMMITTEE", "designationCode": "C", "categoryCode": "59", "address": "PO BOX 451", "city": "NOKOMIS", "province": "SK", "country": "CA", "postalCode": "S0G3R0", "twitter": "None", "instagram": "None", "facebook": "None", "youtube": "None", "website": "None", "summary": "None", "logo": "None", "latitude": 51.50703000000004, "longitude": -105.01040999999998}, "801737743RR0001": {"name": "NOKOMIS HEALTH CENTRE FOUNDATION BOARD", "designationCode": "A", "categoryCode": "19", "address": "BOX 451", "city": "NOKOMIS", "province": "SK", "country": "CA", "postalCode": "S0G3R0", "twitter": "None", "instagram": "None", "facebook": "None", "youtube": "None", "website": "None", "summary": "None", "logo": "None", "latitude": 51.50703000000004, "longitude": -105.01040999999998}, "862920998RR0001": {"name": "NOKOMIS RECREATION CENTRE FACILITY BOARD", "designationCode": "C", "categoryCode": "55", "address": "BOX 132", "city": "NOKOMIS", "province": "SK", "country": "CA", "postalCode": "S0G3R0", "twitter": "None", "instagram": "None", "facebook": "None", "youtube": "None", "website": "None", "summary": "None", "logo": "None", "latitude": 51.50703000000004, "longitude": -105.01040999999998}, "119058477RR0001": {"name": "NOKOMIS UNITED CHURCH", "designationCode": "C", "categoryCode": "44", "address": "PO BOX 92", "city": "NOKOMIS", "province": "SK", "country": "CA", "postalCode": "S0G3R0", "twitter": "None", "instagram": "None", "facebook": "None", "youtube": "None", "website": "None", "summary": "None", "logo": "None", "latitude": 51.50703000000004, "longitude": -105.01040999999998}, "896962735RR0001": {"name": "NOLALU EMERGENCY SERVICES TEAM INC.", "designationCode": "C", "categoryCode": "59", "address": "RR1, 331 OLD MILL RD", "city": "NOLALU", "province": "ON", "country": "CA", "postalCode": "P0T2K0", "twitter": "None", "instagram": "None", "facebook": "None", "youtube": "None", "website": "None", "summary": "None", "logo": "None", "latitude": 48.28780800993146, "longitude": -89.80842559962781}, "887395861RR0001": {"name": "NOLAN HISTORICAL ASSOCIATION", "designationCode": "B", "categoryCode": "52", "address": "22 FIR STREET", "city": "RED DEER", "province": "AB", "country": "CA", "postalCode": "T4N4Y2", "twitter": "None", "instagram": "None", "facebook": "None", "youtube": "None", "website": "None", "summary": "None", "logo": "None", "latitude": 52.272592167349615, "longitude": -113.83226934834653}, "131549040RR0001": {"name": "NON-DENOMINATIONAL LIVING STONES CHURCH OF RED DEER", "designationCode": "C", "categoryCode": "39", "address": "2020-40 AVE", "city": "RED DEER", "province": "AB", "country": "CA", "postalCode": "T4N5E3", "twitter": "None", "instagram": "None", "facebook": "None", "youtube": "None", "website": "None", "summary": "None", "logo": "None", "latitude": 52.231392754371285, "longitude": -113.79036683380424}, "880860713RR0001": {"name": "NOOR CULTURAL CENTRE", "designationCode": "C", "categoryCode": "60", "address": "11447 KENNEDY RD", "city": "MARKHAM", "province": "ON", "country": "CA", "postalCode": "L6C1P2", "twitter": "None", "instagram": "None", "facebook": "None", "youtube": "None", "website": "None", "summary": "None", "logo": "None", "latitude": 43.93238921677528, "longitude": -79.32757500657912}, "891636565RR0001": {"name": "NOOR-E-ISLAM MADRESSA AND CULTURAL CENTRE OF WINDSOR", "designationCode": "C", "categoryCode": "49", "address": "747 LINCOLN ROAD", "city": "WINDSOR", "province": "ON", "country": "CA", "postalCode": "N8Y2G2", "twitter": "None", "instagram": "None", "facebook": "None", "youtube": "None", "website": "None", "summary": "None", "logo": "None", "latitude": 42.32031503329684, "longitude": -83.01505016766671}, "119058568RR0001": {"name": "NOOR-E-ISLAM SOCIETY OF CANADA", "designationCode": "C", "categoryCode": "60", "address": "150 CLARK BLVD., SUITE 252", "city": "BRAMPTON", "province": "ON", "country": "CA", "postalCode": "L6T4Y8", "twitter": "None", "instagram": "None", "facebook": "None", "youtube": "None", "website": "None", "summary": "None", "logo": "None", "latitude": 43.70575942022034, "longitude": -79.7260559905936}, "119058576RR0001": {"name": "NOOR-UL-ISLAM ONTARIO CORP.", "designationCode": "C", "categoryCode": "60", "address": "PO BOX 1459", "city": "BARRIE", "province": "ON", "country": "CA", "postalCode": "L4M5R4", "twitter": "None", "instagram": "None", "facebook": "None", "youtube": "None", "website": "None", "summary": "None", "logo": "None", "latitude": 44.38929300000005, "longitude": -79.68626449999994}, "886377993RR0001": {"name": "NOR SEROUNT CHARITABLE FOUNDATION", "designationCode": "A", "categoryCode": "25", "address": "333 DENISON STREET, UNIT 3", "city": "MARKHAM", "province": "ON", "country": "CA", "postalCode": "L3R2Z4", "twitter": "None", "instagram": "None", "facebook": "None", "youtube": "None", "website": "None", "summary": "None", "logo": "None"}, "107787087RR0001": {"name": "NOR'WEST CO-OP COMMUNITY HEALTH CENTRE, INC.", "designationCode": "C", "categoryCode": "11", "address": "785 KEEWATIN STREET", "city": "WINNIPEG", "province": "MB", "country": "CA", "postalCode": "R2X3B9", "twitter": "None", "instagram": "None", "facebook": "None", "youtube": "None", "website": "None", "summary": "None", "logo": "None", "latitude": 49.936851000000004, "longitude": -97.19497472117827}, "890628142RR0001": {"name": "NORBERT & GUSTA ROTH FOUNDATION/FONDATION NORBERT & GUSTA ROTH", "designationCode": "B", "categoryCode": "03", "address": "6000 COTE DES NEIGES          SUITE 590", "city": "MONTREAL", "province": "QC", "country": "CA", "postalCode": "H3S1Z8", "twitter": "None", "instagram": "None", "facebook": "None", "youtube": "None", "website": "None", "summary": "None", "logo": "None", "latitude": 45.500385815136596, "longitude": -73.63124216154988}, "135740264RR0001": {"name": "NORBURY FOUNDATION", "designationCode": "B", "categoryCode": "53", "address": "950 - 510 BURRARD STREET", "city": "VANCOUVER", "province": "BC", "country": "CA", "postalCode": "V6C3A8", "twitter": "None", "instagram": "None", "facebook": "None", "youtube": "None", "website": "None", "summary": "None", "logo": "None", "latitude": 49.28636771492895, "longitude": -123.11808700092362}, "119058659RR0001": {"name": "NORD-BRIDGE SENIOR CITIZENS ASSOCIATION", "designationCode": "C", "categoryCode": "56", "address": "1904-13 AVENUE N", "city": "LETHBRIDGE", "province": "AB", "country": "CA", "postalCode": "T1H4W9", "twitter": "None", "instagram": "None", "facebook": "None", "youtube": "None", "website": "None", "summary": "None", "logo": "None", "latitude": 49.716370480668516, "longitude": -112.8134025}, "119288918RR0875": {"name": "NORDEL CONGREGATION OF JEHOVAH'S WITNESSES", "designationCode": "C", "categoryCode": "61", "address": "8341 SHEAVES RD", "city": "DELTA", "province": "BC", "country": "CA", "postalCode": "V4C7R5", "twitter": "None", "instagram": "None", "facebook": "None", "youtube": "None", "website": "None", "summary": "None", "logo": "None", "latitude": 49.15465337356463, "longitude": -122.93916187111179}, "889977864RR0001": {"name": "NORDEN LUTHERAN HERITAGE SITE", "designationCode": "C", "categoryCode": "32", "address": "BOX 364", "city": "KINISTINO", "province": "SK", "country": "CA", "postalCode": "S0J1H0", "twitter": "None", "instagram": "None", "facebook": "None", "youtube": "None", "website": "None", "summary": "None", "logo": "None", "latitude": 52.95167619052169, "longitude": -105.02926971926463}, "119058667RR0001": {"name": "NORDHEIM MENNONITE CHURCH", "designationCode": "C", "categoryCode": "34", "address": "PO BOX 337", "city": "WINNIPEGOSIS", "province": "MB", "country": "CA", "postalCode": "R0L2G0", "twitter": "None", "instagram": "None", "facebook": "None", "youtube": "None", "website": "None", "summary": "None", "logo": "None", "latitude": 51.65289899999999, "longitude": -99.9405918859683}, "126211499RR0001": {"name": "NORFOLK ASSOCIATION FOR COMMUNITY LIVING", "designationCode": "C", "categoryCode": "11", "address": "644 IRELAND RD", "city": "SIMCOE", "province": "ON", "country": "CA", "postalCode": "N3Y4K2", "twitter": "None", "instagram": "None", "facebook": "None", "youtube": "None", "website": "None", "summary": "None", "logo": "None", "latitude": 42.83272637607479, "longitude": -80.27950383112119}, "889819827RR0001": {"name": "NORFOLK COUNTY FAIR FOUNDATION", "designationCode": "C", "categoryCode": "03", "address": "172 SOUTH DRIVE", "city": "SIMCOE", "province": "ON", "country": "CA", "postalCode": "N3Y1G6", "twitter": "None", "instagram": "None", "facebook": "None", "youtube": "None", "website": "None", "summary": "None", "logo": "None", "latitude": 42.83019967384182, "longitude": -80.3075201987132}, "119058691RR0001": {"name": "NORFOLK FIELD NATURALISTS", "designationCode": "C", "categoryCode": "52", "address": "PO BOX 995", "city": "SIMCOE", "province": "ON", "country": "CA", "postalCode": "N3Y5B3", "twitter": "None", "instagram": "None", "facebook": "None", "youtube": "None", "website": "None", "summary": "None", "logo": "None", "latitude": 42.83590200000006, "longitude": -80.30531149999993}, "107777880RR0001": {"name": "NORFOLK GENERAL HOSPITAL", "designationCode": "C", "categoryCode": "10", "address": "365 WEST STREET", "city": "SIMCOE", "province": "ON", "country": "CA", "postalCode": "N3Y1T7", "twitter": "None", "instagram": "None", "facebook": "None", "youtube": "None", "website": "None", "summary": "None", "logo": "None", "latitude": 42.834770328899495, "longitude": -80.3140876254544}, "119058709RR0001": {"name": "NORFOLK GENERAL HOSPITAL FOUNDATION", "designationCode": "A", "categoryCode": "13", "address": "365 WEST STREET", "city": "SIMCOE", "province": "ON", "country": "CA", "postalCode": "N3Y1T7", "twitter": "None", "instagram": "None", "facebook": "None", "youtube": "None", "website": "None", "summary": "None", "logo": "None", "latitude": 42.834770328899495, "longitude": -80.3140876254544}, "129955290RR0001": {"name": "NORFOLK HISTORICAL SOCIETY", "designationCode": "C", "categoryCode": "50", "address": "109 NORFOLK ST S", "city": "SIMCOE", "province": "ON", "country": "CA", "postalCode": "N3Y2W3", "twitter": "None", "instagram": "None", "facebook": "None", "youtube": "None", "website": "None", "summary": "None", "logo": "None", "latitude": 42.834933869553936, "longitude": -80.30314619871321}, "892462797RR0001": {"name": "NORFOLK MUSICAL ARTS FESTIVAL", "designationCode": "C", "categoryCode": "22", "address": "142 LYNNDALE RD", "city": "SIMCOE", "province": "ON", "country": "CA", "postalCode": "N3Y5J1", "twitter": "None", "instagram": "None", "facebook": "None", "youtube": "None", "website": "None", "summary": "None", "logo": "None", "latitude": 42.843134620030064, "longitude": -80.28368809325409}, "107777997RR0001": {"name": "NORFOLK STREET UNITED CHURCH", "designationCode": "C", "categoryCode": "44", "address": "14 MCCRAE BLVD.", "city": "GUELPH", "province": "ON", "country": "CA", "postalCode": "N1G2C1", "twitter": "None", "instagram": "None", "facebook": "None", "youtube": "None", "website": "None", "summary": "None", "logo": "None", "latitude": 43.53567706385239, "longitude": -80.24494215748184}, "892470360RR0001": {"name": "NORGAARD FOUNDATION", "designationCode": "B", "categoryCode": "09", "address": "550 - 645 FORT STREET", "city": "VICTORIA", "province": "BC", "country": "CA", "postalCode": "V8W1G2", "twitter": "None", "instagram": "None", "facebook": "None", "youtube": "None", "website": "None", "summary": "None", "logo": "None", "latitude": 48.424758561169355, "longitude": -123.36676597030983}, "889912994RR0001": {"name": "NORGATE HOUSE SOCIETY", "designationCode": "C", "categoryCode": "09", "address": "300-2006 W 10TH AVE", "city": "VANCOUVER", "province": "BC", "country": "CA", "postalCode": "V6J2B3", "twitter": "None", "instagram": "None", "facebook": "None", "youtube": "None", "website": "None", "summary": "None", "logo": "None", "latitude": 49.26280554674261, "longitude": -123.15105305398464}, "107778391RR0001": {"name": "NORMAN COMMUNITY SERVICES INCORPORATED", "designationCode": "C", "categoryCode": "01", "address": "177 GREEN ST", "city": "FLIN FLON", "province": "MB", "country": "CA", "postalCode": "R8A0G5", "twitter": "None", "instagram": "None", "facebook": "None", "youtube": "None", "website": "None", "summary": "None", "logo": "None", "latitude": 54.77181194281272, "longitude": -101.84997536814028}, "119058774RR0001": {"name": "NORMAN FEDER CHARITABLE FOUNDATION", "designationCode": "B", "categoryCode": "53", "address": "PO BOX 949                    1 PROMENADE CIRCLE", "city": "THORNHILL", "province": "ON", "country": "CA", "postalCode": "L4J8G7", "twitter": "None", "instagram": "None", "facebook": "None", "youtube": "None", "website": "None", "summary": "None", "logo": "None", "latitude": 43.80919830898373, "longitude": -79.4530287868}}