{"140804113RR0001": {"name": "Blackfoot Family Lodge Society", "designationCode": "C", "categoryCode": "01", "address": "830 7 ST N", "city": "LETHBRIDGE", "province": "AB", "country": "CA", "postalCode": "T1H1Y7", "twitter": "None", "instagram": "None", "facebook": "None", "youtube": "None", "website": "None", "summary": "None", "logo": "None", "latitude": 49.712818007675914, "longitude": -112.83682755047825}, "836126060RR0001": {"name": "Bladder Cancer Canada", "designationCode": "C", "categoryCode": "11", "address": "1000 - 4936 YONGE ST", "city": "NORTH YORK", "province": "ON", "country": "CA", "postalCode": "M2N6S3", "twitter": "None", "instagram": "None", "facebook": "None", "youtube": "None", "website": "None", "summary": "None", "logo": "None", "latitude": 43.764610264498835, "longitude": -79.41174710493951}, "808282248RR0001": {"name": "Blais-Green Charitable Foundation", "designationCode": "B", "categoryCode": "23", "address": "401-23 LESMILL ROAD", "city": "TORONTO", "province": "ON", "country": "CA", "postalCode": "M3B3P6", "twitter": "None", "instagram": "None", "facebook": "None", "youtube": "None", "website": "None", "summary": "None", "logo": "None", "latitude": 43.756499388020025, "longitude": -79.35275909362946}, "801812199RR0001": {"name": "Blake and Linda Annable Family Foundation", "designationCode": "B", "categoryCode": "05", "address": "2900-550 BURRARD STREET", "city": "VANCOUVER", "province": "BC", "country": "CA", "postalCode": "V6C0A3", "twitter": "None", "instagram": "None", "facebook": "None", "youtube": "None", "website": "None", "summary": "None", "logo": "None", "latitude": 49.28596391921073, "longitude": -123.11870289255033}, "119288918RR0405": {"name": "Blaketown Congregation of Jehovah's Witnesses, Blaketown, Newfoundland", "designationCode": "C", "categoryCode": "61", "address": "PO BOX 62 HIGDON'S HILL", "city": "NEW HARBOUR TB", "province": "NL", "country": "CA", "postalCode": "A0B2P0", "twitter": "None", "instagram": "None", "facebook": "None", "youtube": "None", "website": "None", "summary": "None", "logo": "None", "latitude": 47.59238119992396, "longitude": -53.53804576324942}, "831978457RR0001": {"name": "Bleecker/Wellesley Activity Network", "designationCode": "C", "categoryCode": "09", "address": "1901-200 WELLESLEY STREET EAST", "city": "TORONTO", "province": "ON", "country": "CA", "postalCode": "M4X1G3", "twitter": "None", "instagram": "None", "facebook": "None", "youtube": "None", "website": "None", "summary": "None", "logo": "None", "latitude": 43.66737210081324, "longitude": -79.37331982364802}, "820859627RR0001": {"name": "Blenheim and Merlin School Breakfast Program", "designationCode": "C", "categoryCode": "19", "address": "6635, MIDDLE LINE, RR#5", "city": "MERLIN", "province": "ON", "country": "CA", "postalCode": "N0P1W0", "twitter": "None", "instagram": "None", "facebook": "None", "youtube": "None", "website": "None", "summary": "None", "logo": "None", "latitude": 42.27393453069977, "longitude": -82.18260933767071}, "889914594RR0001": {"name": "Blenheim Evangelical Mennonite Mission Church", "designationCode": "C", "categoryCode": "34", "address": "P.O. BOX 1799", "city": "BLENHEIM", "province": "ON", "country": "CA", "postalCode": "N0P1A0", "twitter": "None", "instagram": "None", "facebook": "None", "youtube": "None", "website": "None", "summary": "None", "logo": "None", "latitude": 42.335210000000075, "longitude": -81.99768999999998}, "840027155RR0001": {"name": "Blenheim Youth Centre", "designationCode": "C", "categoryCode": "09", "address": "PO BOX 1899", "city": "BLENHEIM", "province": "ON", "country": "CA", "postalCode": "N0P1A0", "twitter": "None", "instagram": "None", "facebook": "None", "youtube": "None", "website": "None", "summary": "None", "logo": "None", "latitude": 42.335210000000075, "longitude": -81.99768999999998}, "828797829RR0001": {"name": "Blessed Baptist Church of Vancouver", "designationCode": "C", "categoryCode": "31", "address": "4580 WALDEN STREET", "city": "VANCOUVER", "province": "BC", "country": "CA", "postalCode": "V5V3S5", "twitter": "None", "instagram": "None", "facebook": "None", "youtube": "None", "website": "None", "summary": "None", "logo": "None", "latitude": 49.24355947565664, "longitude": -123.0998739651313}, "889069530RR0001": {"name": "Blessed Cardinal Newman School Education Society", "designationCode": "C", "categoryCode": "21", "address": "16201 MCKENZIE LAKE BLVD S.E.", "city": "CALGARY", "province": "AB", "country": "CA", "postalCode": "T2Z2G7", "twitter": "None", "instagram": "None", "facebook": "None", "youtube": "None", "website": "None", "summary": "None", "logo": "None", "latitude": 50.90728322898029, "longitude": -113.98789523287543}, "107577579RR0001": {"name": "Blessed Community Church", "designationCode": "C", "categoryCode": "37", "address": "10030 YONGE STREET", "city": "RICHMOND HILL", "province": "ON", "country": "CA", "postalCode": "L4C1T8", "twitter": "None", "instagram": "None", "facebook": "None", "youtube": "None", "website": "None", "summary": "None", "logo": "None", "latitude": 43.872193719660814, "longitude": -79.43745632321439}, "107797383RR0137": {"name": "Blessed Hope Seventh-day Adventist Church", "designationCode": "C", "categoryCode": "41", "address": "2051 EMBLETON ROAD", "city": "BRAMPTON", "province": "ON", "country": "CA", "postalCode": "L6Y0E9", "twitter": "None", "instagram": "None", "facebook": "None", "youtube": "None", "website": "None", "summary": "None", "logo": "None", "latitude": 43.643511702464124, "longitude": -79.80087273160602}, "107910259RR0032": {"name": "Blessed Sacrament Parish", "designationCode": "C", "categoryCode": "38", "address": "24 CHERITAN AVENUE", "city": "TORONTO", "province": "ON", "country": "CA", "postalCode": "M4R1S4", "twitter": "None", "instagram": "None", "facebook": "None", "youtube": "None", "website": "None", "summary": "None", "logo": "None", "latitude": 43.723012409400305, "longitude": -79.40282558687746}, "107910259RR0033": {"name": "Blessed Trinity Parish", "designationCode": "C", "categoryCode": "38", "address": "REV. FR. EDWARD MURPHY, PASTOR3220 BAYVIEW AVE", "city": "TORONTO", "province": "ON", "country": "CA", "postalCode": "M2M3R7", "twitter": "None", "instagram": "None", "facebook": "None", "youtube": "None", "website": "None", "summary": "None", "logo": "None", "latitude": 43.79032800000002, "longitude": -79.39320975000001}, "861602092RR0001": {"name": "Blessing for All Nations Church", "designationCode": "C", "categoryCode": "37", "address": "28 HOLLYWOOD AVE", "city": "NORTH YORK", "province": "ON", "country": "CA", "postalCode": "M2N6S4", "twitter": "None", "instagram": "None", "facebook": "None", "youtube": "None", "website": "None", "summary": "None", "logo": "None", "latitude": 43.766104155201916, "longitude": -79.41008936069578}, "835486853RR0001": {"name": "Blessing the Children - Canada Inc.", "designationCode": "C", "categoryCode": "09", "address": "BOX 248", "city": "BARONS", "province": "AB", "country": "CA", "postalCode": "T0L0G0", "twitter": "None", "instagram": "None", "facebook": "None", "youtube": "None", "website": "None", "summary": "None", "logo": "None", "latitude": 49.88365833148781, "longitude": -113.05558060463129}, "833966567RR0001": {"name": "Blessings to You Free Center", "designationCode": "C", "categoryCode": "09", "address": "PO BOX 162", "city": "PALMERSTON", "province": "ON", "country": "CA", "postalCode": "N0G2P0", "twitter": "None", "instagram": "None", "facebook": "None", "youtube": "None", "website": "None", "summary": "None", "logo": "None", "latitude": 43.95818406650932, "longitude": -81.52001207957518}, "800923187RR0001": {"name": "Blessings Christian Church", "designationCode": "C", "categoryCode": "39", "address": "PO BOX 79539 RPO GAGEMOUNT", "city": "HAMILTON", "province": "ON", "country": "CA", "postalCode": "L8T5A2", "twitter": "None", "instagram": "None", "facebook": "None", "youtube": "None", "website": "None", "summary": "None", "logo": "None", "latitude": 43.21998600000006, "longitude": -79.82694349999993}, "893762427RR0001": {"name": "Blessings Church", "designationCode": "C", "categoryCode": "36", "address": "621 COLLEGE AVENUE", "city": "WINNIPEG", "province": "MB", "country": "CA", "postalCode": "R2W1N3", "twitter": "None", "instagram": "None", "facebook": "None", "youtube": "None", "website": "None", "summary": "None", "logo": "None", "latitude": 49.92342495755657, "longitude": -97.14489438438467}, "813290616RR0001": {"name": "Blind Beginnings Society", "designationCode": "C", "categoryCode": "11", "address": "227 SIXTH ST", "city": "NEW WESTMINSTER", "province": "BC", "country": "CA", "postalCode": "V3L3A5", "twitter": "None", "instagram": "None", "facebook": "None", "youtube": "None", "website": "None", "summary": "None", "logo": "None", "latitude": 49.20811860010157, "longitude": -122.91388900986888}, "790246524RR0001": {"name": "Blind River and Area Christmas Baskets", "designationCode": "C", "categoryCode": "09", "address": "5 BEECH DR                    RR 1", "city": "BLIND RIVER", "province": "ON", "country": "CA", "postalCode": "P0R1B0", "twitter": "None", "instagram": "None", "facebook": "None", "youtube": "None", "website": "None", "summary": "None", "logo": "None", "latitude": 46.18287583816165, "longitude": -82.89863541727748}, "892644477RR0001": {"name": "Block Parent Program of Canada Inc. / Programme Parents-Secours du Canada Inc.", "designationCode": "C", "categoryCode": "59", "address": "50 DUNLOP ST E LOWER LEVEL    BOX 7", "city": "BARRIE", "province": "ON", "country": "CA", "postalCode": "L4M6J9", "twitter": "None", "instagram": "None", "facebook": "None", "youtube": "None", "website": "None", "summary": "None", "logo": "None", "latitude": 44.38929647100234, "longitude": -79.68834}, "808644405RR0001": {"name": "Bloom Church Inc.", "designationCode": "C", "categoryCode": "39", "address": "223 RODENBUSH DRIVE", "city": "REGINA", "province": "SK", "country": "CA", "postalCode": "S4R6X1", "twitter": "None", "instagram": "None", "facebook": "None", "youtube": "None", "website": "None", "summary": "None", "logo": "None", "latitude": 50.49774297694627, "longitude": -104.60417207325878}, "826021032RR0001": {"name": "Blossoms Charitable Society", "designationCode": "A", "categoryCode": "03", "address": "3350 EAST 5TH AVENUE", "city": "VANCOUVER", "province": "BC", "country": "CA", "postalCode": "V5M1P4", "twitter": "None", "instagram": "None", "facebook": "None", "youtube": "None", "website": "None", "summary": "None", "logo": "None", "latitude": 49.26557964743688, "longitude": -123.03206153147421}, "853184497RR0001": {"name": "Blue Bridge Theatre Society", "designationCode": "C", "categoryCode": "22", "address": "2657 QUADRA ST", "city": "VICTORIA", "province": "BC", "country": "CA", "postalCode": "V8T4E3", "twitter": "None", "instagram": "None", "facebook": "None", "youtube": "None", "website": "None", "summary": "None", "logo": "None", "latitude": 48.43904757230651, "longitude": -123.35901476294097}, "100549989RR0001": {"name": "Blue Bronna Wilderness Camping Association", "designationCode": "C", "categoryCode": "49", "address": "PO BOX 65", "city": "LONGVIEW", "province": "AB", "country": "CA", "postalCode": "T0L1H0", "twitter": "None", "instagram": "None", "facebook": "None", "youtube": "None", "website": "None", "summary": "None", "logo": "None", "latitude": 50.532502325183444, "longitude": -114.23299378974072}, "819626573RR0001": {"name": "Blue Collared Canines", "designationCode": "C", "categoryCode": "54", "address": "1 - 4775 THIRD AVE", "city": "NIAGARA FALLS", "province": "ON", "country": "CA", "postalCode": "L2E4L7", "twitter": "None", "instagram": "None", "facebook": "None", "youtube": "None", "website": "None", "summary": "None", "logo": "None", "latitude": 43.10485205245544, "longitude": -79.07727914643067}, "827770686RR0001": {"name": "Blue Fish Canada/Poisson Bleu Canada", "designationCode": "C", "categoryCode": "52", "address": "230 BLACKBURN AVE.", "city": "OTTAWA", "province": "ON", "country": "CA", "postalCode": "K1N8A8", "twitter": "None", "instagram": "None", "facebook": "None", "youtube": "None", "website": "None", "summary": "None", "logo": "None", "latitude": 45.421963680535576, "longitude": -75.67229827104836}, "119288918RR1599": {"name": "Blue Mountain Congregation of Jehovah's Witnesses, Vancouver, British Columbia", "designationCode": "C", "categoryCode": "61", "address": "699 BLUE MOUNTAIN STREET", "city": "COQUITLAM", "province": "BC", "country": "CA", "postalCode": "V3J4R8", "twitter": "None", "instagram": "None", "facebook": "None", "youtube": "None", "website": "None", "summary": "None", "logo": "None", "latitude": 49.25966282653357, "longitude": -122.86880942169223}, "819882655RR0001": {"name": "Blue Sea Philanthropy Inc.", "designationCode": "A", "categoryCode": "03", "address": "260-659 KING ST E", "city": "KITCHENER", "province": "ON", "country": "CA", "postalCode": "N2G2M4", "twitter": "None", "instagram": "None", "facebook": "None", "youtube": "None", "website": "None", "summary": "None", "logo": "None"}, "812076651RR0001": {"name": "Blue Sky Foundation", "designationCode": "B", "categoryCode": "05", "address": "2996 CONCESSION 7, RR 2", "city": "LORETTO", "province": "ON", "country": "CA", "postalCode": "L0G1L0", "twitter": "None", "instagram": "None", "facebook": "None", "youtube": "None", "website": "None", "summary": "None", "logo": "None", "latitude": 44.05574881265508, "longitude": -79.8759600133302}, "845360338RR0001": {"name": "Blue Sky Properties Charitable Foundation", "designationCode": "B", "categoryCode": "03", "address": "1201-838 HASTINGS ST W", "city": "VANCOUVER", "province": "BC", "country": "CA", "postalCode": "V6C0A6", "twitter": "None", "instagram": "None", "facebook": "None", "youtube": "None", "website": "None", "summary": "None", "logo": "None", "latitude": 49.28614312902059, "longitude": -123.11532257390769}, "864519848RR0001": {"name": "Bluemouth Inc. Presents", "designationCode": "C", "categoryCode": "22", "address": "187 HALLAM ST.", "city": "TORONTO", "province": "ON", "country": "CA", "postalCode": "M6H1X4", "twitter": "None", "instagram": "None", "facebook": "None", "youtube": "None", "website": "None", "summary": "None", "logo": "None", "latitude": 43.66671985316529, "longitude": -79.4336851470945}, "850210014RR0001": {"name": "Bluewater Area Family Health Team", "designationCode": "C", "categoryCode": "11", "address": "6 GOSHEN LINE                 P.O BOX 98", "city": "ZURICH", "province": "ON", "country": "CA", "postalCode": "N0M2T0", "twitter": "None", "instagram": "None", "facebook": "None", "youtube": "None", "website": "None", "summary": "None", "logo": "None", "latitude": 43.41028966055095, "longitude": -81.62254821732601}, "127333623RR0001": {"name": "Bluff Productions", "designationCode": "C", "categoryCode": "22", "address": "427 - 397 BOUL DES PRAIRIES", "city": "LAVAL", "province": "QC", "country": "CA", "postalCode": "H7N2W6", "twitter": "None", "instagram": "None", "facebook": "None", "youtube": "None", "website": "None", "summary": "None", "logo": "None", "latitude": 45.545539135754865, "longitude": -73.7095698612727}, "830776167RR0001": {"name": "Blumberg Family Foundation", "designationCode": "B", "categoryCode": "03", "address": "390 BAY STREET                SUITE 1202", "city": "TORONTO", "province": "ON", "country": "CA", "postalCode": "M5H2Y2", "twitter": "None", "instagram": "None", "facebook": "None", "youtube": "None", "website": "None", "summary": "None", "logo": "None", "latitude": 43.65110410687275, "longitude": -79.38169965834723}, "818360299RR0001": {"name": "Blumenort Christian Preschool Inc.", "designationCode": "C", "categoryCode": "20", "address": "POST OFFICE BOX 681", "city": "BLUMENORT", "province": "MB", "country": "CA", "postalCode": "R0A0C0", "twitter": "None", "instagram": "None", "facebook": "None", "youtube": "None", "website": "None", "summary": "None", "logo": "None", "latitude": 49.604250000000036, "longitude": -96.69016999999997}, "839977576RR0001": {"name": "Blyth Arts and Cultural Initiative 14/19 Inc.", "designationCode": "C", "categoryCode": "22", "address": "197 DINSLEY STREET", "city": "BLYTH", "province": "ON", "country": "CA", "postalCode": "N0M1H0", "twitter": "None", "instagram": "None", "facebook": "None", "youtube": "None", "website": "None", "summary": "None", "logo": "None", "latitude": 43.73645781376843, "longitude": -81.4295707871392}, "754936490RR0001": {"name": "Bnos Chaya", "designationCode": "C", "categoryCode": "20", "address": "133 FALKIRK STREET", "city": "TORONTO", "province": "ON", "country": "CA", "postalCode": "M5M4K2", "twitter": "None", "instagram": "None", "facebook": "None", "youtube": "None", "website": "None", "summary": "None", "logo": "None", "latitude": 43.729538311414345, "longitude": -79.42771953202744}, "107837379RR0001": {"name": "Board of Health for the Peterborough County-City Health Unit", "designationCode": "C", "categoryCode": "19", "address": "185 KING ST", "city": "PETERBOROUGH", "province": "ON", "country": "CA", "postalCode": "K9J2R8", "twitter": "None", "instagram": "None", "facebook": "None", "youtube": "None", "website": "None", "summary": "None", "logo": "None", "latitude": 44.30193454284748, "longitude": -78.32128241756594}, "843012261RR0001": {"name": "Boaz Lighthouse International Ministries Inc.", "designationCode": "C", "categoryCode": "09", "address": "35 HUGHES STREET              PO BOX 3681 STN B", "city": "FREDERICTON", "province": "NB", "country": "CA", "postalCode": "E3A5L7", "twitter": "None", "instagram": "None", "facebook": "None", "youtube": "None", "website": "None", "summary": "None", "logo": "None", "latitude": 45.97062635221302, "longitude": -66.6315173437589}, "816343636RR0001": {"name": "Bob and Peggy Savage Foundation", "designationCode": "B", "categoryCode": "03", "address": "150 FLATT AVENUE", "city": "HAMILTON", "province": "ON", "country": "CA", "postalCode": "L8P4N3", "twitter": "None", "instagram": "None", "facebook": "None", "youtube": "None", "website": "None", "summary": "None", "logo": "None", "latitude": 43.24749176325808, "longitude": -79.89751538455756}, "833870322RR0001": {"name": "Bobby Hull Foundation for Children", "designationCode": "A", "categoryCode": "13", "address": "P.O. BOX 69007                110-2025 CORYDON AVE", "city": "WINNIPEG", "province": "MB", "country": "CA", "postalCode": "R3P2G9", "twitter": "None", "instagram": "None", "facebook": "None", "youtube": "None", "website": "None", "summary": "None", "logo": "None", "latitude": 49.86654052322662, "longitude": -97.21201206688214}, "860061928RR0001": {"name": "Bobcaygeon Music Council Inc.", "designationCode": "C", "categoryCode": "22", "address": "1088 - 3028 PIGEON LAKE RD", "city": "BOBCAYGEON", "province": "ON", "country": "CA", "postalCode": "K0M1A0", "twitter": "None", "instagram": "None", "facebook": "None", "youtube": "None", "website": "None", "summary": "None", "logo": "None", "latitude": 44.50793414992802, "longitude": -78.52496729262909}, "864015441RR0001": {"name": "Bochasanwasi Shree Akshar Purushottam Swaminarayan Sanstha Charities Inc.", "designationCode": "C", "categoryCode": "09", "address": "61 CLAIREVILLE DRIVE", "city": "TORONTO", "province": "ON", "country": "CA", "postalCode": "M9W5Z7", "twitter": "None", "instagram": "None", "facebook": "None", "youtube": "None", "website": "None", "summary": "None", "logo": "None", "latitude": 43.73933154870453, "longitude": -79.62477022205539}, "855426755RR0001": {"name": "Bodhichitta Buddhist Centre", "designationCode": "C", "categoryCode": "35", "address": "970 BLANSHARD ST", "city": "VICTORIA", "province": "BC", "country": "CA", "postalCode": "V8W2H3", "twitter": "None", "instagram": "None", "facebook": "None", "youtube": "None", "website": "None", "summary": "None", "logo": "None", "latitude": 48.42327057230649, "longitude": -123.36282922652744}, "832632038RR0001": {"name": "Bodhiyana Buddhist Education Society", "designationCode": "C", "categoryCode": "35", "address": "5439 ELIZABETH ST", "city": "VANCOUVER", "province": "BC", "country": "CA", "postalCode": "V5Y3J7", "twitter": "None", "instagram": "None", "facebook": "None", "youtube": "None", "website": "None", "summary": "None", "logo": "None", "latitude": 49.23641761809682, "longitude": -123.11196297616688}, "822022000RR0001": {"name": "Body of Christ Universal Church", "designationCode": "C", "categoryCode": "39", "address": "74 BREEZE DR", "city": "BRADFORD", "province": "ON", "country": "CA", "postalCode": "L3Z3A5", "twitter": "None", "instagram": "None", "facebook": "None", "youtube": "None", "website": "None", "summary": "None", "logo": "None", "latitude": 44.11977661054389, "longitude": -79.58046254249375}, "827759119RR0001": {"name": "Boffo Foundation", "designationCode": "B", "categoryCode": "03", "address": "1391 VENABLES STREET", "city": "VANCOUVER", "province": "BC", "country": "CA", "postalCode": "V5L2G1", "twitter": "None", "instagram": "None", "facebook": "None", "youtube": "None", "website": "None", "summary": "None", "logo": "None", "latitude": 49.276776518754566, "longitude": -123.07601216472386}, "106800709RR0001": {"name": "Boissevain - Morton Library and Archives", "designationCode": "C", "categoryCode": "50", "address": "BOX 340", "city": "BOISSEVAIN", "province": "MB", "country": "CA", "postalCode": "R0K0E0", "twitter": "None", "instagram": "None", "facebook": "None", "youtube": "None", "website": "None", "summary": "None", "logo": "None", "latitude": 49.23156000000006, "longitude": -100.05945999999994}, "804660314RR0001": {"name": "Boissevain Nursery School Inc.", "designationCode": "C", "categoryCode": "20", "address": "PO BOX 803                    885 MILL RD", "city": "BOISSEVAIN", "province": "MB", "country": "CA", "postalCode": "R0K0E0", "twitter": "None", "instagram": "None", "facebook": "None", "youtube": "None", "website": "None", "summary": "None", "logo": "None", "latitude": 49.23416316972839, "longitude": -100.05939626086558}, "780404927RR0001": {"name": "Bokar Karma Tara Ling", "designationCode": "C", "categoryCode": "35", "address": "37 HEMLOCK CRES", "city": "BELLEVILLE", "province": "ON", "country": "CA", "postalCode": "K8N5Y1", "twitter": "None", "instagram": "None", "facebook": "None", "youtube": "None", "website": "None", "summary": "None", "logo": "None", "latitude": 44.18227614351647, "longitude": -77.35274795074722}, "850882317RR0002": {"name": "Bokeo Development Fund Society", "designationCode": "B", "categoryCode": "01", "address": "407 - 1869 SPYGLASS PL", "city": "VANCOUVER", "province": "BC", "country": "CA", "postalCode": "V5Z4K7", "twitter": "None", "instagram": "None", "facebook": "None", "youtube": "None", "website": "None", "summary": "None", "logo": "None", "latitude": 49.26913830758721, "longitude": -123.11532469345394}, "841527104RR0001": {"name": "Bolivian Children Foundation", "designationCode": "C", "categoryCode": "09", "address": "PO BOX 130                    3706 NAFZIGER ROAD", "city": "WELLESLEY", "province": "ON", "country": "CA", "postalCode": "N0B2T0", "twitter": "None", "instagram": "None", "facebook": "None", "youtube": "None", "website": "None", "summary": "None", "logo": "None", "latitude": 43.476320489730014, "longitude": -80.76456207162074}, "797763497RR0001": {"name": "Bon Accord Community Church", "designationCode": "C", "categoryCode": "39", "address": "PO BOX 532", "city": "BON ACCORD", "province": "AB", "country": "CA", "postalCode": "T0A0K0", "twitter": "None", "instagram": "None", "facebook": "None", "youtube": "None", "website": "None", "summary": "None", "logo": "None", "latitude": 53.837270000000046, "longitude": -113.41078999999996}, "119288918RR0706": {"name": "Bonavista Congregation of Jehovah's Witnesses, Bonavista, Newfoundland", "designationCode": "C", "categoryCode": "61", "address": "POST OFFICE BOX 2", "city": "BONAVISTA", "province": "NL", "country": "CA", "postalCode": "A0C1B0", "twitter": "None", "instagram": "None", "facebook": "None", "youtube": "None", "website": "None", "summary": "None", "logo": "None", "latitude": 48.60760000000005, "longitude": -53.09807999999998}, "804763209RR0001": {"name": "Bonavista Horticultural Society Inc.", "designationCode": "B", "categoryCode": "56", "address": "PO BOX 452", "city": "BONAVISTA", "province": "NL", "country": "CA", "postalCode": "A0C1B0", "twitter": "None", "instagram": "None", "facebook": "None", "youtube": "None", "website": "None", "summary": "None", "logo": "None", "latitude": 48.60760000000005, "longitude": -53.09807999999998}, "850785684RR0001": {"name": "Bonavista Peninsula Dialysis Committee Inc.", "designationCode": "C", "categoryCode": "13", "address": "POST OFFICE BOX 452", "city": "BONAVISTA", "province": "NL", "country": "CA", "postalCode": "A0C1B0", "twitter": "None", "instagram": "None", "facebook": "None", "youtube": "None", "website": "None", "summary": "None", "logo": "None", "latitude": 48.60760000000005, "longitude": -53.09807999999998}, "845771419RR0001": {"name": "Bondservants of Elohim Society", "designationCode": "C", "categoryCode": "42", "address": "22265 26 AVE", "city": "LANGLEY", "province": "BC", "country": "CA", "postalCode": "V2Z1P3", "twitter": "None", "instagram": "None", "facebook": "None", "youtube": "None", "website": "None", "summary": "None", "logo": "None", "latitude": 49.049107478792614, "longitude": -122.60790955536962}, "842106080RR0001": {"name": "Bonei Olam Foundation Inc. / Fondation Bonei Olam Inc.", "designationCode": "C", "categoryCode": "11", "address": "5670 HUTCHINSON AVENUE", "city": "OUTREMONT", "province": "QC", "country": "CA", "postalCode": "H2V4B6", "twitter": "None", "instagram": "None", "facebook": "None", "youtube": "None", "website": "None", "summary": "None", "logo": "None", "latitude": 45.52223173853093, "longitude": -73.60445554206808}, "825027683RR0001": {"name": "Bonnyville and District Daycare Centre", "designationCode": "C", "categoryCode": "01", "address": "PO BOX 1006                   4917 49 AVE", "city": "BONNYVILLE", "province": "AB", "country": "CA", "postalCode": "T9N2J7", "twitter": "None", "instagram": "None", "facebook": "None", "youtube": "None", "website": "None", "summary": "None", "logo": "None", "latitude": 54.26695146047076, "longitude": -110.73950091618097}, "804170009RR0001": {"name": "Book Clubs for Inmates Inc./ Circles de livres pour detenues Inc.", "designationCode": "C", "categoryCode": "21", "address": "720 BATHURST ST", "city": "TORONTO", "province": "ON", "country": "CA", "postalCode": "M5S2R4", "twitter": "None", "instagram": "None", "facebook": "None", "youtube": "None", "website": "None", "summary": "None", "logo": "None", "latitude": 43.66323143574358, "longitude": -79.41047606191914}, "825841208RR0001": {"name": "Books for Me! Literacy Foundation", "designationCode": "C", "categoryCode": "21", "address": "1838 W 17TH AVE", "city": "VANCOUVER", "province": "BC", "country": "CA", "postalCode": "V6J2M9", "twitter": "None", "instagram": "None", "facebook": "None", "youtube": "None", "website": "None", "summary": "None", "logo": "None", "latitude": 49.25620854674261, "longitude": -123.14699388634658}, "822357216RR0001": {"name": "Boomtown Trail Cowboy Church", "designationCode": "C", "categoryCode": "39", "address": "PO BOX 432", "city": "DELBURNE", "province": "AB", "country": "CA", "postalCode": "T0M0V0", "twitter": "None", "instagram": "None", "facebook": "None", "youtube": "None", "website": "None", "summary": "None", "logo": "None", "latitude": 52.19744000000003, "longitude": -113.23499999999996}, "805107810RR0001": {"name": "Boost Africa Foundation", "designationCode": "C", "categoryCode": "09", "address": "1250-1500 WEST GEORGIA ST,    BOX 62", "city": "VANCOUVER", "province": "BC", "country": "CA", "postalCode": "V6G2Z6", "twitter": "None", "instagram": "None", "facebook": "None", "youtube": "None", "website": "None", "summary": "None", "logo": "None", "latitude": 49.290187500000016, "longitude": -123.130035}, "119039568RR0001": {"name": "Boost Child & Youth Advocacy Centre", "designationCode": "C", "categoryCode": "09", "address": "890 YONGE STREET              SUITE 1100", "city": "TORONTO", "province": "ON", "country": "CA", "postalCode": "M4W3P4", "twitter": "None", "instagram": "None", "facebook": "None", "youtube": "None", "website": "None", "summary": "None", "logo": "None", "latitude": 43.673338351924556, "longitude": -79.3880950108487}, "835592684RR0001": {"name": "Bopoma Villages", "designationCode": "C", "categoryCode": "09", "address": "21 BRULE GARDENS,", "city": "TORONTO", "province": "ON", "country": "CA", "postalCode": "M6S4J4", "twitter": "None", "instagram": "None", "facebook": "None", "youtube": "None", "website": "None", "summary": "None", "logo": "None", "latitude": 43.64499150568416, "longitude": -79.48785852758402}, "803639020RR0001": {"name": "Borani Global Education Association", "designationCode": "C", "categoryCode": "21", "address": "56 THORNBANK ROAD", "city": "THORNHILL", "province": "ON", "country": "CA", "postalCode": "L4J2A4", "twitter": "None", "instagram": "None", "facebook": "None", "youtube": "None", "website": "None", "summary": "None", "logo": "None", "latitude": 43.816984808731306, "longitude": -79.43507417594795}, "851933853RR0001": {"name": "Bordergate Baptist Church", "designationCode": "C", "categoryCode": "31", "address": "12 AUTUMN BLVD", "city": "BRAMPTON", "province": "ON", "country": "CA", "postalCode": "L6T2V5", "twitter": "None", "instagram": "None", "facebook": "None", "youtube": "None", "website": "None", "summary": "None", "logo": "None", "latitude": 43.70938983790185, "longitude": -79.6983687803392}, "823261805RR0001": {"name": "Borderland Music Festival Association", "designationCode": "C", "categoryCode": "22", "address": "PO BOX 271", "city": "CORONACH", "province": "SK", "country": "CA", "postalCode": "S0H0Z0", "twitter": "None", "instagram": "None", "facebook": "None", "youtube": "None", "website": "None", "summary": "None", "logo": "None", "latitude": 49.116760000000056, "longitude": -105.51780999999994}, "826980708RR0001": {"name": "Borderline Personality Disorder Society of British Columbia", "designationCode": "C", "categoryCode": "11", "address": "837 BRADLEY DYNE RD", "city": "NORTH SAANICH", "province": "BC", "country": "CA", "postalCode": "V8L5G8", "twitter": "None", "instagram": "None", "facebook": "None", "youtube": "None", "website": "None", "summary": "None", "logo": "None", "latitude": 48.63898448398677, "longitude": -123.46523019317328}, "801309709RR0001": {"name": "Bosa Properties Charitable Foundation", "designationCode": "B", "categoryCode": "03", "address": "1201-838 HASTINGS ST W", "city": "VANCOUVER", "province": "BC", "country": "CA", "postalCode": "V6C0A6", "twitter": "None", "instagram": "None", "facebook": "None", "youtube": "None", "website": "None", "summary": "None", "logo": "None", "latitude": 49.28614312902059, "longitude": -123.11532257390769}, "869492413RR0001": {"name": "Boscoville", "designationCode": "C", "categoryCode": "29", "address": "10950 BOUL PERRAS", "city": "MONTREAL", "province": "QC", "country": "CA", "postalCode": "H1C1B3", "twitter": "None", "instagram": "None", "facebook": "None", "youtube": "None", "website": "None", "summary": "None", "logo": "None", "latitude": 45.669151917621605, "longitude": -73.54679558895856}, "814711891RR0001": {"name": "Bosnjacki Islamski Centar Kevser - Kitchener", "designationCode": "C", "categoryCode": "60", "address": "42 ONTARIO ST. N.", "city": "KITCHENER", "province": "ON", "country": "CA", "postalCode": "N2H4Y4", "twitter": "None", "instagram": "None", "facebook": "None", "youtube": "None", "website": "None", "summary": "None", "logo": "None", "latitude": 43.450935967251404, "longitude": -80.49004606440064}, "899508758RR0001": {"name": "Boston Bar/North Bend Enhancement Society", "designationCode": "C", "categoryCode": "50", "address": "BOX 251", "city": "BOSTON BAR", "province": "BC", "country": "CA", "postalCode": "V0K1C0", "twitter": "None", "instagram": "None", "facebook": "None", "youtube": "None", "website": "None", "summary": "None", "logo": "None", "latitude": 49.864899826586026, "longitude": -121.44339787878182}, "807074091RR0001": {"name": "Boston Terrier Rescue Canada", "designationCode": "C", "categoryCode": "54", "address": "PO BOX 21001 RPO 1", "city": "ARNPRIOR", "province": "ON", "country": "CA", "postalCode": "K7S3X6", "twitter": "None", "instagram": "None", "facebook": "None", "youtube": "None", "website": "None", "summary": "None", "logo": "None", "latitude": 45.43563300000005, "longitude": -76.35842449999993}, "786868323RR0001": {"name": "Botanical Artists of Canada", "designationCode": "C", "categoryCode": "22", "address": "5 KNOTS LANDING CRT", "city": "STONEY CREEK", "province": "ON", "country": "CA", "postalCode": "L8E4H2", "twitter": "None", "instagram": "None", "facebook": "None", "youtube": "None", "website": "None", "summary": "None", "logo": "None", "latitude": 43.24380282263842, "longitude": -79.7324055533208}, "837730951RR0001": {"name": "Botanical Remedy Research Inc.", "designationCode": "C", "categoryCode": "11", "address": "456A EGLINTON AVENUE WEST", "city": "TORONTO", "province": "ON", "country": "CA", "postalCode": "M5N1A5", "twitter": "None", "instagram": "None", "facebook": "None", "youtube": "None", "website": "None", "summary": "None", "logo": "None", "latitude": 43.70395525403011, "longitude": -79.41200114860649}, "813289618RR0001": {"name": "Bottles for Bibles", "designationCode": "C", "categoryCode": "47", "address": "401-740 WINNIPEG ST", "city": "PENTICTON", "province": "BC", "country": "CA", "postalCode": "V2A5N3", "twitter": "None", "instagram": "None", "facebook": "None", "youtube": "None", "website": "None", "summary": "None", "logo": "None", "latitude": 49.491625201223364, "longitude": -119.59188742754927}, "891121543RR0001": {"name": "Botwood Interfaith Goodwill Centre Corporation", "designationCode": "C", "categoryCode": "09", "address": "48 COMMONWEALTH DRIVE", "city": "BOTWOOD", "province": "NL", "country": "CA", "postalCode": "A0H1E0", "twitter": "None", "instagram": "None", "facebook": "None", "youtube": "None", "website": "None", "summary": "None", "logo": "None", "latitude": 49.15718686802493, "longitude": -55.35077897980803}, "815568381RR0001": {"name": "Bouchier Family Charitable Trust", "designationCode": "B", "categoryCode": "05", "address": "POST OFFICE BOX 6607", "city": "FORT MCMURRAY", "province": "AB", "country": "CA", "postalCode": "T9H5N4", "twitter": "None", "instagram": "None", "facebook": "None", "youtube": "None", "website": "None", "summary": "None", "logo": "None", "latitude": 56.72719500000005, "longitude": -111.38028199999994}, "831048194RR0001": {"name": "Bouffe Laurentienne", "designationCode": "C", "categoryCode": "59", "address": "37 RUE PRINCIPALE E", "city": "SAINTE-AGATHE-DES-MONTS", "province": "QC", "country": "CA", "postalCode": "J8C1J5", "twitter": "None", "instagram": "None", "facebook": "None", "youtube": "None", "website": "None", "summary": "None", "logo": "None", "latitude": 46.046606732702536, "longitude": -74.28531684277795}, "835387929RR0001": {"name": "Bouffe Pontiac", "designationCode": "C", "categoryCode": "09", "address": "2 RUE LESLIE C.P. 309", "city": "CAMPBELL'S BAY", "province": "QC", "country": "CA", "postalCode": "J0X1K0", "twitter": "None", "instagram": "None", "facebook": "None", "youtube": "None", "website": "None", "summary": "None", "logo": "None", "latitude": 45.73610806079398, "longitude": -76.59392531781964}, "130483407RR0001": {"name": "Bouge de l\u00e0 inc.", "designationCode": "C", "categoryCode": "22", "address": "2065, RUE PARTHENAIS, PORTE 09", "city": "MONTREAL", "province": "QC", "country": "CA", "postalCode": "H2K3T1", "twitter": "None", "instagram": "None", "facebook": "None", "youtube": "None", "website": "None", "summary": "None", "logo": "None", "latitude": 45.52993011936625, "longitude": -73.55707809420639}, "845902808RR0001": {"name": "Boulder Foundation", "designationCode": "B", "categoryCode": "03", "address": "BOX 62                        1250-1500 W. GEORGIA STREET", "city": "VANCOUVER", "province": "BC", "country": "CA", "postalCode": "V6G2Z6", "twitter": "None", "instagram": "None", "facebook": "None", "youtube": "None", "website": "None", "summary": "None", "logo": "None", "latitude": 49.29013479542975, "longitude": -123.1300069287031}, "822203717RR0001": {"name": "Boundary Emergency and Transition Housing Society", "designationCode": "C", "categoryCode": "01", "address": "PO BOX 2194                   7212 RIVERSIDE DRIVE", "city": "GRAND FORKS", "province": "BC", "country": "CA", "postalCode": "V0H1H0", "twitter": "None", "instagram": "None", "facebook": "None", "youtube": "None", "website": "None", "summary": "None", "logo": "None", "latitude": 49.032240908244596, "longitude": -118.43526302594663}, "888403805RR0001": {"name": "Boundary Invasive Species Society", "designationCode": "C", "categoryCode": "50", "address": "1485 CEMETERY ROAD            P. O. BOX 57", "city": "ROCK CREEK", "province": "BC", "country": "CA", "postalCode": "V0H1Y0", "twitter": "None", "instagram": "None", "facebook": "None", "youtube": "None", "website": "None", "summary": "None", "logo": "None", "latitude": 49.053038092516516, "longitude": -118.99762108325375}, "814971404RR0001": {"name": "Boundary Lane Charitable Trust", "designationCode": "C", "categoryCode": "45", "address": "1401 PRINCESS AVENUE", "city": "BRANDON", "province": "MB", "country": "CA", "postalCode": "R7A7L7", "twitter": "None", "instagram": "None", "facebook": "None", "youtube": "None", "website": "None", "summary": "None", "logo": "None", "latitude": 49.84694947489748, "longitude": -99.957294}, "825459753RR0001": {"name": "Bourget Foundation Inc.", "designationCode": "B", "categoryCode": "11", "address": "953 SHORE DR", "city": "BEDFORD", "province": "NS", "country": "CA", "postalCode": "B4A2E6", "twitter": "None", "instagram": "None", "facebook": "None", "youtube": "None", "website": "None", "summary": "None", "logo": "None", "latitude": 44.7227748326504, "longitude": -63.656026636707146}, "828343657RR0001": {"name": "Bourse - Souvenir Marcel Bedard - scholarship", "designationCode": "C", "categoryCode": "21", "address": "470 GREENOCK DRIVE,", "city": "MAPLE", "province": "ON", "country": "CA", "postalCode": "L6A1M6", "twitter": "None", "instagram": "None", "facebook": "None", "youtube": "None", "website": "None", "summary": "None", "logo": "None", "latitude": 43.84500109270583, "longitude": -79.51995022228652}, "119288918RR1619": {"name": "Bow River Russian Congregation of Jehovah's Witnesses, Calgary, Alberta", "designationCode": "C", "categoryCode": "61", "address": "1251 PENEDO CRES SE", "city": "CALGARY", "province": "AB", "country": "CA", "postalCode": "T2E6V9", "twitter": "None", "instagram": "None", "facebook": "None", "youtube": "None", "website": "None", "summary": "None", "logo": "None", "latitude": 51.04388725145711, "longitude": -113.9456163369209}, "809318587RR0001": {"name": "Bow Valley Connections Centre", "designationCode": "C", "categoryCode": "11", "address": "1222 16 ST", "city": "CANMORE", "province": "AB", "country": "CA", "postalCode": "T1W1T8", "twitter": "None", "instagram": "None", "facebook": "None", "youtube": "None", "website": "None", "summary": "None", "logo": "None", "latitude": 51.09627545325739, "longitude": -115.3716332216227}, "141051672RR0001": {"name": "Bowen Children's Centre Society", "designationCode": "C", "categoryCode": "20", "address": "650 CARTER RD", "city": "BOWEN ISLAND", "province": "BC", "country": "CA", "postalCode": "V0N1G2", "twitter": "None", "instagram": "None", "facebook": "None", "youtube": "None", "website": "None", "summary": "None", "logo": "None", "latitude": 49.38059981030672, "longitude": -123.35153367092539}, "118814136RR0001": {"name": "Bowen Island Museum & Archives", "designationCode": "C", "categoryCode": "50", "address": "BOX 97", "city": "BOWEN ISLAND", "province": "BC", "country": "CA", "postalCode": "V0N1G1", "twitter": "None", "instagram": "None", "facebook": "None", "youtube": "None", "website": "None", "summary": "None", "logo": "None", "latitude": 49.38112992339439, "longitude": -123.3307800379408}, "799637525RR0001": {"name": "Bowmanville Older Adult Association", "designationCode": "C", "categoryCode": "56", "address": "26 BEECH AVENUE", "city": "BOWMANVILLE", "province": "ON", "country": "CA", "postalCode": "L1C3A2", "twitter": "None", "instagram": "None", "facebook": "None", "youtube": "None", "website": "None", "summary": "None", "logo": "None", "latitude": 43.91626358644476, "longitude": -78.68699444301426}, "106803638RR0001": {"name": "Bowness Seniors' Centre", "designationCode": "C", "categoryCode": "56", "address": "6422 35 AVE NW", "city": "CALGARY", "province": "AB", "country": "CA", "postalCode": "T3B1S6", "twitter": "None", "instagram": "None", "facebook": "None", "youtube": "None", "website": "None", "summary": "None", "logo": "None", "latitude": 51.08424147879261, "longitude": -114.18151122300767}, "816671879RR0001": {"name": "Bowser Seniors Housing Society", "designationCode": "C", "categoryCode": "09", "address": "60 MIDLAND RD", "city": "BOWSER", "province": "BC", "country": "CA", "postalCode": "V0R1G0", "twitter": "None", "instagram": "None", "facebook": "None", "youtube": "None", "website": "None", "summary": "None", "logo": "None", "latitude": 49.43464450498479, "longitude": -124.66901320485664}, "835301235RR0001": {"name": "Boxrun Charitable Foundation", "designationCode": "A", "categoryCode": "03", "address": "7132 ROSSEAU PLACE", "city": "NIAGARA FALLS", "province": "ON", "country": "CA", "postalCode": "L2J3V2", "twitter": "None", "instagram": "None", "facebook": "None", "youtube": "None", "website": "None", "summary": "None", "logo": "None", "latitude": 43.125926481245465, "longitude": -79.11688058381903}, "106803950RR0001": {"name": "Boyle Public Library", "designationCode": "C", "categoryCode": "50", "address": "BOX 450", "city": "BOYLE", "province": "AB", "country": "CA", "postalCode": "T0A0M0", "twitter": "None", "instagram": "None", "facebook": "None", "youtube": "None", "website": "None", "summary": "None", "logo": "None", "latitude": 54.58728000000008, "longitude": -112.80483999999996}}