{"818422545RR0001": {"name": "SILVER APPLE FOUNDATION INC.", "designationCode": "B", "categoryCode": "03", "address": "5799 YONGE STREET             SUITE 1100", "city": "TORONTO", "province": "ON", "country": "CA", "postalCode": "M2M3V3", "twitter": "None", "instagram": "None", "facebook": "None", "youtube": "None", "website": "None", "summary": "None", "logo": "None", "latitude": 43.78542639439666, "longitude": -79.41693431554062}, "866478332RR0001": {"name": "SILVER BAY BIBLE CAMP", "designationCode": "C", "categoryCode": "49", "address": "BOX 1592", "city": "STONEWALL", "province": "MB", "country": "CA", "postalCode": "R0C2Z0", "twitter": "None", "instagram": "None", "facebook": "None", "youtube": "None", "website": "None", "summary": "None", "logo": "None", "latitude": 50.36947800000006, "longitude": -96.84479599999993}, "118897784RR0001": {"name": "SILVER BIRCH CENTRE BOULEAU D'ARGENT", "designationCode": "C", "categoryCode": "20", "address": "4 BRACKEN PLACE", "city": "ELLIOT LAKE", "province": "ON", "country": "CA", "postalCode": "P5A1L4", "twitter": "None", "instagram": "None", "facebook": "None", "youtube": "None", "website": "None", "summary": "None", "logo": "None", "latitude": 46.37382716013624, "longitude": -82.65350582763007}, "118818491RR0088": {"name": "SILVER CREEK SEVENTH-DAY ADVENTIST CHURCH", "designationCode": "C", "categoryCode": "41", "address": "PO 1000", "city": "ABBOTSFORD", "province": "BC", "country": "CA", "postalCode": "V2S4P5", "twitter": "None", "instagram": "None", "facebook": "None", "youtube": "None", "website": "None", "summary": "None", "logo": "None", "latitude": 49.03851300000005, "longitude": -122.29441549999993}, "119150118RR0001": {"name": "SILVER FALLS UNITED CHURCH", "designationCode": "C", "categoryCode": "44", "address": "840 LOCH LOMOND RD", "city": "SAINT JOHN", "province": "NB", "country": "CA", "postalCode": "E2J1Z2", "twitter": "None", "instagram": "None", "facebook": "None", "youtube": "None", "website": "None", "summary": "None", "logo": "None", "latitude": 45.299477902850775, "longitude": -66.00672862363675}, "890817851RR0001": {"name": "SILVER FAMILY CHARITABLE FOUNDATION", "designationCode": "B", "categoryCode": "23", "address": "53 THE LINKS ROAD", "city": "TORONTO", "province": "ON", "country": "CA", "postalCode": "M2P1T7", "twitter": "None", "instagram": "None", "facebook": "None", "youtube": "None", "website": "None", "summary": "None", "logo": "None", "latitude": 43.751320092157584, "longitude": -79.40210732174437}, "131080772RR0001": {"name": "SILVER HARBOUR SENIORS' ACTIVITY CENTRE SOCIETY", "designationCode": "C", "categoryCode": "56", "address": "144 EAST 22ND ST", "city": "NORTH VANCOUVER", "province": "BC", "country": "CA", "postalCode": "V7L4L5", "twitter": "None", "instagram": "None", "facebook": "None", "youtube": "None", "website": "None", "summary": "None", "logo": "None", "latitude": 49.32927449321932, "longitude": -123.07002283236193}, "899465298RR0001": {"name": "SILVER HEIGHTS AUXILIARY INC.", "designationCode": "C", "categoryCode": "09", "address": "P.O. BOX 276", "city": "RAYMORE", "province": "SK", "country": "CA", "postalCode": "S0A3J0", "twitter": "None", "instagram": "None", "facebook": "None", "youtube": "None", "website": "None", "summary": "None", "logo": "None", "latitude": 51.409260000000074, "longitude": -104.52537999999998}, "107980906RR0001": {"name": "SILVER HEIGHTS BIBLE CHURCH INC.", "designationCode": "C", "categoryCode": "39", "address": "5886 SINKUT FALLS RD", "city": "VANDERHOOF", "province": "BC", "country": "CA", "postalCode": "V0J3A1", "twitter": "None", "instagram": "None", "facebook": "None", "youtube": "None", "website": "None", "summary": "None", "logo": "None", "latitude": 53.9642876231528, "longitude": -123.84844698657608}, "119288918RR0076": {"name": "SILVER HEIGHTS CONGREGATION OF JEHOVAH'S WITNESSES WINNIPEG MANITOBA", "designationCode": "C", "categoryCode": "61", "address": "126 KANE AVE", "city": "WINNIPEG", "province": "MB", "country": "CA", "postalCode": "R3J2N9", "twitter": "None", "instagram": "None", "facebook": "None", "youtube": "None", "website": "None", "summary": "None", "logo": "None", "latitude": 49.877465481245444, "longitude": -97.24733464071787}, "119030666RR0013": {"name": "SILVER HEIGHTS SEVENTH-DAY ADVENTIST CHURCH", "designationCode": "C", "categoryCode": "41", "address": "1004 VICTORIA AVE", "city": "SASKATOON", "province": "SK", "country": "CA", "postalCode": "S7N0Z8", "twitter": "None", "instagram": "None", "facebook": "None", "youtube": "None", "website": "None", "summary": "None", "logo": "None", "latitude": 52.115409, "longitude": -106.66240826773014}, "107980922RR0001": {"name": "SILVER HEIGHTS UNITED CHURCH", "designationCode": "C", "categoryCode": "44", "address": "199 GARRIOCH AVE", "city": "WINNIPEG", "province": "MB", "country": "CA", "postalCode": "R3J2T4", "twitter": "None", "instagram": "None", "facebook": "None", "youtube": "None", "website": "None", "summary": "None", "logo": "None", "latitude": 49.88444646047075, "longitude": -97.2455727783773}, "119150175RR0001": {"name": "SILVER HILLS INSTITUTE", "designationCode": "C", "categoryCode": "41", "address": "PO BOX 700 STN A", "city": "ABBOTSFORD", "province": "BC", "country": "CA", "postalCode": "V2T6Z8", "twitter": "None", "instagram": "None", "facebook": "None", "youtube": "None", "website": "None", "summary": "None", "logo": "None", "latitude": 49.05161700000005, "longitude": -122.32930399999994}, "118818491RR0012": {"name": "SILVER HILLS SEVENTH-DAY ADVENTIST CHURCH", "designationCode": "C", "categoryCode": "41", "address": "PO 1000", "city": "ABBOTSFORD", "province": "BC", "country": "CA", "postalCode": "V2S4P5", "twitter": "None", "instagram": "None", "facebook": "None", "youtube": "None", "website": "None", "summary": "None", "logo": "None", "latitude": 49.03851300000005, "longitude": -122.29441549999993}, "119150191RR0002": {"name": "SILVER LAKE CAMP OF THE WESLEYAN METHODIST CHURCH", "designationCode": "C", "categoryCode": "56", "address": "356 WESLEYAN CAMP LANE", "city": "MABERLY", "province": "ON", "country": "CA", "postalCode": "K0H2B0", "twitter": "None", "instagram": "None", "facebook": "None", "youtube": "None", "website": "None", "summary": "None", "logo": "None", "latitude": 44.83515549396002, "longitude": -76.59248409786882}, "888518693RR0001": {"name": "SILVER LAKE FOREST EDUCATION SOCIETY", "designationCode": "C", "categoryCode": "52", "address": "P.O. BOX 20023", "city": "KELOWNA", "province": "BC", "country": "CA", "postalCode": "V1Y9H2", "twitter": "None", "instagram": "None", "facebook": "None", "youtube": "None", "website": "None", "summary": "None", "logo": "None", "latitude": 49.88697900000005, "longitude": -119.49661249999994}, "119150209RR0001": {"name": "SILVER LAKE MENNONITE CAMP INC.", "designationCode": "C", "categoryCode": "56", "address": "72 PINE FOREST DRIVE", "city": "SAUBLE BEACH", "province": "ON", "country": "CA", "postalCode": "N0H2G0", "twitter": "None", "instagram": "None", "facebook": "None", "youtube": "None", "website": "None", "summary": "None", "logo": "None", "latitude": 44.61494036441803, "longitude": -81.25173203220032}, "856877204RR0001": {"name": "SILVER LION MINISTRIES INC.", "designationCode": "C", "categoryCode": "49", "address": "5103 ELSIE HOLMES RD.", "city": "WYNNDEL", "province": "BC", "country": "CA", "postalCode": "V0B2N1", "twitter": "None", "instagram": "None", "facebook": "None", "youtube": "None", "website": "None", "summary": "None", "logo": "None", "latitude": 49.17891900276538, "longitude": -116.53979049518587}, "888494093RR0001": {"name": "SILVER RIDGE BIBLE CHAPEL", "designationCode": "C", "categoryCode": "39", "address": "BOX 15", "city": "ALONSA", "province": "MB", "country": "CA", "postalCode": "R0H0A0", "twitter": "None", "instagram": "None", "facebook": "None", "youtube": "None", "website": "None", "summary": "None", "logo": "None", "latitude": 50.87914000000006, "longitude": -99.08464999999995}, "130247752RR0001": {"name": "SILVER SAGE AGRICULTURAL SOCIETY", "designationCode": "C", "categoryCode": "56", "address": "PO BOX 1092  STN. MAIN", "city": "BROOKS", "province": "AB", "country": "CA", "postalCode": "T1R1B9", "twitter": "None", "instagram": "None", "facebook": "None", "youtube": "None", "website": "None", "summary": "None", "logo": "None", "latitude": 50.56584900000006, "longitude": -111.89848399999994}, "868534587RR0001": {"name": "SILVER SAGE CHARITABLE TRUST", "designationCode": "B", "categoryCode": "03", "address": "3425 2 AVENUE SOUTH", "city": "LETHBRIDGE", "province": "AB", "country": "CA", "postalCode": "T1J4V1", "twitter": "None", "instagram": "None", "facebook": "None", "youtube": "None", "website": "None", "summary": "None", "logo": "None", "latitude": 49.696839530439966, "longitude": -112.78914308381903}, "119150225RR0001": {"name": "SILVER SPRINGS COMMUNITY ASSOCIATION", "designationCode": "C", "categoryCode": "56", "address": "5720 SILVER RIDGE DRIVE NW", "city": "CALGARY", "province": "AB", "country": "CA", "postalCode": "T3B5E5", "twitter": "None", "instagram": "None", "facebook": "None", "youtube": "None", "website": "None", "summary": "None", "logo": "None", "latitude": 51.10390044546709, "longitude": -114.1918112828207}, "875346207RR0001": {"name": "SILVER STAR ADAPTIVE SNOW SPORTS", "designationCode": "C", "categoryCode": "20", "address": "8045 ASPEN RD", "city": "VERNON", "province": "BC", "country": "CA", "postalCode": "V1B3M9", "twitter": "None", "instagram": "None", "facebook": "None", "youtube": "None", "website": "None", "summary": "None", "logo": "None", "latitude": 50.32629136781877, "longitude": -119.17736406464914}, "119288918RR0639": {"name": "SILVER STAR CONGREGATION OF JEHOVAH'S WITNESSES, VERNON, BRITISH COLUMBIA", "designationCode": "C", "categoryCode": "61", "address": "7152 TABOR DR", "city": "VERNON", "province": "BC", "country": "CA", "postalCode": "V1B4A4", "twitter": "None", "instagram": "None", "facebook": "None", "youtube": "None", "website": "None", "summary": "None", "logo": "None", "latitude": 50.31068257507647, "longitude": -119.21009853300838}, "119150233RR0001": {"name": "SILVER STAR SOCIETY", "designationCode": "C", "categoryCode": "59", "address": "50 GRANDY LANE", "city": "CAMBRIDGE", "province": "ON", "country": "CA", "postalCode": "N1R8K2", "twitter": "None", "instagram": "None", "facebook": "None", "youtube": "None", "website": "None", "summary": "None", "logo": "None", "latitude": 43.38337656448757, "longitude": -80.27002238357662}, "866651672RR0001": {"name": "SILVER STARS MUSICAL REVUE SOCIETY", "designationCode": "C", "categoryCode": "22", "address": "PO BOX 34096 RPO WESTBROOK", "city": "CALGARY", "province": "AB", "country": "CA", "postalCode": "T3C3W2", "twitter": "None", "instagram": "None", "facebook": "None", "youtube": "None", "website": "None", "summary": "None", "logo": "None", "latitude": 51.04149007501829, "longitude": -114.14100994835258}, "107981037RR0001": {"name": "SILVER THREADS SERVICE", "designationCode": "C", "categoryCode": "09", "address": "286 HAMPTON ROAD", "city": "VICTORIA", "province": "BC", "country": "CA", "postalCode": "V8Z1H1", "twitter": "None", "instagram": "None", "facebook": "None", "youtube": "None", "website": "None", "summary": "None", "logo": "None", "latitude": 48.45448220511852, "longitude": -123.39201712155928}, "837239540RR0001": {"name": "SILVER VALLEY COMMUNITY CHURCH", "designationCode": "C", "categoryCode": "34", "address": "12760 227B STREET", "city": "MAPLE RIDGE", "province": "BC", "country": "CA", "postalCode": "V2X2Z4", "twitter": "None", "instagram": "None", "facebook": "None", "youtube": "None", "website": "None", "summary": "None", "logo": "None", "latitude": 49.23403874715793, "longitude": -122.59146477113528}, "107764573RR0017": {"name": "SILVER VALLEY GOSPEL CHAPEL", "designationCode": "C", "categoryCode": "49", "address": "BOX 12", "city": "SILVER VALLEY", "province": "AB", "country": "CA", "postalCode": "T0H3E0", "twitter": "None", "instagram": "None", "facebook": "None", "youtube": "None", "website": "None", "summary": "None", "logo": "None", "latitude": 51.106208475156954, "longitude": -114.20662019321338}, "865614507RR0001": {"name": "SILVERHILL INSTITUTE OF ENVIRONMENTAL RESEARCH AND CONSERVATION", "designationCode": "B", "categoryCode": "53", "address": "BOX 100", "city": "SCHOMBERG", "province": "ON", "country": "CA", "postalCode": "L0G1T0", "twitter": "None", "instagram": "None", "facebook": "None", "youtube": "None", "website": "None", "summary": "None", "logo": "None", "latitude": 44.00246003664379, "longitude": -79.68402999884614}, "823289814RR0001": {"name": "SILVERTHORN SYMPHONIC WINDS", "designationCode": "C", "categoryCode": "22", "address": "15 PINE CLIFF DRIVE", "city": "MISSISSAUGA", "province": "ON", "country": "CA", "postalCode": "L5N1E2", "twitter": "None", "instagram": "None", "facebook": "None", "youtube": "None", "website": "None", "summary": "None", "logo": "None", "latitude": 43.602238277280776, "longitude": -79.72104843753259}, "896933116RR0001": {"name": "SILVERTON UNITED CHURCH", "designationCode": "C", "categoryCode": "44", "address": "BOX 416", "city": "RUSSELL", "province": "MB", "country": "CA", "postalCode": "R0J1W0", "twitter": "None", "instagram": "None", "facebook": "None", "youtube": "None", "website": "None", "summary": "None", "logo": "None", "latitude": 50.69676379161792, "longitude": -101.40612232134879}, "856230131RR0001": {"name": "SILVERWINDS CHARITABLE TRUST", "designationCode": "B", "categoryCode": "39", "address": "2500-201 PORTAGE AVE", "city": "WINNIPEG", "province": "MB", "country": "CA", "postalCode": "R3B3K6", "twitter": "None", "instagram": "None", "facebook": "None", "youtube": "None", "website": "None", "summary": "None", "logo": "None", "latitude": 49.895359615067065, "longitude": -97.13919299627776}, "129947537RR0001": {"name": "SIM CANADA", "designationCode": "C", "categoryCode": "47", "address": "10 HUNTINGDALE BLVD", "city": "SCARBOROUGH", "province": "ON", "country": "CA", "postalCode": "M1W2S5", "twitter": "None", "instagram": "None", "facebook": "None", "youtube": "None", "website": "None", "summary": "None", "logo": "None", "latitude": 43.79647517626506, "longitude": -79.32661950611684}, "107981227RR0001": {"name": "SIMARIL INC.", "designationCode": "C", "categoryCode": "01", "address": "SUITE 1 - 1031 AUTUMNWOOD DR.", "city": "WINNIPEG", "province": "MB", "country": "CA", "postalCode": "R2J1C6", "twitter": "None", "instagram": "None", "facebook": "None", "youtube": "None", "website": "None", "summary": "None", "logo": "None", "latitude": 49.863033, "longitude": -97.07820986323554}, "119150282RR0001": {"name": "SIMCOE AND DISTRICT HUMANE SOCIETY", "designationCode": "C", "categoryCode": "54", "address": "P.O. BOX 193", "city": "SIMCOE", "province": "ON", "country": "CA", "postalCode": "N3Y4L1", "twitter": "None", "instagram": "None", "facebook": "None", "youtube": "None", "website": "None", "summary": "None", "logo": "None", "latitude": 42.846171000000055, "longitude": -80.32952149999993}, "108072992RR0001": {"name": "SIMCOE COMMUNITY SERVICES", "designationCode": "C", "categoryCode": "11", "address": "39 FRASER COURT", "city": "BARRIE", "province": "ON", "country": "CA", "postalCode": "L4N5J5", "twitter": "None", "instagram": "None", "facebook": "None", "youtube": "None", "website": "None", "summary": "None", "logo": "None", "latitude": 44.365593182930176, "longitude": -79.70406512115524}, "896155629RR0001": {"name": "SIMCOE COMMUNITY SERVICES FOUNDATION", "designationCode": "A", "categoryCode": "03", "address": "39 FRASER CRT", "city": "BARRIE", "province": "ON", "country": "CA", "postalCode": "L4N5J5", "twitter": "None", "instagram": "None", "facebook": "None", "youtube": "None", "website": "None", "summary": "None", "logo": "None", "latitude": 44.365593182930176, "longitude": -79.70406512115524}, "864368840RR0001": {"name": "SIMCOE COUNTY CHRISTIAN HIGH SCHOOL SOCIETY", "designationCode": "C", "categoryCode": "20", "address": "25 BURTON AVE", "city": "BARRIE", "province": "ON", "country": "CA", "postalCode": "L4N2R3", "twitter": "None", "instagram": "None", "facebook": "None", "youtube": "None", "website": "None", "summary": "None", "logo": "None", "latitude": 44.37155340550516, "longitude": -79.69005751234924}, "107981318RR0002": {"name": "SIMCOE COUNTY DISTRICT SCHOOL BOARD (SCDSB)", "designationCode": "C", "categoryCode": "20", "address": "1170 HWY 26", "city": "MIDHURST", "province": "ON", "country": "CA", "postalCode": "L9X1N6", "twitter": "None", "instagram": "None", "facebook": "None", "youtube": "None", "website": "None", "summary": "None", "logo": "None", "latitude": 44.43780164383446, "longitude": -79.73259333722686}, "875683963RR0001": {"name": "SIMCOE COUNTY HISTORICAL ASSOCIATION", "designationCode": "C", "categoryCode": "50", "address": "PO BOX 144", "city": "BARRIE", "province": "ON", "country": "CA", "postalCode": "L4M4S9", "twitter": "None", "instagram": "None", "facebook": "None", "youtube": "None", "website": "None", "summary": "None", "logo": "None", "latitude": 44.38929300000005, "longitude": -79.68626449999994}, "834158164RR0001": {"name": "SIMCOE COUNTY PARAMEDIC ASSOCIATION", "designationCode": "C", "categoryCode": "59", "address": "P.O. BOX 35009", "city": "BARRIE", "province": "ON", "country": "CA", "postalCode": "L4N5Z2", "twitter": "None", "instagram": "None", "facebook": "None", "youtube": "None", "website": "None", "summary": "None", "logo": "None", "latitude": 44.38929300000005, "longitude": -79.68626449999994}, "132410671RR0341": {"name": "SIMCOE COUNTY PARTICULAR COUNCIL (THE SOCIETY OF SAINT VINCENT DE PAUL)", "designationCode": "C", "categoryCode": "09", "address": "301-500 MAPLEVIEW DR W", "city": "BARRIE", "province": "ON", "country": "CA", "postalCode": "L4N6C3", "twitter": "None", "instagram": "None", "facebook": "None", "youtube": "None", "website": "None", "summary": "None", "logo": "None", "latitude": 44.326063172369935, "longitude": -79.72671848779498}, "889298170RR0001": {"name": "SIMCOE COUNTY REGIONAL SCIENCE FAIR COMMITTEE", "designationCode": "C", "categoryCode": "21", "address": "37 MOUNTBATTEN CRT", "city": "BARRIE", "province": "ON", "country": "CA", "postalCode": "L4M1T6", "twitter": "None", "instagram": "None", "facebook": "None", "youtube": "None", "website": "None", "summary": "None", "logo": "None", "latitude": 44.39827419187989, "longitude": -79.67481867468291}, "124395617RR0001": {"name": "SIMCOE EARLY EDUCATION AND DEVELOPMENT SERVICES CO-OPERATIVEINC.", "designationCode": "C", "categoryCode": "01", "address": "89 EDGEHILL DRIVE", "city": "BARRIE", "province": "ON", "country": "CA", "postalCode": "L4N5W1", "twitter": "None", "instagram": "None", "facebook": "None", "youtube": "None", "website": "None", "summary": "None", "logo": "None", "latitude": 44.38736025644875, "longitude": -79.70853938467313}, "107981441RR0001": {"name": "SIMCOE GOSPEL CHAPEL, INC.", "designationCode": "C", "categoryCode": "39", "address": "4152 HIGHWAY 3 EAST           BOX 25", "city": "SIMCOE", "province": "ON", "country": "CA", "postalCode": "N3Y4K8", "twitter": "None", "instagram": "None", "facebook": "None", "youtube": "None", "website": "None", "summary": "None", "logo": "None", "latitude": 42.85144160108046, "longitude": -80.27200230789309}, "119150399RR0001": {"name": "SIMCOE HALL SETTLEMENT HOUSE", "designationCode": "C", "categoryCode": "09", "address": "387 SIMCOE ST S", "city": "OSHAWA", "province": "ON", "country": "CA", "postalCode": "L1H4J2", "twitter": "None", "instagram": "None", "facebook": "None", "youtube": "None", "website": "None", "summary": "None", "logo": "None", "latitude": 43.887393690547555, "longitude": -78.8589192246238}, "119150381RR0001": {"name": "SIMCOE HALL SETTLEMENT HOUSE FOUNDATION", "designationCode": "A", "categoryCode": "05", "address": "387 SIMCOE STREET S", "city": "OSHAWA", "province": "ON", "country": "CA", "postalCode": "L1H4J2", "twitter": "None", "instagram": "None", "facebook": "None", "youtube": "None", "website": "None", "summary": "None", "logo": "None", "latitude": 43.887393690547555, "longitude": -78.8589192246238}, "119150407RR0001": {"name": "SIMCOE LITTLE THEATRE", "designationCode": "C", "categoryCode": "22", "address": "PO BOX 324", "city": "SIMCOE", "province": "ON", "country": "CA", "postalCode": "N3Y4L2", "twitter": "None", "instagram": "None", "facebook": "None", "youtube": "None", "website": "None", "summary": "None", "logo": "None", "latitude": 42.83590200000006, "longitude": -80.30531149999993}, "107981359RR0001": {"name": "SIMCOE MUSKOKA DISTRICT HEALTH UNIT", "designationCode": "C", "categoryCode": "11", "address": "15 SPERLING DRIVE", "city": "BARRIE", "province": "ON", "country": "CA", "postalCode": "L4M6K9", "twitter": "None", "instagram": "None", "facebook": "None", "youtube": "None", "website": "None", "summary": "None", "logo": "None", "latitude": 44.41099901359001, "longitude": -79.68685409449485}, "119288918RR0422": {"name": "SIMCOE ONTARIO CONGREGATION OF JEHOVAH'S WITNESSES", "designationCode": "C", "categoryCode": "61", "address": "P.O. BOX 198", "city": "VITTORIA", "province": "ON", "country": "CA", "postalCode": "N0E1W0", "twitter": "None", "instagram": "None", "facebook": "None", "youtube": "None", "website": "None", "summary": "None", "logo": "None", "latitude": 42.771104716832504, "longitude": -80.30081960993185}, "124412602RR0001": {"name": "SIMCOE PRESBYTERY CAMP", "designationCode": "C", "categoryCode": "49", "address": "PO BOX 493", "city": "ALLISTON", "province": "ON", "country": "CA", "postalCode": "L9R1V7", "twitter": "None", "instagram": "None", "facebook": "None", "youtube": "None", "website": "None", "summary": "None", "logo": "None", "latitude": 44.15432100000005, "longitude": -79.86752449999993}, "890435399RR0001": {"name": "SIMCOE ROTARY CLUB CHARITABLE ACCOUNT", "designationCode": "C", "categoryCode": "09", "address": "PO BOX 1", "city": "SIMCOE", "province": "ON", "country": "CA", "postalCode": "N3Y4K8", "twitter": "None", "instagram": "None", "facebook": "None", "youtube": "None", "website": "None", "summary": "None", "logo": "None", "latitude": 42.83590200000006, "longitude": -80.30531149999993}, "119150456RR0001": {"name": "SIMCOE SENIORS' CENTRE", "designationCode": "C", "categoryCode": "56", "address": "89 POND ST", "city": "SIMCOE", "province": "ON", "country": "CA", "postalCode": "N3Y2T5", "twitter": "None", "instagram": "None", "facebook": "None", "youtube": "None", "website": "None", "summary": "None", "logo": "None", "latitude": 42.83551761226846, "longitude": -80.3002788605229}, "107797383RR0055": {"name": "SIMCOE SEVENTH-DAY ADVENTIST CHURCH", "designationCode": "C", "categoryCode": "41", "address": "56 SOUTH DRIVE", "city": "SIMCOE", "province": "ON", "country": "CA", "postalCode": "N3Y1G2", "twitter": "None", "instagram": "None", "facebook": "None", "youtube": "None", "website": "None", "summary": "None", "logo": "None", "latitude": 42.830705620030066, "longitude": -80.30359642853021}, "107981557RR0001": {"name": "SIMCOE STREET UNITED CHURCH", "designationCode": "C", "categoryCode": "44", "address": "66 SIMCOE STREET SOUTH", "city": "OSHAWA", "province": "ON", "country": "CA", "postalCode": "L1H4G3", "twitter": "None", "instagram": "None", "facebook": "None", "youtube": "None", "website": "None", "summary": "None", "logo": "None", "latitude": 43.89569996753988, "longitude": -78.86280394341829}, "141034975RR0001": {"name": "SIMCOE/MUSKOKA LITERACY NETWORK", "designationCode": "C", "categoryCode": "21", "address": "575 WEST ST S.,               UNIT 15", "city": "ORILLIA", "province": "ON", "country": "CA", "postalCode": "L3V7N6", "twitter": "None", "instagram": "None", "facebook": "None", "youtube": "None", "website": "None", "summary": "None", "logo": "None", "latitude": 44.59459430414551, "longitude": -79.40841327409802}, "119150480RR0001": {"name": "SIMCOSIDE BIBLE CHAPEL", "designationCode": "C", "categoryCode": "39", "address": "113 SIMCOE ST", "city": "ORILLIA", "province": "ON", "country": "CA", "postalCode": "L3V1G6", "twitter": "None", "instagram": "None", "facebook": "None", "youtube": "None", "website": "None", "summary": "None", "logo": "None", "latitude": 44.59674482602033, "longitude": -79.4020376498233}, "857290332RR0001": {"name": "SIMMIE CHARITABLE TRUST", "designationCode": "B", "categoryCode": "39", "address": "50-1ST AVE NE", "city": "SWIFT CURRENT", "province": "SK", "country": "CA", "postalCode": "S9H4W4", "twitter": "None", "instagram": "None", "facebook": "None", "youtube": "None", "website": "None", "summary": "None", "logo": "None", "latitude": 50.282664378132, "longitude": -107.79863205289816}, "890160393RR0001": {"name": "SIMMIE LUTHERAN BIBLE CAMP ASSOCIATION", "designationCode": "C", "categoryCode": "56", "address": "PO BOX 1285", "city": "OUTLOOK", "province": "SK", "country": "CA", "postalCode": "S0L2N0", "twitter": "None", "instagram": "None", "facebook": "None", "youtube": "None", "website": "None", "summary": "None", "logo": "None", "latitude": 51.5306764246367, "longitude": -107.23731016398128}, "889003190RR0001": {"name": "SIMON CHANG AND PHYLLIS LEVINE FOUNDATION", "designationCode": "B", "categoryCode": "05", "address": "555 CHABANEL STREET WEST      SUITE 1407", "city": "MONTREAL", "province": "QC", "country": "CA", "postalCode": "H2N2H8", "twitter": "None", "instagram": "None", "facebook": "None", "youtube": "None", "website": "None", "summary": "None", "logo": "None", "latitude": 45.53800529866107, "longitude": -73.65491181675178}, "118520725RR0001": {"name": "SIMON FRASER UNIVERSITY", "designationCode": "C", "categoryCode": "20", "address": "8888 UNIVERSITY DR            FINANCIAL SERVICES", "city": "BURNABY", "province": "BC", "country": "CA", "postalCode": "V5A1S6", "twitter": "None", "instagram": "None", "facebook": "None", "youtube": "None", "website": "None", "summary": "None", "logo": "None", "latitude": 49.28072896582346, "longitude": -122.90935295443904}, "119150589RR0001": {"name": "SIMON HOUSE RESIDENCE SOCIETY", "designationCode": "C", "categoryCode": "57", "address": "5819 BOWNESS ROAD NW", "city": "CALGARY", "province": "AB", "country": "CA", "postalCode": "T3B0C5", "twitter": "None", "instagram": "None", "facebook": "None", "youtube": "None", "website": "None", "summary": "None", "logo": "None", "latitude": 51.08085992200935, "longitude": -114.17335618471917}, "106686538RR0001": {"name": "SIMONDS ADVENT CHRISTIAN CHURCH", "designationCode": "C", "categoryCode": "39", "address": "2995 RR103", "city": "SIMONDS", "province": "NB", "country": "CA", "postalCode": "E7P2Y9", "twitter": "None", "instagram": "None", "facebook": "None", "youtube": "None", "website": "None", "summary": "None", "logo": "None", "latitude": 45.333470000000034, "longitude": -65.79882999999995}, "119150530RR0001": {"name": "SIMONDS HIGH SCHOOL SCHOLARSHIP FUND INC.", "designationCode": "C", "categoryCode": "21", "address": "1490 HICKEY ROAD", "city": "SAINT JOHN", "province": "NB", "country": "CA", "postalCode": "E2J4E7", "twitter": "None", "instagram": "None", "facebook": "None", "youtube": "None", "website": "None", "summary": "None", "logo": "None", "latitude": 45.30076851788917, "longitude": -65.99238289508915}, "839702800RR0001": {"name": "SIMONHOUSE CAMP INC.", "designationCode": "C", "categoryCode": "56", "address": "206 - 35 MAIN ST", "city": "FLIN FLON", "province": "MB", "country": "CA", "postalCode": "R8A1J7", "twitter": "None", "instagram": "None", "facebook": "None", "youtube": "None", "website": "None", "summary": "None", "logo": "None", "latitude": 54.764805624761934, "longitude": -101.87553758448286}, "868955964RR0001": {"name": "SIMPCW TSEPTEKWLL AND RESEARCH SOCIETY", "designationCode": "C", "categoryCode": "50", "address": "BOX 220", "city": "BARRIERE", "province": "BC", "country": "CA", "postalCode": "V0E1E0", "twitter": "None", "instagram": "None", "facebook": "None", "youtube": "None", "website": "None", "summary": "None", "logo": "None", "latitude": 51.29213204437867, "longitude": -119.92919375050194}, "861999936RR0001": {"name": "SIMPSON MASONIC LODGE SCHOLARSHIP COMMITTEE", "designationCode": "C", "categoryCode": "21", "address": "RR#1 DOUGLAS BOND", "city": "PORTLAND", "province": "ON", "country": "CA", "postalCode": "K0G1V0", "twitter": "None", "instagram": "None", "facebook": "None", "youtube": "None", "website": "None", "summary": "None", "logo": "None", "latitude": 44.66953500000005, "longitude": -76.20542899999994}, "868599812RR0001": {"name": "SIMPSON-MARKINCH CHARITABLE FOUNDATION", "designationCode": "B", "categoryCode": "21", "address": "BOX 1934", "city": "CARDSTON", "province": "AB", "country": "CA", "postalCode": "T0K0K0", "twitter": "None", "instagram": "None", "facebook": "None", "youtube": "None", "website": "None", "summary": "None", "logo": "None", "latitude": 49.198480000000075, "longitude": -113.30176999999998}, "119150670RR0001": {"name": "SINAI CHILD CARE SERVICES", "designationCode": "C", "categoryCode": "49", "address": "70 CHARLTON BLVD", "city": "WILLOWDALE", "province": "ON", "country": "CA", "postalCode": "M2M1B9", "twitter": "None", "instagram": "None", "facebook": "None", "youtube": "None", "website": "None", "summary": "None", "logo": "None", "latitude": 43.78199311798127, "longitude": -79.42948861547109}, "119048106RR0001": {"name": "SINAI HEALTH SYSTEM FOUNDATION", "designationCode": "A", "categoryCode": "10", "address": "522 UNIVERSITY AVENUE,        SUITE 1001", "city": "TORONTO", "province": "ON", "country": "CA", "postalCode": "M5G1W7", "twitter": "None", "instagram": "None", "facebook": "None", "youtube": "None", "website": "None", "summary": "None", "logo": "None", "latitude": 43.65597971994926, "longitude": -79.38900529894951}, "894059518RR0001": {"name": "SINFONIA MOSAIC", "designationCode": "C", "categoryCode": "22", "address": "514 RIVERVIEW CRES", "city": "COQUITLAM", "province": "BC", "country": "CA", "postalCode": "V3C5A1", "twitter": "None", "instagram": "None", "facebook": "None", "youtube": "None", "website": "None", "summary": "None", "logo": "None", "latitude": 49.25202227644406, "longitude": -122.80831350600127}, "877209627RR0001": {"name": "SINFONIA TORONTO", "designationCode": "C", "categoryCode": "22", "address": "3901 DON MILLS RD             BOX 5", "city": "TORONTO", "province": "ON", "country": "CA", "postalCode": "M2H2S7", "twitter": "None", "instagram": "None", "facebook": "None", "youtube": "None", "website": "None", "summary": "None", "logo": "None", "latitude": 43.80725729070378, "longitude": -79.35699909347301}, "888915469RR0001": {"name": "SING TAO (CANADA) FOUNDATION", "designationCode": "B", "categoryCode": "03", "address": "221 WHITEHALL DRIVE", "city": "MARKHAM", "province": "ON", "country": "CA", "postalCode": "L3R9T1", "twitter": "None", "instagram": "None", "facebook": "None", "youtube": "None", "website": "None", "summary": "None", "logo": "None", "latitude": 43.85918785983039, "longitude": -79.34205606875807}, "860904572RR0001": {"name": "SINGH SABHA INTERNATIONAL CANADA", "designationCode": "C", "categoryCode": "62", "address": "603 RAY LAWSON BLVD.", "city": "BRAMPTON", "province": "ON", "country": "CA", "postalCode": "L6Y5J7", "twitter": "None", "instagram": "None", "facebook": "None", "youtube": "None", "website": "None", "summary": "None", "logo": "None", "latitude": 43.64561106076532, "longitude": -79.74232542685678}, "119150688RR0001": {"name": "SINGH SABHA, WINNIPEG INC.", "designationCode": "C", "categoryCode": "39", "address": "4000 STURGEON ROAD", "city": "WINNIPEG", "province": "MB", "country": "CA", "postalCode": "R2Y2L7", "twitter": "None", "instagram": "None", "facebook": "None", "youtube": "None", "website": "None", "summary": "None", "logo": "None", "latitude": 49.91971568082405, "longitude": -97.27570631649199}, "875794828RR0001": {"name": "SINGIN' GOOD NEWS SOCIETY", "designationCode": "C", "categoryCode": "39", "address": "PO BOX 471", "city": "CANOE", "province": "BC", "country": "CA", "postalCode": "V0E1K0", "twitter": "None", "instagram": "None", "facebook": "None", "youtube": "None", "website": "None", "summary": "None", "logo": "None", "latitude": 52.00880716373645, "longitude": -118.56760579231016}, "891550170RR0001": {"name": "SINGING OUT! THE LESBIAN AND GAY CHORUS OF TORONTO", "designationCode": "C", "categoryCode": "22", "address": "P.O. BOX 1010, STATION F", "city": "TORONTO", "province": "ON", "country": "CA", "postalCode": "M4Y2T7", "twitter": "None", "instagram": "None", "facebook": "None", "youtube": "None", "website": "None", "summary": "None", "logo": "None", "latitude": 43.666332000000054, "longitude": -79.38025549999993}, "107982456RR0001": {"name": "SINGING WATERS MINISTRIES", "designationCode": "C", "categoryCode": "09", "address": "673394 HURONTARIO STREET", "city": "MONO", "province": "ON", "country": "CA", "postalCode": "L9W5R8", "twitter": "None", "instagram": "None", "facebook": "None", "youtube": "None", "website": "None", "summary": "None", "logo": "None", "latitude": 43.95468791074052, "longitude": -80.0885933730105}, "891386161RR0001": {"name": "SINGLE PARENT ASSOCIATION OF NEWFOUNDLAND", "designationCode": "C", "categoryCode": "09", "address": "PO BOX 21421                  RPO MACDONALD DRIVE", "city": "ST. JOHN'S", "province": "NL", "country": "CA", "postalCode": "A1A5G6", "twitter": "None", "instagram": "None", "facebook": "None", "youtube": "None", "website": "None", "summary": "None", "logo": "None", "latitude": 47.592981, "longitude": -52.71084951270402}, "863478517RR0001": {"name": "SINGLE WOMEN IN MOTHERHOOD TRAINING PROGRAM", "designationCode": "C", "categoryCode": "09", "address": "296 HORTON STREET SUITE 4", "city": "LONDON", "province": "ON", "country": "CA", "postalCode": "N6B1L4", "twitter": "None", "instagram": "None", "facebook": "None", "youtube": "None", "website": "None", "summary": "None", "logo": "None", "latitude": 42.98047287763266, "longitude": -81.24181894506307}, "130940034RR0001": {"name": "SINHA DANSE INC", "designationCode": "C", "categoryCode": "22", "address": "4430 RUE PARTHENAIS", "city": "MONTREAL", "province": "QC", "country": "CA", "postalCode": "H2H2G5", "twitter": "None", "instagram": "None", "facebook": "None", "youtube": "None", "website": "None", "summary": "None", "logo": "None", "latitude": 45.536003855098556, "longitude": -73.5701148475098}, "892377243RR0001": {"name": "SINO-CANADA CULTURE ASSOCIATION", "designationCode": "C", "categoryCode": "20", "address": "110-138-18TH AVE SE", "city": "CALGARY", "province": "AB", "country": "CA", "postalCode": "T2G5P9", "twitter": "None", "instagram": "None", "facebook": "None", "youtube": "None", "website": "None", "summary": "None", "logo": "None", "latitude": 51.03704673769836, "longitude": -114.06118599695438}, "119150746RR0001": {"name": "SINTALUTA & DISTRICT COMMUNITY CLUB INC.", "designationCode": "C", "categoryCode": "56", "address": "PO BOX 233", "city": "SINTALUTA", "province": "SK", "country": "CA", "postalCode": "S0G4N0", "twitter": "None", "instagram": "None", "facebook": "None", "youtube": "None", "website": "None", "summary": "None", "logo": "None", "latitude": 50.476410000000044, "longitude": -103.44828999999999}, "875685422RR0001": {"name": "SIOBHAN RICHARDSON FOUNDATION INC", "designationCode": "B", "categoryCode": "03", "address": "SUITE 3000 ONE LOMBARD PLACE", "city": "WINNIPEG", "province": "MB", "country": "CA", "postalCode": "R3B0Y1", "twitter": "None", "instagram": "None", "facebook": "None", "youtube": "None", "website": "None", "summary": "None", "logo": "None", "latitude": 49.89608549999999, "longitude": -97.13498849999999}, "119150779RR0001": {"name": "SIONITO COMMUNITY DEVELOPMENT CORPORATION", "designationCode": "C", "categoryCode": "09", "address": "180 SHERIDAN AVE.", "city": "TORONTO", "province": "ON", "country": "CA", "postalCode": "M6K3C7", "twitter": "None", "instagram": "None", "facebook": "None", "youtube": "None", "website": "None", "summary": "None", "logo": "None", "latitude": 43.65163812600267, "longitude": -79.43442429214019}, "878461508RR0001": {"name": "SIOUX LOOKOUT HANDI TRANSIT", "designationCode": "C", "categoryCode": "09", "address": "PO BOX 1385", "city": "SIOUX LOOKOUT", "province": "ON", "country": "CA", "postalCode": "P8T1B9", "twitter": "None", "instagram": "None", "facebook": "None", "youtube": "None", "website": "None", "summary": "None", "logo": "None", "latitude": 50.09808300000006, "longitude": -91.91503249999994}, "865753818RR0001": {"name": "SIOUX LOOKOUT OUT OF THE COLD PROGRAM", "designationCode": "C", "categoryCode": "09", "address": "BOX 674", "city": "SIOUX LOOKOUT", "province": "ON", "country": "CA", "postalCode": "P8T1B1", "twitter": "None", "instagram": "None", "facebook": "None", "youtube": "None", "website": "None", "summary": "None", "logo": "None", "latitude": 50.09808300000006, "longitude": -91.91503249999994}, "119150811RR0001": {"name": "SIOUX LOOKOUT PASTORAL CHARGE", "designationCode": "C", "categoryCode": "44", "address": "BOX 219", "city": "SIOUX LOOKOUT", "province": "ON", "country": "CA", "postalCode": "P8T1A3", "twitter": "None", "instagram": "None", "facebook": "None", "youtube": "None", "website": "None", "summary": "None", "logo": "None", "latitude": 50.09808300000006, "longitude": -91.91503249999994}, "139095319RR0001": {"name": "SIOUX-HUDSON LITERACY COUNCIL", "designationCode": "C", "categoryCode": "21", "address": "BOX 829", "city": "SIOUX LOOKOUT", "province": "ON", "country": "CA", "postalCode": "P8T1B2", "twitter": "None", "instagram": "None", "facebook": "None", "youtube": "None", "website": "None", "summary": "None", "logo": "None", "latitude": 50.09808300000006, "longitude": -91.91503249999994}, "777822495RR0001": {"name": "SIP-CHUSJ Soins intensifs p\u00e9diatriques du CHU Sainte-Justine", "designationCode": "C", "categoryCode": "11", "address": "3175, CH COTE-SAINTE-CATHERINEBUR. A-576", "city": "MONTREAL", "province": "QC", "country": "CA", "postalCode": "H3T1C5", "twitter": "None", "instagram": "None", "facebook": "None", "youtube": "None", "website": "None", "summary": "None", "logo": "None", "latitude": 45.50397900000006, "longitude": -73.61716849999993}, "875911505RR0001": {"name": "SIPHO", "designationCode": "C", "categoryCode": "09", "address": "2450 MILLTOWER COURT", "city": "MISSISSAUGA", "province": "ON", "country": "CA", "postalCode": "L5N5Z6", "twitter": "None", "instagram": "None", "facebook": "None", "youtube": "None", "website": "None", "summary": "None", "logo": "None", "latitude": 43.59753944771745, "longitude": -79.75686307989524}, "897334256RR0001": {"name": "SIPIWESKE MUSEUM INC.", "designationCode": "C", "categoryCode": "50", "address": "104-4TH ST                    BOX 116", "city": "WAWANESA", "province": "MB", "country": "CA", "postalCode": "R0K2G0", "twitter": "None", "instagram": "None", "facebook": "None", "youtube": "None", "website": "None", "summary": "None", "logo": "None", "latitude": 49.59351753037698, "longitude": -99.68435611263953}, "889284840RR0001": {"name": "SIR ALEXANDER MACKENZIE HISTORICAL SOCIETY", "designationCode": "C", "categoryCode": "52", "address": "P.O. BOX 5354", "city": "PEACE RIVER", "province": "AB", "country": "CA", "postalCode": "T8S1R9", "twitter": "None", "instagram": "None", "facebook": "None", "youtube": "None", "website": "None", "summary": "None", "logo": "None", "latitude": 56.232969000000054, "longitude": -117.29043349999993}, "119150852RR0001": {"name": "SIR FREDERIC FRASER SCHOOL ATLANTIC PROVINCES RESOURCE CENTRE FOR THE VISUALLY IMPAIRED", "designationCode": "C", "categoryCode": "20", "address": "5940 SOUTH ST", "city": "HALIFAX", "province": "NS", "country": "CA", "postalCode": "B3H1S6", "twitter": "None", "instagram": "None", "facebook": "None", "youtube": "None", "website": "None", "summary": "None", "logo": "None", "latitude": 44.63701888028799, "longitude": -63.58258517967019}, "807406145RR0001": {"name": "SIR FREDERICK BANTING LEGACY FOUNDATION", "designationCode": "C", "categoryCode": "50", "address": "PO BOX 137", "city": "ALLISTON", "province": "ON", "country": "CA", "postalCode": "L9R1T9", "twitter": "None", "instagram": "None", "facebook": "None", "youtube": "None", "website": "None", "summary": "None", "logo": "None", "latitude": 44.15432100000005, "longitude": -79.86752449999993}, "131215196RR0001": {"name": "SIR HUGH JOHN MACDONALD MEMORIAL HOSTEL,", "designationCode": "C", "categoryCode": "01", "address": "175 MAYFAIR AVE", "city": "WINNIPEG", "province": "MB", "country": "CA", "postalCode": "R3L0A1", "twitter": "None", "instagram": "None", "facebook": "None", "youtube": "None", "website": "None", "summary": "None", "logo": "None", "latitude": 49.8836054976914, "longitude": -97.13619034445138}, "888289667RR0001": {"name": "SIR JOHN A MACDONALD COLLEGIATE INSTITUTE SCHOLARSHIP FUND CSTAFF", "designationCode": "C", "categoryCode": "21", "address": "2300 PHARMACY AVE", "city": "AGINCOURT", "province": "ON", "country": "CA", "postalCode": "M1W1H8", "twitter": "None", "instagram": "None", "facebook": "None", "youtube": "None", "website": "None", "summary": "None", "logo": "None", "latitude": 43.78729483400672, "longitude": -79.32263563734139}, "891039737RR0001": {"name": "SIR JOHN JOHNSON MANOR HOUSE COMMITTEE INC", "designationCode": "C", "categoryCode": "52", "address": "19820 GREER ROAD", "city": "WILLIAMSTOWN", "province": "ON", "country": "CA", "postalCode": "K0C2J0", "twitter": "None", "instagram": "None", "facebook": "None", "youtube": "None", "website": "None", "summary": "None", "logo": "None", "latitude": 45.14725366250218, "longitude": -74.56477216610884}, "119150910RR0001": {"name": "SIR JOSEPH FLAVELLE FOUNDATION", "designationCode": "B", "categoryCode": "03", "address": "130 KING ST WEST  20TH FLOOR  BOX 430, STN FIRST CANADIAN PL", "city": "TORONTO", "province": "ON", "country": "CA", "postalCode": "M5X1K1", "twitter": "None", "instagram": "None", "facebook": "None", "youtube": "None", "website": "None", "summary": "None", "logo": "None", "latitude": 43.64826932503962, "longitude": -79.38190945606182}}