{"885170977RR0001": {"name": "CORPORATION REPIT-DEPANNAGE DELANAUDIERE", "designationCode": "C", "categoryCode": "01", "address": "159 RUE LAJOIE NORD", "city": "JOLIETTE", "province": "QC", "country": "CA", "postalCode": "J6E5K6", "twitter": "None", "instagram": "None", "facebook": "None", "youtube": "None", "website": "None", "summary": "None", "logo": "None", "latitude": 46.02549814902773, "longitude": -73.44365948309178}, "101162147RR0001": {"name": "CORPORATION RESTONS CHEZ-NOUS", "designationCode": "C", "categoryCode": "09", "address": "1929 CHEMIN DES COUDRIERS", "city": "ILES-AUX-COUDRES", "province": "QC", "country": "CA", "postalCode": "G0A1X0", "twitter": "None", "instagram": "None", "facebook": "None", "youtube": "None", "website": "None", "summary": "None", "logo": "None", "latitude": 47.36960077880999, "longitude": -70.41119293548378}, "897613444RR0001": {"name": "CORPORATION ROUTE D'ENFANTS", "designationCode": "C", "categoryCode": "01", "address": "2305 RUE DENAULT", "city": "SHERBROOKE", "province": "QC", "country": "CA", "postalCode": "J1K1H6", "twitter": "None", "instagram": "None", "facebook": "None", "youtube": "None", "website": "None", "summary": "None", "logo": "None", "latitude": 45.388062449362245, "longitude": -71.92982236372553}, "853390441RR0001": {"name": "CORPORATION SAINT-JOSEPH", "designationCode": "C", "categoryCode": "43", "address": "131, RUE DES DOMINICAINES", "city": "BEAUPORT", "province": "QC", "country": "CA", "postalCode": "G1E6S8", "twitter": "None", "instagram": "None", "facebook": "None", "youtube": "None", "website": "None", "summary": "None", "logo": "None", "latitude": 46.8736601909516, "longitude": -71.18897178420568}, "140494287RR0001": {"name": "CORPORATION SORELOISE DU PATRIMOINE REGIONAL", "designationCode": "C", "categoryCode": "50", "address": "6 RUE SAINT PIERRE", "city": "SOREL-TRACY", "province": "QC", "country": "CA", "postalCode": "J3P3S2", "twitter": "None", "instagram": "None", "facebook": "None", "youtube": "None", "website": "None", "summary": "None", "logo": "None", "latitude": 46.04697165583708, "longitude": -73.10633380907707}, "867035040RR0001": {"name": "CORPORATION ST-JEAN-VIANNEY", "designationCode": "C", "categoryCode": "43", "address": "3719 BOULEVARD GOUIN EST", "city": "MONTREAL-NORD", "province": "QC", "country": "CA", "postalCode": "H1H5L8", "twitter": "None", "instagram": "None", "facebook": "None", "youtube": "None", "website": "None", "summary": "None", "logo": "None", "latitude": 45.593507702752575, "longitude": -73.64833820959058}, "119155752RR0001": {"name": "CORPORATION TH\u00c9R\u00c8SE-D'ALEN\u00c7ON", "designationCode": "C", "categoryCode": "46", "address": "CP 425 1260,90 E RUE EST", "city": "SAINT-GEORGES", "province": "QC", "country": "CA", "postalCode": "G5Y5C9", "twitter": "None", "instagram": "None", "facebook": "None", "youtube": "None", "website": "None", "summary": "None", "logo": "None", "latitude": 46.13824750417466, "longitude": -70.68472375830268}, "859156945RR0001": {"name": "CORPORATION VELO BEAUCE", "designationCode": "C", "categoryCode": "56", "address": "8585 BOUL LACROIX             BUREAU 340 (C.P. 552)", "city": "SAINT-GEORGES", "province": "QC", "country": "CA", "postalCode": "G5Y5C9", "twitter": "None", "instagram": "None", "facebook": "None", "youtube": "None", "website": "None", "summary": "None", "logo": "None", "latitude": 46.133407138708975, "longitude": -70.70046298715384}, "859575904RR0001": {"name": "CORPORATION WAPIKONI MOBILE", "designationCode": "C", "categoryCode": "29", "address": "400 AVE ATLANTIC              BUR 101", "city": "MONTREAL", "province": "QC", "country": "CA", "postalCode": "H2V1A5", "twitter": "None", "instagram": "None", "facebook": "None", "youtube": "None", "website": "None", "summary": "None", "logo": "None", "latitude": 45.52717729447747, "longitude": -73.61663305964014}, "856100334RR0001": {"name": "CORPS BARA DANCE GUILD OF CALGARY", "designationCode": "C", "categoryCode": "47", "address": "755 LAKE BONAVISTA DR. S.E.   P.O. BOX 81043", "city": "CALGARY", "province": "AB", "country": "CA", "postalCode": "T2J7C9", "twitter": "None", "instagram": "None", "facebook": "None", "youtube": "None", "website": "None", "summary": "None", "logo": "None", "latitude": 50.94238677416412, "longitude": -114.04537524626203}, "851828640RR0001": {"name": "CORPS DE B\u00c9N\u00c9VOLES HATZOLOH, DIVISION OUTREMONT", "designationCode": "C", "categoryCode": "11", "address": "733 CHAMPAGNEUR", "city": "MONTREAL", "province": "QC", "country": "CA", "postalCode": "H2V1P1", "twitter": "None", "instagram": "None", "facebook": "None", "youtube": "None", "website": "None", "summary": "None", "logo": "None", "latitude": 45.52119219929014, "longitude": -73.61168943337765}, "118877109RR0001": {"name": "CORPS DE CADETS DE LA MARINE DRUMMONDVILLE", "designationCode": "C", "categoryCode": "29", "address": "CASE POSTALE 31", "city": "DRUMMONDVILLE", "province": "QC", "country": "CA", "postalCode": "J2B6V6", "twitter": "None", "instagram": "None", "facebook": "None", "youtube": "None", "website": "None", "summary": "None", "logo": "None", "latitude": 45.88082700000005, "longitude": -72.48417199999993}, "107909939RR0006": {"name": "CORPUS CHRISTI CHURCH", "designationCode": "C", "categoryCode": "38", "address": "404 NORTHMOUNT PL NW", "city": "CALGARY", "province": "AB", "country": "CA", "postalCode": "T2K3P9", "twitter": "None", "instagram": "None", "facebook": "None", "youtube": "None", "website": "None", "summary": "None", "logo": "None", "latitude": 51.102940243407005, "longitude": -114.07071917998731}, "119264174RR0015": {"name": "CORPUS CHRISTI CHURCH", "designationCode": "C", "categoryCode": "38", "address": "664 RED RIVER RD", "city": "THUNDER BAY", "province": "ON", "country": "CA", "postalCode": "P7B1H8", "twitter": "None", "instagram": "None", "facebook": "None", "youtube": "None", "website": "None", "summary": "None", "logo": "None", "latitude": 48.440624026948875, "longitude": -89.24277494849686}, "890773146RR0001": {"name": "CORPUS CHRISTI COLLEGE SOCIETY", "designationCode": "C", "categoryCode": "20", "address": "5935 IONA DRIVE", "city": "VANCOUVER", "province": "BC", "country": "CA", "postalCode": "V6T1J7", "twitter": "None", "instagram": "None", "facebook": "None", "youtube": "None", "website": "None", "summary": "None", "logo": "None", "latitude": 49.27199608677912, "longitude": -123.2490334954938}, "869141028RR0001": {"name": "CORPUS CHRISTI COUNCIL 11891 CHARITABLE TRUST", "designationCode": "C", "categoryCode": "99", "address": "P.O. BOX 203", "city": "MERLIN", "province": "ON", "country": "CA", "postalCode": "N0P1W0", "twitter": "None", "instagram": "None", "facebook": "None", "youtube": "None", "website": "None", "summary": "None", "logo": "None", "latitude": 42.32416979726086, "longitude": -82.33013559251839}, "118877166RR0001": {"name": "CORPUS CHRISTI COURT OF NORTH BAY", "designationCode": "C", "categoryCode": "09", "address": "1707 CASSELLS ST", "city": "NORTH BAY", "province": "ON", "country": "CA", "postalCode": "P1B4C6", "twitter": "None", "instagram": "None", "facebook": "None", "youtube": "None", "website": "None", "summary": "None", "logo": "None", "latitude": 46.317971495672175, "longitude": -79.448004}, "815525142RR0001": {"name": "CORPUS CHRISTI CROATIAN CATHOLIC CHURCH", "designationCode": "C", "categoryCode": "39", "address": "3009 DUNDAS ST W", "city": "TORONTO", "province": "ON", "country": "CA", "postalCode": "M6P1Z4", "twitter": "None", "instagram": "None", "facebook": "None", "youtube": "None", "website": "None", "summary": "None", "logo": "None", "latitude": 43.66544452510252, "longitude": -79.46944152844941}, "897415527RR0001": {"name": "CORPUS CHRISTI MALE CHORALE SOCIETY", "designationCode": "C", "categoryCode": "99", "address": "220 DEERBROOK COURT SE", "city": "CALGARY", "province": "AB", "country": "CA", "postalCode": "T2J6K4", "twitter": "None", "instagram": "None", "facebook": "None", "youtube": "None", "website": "None", "summary": "None", "logo": "None", "latitude": 50.920921560649745, "longitude": -113.99691646127881}, "107876468RR0023": {"name": "CORPUS CHRISTI PARISH", "designationCode": "C", "categoryCode": "38", "address": "HIGHWAY 70", "city": "NORTHERN BAY", "province": "NL", "country": "CA", "postalCode": "A0A3B0", "twitter": "None", "instagram": "None", "facebook": "None", "youtube": "None", "website": "None", "summary": "None", "logo": "None", "latitude": 47.94279849438779, "longitude": -53.071804516836636}, "107910176RR0005": {"name": "CORPUS CHRISTI PARISH", "designationCode": "C", "categoryCode": "38", "address": "PO BOX 1363", "city": "ST JOHN'S", "province": "NL", "country": "CA", "postalCode": "A1C5N5", "twitter": "None", "instagram": "None", "facebook": "None", "youtube": "None", "website": "None", "summary": "None", "logo": "None", "latitude": 47.56082100000006, "longitude": -52.71219349999993}, "118849470RR0028": {"name": "CORPUS CHRISTI PARISH", "designationCode": "C", "categoryCode": "38", "address": "6350 NANAIMO ST", "city": "VANCOUVER", "province": "BC", "country": "CA", "postalCode": "V5P4K7", "twitter": "None", "instagram": "None", "facebook": "None", "youtube": "None", "website": "None", "summary": "None", "logo": "None", "latitude": 49.22669228050301, "longitude": -123.05903996469922}, "118877208RR0001": {"name": "CORPUS CHRISTI PARISH", "designationCode": "C", "categoryCode": "38", "address": "PO BOX 208", "city": "WINNIPEGOSIS", "province": "MB", "country": "CA", "postalCode": "R0L2G0", "twitter": "None", "instagram": "None", "facebook": "None", "youtube": "None", "website": "None", "summary": "None", "logo": "None", "latitude": 51.65289899999999, "longitude": -99.9405918859683}, "119110450RR0002": {"name": "CORPUS CHRISTI PARISH", "designationCode": "C", "categoryCode": "38", "address": "1694 UPPER JAMES ST", "city": "HAMILTON", "province": "ON", "country": "CA", "postalCode": "L9B1K6", "twitter": "None", "instagram": "None", "facebook": "None", "youtube": "None", "website": "None", "summary": "None", "logo": "None", "latitude": 43.199577606728525, "longitude": -79.89484246563529}, "889437422RR0001": {"name": "CORPUS DANCE PROJECTS", "designationCode": "C", "categoryCode": "22", "address": "805 DOVERCOURT RD             THIRD FLOOR", "city": "TORONTO", "province": "ON", "country": "CA", "postalCode": "M6H2X4", "twitter": "None", "instagram": "None", "facebook": "None", "youtube": "None", "website": "None", "summary": "None", "logo": "None", "latitude": 43.66271378296493, "longitude": -79.42982115289422}, "861540771RR0001": {"name": "CORPUSCULE DANSE", "designationCode": "C", "categoryCode": "22", "address": "4848 DE LAROCHE", "city": "MONTREAL", "province": "QC", "country": "CA", "postalCode": "H2J3J7", "twitter": "None", "instagram": "None", "facebook": "None", "youtube": "None", "website": "None", "summary": "None", "logo": "None", "latitude": 45.53062800000005, "longitude": -73.58272999999993}, "871640140RR0001": {"name": "CORRIDOR COMMUNITY CHURCH", "designationCode": "C", "categoryCode": "36", "address": "980 HIGHWAY 2", "city": "LANTZ", "province": "NS", "country": "CA", "postalCode": "B2S1M8", "twitter": "None", "instagram": "None", "facebook": "None", "youtube": "None", "website": "None", "summary": "None", "logo": "None", "latitude": 44.995164475918074, "longitude": -63.46878164207658}, "865379119RR0004": {"name": "CORRIDOR COMMUNITY OPTIONS FOR ADULTS", "designationCode": "C", "categoryCode": "09", "address": "21 CONVENT ROAD", "city": "ENFIELD", "province": "NS", "country": "CA", "postalCode": "B2T1C9", "twitter": "None", "instagram": "None", "facebook": "None", "youtube": "None", "website": "None", "summary": "None", "logo": "None", "latitude": 44.940677209793044, "longitude": -63.537476808644385}, "865379119RR0001": {"name": "CORRIDOR COMMUNITY OPTIONS SOCIETY", "designationCode": "C", "categoryCode": "11", "address": "21 CONVENT ROAD", "city": "ENFIELD", "province": "NS", "country": "CA", "postalCode": "B2T1C9", "twitter": "None", "instagram": "None", "facebook": "None", "youtube": "None", "website": "None", "summary": "None", "logo": "None", "latitude": 44.940677209793044, "longitude": -63.537476808644385}, "855584173RR0001": {"name": "CORSA FOUNDATION", "designationCode": "A", "categoryCode": "03", "address": "SUITE 513 1027 DAVIE STREET", "city": "VANCOUVER", "province": "BC", "country": "CA", "postalCode": "V6E4L2", "twitter": "None", "instagram": "None", "facebook": "None", "youtube": "None", "website": "None", "summary": "None", "logo": "None", "latitude": 49.279484103489025, "longitude": -123.12969406972691}, "878973007RR0001": {"name": "CORTES COMMUNITY HEALTH ASSOCIATION", "designationCode": "C", "categoryCode": "11", "address": "P. O. BOX 59                  MANSON'S LANDING", "city": "CORTES ISLAND", "province": "BC", "country": "CA", "postalCode": "V0P1K0", "twitter": "None", "instagram": "None", "facebook": "None", "youtube": "None", "website": "None", "summary": "None", "logo": "None", "latitude": 50.06744700000006, "longitude": -124.98296299999993}, "140847922RR0001": {"name": "CORTES ISLAND FIRE-FIGHTING ASSOCIATION", "designationCode": "C", "categoryCode": "59", "address": "PO BOX 2", "city": "MANSONS LANDING", "province": "BC", "country": "CA", "postalCode": "V0P1K0", "twitter": "None", "instagram": "None", "facebook": "None", "youtube": "None", "website": "None", "summary": "None", "logo": "None", "latitude": 50.036434079347345, "longitude": -124.97587983491626}, "894937226RR0001": {"name": "CORTES ISLAND MUSEUM AND ARCHIVES SOCIETY", "designationCode": "C", "categoryCode": "50", "address": "957 BEASLEY RD                BOX 422", "city": "MANSON'S LANDING", "province": "BC", "country": "CA", "postalCode": "V0P1K0", "twitter": "None", "instagram": "None", "facebook": "None", "youtube": "None", "website": "None", "summary": "None", "logo": "None", "latitude": 50.059242, "longitude": -124.9835535}, "106987068RR0001": {"name": "CORUNNA UNITED CHURCH", "designationCode": "C", "categoryCode": "44", "address": "198 HILL ST", "city": "CORUNNA", "province": "ON", "country": "CA", "postalCode": "N0N1G0", "twitter": "None", "instagram": "None", "facebook": "None", "youtube": "None", "website": "None", "summary": "None", "logo": "None", "latitude": 42.88859246436588, "longitude": -82.45234044601536}, "118877240RR0001": {"name": "COSBURN UNITED CHURCH", "designationCode": "C", "categoryCode": "44", "address": "1108 GREENWOOD AVENUE", "city": "TORONTO", "province": "ON", "country": "CA", "postalCode": "M4J4E6", "twitter": "None", "instagram": "None", "facebook": "None", "youtube": "None", "website": "None", "summary": "None", "logo": "None", "latitude": 43.692444545097835, "longitude": -79.3379556601649}, "801649062RR0001": {"name": "COSCO Seniors' Health and Wellness Institute Society", "designationCode": "C", "categoryCode": "09", "address": "207-1530 MARINER WALK", "city": "VANCOUVER", "province": "BC", "country": "CA", "postalCode": "V6J4X9", "twitter": "None", "instagram": "None", "facebook": "None", "youtube": "None", "website": "None", "summary": "None", "logo": "None", "latitude": 49.27037133168993, "longitude": -123.13978179738493}, "106987431RR0001": {"name": "COSMO SENIOR CITIZENS CENTRE INC.", "designationCode": "C", "categoryCode": "56", "address": "235 3RD AVE NE", "city": "MOOSE JAW", "province": "SK", "country": "CA", "postalCode": "S6H1C9", "twitter": "None", "instagram": "None", "facebook": "None", "youtube": "None", "website": "None", "summary": "None", "logo": "None", "latitude": 50.39195775956744, "longitude": -105.52707131305091}, "118877265RR0001": {"name": "COSMOPOLITAN CLOTHING BANK INC.", "designationCode": "C", "categoryCode": "09", "address": "3214 EDINBURGH DR", "city": "REGINA", "province": "SK", "country": "CA", "postalCode": "S4V0R7", "twitter": "None", "instagram": "None", "facebook": "None", "youtube": "None", "website": "None", "summary": "None", "logo": "None", "latitude": 50.42714910104438, "longitude": -104.55133518140096}, "118877273RR0001": {"name": "COSMOPOLITAN FOUNDATION CANADA INC.", "designationCode": "A", "categoryCode": "63", "address": "419 DAVID KNIGHT LANE", "city": "SASKATOON", "province": "SK", "country": "CA", "postalCode": "S7K5M1", "twitter": "None", "instagram": "None", "facebook": "None", "youtube": "None", "website": "None", "summary": "None", "logo": "None", "latitude": 52.17748578377298, "longitude": -106.63058543989851}, "106987399RR0001": {"name": "COSMOPOLITAN INDUSTRIES LTD.", "designationCode": "C", "categoryCode": "59", "address": "1302 ALBERTA AVE", "city": "SASKATOON", "province": "SK", "country": "CA", "postalCode": "S7K1R5", "twitter": "None", "instagram": "None", "facebook": "None", "youtube": "None", "website": "None", "summary": "None", "logo": "None", "latitude": 52.145883, "longitude": -106.66810725001478}, "119228740RR0001": {"name": "COSMOPOLITAN LEARNING CENTRE INC.", "designationCode": "C", "categoryCode": "01", "address": "810 EDGAR ST", "city": "REGINA", "province": "SK", "country": "CA", "postalCode": "S4N3H9", "twitter": "None", "instagram": "None", "facebook": "None", "youtube": "None", "website": "None", "summary": "None", "logo": "None", "latitude": 50.46513300000001, "longitude": -104.5880356796406}, "106987407RR0001": {"name": "COSMOPOLITAN MUSIC SOCIETY", "designationCode": "C", "categoryCode": "22", "address": "8426 GATEWAY BLVD NW", "city": "EDMONTON", "province": "AB", "country": "CA", "postalCode": "T6E4B4", "twitter": "None", "instagram": "None", "facebook": "None", "youtube": "None", "website": "None", "summary": "None", "logo": "None", "latitude": 53.52069974049283, "longitude": -113.49541607455686}, "106987449RR0001": {"name": "COSMOS COMMUNITY DISABILITY SERVICES FOUNDATION", "designationCode": "C", "categoryCode": "59", "address": "1-7428 49 AVENUE", "city": "RED DEER", "province": "AB", "country": "CA", "postalCode": "T4P1M2", "twitter": "None", "instagram": "None", "facebook": "None", "youtube": "None", "website": "None", "summary": "None", "logo": "None", "latitude": 52.300879209992594, "longitude": -113.81063420713197}, "106987522RR0001": {"name": "COSTI IMMIGRANT SERVICES", "designationCode": "C", "categoryCode": "20", "address": "1710 DUFFERIN ST", "city": "TORONTO", "province": "ON", "country": "CA", "postalCode": "M6E3P2", "twitter": "None", "instagram": "None", "facebook": "None", "youtube": "None", "website": "None", "summary": "None", "logo": "None", "latitude": 43.67895153398933, "longitude": -79.44348464184303}, "121969661RR0001": {"name": "COTA HEALTH", "designationCode": "C", "categoryCode": "09", "address": "201 - 550 QUEEN ST E", "city": "TORONTO", "province": "ON", "country": "CA", "postalCode": "M5A1V2", "twitter": "None", "instagram": "None", "facebook": "None", "youtube": "None", "website": "None", "summary": "None", "logo": "None", "latitude": 43.65727713240797, "longitude": -79.35708925757393}, "143724607RR0001": {"name": "COTE COUR COTE JARDIN", "designationCode": "C", "categoryCode": "22", "address": "5350, RUE LAFOND              SUITE CULTURELLE", "city": "MONTREAL", "province": "QC", "country": "CA", "postalCode": "H1X2X2", "twitter": "None", "instagram": "None", "facebook": "None", "youtube": "None", "website": "None", "summary": "None", "logo": "None", "latitude": 45.55238905297504, "longitude": -73.5710193212821}, "106987605RR0001": {"name": "COTE DES NEIGES PRESBYTERIAN CHURCH", "designationCode": "C", "categoryCode": "37", "address": "3435 COTE ST CATHERINE ROAD", "city": "MONTREAL", "province": "QC", "country": "CA", "postalCode": "H3T1C7", "twitter": "None", "instagram": "None", "facebook": "None", "youtube": "None", "website": "None", "summary": "None", "logo": "None", "latitude": 45.499572124906166, "longitude": -73.62666434612483}, "118877372RR0001": {"name": "COTE FAMILY MEMORIAL FOUNDATION", "designationCode": "B", "categoryCode": "03", "address": "370 STANNARD AVENUE", "city": "VICTORIA", "province": "BC", "country": "CA", "postalCode": "V8S3M4", "twitter": "None", "instagram": "None", "facebook": "None", "youtube": "None", "website": "None", "summary": "None", "logo": "None", "latitude": 48.41401519900168, "longitude": -123.33988535668506}, "892848169RR0001": {"name": "COTE ST-LUC BIBLE CHAPEL", "designationCode": "C", "categoryCode": "39", "address": "7611 RUE CENTRALE", "city": "MONTREAL", "province": "QC", "country": "CA", "postalCode": "H8P1L1", "twitter": "None", "instagram": "None", "facebook": "None", "youtube": "None", "website": "None", "summary": "None", "logo": "None", "latitude": 45.43198835942638, "longitude": -73.59761919305771}, "106987548RR0001": {"name": "COTEAU HILLS BIBLE CHURCH INC.", "designationCode": "C", "categoryCode": "39", "address": "PO BOX 220", "city": "MORTLACH", "province": "SK", "country": "CA", "postalCode": "S0H3E0", "twitter": "None", "instagram": "None", "facebook": "None", "youtube": "None", "website": "None", "summary": "None", "logo": "None", "latitude": 50.45562000000007, "longitude": -106.06705999999997}, "878515360RR0001": {"name": "COTEAU HILLS MULTIPLE 4-H CLUB INC.", "designationCode": "C", "categoryCode": "29", "address": "BOX 307", "city": "LUCKY LAKE", "province": "SK", "country": "CA", "postalCode": "S0L1Z0", "twitter": "None", "instagram": "None", "facebook": "None", "youtube": "None", "website": "None", "summary": "None", "logo": "None"}, "106987555RR0001": {"name": "COTEAU HILLS PASTORAL CHARGE", "designationCode": "C", "categoryCode": "44", "address": "PO BOX 23", "city": "BIRSAY", "province": "SK", "country": "CA", "postalCode": "S0L0G0", "twitter": "None", "instagram": "None", "facebook": "None", "youtube": "None", "website": "None", "summary": "None", "logo": "None", "latitude": 51.09606000000008, "longitude": -106.98389999999995}, "811559301RR0001": {"name": "COTR Global Ministries", "designationCode": "C", "categoryCode": "47", "address": "11980 190 ST", "city": "PITT MEADOWS", "province": "BC", "country": "CA", "postalCode": "V3Y1X4", "twitter": "None", "instagram": "None", "facebook": "None", "youtube": "None", "website": "None", "summary": "None", "logo": "None", "latitude": 49.22022516180968, "longitude": -122.69469896886753}, "888550100RR0001": {"name": "COTTAGE DREAMS RECOVERY INITIATIVE INC.", "designationCode": "C", "categoryCode": "19", "address": "195 HIGHLAND STREET           PO BOX 1300", "city": "HALIBURTON", "province": "ON", "country": "CA", "postalCode": "K0M1S0", "twitter": "None", "instagram": "None", "facebook": "None", "youtube": "None", "website": "None", "summary": "None", "logo": "None", "latitude": 45.04613667193129, "longitude": -78.5097397454035}, "118877398RR0001": {"name": "COTTAM BAPTIST CHURCH", "designationCode": "C", "categoryCode": "31", "address": "BOX 179", "city": "COTTAM", "province": "ON", "country": "CA", "postalCode": "N0R1B0", "twitter": "None", "instagram": "None", "facebook": "None", "youtube": "None", "website": "None", "summary": "None", "logo": "None", "latitude": 42.11613700973626, "longitude": -82.78452863283633}, "118877414RR0001": {"name": "COTTAM PASTORAL CHARGE", "designationCode": "C", "categoryCode": "44", "address": "PO BOX 197", "city": "COTTAM", "province": "ON", "country": "CA", "postalCode": "N0R1B0", "twitter": "None", "instagram": "None", "facebook": "None", "youtube": "None", "website": "None", "summary": "None", "logo": "None", "latitude": 42.11613700973626, "longitude": -82.78452863283633}, "869437111RR0001": {"name": "COTTONWOOD CEMETERY INC.", "designationCode": "C", "categoryCode": "59", "address": "BOX 212", "city": "PENSE", "province": "SK", "country": "CA", "postalCode": "S0G3W0", "twitter": "None", "instagram": "None", "facebook": "None", "youtube": "None", "website": "None", "summary": "None", "logo": "None", "latitude": 50.41566000000006, "longitude": -104.98467999999997}, "131961773RR0001": {"name": "COTTONWOOD MANSION PRESERVATION FOUNDATION", "designationCode": "C", "categoryCode": "52", "address": "PO BOX 56                     740 HALDIMAND ROAD 53", "city": "SELKIRK", "province": "ON", "country": "CA", "postalCode": "N0A1P0", "twitter": "None", "instagram": "None", "facebook": "None", "youtube": "None", "website": "None", "summary": "None", "logo": "None", "latitude": 42.834250000000054, "longitude": -79.93206999999995}, "892711565RR0001": {"name": "COTTRELL'S COVE ACADEMY CHARITABLE TRUST", "designationCode": "C", "categoryCode": "21", "address": "P.O. BOX 96", "city": "COTTRELL'S COVE", "province": "NL", "country": "CA", "postalCode": "A0H1L0", "twitter": "None", "instagram": "None", "facebook": "None", "youtube": "None", "website": "None", "summary": "None", "logo": "None", "latitude": 49.48147500000006, "longitude": -55.28445199999993}, "119288918RR0753": {"name": "COUCHICHING CONGREGATION OF JEHOVAH' WITNESSES", "designationCode": "C", "categoryCode": "61", "address": "519 LACLIE ST.", "city": "ORILLIA", "province": "ON", "country": "CA", "postalCode": "L3V4R2", "twitter": "None", "instagram": "None", "facebook": "None", "youtube": "None", "website": "None", "summary": "None", "logo": "None", "latitude": 44.6320767992774, "longitude": -79.42272464838028}, "118877448RR0001": {"name": "COUCHICHING INSTITUTE ON PUBLIC AFFAIRS", "designationCode": "C", "categoryCode": "29", "address": "240 - 65 OVERLEA BLVD", "city": "TORONTO", "province": "ON", "country": "CA", "postalCode": "M4H1P1", "twitter": "None", "instagram": "None", "facebook": "None", "youtube": "None", "website": "None", "summary": "None", "logo": "None", "latitude": 43.70760096583777, "longitude": -79.34272723951187}, "872824610RR0001": {"name": "COUCHICHING JUBILEE HOUSE", "designationCode": "C", "categoryCode": "09", "address": "PO BOX 272", "city": "ORILLIA", "province": "ON", "country": "CA", "postalCode": "L3V6J6", "twitter": "None", "instagram": "None", "facebook": "None", "youtube": "None", "website": "None", "summary": "None", "logo": "None", "latitude": 44.60657100000006, "longitude": -79.41824449999993}, "889245460RR0001": {"name": "COULTERVALE CEMETERY COMMITTEE", "designationCode": "C", "categoryCode": "59", "address": "MARY-ANN BELL                 GENERAL DELIVERY", "city": "COULTER", "province": "MB", "country": "CA", "postalCode": "R0M0G0", "twitter": "None", "instagram": "None", "facebook": "None", "youtube": "None", "website": "None", "summary": "None", "logo": "None", "latitude": 49.08823800000006, "longitude": -100.98300049999993}, "118877471RR0001": {"name": "COUNCIL FOR BUSINESS & ARTS IN CANADA-CONSEIL POUR LE MONDE DES AFFAIRES ET DES ARTS DU CANADA", "designationCode": "C", "categoryCode": "22", "address": "202 - 133 RICHMOND ST W", "city": "TORONTO", "province": "ON", "country": "CA", "postalCode": "M5H2L3", "twitter": "None", "instagram": "None", "facebook": "None", "youtube": "None", "website": "None", "summary": "None", "logo": "None", "latitude": 43.65076373122454, "longitude": -79.38307050453754}, "140777137RR0001": {"name": "COUNCIL FOR LONDON SENIORS", "designationCode": "C", "categoryCode": "59", "address": "1706 - 148 FULLARTON ST", "city": "LONDON", "province": "ON", "country": "CA", "postalCode": "N6A5P3", "twitter": "None", "instagram": "None", "facebook": "None", "youtube": "None", "website": "None", "summary": "None", "logo": "None", "latitude": 42.98524194644806, "longitude": -81.25152143825375}, "106950488RR0001": {"name": "COUNCIL OF CANADIANS WITH DISABILITIES/LE CONSEIL DES CANADIENS AVEC DEFICIENCES", "designationCode": "C", "categoryCode": "59", "address": "909-294 PORTAGE AVE", "city": "WINNIPEG", "province": "MB", "country": "CA", "postalCode": "R3C0B9", "twitter": "None", "instagram": "None", "facebook": "None", "youtube": "None", "website": "None", "summary": "None", "logo": "None", "latitude": 49.89376320286816, "longitude": -97.14299429473726}, "120706049RR0001": {"name": "COUNCIL OF COMMUNITY EDUCATION COMMITTEES SOCIETY OF NORTHERN LAKES COLLEGE", "designationCode": "A", "categoryCode": "21", "address": "BAG 3000", "city": "GROUARD", "province": "AB", "country": "CA", "postalCode": "T0G1C0", "twitter": "None", "instagram": "None", "facebook": "None", "youtube": "None", "website": "None", "summary": "None", "logo": "None", "latitude": 55.52700900000005, "longitude": -116.14180399999994}, "891105744RR0001": {"name": "COUNCIL OF HERITAGE ORGANIZATIONS IN OTTAWA / CONSEIL DES ORGANISMES DU PATRIMOINE D'OTTAWA", "designationCode": "C", "categoryCode": "52", "address": "504-280 METCALFE STREET", "city": "OTTAWA", "province": "ON", "country": "CA", "postalCode": "K2P1R7", "twitter": "None", "instagram": "None", "facebook": "None", "youtube": "None", "website": "None", "summary": "None", "logo": "None", "latitude": 45.415873457931916, "longitude": -75.69139676149774}, "135530434RR0001": {"name": "COUNCIL OF PARENT PARTICIPATION PRESCHOOLS IN BRITISH COLUMBIA", "designationCode": "C", "categoryCode": "21", "address": "PO BOX 704", "city": "BURNABY", "province": "BC", "country": "CA", "postalCode": "V5H4M9", "twitter": "None", "instagram": "None", "facebook": "None", "youtube": "None", "website": "None", "summary": "None", "logo": "None", "latitude": 49.22616300000006, "longitude": -122.99270749999994}, "130593734RR0002": {"name": "COUNCIL ON AGING, WINDSOR - ESSEX COUNTY", "designationCode": "C", "categoryCode": "09", "address": "635 MCEWAN AVE", "city": "WINDSOR", "province": "ON", "country": "CA", "postalCode": "N9B2E9", "twitter": "None", "instagram": "None", "facebook": "None", "youtube": "None", "website": "None", "summary": "None", "logo": "None", "latitude": 42.306989931155954, "longitude": -83.05438800392379}, "101171627RR0001": {"name": "COUNCIL ON HOMOSEXUALITY AND RELIGION INC.", "designationCode": "C", "categoryCode": "49", "address": "91 EVANSON STREET", "city": "WINNIPEG", "province": "MB", "country": "CA", "postalCode": "R3G2A1", "twitter": "None", "instagram": "None", "facebook": "None", "youtube": "None", "website": "None", "summary": "None", "logo": "None", "latitude": 49.88021187316059, "longitude": -97.17073909031124}, "889937397RR0001": {"name": "COUNCIL 4189 CHARITIES TRUST", "designationCode": "A", "categoryCode": "65", "address": "58 BEECH ST", "city": "AYLMER", "province": "ON", "country": "CA", "postalCode": "N5H1A1", "twitter": "None", "instagram": "None", "facebook": "None", "youtube": "None", "website": "None", "summary": "None", "logo": "None", "latitude": 42.78023479288216, "longitude": -80.98592643023004}, "118877638RR0001": {"name": "COUNSEL MAGAZINE INC.", "designationCode": "C", "categoryCode": "47", "address": "PO BOX 427", "city": "ST CATHARINES", "province": "ON", "country": "CA", "postalCode": "L2R6V9", "twitter": "None", "instagram": "None", "facebook": "None", "youtube": "None", "website": "None", "summary": "None", "logo": "None", "latitude": 43.15634700000005, "longitude": -79.24869349999993}, "118897800RR0001": {"name": "COUNSELLING CENTRE OF EAST ALGOMA", "designationCode": "C", "categoryCode": "09", "address": "9 OAKLAND BOULEVARD", "city": "ELLIOT LAKE", "province": "ON", "country": "CA", "postalCode": "P5A2T2", "twitter": "None", "instagram": "None", "facebook": "None", "youtube": "None", "website": "None", "summary": "None", "logo": "None", "latitude": 46.38031260892158, "longitude": -82.63616929655494}, "108079229RR0001": {"name": "COUNSELLING FOUNDATION OF CANADA", "designationCode": "B", "categoryCode": "23", "address": "300 - 2 ST CLAIR AVE E", "city": "TORONTO", "province": "ON", "country": "CA", "postalCode": "M4T2T5", "twitter": "None", "instagram": "None", "facebook": "None", "youtube": "None", "website": "None", "summary": "None", "logo": "None", "latitude": 43.68819219458694, "longitude": -79.39364569637594}, "106988199RR0001": {"name": "COUNSELLING SERVICES OF BELLEVILLE AND DISTRICT", "designationCode": "C", "categoryCode": "09", "address": "12 MOIRA ST EAST", "city": "BELLEVILLE", "province": "ON", "country": "CA", "postalCode": "K8P2R9", "twitter": "None", "instagram": "None", "facebook": "None", "youtube": "None", "website": "None", "summary": "None", "logo": "None", "latitude": 44.17026231807944, "longitude": -77.38631434029645}, "828969279RR0001": {"name": "COUNSELLORS FOR AT RISK STUDENTS IN ONTARIO", "designationCode": "C", "categoryCode": "21", "address": "32 BILLINGHAM RD", "city": "ETOBICOKE", "province": "ON", "country": "CA", "postalCode": "M9B3X1", "twitter": "None", "instagram": "None", "facebook": "None", "youtube": "None", "website": "None", "summary": "None", "logo": "None", "latitude": 43.63280636386976, "longitude": -79.55022317932348}, "823433123RR0001": {"name": "COUNTERPOINT COMMUNITY ORCHESTRA", "designationCode": "C", "categoryCode": "22", "address": "63 WELLESLEY ST E             BOX 41", "city": "TORONTO", "province": "ON", "country": "CA", "postalCode": "M4Y1G7", "twitter": "None", "instagram": "None", "facebook": "None", "youtube": "None", "website": "None", "summary": "None", "logo": "None", "latitude": 43.665598751024405, "longitude": -79.38133773674191}, "141012872RR0001": {"name": "COUNTRY CALVARY BAPTIST CHURCH", "designationCode": "C", "categoryCode": "39", "address": "1722 HIGHWAY 2", "city": "MILFORD", "province": "NS", "country": "CA", "postalCode": "B0N1Y0", "twitter": "None", "instagram": "None", "facebook": "None", "youtube": "None", "website": "None", "summary": "None", "logo": "None", "latitude": 45.01899212400841, "longitude": -63.44536202594558}, "822788279RR0001": {"name": "COUNTRY CAT SANCTUARY", "designationCode": "C", "categoryCode": "54", "address": "RR 2-1416 LIMERICK ROAD", "city": "OXFORD STATION", "province": "ON", "country": "CA", "postalCode": "K0G1T0", "twitter": "None", "instagram": "None", "facebook": "None", "youtube": "None", "website": "None", "summary": "None", "logo": "None", "latitude": 44.89959306085129, "longitude": -75.63781948684455}, "883375313RR0001": {"name": "COUNTRY GOSPEL MUSIC OUTREACH INC.", "designationCode": "C", "categoryCode": "47", "address": "572 POLSON AVE", "city": "WINNIPEG", "province": "MB", "country": "CA", "postalCode": "R2W0N9", "twitter": "None", "instagram": "None", "facebook": "None", "youtube": "None", "website": "None", "summary": "None", "logo": "None", "latitude": 49.93116305355196, "longitude": -97.14006904622302}, "890055791RR0001": {"name": "COUNTRY HAVEN AUXILIARY", "designationCode": "C", "categoryCode": "09", "address": "1387 BEACHBURG. RD            RR 1", "city": "BEACHBURG", "province": "ON", "country": "CA", "postalCode": "K0J1C0", "twitter": "None", "instagram": "None", "facebook": "None", "youtube": "None", "website": "None", "summary": "None", "logo": "None", "latitude": 45.72388011835028, "longitude": -76.85341038797435}, "855833778RR0001": {"name": "COUNTRY HILLS EVANGELICAL MISSIONARY CHURCH", "designationCode": "C", "categoryCode": "39", "address": "1280 OTTAWA STREET SOUTH", "city": "KITCHENER", "province": "ON", "country": "CA", "postalCode": "N2E1M1", "twitter": "None", "instagram": "None", "facebook": "None", "youtube": "None", "website": "None", "summary": "None", "logo": "None", "latitude": 43.41715266616618, "longitude": -80.51091024389702}, "107853517RR0001": {"name": "COUNTRY ROADS COMMUNITY HEALTH CENTRE", "designationCode": "C", "categoryCode": "11", "address": "P.O. BOX 58                   4319 COVE RD", "city": "PORTLAND", "province": "ON", "country": "CA", "postalCode": "K0G1V0", "twitter": "None", "instagram": "None", "facebook": "None", "youtube": "None", "website": "None", "summary": "None", "logo": "None", "latitude": 44.696977821621026, "longitude": -76.19825599936044}, "119288918RR1011": {"name": "COUNTRY WOODS CONGREGATION OF JEHOVAH'S WITNESSES", "designationCode": "C", "categoryCode": "61", "address": "19 - 14888 24 AVE", "city": "SURREY", "province": "BC", "country": "CA", "postalCode": "V4A2H6", "twitter": "None", "instagram": "None", "facebook": "None", "youtube": "None", "website": "None", "summary": "None", "logo": "None", "latitude": 49.04562749956732, "longitude": -122.81019236081136}, "866699986RR0001": {"name": "COUNTRYSIDE CAMP AND CONFERENCE CENTRE ASSOCIATION", "designationCode": "C", "categoryCode": "49", "address": "RR # 4                        1985 BEKE ROAD", "city": "CAMBRIDGE", "province": "ON", "country": "CA", "postalCode": "N1R5S5", "twitter": "None", "instagram": "None", "facebook": "None", "youtube": "None", "website": "None", "summary": "None", "logo": "None", "latitude": 43.29905928934373, "longitude": -80.37113767336217}, "118877695RR0001": {"name": "COUNTRYSIDE MENNONITE FELLOWSHIP", "designationCode": "C", "categoryCode": "34", "address": "2990 MOSER YOUNG RD", "city": "ST CLEMENTS", "province": "ON", "country": "CA", "postalCode": "N0B2M0", "twitter": "None", "instagram": "None", "facebook": "None", "youtube": "None", "website": "None", "summary": "None", "logo": "None", "latitude": 43.543349213716866, "longitude": -80.6794794370703}, "132703398RR0001": {"name": "COUNTRYSIDE REFORMED CHURCH", "designationCode": "C", "categoryCode": "39", "address": "1985 BEKE RD RR4", "city": "CAMBRIDGE", "province": "ON", "country": "CA", "postalCode": "N1R5S5", "twitter": "None", "instagram": "None", "facebook": "None", "youtube": "None", "website": "None", "summary": "None", "logo": "None", "latitude": 43.29905928934373, "longitude": -80.37113767336217}, "866950355RR0001": {"name": "COUNTY CLASSIC CHORALE", "designationCode": "C", "categoryCode": "22", "address": "2 JANE STREET", "city": "LEAMINGTON", "province": "ON", "country": "CA", "postalCode": "N8H3L6", "twitter": "None", "instagram": "None", "facebook": "None", "youtube": "None", "website": "None", "summary": "None", "logo": "None", "latitude": 42.037595381903174, "longitude": -82.60721354244345}, "871529277RR0001": {"name": "COUNTY OF BRANT PUBLIC LIBRARY", "designationCode": "C", "categoryCode": "50", "address": "12 WILLIAM STREET", "city": "PARIS", "province": "ON", "country": "CA", "postalCode": "N3L1K7", "twitter": "None", "instagram": "None", "facebook": "None", "youtube": "None", "website": "None", "summary": "None", "logo": "None", "latitude": 43.19356260006342, "longitude": -80.38602231502102}, "118877752RR0001": {"name": "COUNTY OF SIMCOE ARCHIVES", "designationCode": "C", "categoryCode": "50", "address": "1149 HIGHWAY 26 RR2", "city": "MINESING", "province": "ON", "country": "CA", "postalCode": "L0L1Y2", "twitter": "None", "instagram": "None", "facebook": "None", "youtube": "None", "website": "None", "summary": "None", "logo": "None", "latitude": 44.45858972425427, "longitude": -79.85627558222275}, "884961350RR0001": {"name": "COUNTY OF STETTLER HOUSING AUTHORITY", "designationCode": "C", "categoryCode": "09", "address": "6020 - 47 AVE", "city": "STETTLER", "province": "AB", "country": "CA", "postalCode": "T0C2L1", "twitter": "None", "instagram": "None", "facebook": "None", "youtube": "None", "website": "None", "summary": "None", "logo": "None", "latitude": 52.32291247215618, "longitude": -112.72653161365342}, "141153718RR0001": {"name": "COUP DE MAIN MAURICIE", "designationCode": "C", "categoryCode": "09", "address": "CP 100 PDF 1", "city": "TROIS-RIVIERES", "province": "QC", "country": "CA", "postalCode": "G9A5E7", "twitter": "None", "instagram": "None", "facebook": "None", "youtube": "None", "website": "None", "summary": "None", "logo": "None", "latitude": 46.34016900000006, "longitude": -72.54503449999993}, "118877786RR0001": {"name": "COUP DE POUCE JEUNESSE DE MONTREAL-NORD INC.", "designationCode": "C", "categoryCode": "59", "address": "11121 SALK                    LOCAL 112", "city": "MONTR\u00c9AL-NORD", "province": "QC", "country": "CA", "postalCode": "H1G4Y3", "twitter": "None", "instagram": "None", "facebook": "None", "youtube": "None", "website": "None", "summary": "None", "logo": "None", "latitude": 45.601477992526846, "longitude": -73.62348839907119}, "886710805RR0001": {"name": "COURAGE FOR YOUTH ASSOCIATION", "designationCode": "C", "categoryCode": "09", "address": "758 CASSIAR PLACE", "city": "KELOWNA", "province": "BC", "country": "CA", "postalCode": "V1V1M6", "twitter": "None", "instagram": "None", "facebook": "None", "youtube": "None", "website": "None", "summary": "None", "logo": "None", "latitude": 49.90276895446948, "longitude": -119.42652969556788}, "891533341RR0001": {"name": "COURCELETTE #058 ROYAL CANADIAN LEGION POPPY FUND", "designationCode": "C", "categoryCode": "09", "address": "PO BOX 161", "city": "SHEET HARBOUR HALIFAX CO.", "province": "NS", "country": "CA", "postalCode": "B0J3B0", "twitter": "None", "instagram": "None", "facebook": "None", "youtube": "None", "website": "None", "summary": "None", "logo": "None", "latitude": 44.921700000000044, "longitude": -62.53511999999995}, "898115480RR0001": {"name": "COURT CHALLENGES PROGRAM OF CANADA/PROGRAMME DE CONTESTATION JUDICIAIRE DU CANADA", "designationCode": "C", "categoryCode": "59", "address": "30 LIPTON ST", "city": "WINNIPEG", "province": "MB", "country": "CA", "postalCode": "R3B3G5", "twitter": "None", "instagram": "None", "facebook": "None", "youtube": "None", "website": "None", "summary": "None", "logo": "None", "latitude": 49.87810062392521, "longitude": -97.17430647518592}, "106989692RR0001": {"name": "COURTENAY & DISTRICT HISTORICAL SOCIETY", "designationCode": "C", "categoryCode": "50", "address": "207 4TH ST", "city": "COURTENAY", "province": "BC", "country": "CA", "postalCode": "V9N1G7", "twitter": "None", "instagram": "None", "facebook": "None", "youtube": "None", "website": "None", "summary": "None", "logo": "None", "latitude": 49.69217378445311, "longitude": -124.998043246199}, "131789075RR0001": {"name": "COURTENAY FELLOWSHIP BAPTIST CHURCH", "designationCode": "C", "categoryCode": "31", "address": "2963 LAKE TRAIL RD", "city": "COURTENAY", "province": "BC", "country": "CA", "postalCode": "V9N9V2", "twitter": "None", "instagram": "None", "facebook": "None", "youtube": "None", "website": "None", "summary": "None", "logo": "None", "latitude": 49.673315126634684, "longitude": -125.02379321404202}, "886274398RR0001": {"name": "COURTENAY LITTLE THEATRE SOCIETY", "designationCode": "C", "categoryCode": "22", "address": "BOX 3033", "city": "COURTENAY", "province": "BC", "country": "CA", "postalCode": "V9N5N3", "twitter": "None", "instagram": "None", "facebook": "None", "youtube": "None", "website": "None", "summary": "None", "logo": "None", "latitude": 49.68669300000006, "longitude": -124.99317349999993}}