{"107367815RR0001": {"name": "LA FABRIQUE DE LA PAROISSE DE SAINT-FRANCOIS-XAVIER", "designationCode": "C", "categoryCode": "38", "address": "229 PRINCIPALE                C.P. 39", "city": "LES HAUTEURS", "province": "QC", "country": "CA", "postalCode": "G0K1C0", "twitter": "None", "instagram": "None", "facebook": "None", "youtube": "None", "website": "None", "summary": "None", "logo": "None", "latitude": 48.37769299111319, "longitude": -68.11480381014492}, "129998563RR0001": {"name": "LA FABRIQUE DE LA PAROISSE DE SAINT-FRANCOIS-XAVIER", "designationCode": "C", "categoryCode": "38", "address": "596 BOUL. MARIE-VICTORIN", "city": "VERCHERES", "province": "QC", "country": "CA", "postalCode": "J0L2R0", "twitter": "None", "instagram": "None", "facebook": "None", "youtube": "None", "website": "None", "summary": "None", "logo": "None", "latitude": 45.77644312877265, "longitude": -73.35653703398934}, "107360380RR0001": {"name": "LA FABRIQUE DE LA PAROISSE DE SAINT-FRANCOIS-XAVIER DE CHICOUTIMI", "designationCode": "C", "categoryCode": "38", "address": "514 RUE RACINE EST", "city": "CHICOUTIMI", "province": "QC", "country": "CA", "postalCode": "G7H1T9", "twitter": "None", "instagram": "None", "facebook": "None", "youtube": "None", "website": "None", "summary": "None", "logo": "None", "latitude": 48.428727601708204, "longitude": -71.05260704801204}, "107367906RR0001": {"name": "LA FABRIQUE DE LA PAROISSE DE SAINT-FRANCOIS-XAVIER-DE-VIGER", "designationCode": "C", "categoryCode": "38", "address": "119, RUE PRINCIPALE", "city": "ST-FRAN\u00c7OIS-XAVIER-DE-VIGER", "province": "QC", "country": "CA", "postalCode": "G0L3C0", "twitter": "None", "instagram": "None", "facebook": "None", "youtube": "None", "website": "None", "summary": "None", "logo": "None", "latitude": 47.85583295697964, "longitude": -69.24675482139766}, "118909647RR0001": {"name": "LA FABRIQUE DE LA PAROISSE DE SAINT-FRERE-ANDRE", "designationCode": "C", "categoryCode": "38", "address": "533 RUE DE LA STATION", "city": "ST-LEONARD-D'ASTON", "province": "QC", "country": "CA", "postalCode": "J0C1M0", "twitter": "None", "instagram": "None", "facebook": "None", "youtube": "None", "website": "None", "summary": "None", "logo": "None", "latitude": 46.105757855098545, "longitude": -72.37334187841206}, "129471298RR0001": {"name": "LA FABRIQUE DE LA PAROISSE DE SAINT-G\u00c9D\u00c9ON", "designationCode": "C", "categoryCode": "38", "address": "201 RUE DE QUEN", "city": "SAINT-G\u00c9D\u00c9ON", "province": "QC", "country": "CA", "postalCode": "G0W2P0", "twitter": "None", "instagram": "None", "facebook": "None", "youtube": "None", "website": "None", "summary": "None", "logo": "None", "latitude": 48.495225571758255, "longitude": -71.77573360620892}, "131032211RR0001": {"name": "LA FABRIQUE DE LA PAROISSE DE SAINT-G\u00c9D\u00c9ON", "designationCode": "C", "categoryCode": "38", "address": "105 1RE AV S", "city": "SAINT-GEDEON-DE-BEAUCE", "province": "QC", "country": "CA", "postalCode": "G0M1T0", "twitter": "None", "instagram": "None", "facebook": "None", "youtube": "None", "website": "None", "summary": "None", "logo": "None"}, "118993245RR0001": {"name": "LA FABRIQUE DE LA PAROISSE DE SAINT-GABRIEL", "designationCode": "C", "categoryCode": "38", "address": "27 RUE PRINCIPALE", "city": "ST-GABRIEL-LALLEMANT", "province": "QC", "country": "CA", "postalCode": "G0L3E0", "twitter": "None", "instagram": "None", "facebook": "None", "youtube": "None", "website": "None", "summary": "None", "logo": "None", "latitude": 47.38091100086539, "longitude": -69.9257945052228}, "107358095RR0001": {"name": "LA FABRIQUE DE LA PAROISSE DE SAINT-GEORGES-DE-CACOUNA", "designationCode": "C", "categoryCode": "38", "address": "455 RUE DE L'EGLISE", "city": "CACOUNA", "province": "QC", "country": "CA", "postalCode": "G0L1G0", "twitter": "None", "instagram": "None", "facebook": "None", "youtube": "None", "website": "None", "summary": "None", "logo": "None", "latitude": 47.915025273962556, "longitude": -69.49875722352728}, "136031325RR0001": {"name": "LA FABRIQUE DE LA PAROISSE DE SAINT-GERARD", "designationCode": "C", "categoryCode": "38", "address": "306 RANG LAC FILION", "city": "BERRY", "province": "QC", "country": "CA", "postalCode": "J0Y2G0", "twitter": "None", "instagram": "None", "facebook": "None", "youtube": "None", "website": "None", "summary": "None", "logo": "None", "latitude": 48.822254515436335, "longitude": -78.25389202553522}, "107368045RR0001": {"name": "LA FABRIQUE DE LA PAROISSE DE SAINT-GERARD-DES-LAURENTIDES", "designationCode": "C", "categoryCode": "38", "address": "1530 CH. PRINCIPAL", "city": "SAINT-GERARD-DES-LAURENTIDES", "province": "QC", "country": "CA", "postalCode": "G9R1E4", "twitter": "None", "instagram": "None", "facebook": "None", "youtube": "None", "website": "None", "summary": "None", "logo": "None", "latitude": 46.60562711518264, "longitude": -72.81275153823118}, "118993302RR0001": {"name": "LA FABRIQUE DE LA PAROISSE DE SAINT-GERARD-MAJELLA", "designationCode": "C", "categoryCode": "38", "address": "2740 L'ANGE-GARDIEN NORD", "city": "L'ASSOMPTION", "province": "QC", "country": "CA", "postalCode": "J5W4R8", "twitter": "None", "instagram": "None", "facebook": "None", "youtube": "None", "website": "None", "summary": "None", "logo": "None", "latitude": 45.89722268858564, "longitude": -73.43173875252495}, "118993252RR0001": {"name": "LA FABRIQUE DE LA PAROISSE DE SAINT-GERMAIN", "designationCode": "C", "categoryCode": "38", "address": "500, RUE DE LA FABRIQUE", "city": "SAINT GERMAIN", "province": "QC", "country": "CA", "postalCode": "G0L3G0", "twitter": "None", "instagram": "None", "facebook": "None", "youtube": "None", "website": "None", "summary": "None", "logo": "None", "latitude": 47.454445502297375, "longitude": -69.15350179649276}, "107360448RR0001": {"name": "LA FABRIQUE DE LA PAROISSE DE SAINT-HENRI", "designationCode": "C", "categoryCode": "38", "address": "219 A COMMERCIALE", "city": "ST HENRI LEVIS", "province": "QC", "country": "CA", "postalCode": "G0R3E0", "twitter": "None", "instagram": "None", "facebook": "None", "youtube": "None", "website": "None", "summary": "None", "logo": "None", "latitude": 46.692396177361594, "longitude": -71.06770439797468}, "887564797RR0001": {"name": "LA FABRIQUE DE LA PAROISSE DE SAINT-HENRI-DE-MASCOUCHE", "designationCode": "C", "categoryCode": "38", "address": "3000 CH SAINTE-MARIE", "city": "MASCOUCHE", "province": "QC", "country": "CA", "postalCode": "J7K1P1", "twitter": "None", "instagram": "None", "facebook": "None", "youtube": "None", "website": "None", "summary": "None", "logo": "None", "latitude": 45.746590391598026, "longitude": -73.60124043761857}, "131350803RR0001": {"name": "LA FABRIQUE DE LA PAROISSE DE SAINT-HILAIRE", "designationCode": "C", "categoryCode": "38", "address": "260 CH DES PATRIOTES NORD", "city": "MONT-SAINT-HILAIRE", "province": "QC", "country": "CA", "postalCode": "J3H3H4", "twitter": "None", "instagram": "None", "facebook": "None", "youtube": "None", "website": "None", "summary": "None", "logo": "None", "latitude": 45.570111843441794, "longitude": -73.19518049728829}, "894259886RR0001": {"name": "LA FABRIQUE DE LA PAROISSE DE SAINT-HIPPOLYTE", "designationCode": "C", "categoryCode": "38", "address": "2259 DES HAUTEURS", "city": "ST-HIPPOLYTE", "province": "QC", "country": "CA", "postalCode": "J8A3B8", "twitter": "None", "instagram": "None", "facebook": "None", "youtube": "None", "website": "None", "summary": "None", "logo": "None", "latitude": 45.93094830642269, "longitude": -74.02489772831646}, "888216595RR0001": {"name": "LA FABRIQUE DE LA PAROISSE DE SAINT-HONORE", "designationCode": "C", "categoryCode": "38", "address": "1 TACHE OUEST", "city": "ST-HUBERT", "province": "QC", "country": "CA", "postalCode": "G0L3L0", "twitter": "None", "instagram": "None", "facebook": "None", "youtube": "None", "website": "None", "summary": "None", "logo": "None", "latitude": 47.814475222315195, "longitude": -69.14869994685209}, "107359358RR0001": {"name": "LA FABRIQUE DE LA PAROISSE DE SAINT-HUBERT", "designationCode": "C", "categoryCode": "38", "address": "246 RUE PRINCIPALE            CP 9", "city": "AUDET", "province": "QC", "country": "CA", "postalCode": "G0Y1A0", "twitter": "None", "instagram": "None", "facebook": "None", "youtube": "None", "website": "None", "summary": "None", "logo": "None", "latitude": 45.656111444313275, "longitude": -70.7356894953837}, "118993336RR0001": {"name": "LA FABRIQUE DE LA PAROISSE DE SAINT-HUBERT", "designationCode": "C", "categoryCode": "38", "address": "5310 CHEMIN DE CHAMBLY", "city": "SAINT-HUBERT", "province": "QC", "country": "CA", "postalCode": "J3Y3N7", "twitter": "None", "instagram": "None", "facebook": "None", "youtube": "None", "website": "None", "summary": "None", "logo": "None", "latitude": 45.504022407729266, "longitude": -73.42132050341162}, "132256298RR0001": {"name": "LA FABRIQUE DE LA PAROISSE DE SAINT-HUBERT", "designationCode": "C", "categoryCode": "38", "address": "1 CHEMIN TACHE OUEST          CP 8", "city": "SAINT-HUBERT-DE-RD L", "province": "QC", "country": "CA", "postalCode": "G0L3L0", "twitter": "None", "instagram": "None", "facebook": "None", "youtube": "None", "website": "None", "summary": "None", "logo": "None", "latitude": 47.814475222315195, "longitude": -69.14869994685209}, "130226780RR0001": {"name": "LA FABRIQUE DE LA PAROISSE DE SAINT-ISAAC-JOGUES", "designationCode": "C", "categoryCode": "38", "address": "1335 RUE CHABANEL EST", "city": "MONTREAL", "province": "QC", "country": "CA", "postalCode": "H2M2N8", "twitter": "None", "instagram": "None", "facebook": "None", "youtube": "None", "website": "None", "summary": "None", "logo": "None", "latitude": 45.55956046575086, "longitude": -73.64094097074252}, "107363780RR0001": {"name": "LA FABRIQUE DE LA PAROISSE DE SAINT-ISIDORE", "designationCode": "C", "categoryCode": "38", "address": "108, DES ORMES", "city": "CHICOUTIMI", "province": "QC", "country": "CA", "postalCode": "G7H3K5", "twitter": "None", "instagram": "None", "facebook": "None", "youtube": "None", "website": "None", "summary": "None", "logo": "None", "latitude": 48.4292218662357, "longitude": -71.02373707747105}, "136828787RR0001": {"name": "LA FABRIQUE DE LA PAROISSE DE SAINT-ISIDORE", "designationCode": "C", "categoryCode": "38", "address": "673 ST-REGIS", "city": "ST-ISIDORE", "province": "QC", "country": "CA", "postalCode": "J0L2A0", "twitter": "None", "instagram": "None", "facebook": "None", "youtube": "None", "website": "None", "summary": "None", "logo": "None", "latitude": 45.300100715505856, "longitude": -73.68098945152661}, "130014509RR0001": {"name": "LA FABRIQUE DE LA PAROISSE DE SAINT-ISODORE", "designationCode": "C", "categoryCode": "38", "address": "160 RUE STE GENEVIEVE,", "city": "ST ISIDORE DE DORCHESTER", "province": "QC", "country": "CA", "postalCode": "G0S2S0", "twitter": "None", "instagram": "None", "facebook": "None", "youtube": "None", "website": "None", "summary": "None", "logo": "None", "latitude": 46.58368771357263, "longitude": -71.08981136355266}, "118996529RR0001": {"name": "LA FABRIQUE DE LA PAROISSE DE SAINT-JACQUES-DES-PILES", "designationCode": "C", "categoryCode": "38", "address": "640, 4E AVENUE", "city": "GRANDES-PILES", "province": "QC", "country": "CA", "postalCode": "G0X1H0", "twitter": "None", "instagram": "None", "facebook": "None", "youtube": "None", "website": "None", "summary": "None", "logo": "None", "latitude": 46.68671478879331, "longitude": -72.72623248514059}, "892887563RR0001": {"name": "LA FABRIQUE DE LA PAROISSE DE SAINT-JACQUES-LE-MAJEUR-DE-CAUSAPSCAL", "designationCode": "C", "categoryCode": "38", "address": "1 PLACE DE L'EGLISE           SS 5", "city": "CAUSAPSCAL", "province": "QC", "country": "CA", "postalCode": "G0J1J0", "twitter": "None", "instagram": "None", "facebook": "None", "youtube": "None", "website": "None", "summary": "None", "logo": "None", "latitude": 48.35529439967679, "longitude": -67.22249985247281}, "107363855RR0001": {"name": "LA FABRIQUE DE LA PAROISSE DE SAINT-JEAN BOSCO ARCHIDIOCESE DE MONTREAL", "designationCode": "C", "categoryCode": "38", "address": "2510 RUE SPRINGLAND", "city": "MONTREAL", "province": "QC", "country": "CA", "postalCode": "H4E2G5", "twitter": "None", "instagram": "None", "facebook": "None", "youtube": "None", "website": "None", "summary": "None", "logo": "None", "latitude": 45.4537527399159, "longitude": -73.5958667993249}, "130572647RR0001": {"name": "LA FABRIQUE DE LA PAROISSE DE SAINT-JEAN-APOTRE", "designationCode": "C", "categoryCode": "38", "address": "435 ST-JEAN", "city": "RIVIERE ST-JEAN", "province": "QC", "country": "CA", "postalCode": "G0G2N0", "twitter": "None", "instagram": "None", "facebook": "None", "youtube": "None", "website": "None", "summary": "None", "logo": "None", "latitude": 50.290747085723616, "longitude": -64.33197016336756}, "107363806RR0001": {"name": "LA FABRIQUE DE LA PAROISSE DE SAINT-JEAN-BAPTISTE", "designationCode": "C", "categoryCode": "38", "address": "3097 RUE PRICIPALE", "city": "ST-JEAN BAPTISTE", "province": "QC", "country": "CA", "postalCode": "J0L2B0", "twitter": "None", "instagram": "None", "facebook": "None", "youtube": "None", "website": "None", "summary": "None", "logo": "None", "latitude": 45.51985197749454, "longitude": -73.12491632566818}, "889720843RR0001": {"name": "LA FABRIQUE DE LA PAROISSE DE SAINT-JEAN-BAPTISTE", "designationCode": "C", "categoryCode": "38", "address": "955 AVE DE BIENVILLE", "city": "QUEBEC", "province": "QC", "country": "CA", "postalCode": "G1S3C1", "twitter": "None", "instagram": "None", "facebook": "None", "youtube": "None", "website": "None", "summary": "None", "logo": "None", "latitude": 46.79880299999999, "longitude": -71.237601}, "118999242RR0001": {"name": "LA FABRIQUE DE LA PAROISSE DE SAINT-JEAN-BAPTISTE DE CAP-AUX-OS", "designationCode": "C", "categoryCode": "38", "address": "1830 BOULEVARD FORILLON", "city": "FORILLON", "province": "QC", "country": "CA", "postalCode": "G4X6L4", "twitter": "None", "instagram": "None", "facebook": "None", "youtube": "None", "website": "None", "summary": "None", "logo": "None", "latitude": 48.84226695999516, "longitude": -64.34858175574142}, "118999911RR0001": {"name": "LA FABRIQUE DE LA PAROISSE DE SAINT-JEAN-BAPTISTE-DE-L'ISLE VERTE", "designationCode": "C", "categoryCode": "38", "address": "150, RUE ST-JEAN-BAPTISTE", "city": "L'ISLE-VERTE", "province": "QC", "country": "CA", "postalCode": "G0L1K0", "twitter": "None", "instagram": "None", "facebook": "None", "youtube": "None", "website": "None", "summary": "None", "logo": "None", "latitude": 48.01424174551315, "longitude": -69.3366894711752}, "129151098RR0001": {"name": "LA FABRIQUE DE LA PAROISSE DE SAINT-JEAN-BAPTISTE-DE-LA-POINTE-AUX-OUTARDES", "designationCode": "C", "categoryCode": "38", "address": "113 LABRIE", "city": "POINTE AUX OUTARDES", "province": "QC", "country": "CA", "postalCode": "G0H1M0", "twitter": "None", "instagram": "None", "facebook": "None", "youtube": "None", "website": "None", "summary": "None", "logo": "None", "latitude": 49.04204440608209, "longitude": -68.43252674300298}, "129763181RR0001": {"name": "LA FABRIQUE DE LA PAROISSE DE SAINT-JEAN-BAPTISTE-DE-LA-SALLE", "designationCode": "C", "categoryCode": "38", "address": "2583, BOULEVARD PIE-IX", "city": "MONTR\u00c9AL", "province": "QC", "country": "CA", "postalCode": "H1V2E8", "twitter": "None", "instagram": "None", "facebook": "None", "youtube": "None", "website": "None", "summary": "None", "logo": "None", "latitude": 45.55286581877193, "longitude": -73.54898138827981}, "107368482RR0001": {"name": "LA FABRIQUE DE LA PAROISSE DE SAINT-JEAN-BAPTISTE-DE-NICOLET", "designationCode": "C", "categoryCode": "38", "address": "671 BOUL LOUIS-FRECHETTE", "city": "NICOLET", "province": "QC", "country": "CA", "postalCode": "J3T1L6", "twitter": "None", "instagram": "None", "facebook": "None", "youtube": "None", "website": "None", "summary": "None", "logo": "None", "latitude": 46.23111234473986, "longitude": -72.61264196687604}, "107359390RR0001": {"name": "LA FABRIQUE DE LA PAROISSE DE SAINT-JEAN-BOSCO", "designationCode": "C", "categoryCode": "38", "address": "900 SHERBROOKE", "city": "MAGOG", "province": "QC", "country": "CA", "postalCode": "J1X2S9", "twitter": "None", "instagram": "None", "facebook": "None", "youtube": "None", "website": "None", "summary": "None", "logo": "None", "latitude": 45.271084392694576, "longitude": -72.13908661166288}, "118909787RR0001": {"name": "LA FABRIQUE DE LA PAROISSE DE SAINT-JEAN-DE-BREBEUF", "designationCode": "C", "categoryCode": "38", "address": "1800 BOUL MERCURE", "city": "DRUMMONDVILLE", "province": "QC", "country": "CA", "postalCode": "J2B3N7", "twitter": "None", "instagram": "None", "facebook": "None", "youtube": "None", "website": "None", "summary": "None", "logo": "None", "latitude": 45.860842282215124, "longitude": -72.46342007095018}, "118990746RR0001": {"name": "LA FABRIQUE DE LA PAROISSE DE SAINT-JEAN-DE-BREBEUF", "designationCode": "C", "categoryCode": "38", "address": "220 ROUTE 323", "city": "BREBEUF", "province": "QC", "country": "CA", "postalCode": "J0T1B0", "twitter": "None", "instagram": "None", "facebook": "None", "youtube": "None", "website": "None", "summary": "None", "logo": "None", "latitude": 46.07491147278999, "longitude": -74.67206306692408}, "107368623RR0001": {"name": "LA FABRIQUE DE LA PAROISSE DE SAINT-JEAN-DE-DIEU", "designationCode": "C", "categoryCode": "38", "address": "75 RUE PRINCIPALE N", "city": "SAINT-JEAN-DE-DIEU", "province": "QC", "country": "CA", "postalCode": "G0L3M0", "twitter": "None", "instagram": "None", "facebook": "None", "youtube": "None", "website": "None", "summary": "None", "logo": "None", "latitude": 48.00803363336027, "longitude": -69.04626148133235}, "118906213RR0001": {"name": "LA FABRIQUE DE LA PAROISSE DE SAINT-JEAN-DE-LA-LANDE", "designationCode": "C", "categoryCode": "38", "address": "597 AV SAINT-JEAN-DE-LA-LANDE", "city": "SAINT-GEORGES", "province": "QC", "country": "CA", "postalCode": "G5Z0K9", "twitter": "None", "instagram": "None", "facebook": "None", "youtube": "None", "website": "None", "summary": "None", "logo": "None", "latitude": 46.04665505410022, "longitude": -70.70608376447016}, "131196289RR0001": {"name": "LA FABRIQUE DE LA PAROISSE DE SAINT-JEAN-DE-MATHA, ARCHIDIOCESE DE MONTREAL", "designationCode": "C", "categoryCode": "38", "address": "2700 RUE ALLARD", "city": "MONTREAL", "province": "QC", "country": "CA", "postalCode": "H4E2L8", "twitter": "None", "instagram": "None", "facebook": "None", "youtube": "None", "website": "None", "summary": "None", "logo": "None", "latitude": 45.45045473659769, "longitude": -73.59698628781237}, "118996610RR0001": {"name": "LA FABRIQUE DE LA PAROISSE DE SAINT-JEAN-DES-PILES", "designationCode": "C", "categoryCode": "38", "address": "1551 RUE PRINCIPALE", "city": "ST-JEAN-DES-PILES", "province": "QC", "country": "CA", "postalCode": "G0X2V0", "twitter": "None", "instagram": "None", "facebook": "None", "youtube": "None", "website": "None", "summary": "None", "logo": "None", "latitude": 46.68694000000005, "longitude": -72.73605999999995}, "118996586RR0001": {"name": "LA FABRIQUE DE LA PAROISSE DE SAINT-JEAN-DESCHAILLONS", "designationCode": "C", "categoryCode": "38", "address": "1040 MARIE VICTORIN", "city": "ST-JEAN-DESCHAILLONS", "province": "QC", "country": "CA", "postalCode": "G0S1G0", "twitter": "None", "instagram": "None", "facebook": "None", "youtube": "None", "website": "None", "summary": "None", "logo": "None", "latitude": 46.55523300000006, "longitude": -72.11091049999993}, "107368748RR0001": {"name": "LA FABRIQUE DE LA PAROISSE DE SAINT-JEAN-L'EVANGELISTE", "designationCode": "C", "categoryCode": "38", "address": "350 VICTORIA", "city": "THURSO CTE ARGENTEUIL", "province": "QC", "country": "CA", "postalCode": "J0X3B0", "twitter": "None", "instagram": "None", "facebook": "None", "youtube": "None", "website": "None", "summary": "None", "logo": "None", "latitude": 45.59630502801674, "longitude": -75.24564553621104}, "132880352RR0001": {"name": "LA FABRIQUE DE LA PAROISSE DE SAINT-JEAN-L'EVANGELISTE", "designationCode": "C", "categoryCode": "38", "address": "6 RUE DE L'EGLISE", "city": "NOUVELLE", "province": "QC", "country": "CA", "postalCode": "G0C2E0", "twitter": "None", "instagram": "None", "facebook": "None", "youtube": "None", "website": "None", "summary": "None", "logo": "None", "latitude": 48.143012479600685, "longitude": -66.31814707354724}, "107365991RR0001": {"name": "LA FABRIQUE DE LA PAROISSE DE SAINT-JEAN-MARIE-VIANNEY", "designationCode": "C", "categoryCode": "38", "address": "421 RUE SAINT-DESIRE", "city": "THETFORD MINES", "province": "QC", "country": "CA", "postalCode": "G6H1L6", "twitter": "None", "instagram": "None", "facebook": "None", "youtube": "None", "website": "None", "summary": "None", "logo": "None", "latitude": 46.044898365473045, "longitude": -71.36309750960767}, "118906239RR0001": {"name": "LA FABRIQUE DE LA PAROISSE DE SAINT-JEAN-PORT-JOLI", "designationCode": "C", "categoryCode": "38", "address": "2 PLACE DE L'EGLISE", "city": "SAINT-JEAN PORT-JOLI", "province": "QC", "country": "CA", "postalCode": "G0R3G0", "twitter": "None", "instagram": "None", "facebook": "None", "youtube": "None", "website": "None", "summary": "None", "logo": "None", "latitude": 47.21609031556929, "longitude": -70.26908763558197}, "107360505RR0001": {"name": "LA FABRIQUE DE LA PAROISSE DE SAINT-JOACHIM", "designationCode": "C", "categoryCode": "38", "address": "10251 BOULEVARD LAURIER", "city": "LA PLAINE", "province": "QC", "country": "CA", "postalCode": "J7M1V4", "twitter": "None", "instagram": "None", "facebook": "None", "youtube": "None", "website": "None", "summary": "None", "logo": "None", "latitude": 45.78880001139696, "longitude": -73.76205772020906}, "107363889RR0001": {"name": "LA FABRIQUE DE LA PAROISSE DE SAINT-JOACHIM", "designationCode": "C", "categoryCode": "38", "address": "1 BOUL YOUVILLE", "city": "CHATEAUGUAY", "province": "QC", "country": "CA", "postalCode": "J6J4P9", "twitter": "None", "instagram": "None", "facebook": "None", "youtube": "None", "website": "None", "summary": "None", "logo": "None", "latitude": 45.360513973368256, "longitude": -73.74942015093232}, "107368839RR0001": {"name": "LA FABRIQUE DE LA PAROISSE DE SAINT-JOACHIM", "designationCode": "C", "categoryCode": "38", "address": "165 DE L'EGLISE", "city": "ST-JOACHIM DE MONTMORENCY", "province": "QC", "country": "CA", "postalCode": "G0A3X0", "twitter": "None", "instagram": "None", "facebook": "None", "youtube": "None", "website": "None", "summary": "None", "logo": "None", "latitude": 47.053989482370625, "longitude": -70.84392336444668}, "118906270RR0001": {"name": "LA FABRIQUE DE LA PAROISSE DE SAINT-JOACHIM", "designationCode": "C", "categoryCode": "39", "address": "655 RUE PRINCIPALE", "city": "ST-JOACHIM-DE-SHEFFORD", "province": "QC", "country": "CA", "postalCode": "J0E2G0", "twitter": "None", "instagram": "None", "facebook": "None", "youtube": "None", "website": "None", "summary": "None", "logo": "None", "latitude": 45.45171738689483, "longitude": -72.52550918365132}, "107363962RR0001": {"name": "LA FABRIQUE DE LA PAROISSE DE SAINT-JOSEPH", "designationCode": "C", "categoryCode": "38", "address": "850 RTE MARIE-VICTORIN", "city": "SOREL-TRACY", "province": "QC", "country": "CA", "postalCode": "J3R4T9", "twitter": "None", "instagram": "None", "facebook": "None", "youtube": "None", "website": "None", "summary": "None", "logo": "None", "latitude": 46.039907476773394, "longitude": -73.1270633366611}, "129886818RR0001": {"name": "LA FABRIQUE DE LA PAROISSE DE SAINT-JOSEPH", "designationCode": "C", "categoryCode": "38", "address": "164, RUE MARTEL", "city": "CHAMBLY", "province": "QC", "country": "CA", "postalCode": "J3L1V4", "twitter": "None", "instagram": "None", "facebook": "None", "youtube": "None", "website": "None", "summary": "None", "logo": "None", "latitude": 45.45170125200535, "longitude": -73.2911296004092}, "118907120RR0001": {"name": "LA FABRIQUE DE LA PAROISSE DE SAINT-JOSEPH-DE-LEPAGE", "designationCode": "C", "categoryCode": "38", "address": "141, RANG 4 EST", "city": "ST-JOSEPH-DE-LEPAGE", "province": "QC", "country": "CA", "postalCode": "G5H3K6", "twitter": "None", "instagram": "None", "facebook": "None", "youtube": "None", "website": "None", "summary": "None", "logo": "None", "latitude": 48.58322074242608, "longitude": -68.15091871466913}, "135805489RR0001": {"name": "LA FABRIQUE DE LA PAROISSE DE SAINT-JOSEPH-DE-MEKINAC", "designationCode": "C", "categoryCode": "38", "address": "578 CHEMIN ST-JOSEPH", "city": "TROIS-RIVES", "province": "QC", "country": "CA", "postalCode": "G0X2C0", "twitter": "None", "instagram": "None", "facebook": "None", "youtube": "None", "website": "None", "summary": "None", "logo": "None", "latitude": 46.91931383983509, "longitude": -72.69425032246554}, "131879694RR0001": {"name": "LA FABRIQUE DE LA PAROISSE DE SAINT-JOVITE", "designationCode": "C", "categoryCode": "38", "address": "950 RUE SAINT-JOVITE", "city": "MONT TREMBLANT", "province": "QC", "country": "CA", "postalCode": "J8E3J8", "twitter": "None", "instagram": "None", "facebook": "None", "youtube": "None", "website": "None", "summary": "None", "logo": "None", "latitude": 46.11856351933149, "longitude": -74.59388324715793}, "889358248RR0001": {"name": "LA FABRIQUE DE LA PAROISSE DE SAINT-JUDE", "designationCode": "C", "categoryCode": "38", "address": "447, RUE PIE-XII, NORD", "city": "MAGOG", "province": "QC", "country": "CA", "postalCode": "J1X4C8", "twitter": "None", "instagram": "None", "facebook": "None", "youtube": "None", "website": "None", "summary": "None", "logo": "None", "latitude": 45.292103694442694, "longitude": -72.11097015462498}, "118907179RR0001": {"name": "LA FABRIQUE DE LA PAROISSE DE SAINT-JULES", "designationCode": "C", "categoryCode": "38", "address": "3 NORD OUEST", "city": "CASCAPEDIA - ST-JULES", "province": "QC", "country": "CA", "postalCode": "G0C1T0", "twitter": "None", "instagram": "None", "facebook": "None", "youtube": "None", "website": "None", "summary": "None", "logo": "None", "latitude": 48.251489416873454, "longitude": -65.90939238360528}, "107369043RR0001": {"name": "LA FABRIQUE DE LA PAROISSE DE SAINT-JUST", "designationCode": "C", "categoryCode": "38", "address": "210, RUE PRINCIPALE           C.P. 625", "city": "ST-JUST-DE-BRETENIERES", "province": "QC", "country": "CA", "postalCode": "G0R3H0", "twitter": "None", "instagram": "None", "facebook": "None", "youtube": "None", "website": "None", "summary": "None", "logo": "None", "latitude": 46.56713901024313, "longitude": -70.09386566954265}, "107369050RR0001": {"name": "LA FABRIQUE DE LA PAROISSE DE SAINT-JUSTE-DU-LAC", "designationCode": "C", "categoryCode": "38", "address": "41 A CHEMIN PRINCIPAL", "city": "SAINT JUSTE DU LAC", "province": "QC", "country": "CA", "postalCode": "G0L3R0", "twitter": "None", "instagram": "None", "facebook": "None", "youtube": "None", "website": "None", "summary": "None", "logo": "None", "latitude": 47.653637223354394, "longitude": -68.75419069825186}, "118993674RR0001": {"name": "LA FABRIQUE DE LA PAROISSE DE SAINT-LAMBERT", "designationCode": "C", "categoryCode": "38", "address": "41 AVE LORNE", "city": "ST LAMBERT CO CHAMBLY", "province": "QC", "country": "CA", "postalCode": "J4P2G7", "twitter": "None", "instagram": "None", "facebook": "None", "youtube": "None", "website": "None", "summary": "None", "logo": "None", "latitude": 45.50040948456367, "longitude": -73.5136544701656}, "107359960RR0001": {"name": "LA FABRIQUE DE LA PAROISSE DE SAINT-LAURENT ARCHIDIOCESE DE MONTREAL", "designationCode": "C", "categoryCode": "38", "address": "805 BOUL STE CROIX", "city": "ST LAURENT", "province": "QC", "country": "CA", "postalCode": "H4L3X6", "twitter": "None", "instagram": "None", "facebook": "None", "youtube": "None", "website": "None", "summary": "None", "logo": "None", "latitude": 45.51345911079657, "longitude": -73.67537601047427}, "107369159RR0001": {"name": "LA FABRIQUE DE LA PAROISSE DE SAINT-LEON", "designationCode": "C", "categoryCode": "38", "address": "1420 RUE PRINCIPALE", "city": "LABRECQUE", "province": "QC", "country": "CA", "postalCode": "G0W2S0", "twitter": "None", "instagram": "None", "facebook": "None", "youtube": "None", "website": "None", "summary": "None", "logo": "None", "latitude": 48.673611078811454, "longitude": -71.52366490609914}, "107369142RR0001": {"name": "LA FABRIQUE DE LA PAROISSE DE SAINT-LEON-DE-STANDON", "designationCode": "C", "categoryCode": "38", "address": "494 PRINCIPALE", "city": "ST-LEON DE STANDON", "province": "QC", "country": "CA", "postalCode": "G0R4L0", "twitter": "None", "instagram": "None", "facebook": "None", "youtube": "None", "website": "None", "summary": "None", "logo": "None", "latitude": 46.47875844295694, "longitude": -70.61803457620164}, "107369191RR0001": {"name": "LA FABRIQUE DE LA PAROISSE DE SAINT-LEON-LE-GRAND", "designationCode": "C", "categoryCode": "38", "address": "20 PLACE DE L'EGLISE          C.P. 186", "city": "ST LEON DE GRAND", "province": "QC", "country": "CA", "postalCode": "G0J2W0", "twitter": "None", "instagram": "None", "facebook": "None", "youtube": "None", "website": "None", "summary": "None", "logo": "None", "latitude": 48.37982829147636, "longitude": -67.5044902135153}, "118996925RR0001": {"name": "LA FABRIQUE DE LA PAROISSE DE SAINT-LEONIDAS DE LAC-FRONTIERE", "designationCode": "C", "categoryCode": "38", "address": "141 RUE PRINCIPALE", "city": "STE LUCIE DE BEAUREGARD", "province": "QC", "country": "CA", "postalCode": "G0R3L0", "twitter": "None", "instagram": "None", "facebook": "None", "youtube": "None", "website": "None", "summary": "None", "logo": "None", "latitude": 46.73760757649011, "longitude": -70.02346616558924}, "118993666RR0001": {"name": "LA FABRIQUE DE LA PAROISSE DE SAINT-LOUIS", "designationCode": "C", "categoryCode": "38", "address": "220, CLAUDE-DAUZAT", "city": "BOUCHERVILLE", "province": "QC", "country": "CA", "postalCode": "J4B1M2", "twitter": "None", "instagram": "None", "facebook": "None", "youtube": "None", "website": "None", "summary": "None", "logo": "None", "latitude": 45.589430452392, "longitude": -73.45488371853563}, "131797292RR0001": {"name": "LA FABRIQUE DE LA PAROISSE DE SAINT-LOUIS", "designationCode": "C", "categoryCode": "38", "address": "931 RUE SAINT-EDOUARD", "city": "SAINT-JUDE", "province": "QC", "country": "CA", "postalCode": "J0H1P0", "twitter": "None", "instagram": "None", "facebook": "None", "youtube": "None", "website": "None", "summary": "None", "logo": "None", "latitude": 45.77293419677997, "longitude": -72.98663917568814}, "129056040RR0001": {"name": "LA FABRIQUE DE LA PAROISSE DE SAINT-LOUIS-DE-GONZAGUE", "designationCode": "C", "categoryCode": "38", "address": "108-B RUE DE L'EGLISE CP 2089", "city": "ST-LOUIS DE RAVIGNAN", "province": "QC", "country": "CA", "postalCode": "G0R2L0", "twitter": "None", "instagram": "None", "facebook": "None", "youtube": "None", "website": "None", "summary": "None", "logo": "None", "latitude": 46.25293200000006, "longitude": -70.33192099999994}, "107369308RR0001": {"name": "LA FABRIQUE DE LA PAROISSE DE SAINT-LOUIS-DE-KAMOURASKA", "designationCode": "C", "categoryCode": "38", "address": "76, AVENUE MOREL", "city": "KAMOURASKA", "province": "QC", "country": "CA", "postalCode": "G0L1M0", "twitter": "None", "instagram": "None", "facebook": "None", "youtube": "None", "website": "None", "summary": "None", "logo": "None", "latitude": 47.566303248975586, "longitude": -69.86852526285405}, "107369340RR0001": {"name": "LA FABRIQUE DE LA PAROISSE DE SAINT-LUDGER", "designationCode": "C", "categoryCode": "38", "address": "185, RUE PRINCIPALE", "city": "ST LUDGER", "province": "QC", "country": "CA", "postalCode": "G0M1W0", "twitter": "None", "instagram": "None", "facebook": "None", "youtube": "None", "website": "None", "summary": "None", "logo": "None", "latitude": 45.74177714872907, "longitude": -70.69248668697045}, "107369373RR0001": {"name": "LA FABRIQUE DE LA PAROISSE DE SAINT-MAGLOIRE", "designationCode": "C", "categoryCode": "38", "address": "131, RUE PRINCIPALE C.P. 69", "city": "ST-MAGLOIRE BELLECHASSE", "province": "QC", "country": "CA", "postalCode": "G0R3M0", "twitter": "None", "instagram": "None", "facebook": "None", "youtube": "None", "website": "None", "summary": "None", "logo": "None", "latitude": 46.57520120182896, "longitude": -70.28768503600948}, "107360612RR0001": {"name": "LA FABRIQUE DE LA PAROISSE DE SAINT-MAJORIQUE", "designationCode": "C", "categoryCode": "38", "address": "37B FONTENELLE C.P. 10        SAINT-MARJORIQUE", "city": "GASPE", "province": "QC", "country": "CA", "postalCode": "G4X6R1", "twitter": "None", "instagram": "None", "facebook": "None", "youtube": "None", "website": "None", "summary": "None", "logo": "None", "latitude": 48.88839973633584, "longitude": -64.55276343788215}, "107369381RR0001": {"name": "LA FABRIQUE DE LA PAROISSE DE SAINT-MALACHIE", "designationCode": "C", "categoryCode": "38", "address": "1157 PRINCIPALE", "city": "ST-MALACHIE", "province": "QC", "country": "CA", "postalCode": "G0R3N0", "twitter": "None", "instagram": "None", "facebook": "None", "youtube": "None", "website": "None", "summary": "None", "logo": "None", "latitude": 46.53105312545443, "longitude": -70.76568482708181}, "118906395RR0001": {"name": "LA FABRIQUE DE LA PAROISSE DE SAINT-MARC", "designationCode": "C", "categoryCode": "38", "address": "591 RUE RICHELIEU", "city": "ST-MARC CO VERCHERES", "province": "QC", "country": "CA", "postalCode": "J0L2E0", "twitter": "None", "instagram": "None", "facebook": "None", "youtube": "None", "website": "None", "summary": "None", "logo": "None", "latitude": 45.67740512629113, "longitude": -73.19374647452209}, "107369431RR0001": {"name": "LA FABRIQUE DE LA PAROISSE DE SAINT-MARC-DES-CARRIERES", "designationCode": "C", "categoryCode": "38", "address": "1100 RUE PRINCIPALE           CP 40", "city": "ST-MARC DES CARRIERES", "province": "QC", "country": "CA", "postalCode": "G0A4B0", "twitter": "None", "instagram": "None", "facebook": "None", "youtube": "None", "website": "None", "summary": "None", "logo": "None", "latitude": 46.68281217182167, "longitude": -72.04902534399004}, "107369449RR0001": {"name": "LA FABRIQUE DE LA PAROISSE DE SAINT-MARCEL (L'ISLET)", "designationCode": "C", "categoryCode": "38", "address": "58-B CHEMIN TACH\u00c9 E.", "city": "ST-MARCEL-DE-L'ISLET", "province": "QC", "country": "CA", "postalCode": "G0R3R0", "twitter": "None", "instagram": "None", "facebook": "None", "youtube": "None", "website": "None", "summary": "None", "logo": "None", "latitude": 46.89657017487879, "longitude": -70.0628286748407}, "107597049RR0001": {"name": "LA FABRIQUE DE LA PAROISSE DE SAINT-MARCELLIN", "designationCode": "C", "categoryCode": "38", "address": "2 RUE DE L'HOPITAL", "city": "LES ESCOUMINS", "province": "QC", "country": "CA", "postalCode": "G0T1K0", "twitter": "None", "instagram": "None", "facebook": "None", "youtube": "None", "website": "None", "summary": "None", "logo": "None", "latitude": 48.351186154624976, "longitude": -69.40630320286814}, "118994854RR0001": {"name": "LA FABRIQUE DE LA PAROISSE DE SAINT-MARIE-DE-L'INCARNATION", "designationCode": "C", "categoryCode": "38", "address": "170 PRINCIPALE EST", "city": "COOKSHIRE", "province": "QC", "country": "CA", "postalCode": "J0B1M0", "twitter": "None", "instagram": "None", "facebook": "None", "youtube": "None", "website": "None", "summary": "None", "logo": "None", "latitude": 45.41293616954264, "longitude": -71.62702268301707}, "107362436RR0001": {"name": "LA FABRIQUE DE LA PAROISSE DE SAINT-MARTIN", "designationCode": "C", "categoryCode": "38", "address": "4080 BOUL SAINT-MARTIN O", "city": "LAVAL", "province": "QC", "country": "CA", "postalCode": "H7T1C1", "twitter": "None", "instagram": "None", "facebook": "None", "youtube": "None", "website": "None", "summary": "None", "logo": "None", "latitude": 45.55010290132824, "longitude": -73.76347204908946}, "137544318RR0001": {"name": "LA FABRIQUE DE LA PAROISSE DE SAINT-MARTIN DE RIVIERE-AU-RENARD", "designationCode": "C", "categoryCode": "38", "address": "86, RENARD EST", "city": "RIVI\u00c8RE AU RENARD", "province": "QC", "country": "CA", "postalCode": "G4X5H8", "twitter": "None", "instagram": "None", "facebook": "None", "youtube": "None", "website": "None", "summary": "None", "logo": "None", "latitude": 48.992458698800114, "longitude": -64.38513812464635}, "131877730RR0001": {"name": "LA FABRIQUE DE LA PAROISSE DE SAINT-MARTIN-DE-LA-BAYONNE", "designationCode": "C", "categoryCode": "38", "address": "4650 RUE PRINCIPALE", "city": "SAINT-FELIX-DE-VALOIS", "province": "QC", "country": "CA", "postalCode": "J0K2M0", "twitter": "None", "instagram": "None", "facebook": "None", "youtube": "None", "website": "None", "summary": "None", "logo": "None", "latitude": 46.16980572638324, "longitude": -73.42502691900825}, "118908797RR0001": {"name": "LA FABRIQUE DE LA PAROISSE DE SAINT-MATHIAS", "designationCode": "C", "categoryCode": "38", "address": "416 RTE PRINCIPALE", "city": "AUTHIER-NORD", "province": "QC", "country": "CA", "postalCode": "J0Z1E0", "twitter": "None", "instagram": "None", "facebook": "None", "youtube": "None", "website": "None", "summary": "None", "logo": "None", "latitude": 48.84622410848848, "longitude": -78.8619112801209}, "888540390RR0001": {"name": "LA FABRIQUE DE LA PAROISSE DE SAINT-MATHIAS", "designationCode": "C", "categoryCode": "38", "address": "280 CH. DES PATRIOTES", "city": "SAINT-MATHIAS-SUR-RICHELIEU", "province": "QC", "country": "CA", "postalCode": "J3L6A3", "twitter": "None", "instagram": "None", "facebook": "None", "youtube": "None", "website": "None", "summary": "None", "logo": "None"}, "889107686RR0001": {"name": "LA FABRIQUE DE LA PAROISSE DE SAINT-MATHIEU", "designationCode": "C", "categoryCode": "38", "address": "1890 PRINCIPALE", "city": "ST-MATHIEU-DU-PARC", "province": "QC", "country": "CA", "postalCode": "G0X1N0", "twitter": "None", "instagram": "None", "facebook": "None", "youtube": "None", "website": "None", "summary": "None", "logo": "None", "latitude": 46.57448665116254, "longitude": -72.92396572142115}, "107369514RR0001": {"name": "LA FABRIQUE DE LA PAROISSE DE SAINT-MATHIEU-DE-MONTMAGNY", "designationCode": "C", "categoryCode": "38", "address": "260 RUE LOUISE", "city": "MONTMAGNY", "province": "QC", "country": "CA", "postalCode": "G5V2H8", "twitter": "None", "instagram": "None", "facebook": "None", "youtube": "None", "website": "None", "summary": "None", "logo": "None", "latitude": 46.97894500943506, "longitude": -70.55144359838998}, "130500549RR0001": {"name": "LA FABRIQUE DE LA PAROISSE DE SAINT-MAURICE", "designationCode": "C", "categoryCode": "38", "address": "2391, BL. ST-JEAN", "city": "ST-MAURICE", "province": "QC", "country": "CA", "postalCode": "G0X2X0", "twitter": "None", "instagram": "None", "facebook": "None", "youtube": "None", "website": "None", "summary": "None", "logo": "None", "latitude": 46.46816901197387, "longitude": -72.53218847743628}, "118997204RR0001": {"name": "LA FABRIQUE DE LA PAROISSE DE SAINT-MAURICE-DE-L'ECHOURIE", "designationCode": "C", "categoryCode": "38", "address": "36 CHEMIN DE L'EGLISE         C.P. 10", "city": "GASP\u00c9", "province": "QC", "country": "CA", "postalCode": "G4X4B4", "twitter": "None", "instagram": "None", "facebook": "None", "youtube": "None", "website": "None", "summary": "None", "logo": "None", "latitude": 49.05180378212821, "longitude": -64.47554340158136}, "118993773RR0001": {"name": "LA FABRIQUE DE LA PAROISSE DE SAINT-MAXIME", "designationCode": "C", "categoryCode": "38", "address": "3700 BOUL LEVESQUE", "city": "LAVAL", "province": "QC", "country": "CA", "postalCode": "H7V1E8", "twitter": "None", "instagram": "None", "facebook": "None", "youtube": "None", "website": "None", "summary": "None", "logo": "None", "latitude": 45.5352115706682, "longitude": -73.73662650824627}, "130516503RR0001": {"name": "LA FABRIQUE DE LA PAROISSE DE SAINT-MAXIME", "designationCode": "C", "categoryCode": "38", "address": "1191, ROUTE PRESIDENT KENNEDY", "city": "SCOTT", "province": "QC", "country": "CA", "postalCode": "G0S3G0", "twitter": "None", "instagram": "None", "facebook": "None", "youtube": "None", "website": "None", "summary": "None", "logo": "None", "latitude": 46.507426491257434, "longitude": -71.07554282904371}, "132199779RR0001": {"name": "LA FABRIQUE DE LA PAROISSE DE SAINT-MEDARD", "designationCode": "C", "categoryCode": "38", "address": "1,RUE DE L'EGLISE CP 8", "city": "ST-MEDARD", "province": "QC", "country": "CA", "postalCode": "G0L3V0", "twitter": "None", "instagram": "None", "facebook": "None", "youtube": "None", "website": "None", "summary": "None", "logo": "None", "latitude": 48.04210956229452, "longitude": -68.90523679972893}, "135264323RR0001": {"name": "LA FABRIQUE DE LA PAROISSE DE SAINT-MEDARD", "designationCode": "C", "categoryCode": "38", "address": "25 RUE SAINT-MEDARD", "city": "GATINEAU", "province": "QC", "country": "CA", "postalCode": "J9H7E4", "twitter": "None", "instagram": "None", "facebook": "None", "youtube": "None", "website": "None", "summary": "None", "logo": "None", "latitude": 45.38522545989383, "longitude": -75.8060204803218}, "118993708RR0001": {"name": "LA FABRIQUE DE LA PAROISSE DE SAINT-METHODE", "designationCode": "C", "categoryCode": "38", "address": "3090 RUE DE SAINT-METHODE", "city": "SAINT-FELICIEN", "province": "QC", "country": "CA", "postalCode": "G8K3C3", "twitter": "None", "instagram": "None", "facebook": "None", "youtube": "None", "website": "None", "summary": "None", "logo": "None", "latitude": 48.727598395233386, "longitude": -72.41154273936765}, "118999408RR0001": {"name": "LA FABRIQUE DE LA PAROISSE DE SAINT-MICHEL DE PERCE", "designationCode": "C", "categoryCode": "38", "address": "CP 174", "city": "PERCE", "province": "QC", "country": "CA", "postalCode": "G0C2L0", "twitter": "None", "instagram": "None", "facebook": "None", "youtube": "None", "website": "None", "summary": "None", "logo": "None", "latitude": 45.51857515887831, "longitude": -75.62605342997489}, "107369597RR0001": {"name": "LA FABRIQUE DE LA PAROISSE DE SAINT-MICHEL-YAMASKA", "designationCode": "C", "categoryCode": "38", "address": "141 PRINCIPALE", "city": "YAMASKA", "province": "QC", "country": "CA", "postalCode": "J0G1W0", "twitter": "None", "instagram": "None", "facebook": "None", "youtube": "None", "website": "None", "summary": "None", "logo": "None", "latitude": 46.00759418290151, "longitude": -72.91478087388174}, "118907229RR0001": {"name": "LA FABRIQUE DE LA PAROISSE DE SAINT-NARCISSE", "designationCode": "C", "categoryCode": "38", "address": "477-1 CHEMIN DUCH\u00c9NIER", "city": "ST-NARCISSE-DE-RIMOUSKI", "province": "QC", "country": "CA", "postalCode": "G0K1S0", "twitter": "None", "instagram": "None", "facebook": "None", "youtube": "None", "website": "None", "summary": "None", "logo": "None", "latitude": 48.32225738216299, "longitude": -68.39768392766484}, "118997295RR0001": {"name": "LA FABRIQUE DE LA PAROISSE DE SAINT-NARCISSE", "designationCode": "C", "categoryCode": "38", "address": "350 DE L'EGLISE", "city": "ST-NARCISSE", "province": "QC", "country": "CA", "postalCode": "G0X2Y0", "twitter": "None", "instagram": "None", "facebook": "None", "youtube": "None", "website": "None", "summary": "None", "logo": "None", "latitude": 46.563804898724484, "longitude": -72.47103515122078}, "118993815RR0001": {"name": "LA FABRIQUE DE LA PAROISSE DE SAINT-NAZAIRE", "designationCode": "C", "categoryCode": "38", "address": "200 PRINCIPAL", "city": "ST NAZAIRE LAC ST JEAN", "province": "QC", "country": "CA", "postalCode": "G0W2V0", "twitter": "None", "instagram": "None", "facebook": "None", "youtube": "None", "website": "None", "summary": "None", "logo": "None", "latitude": 48.587967736020765, "longitude": -71.55086587942166}, "130139280RR0001": {"name": "LA FABRIQUE DE LA PAROISSE DE SAINT-NAZAIRE", "designationCode": "C", "categoryCode": "38", "address": "63, RUE PRINCIPALE", "city": "SAINT-NAZAIRE-DE-DORCHESTER", "province": "QC", "country": "CA", "postalCode": "G0R3T0", "twitter": "None", "instagram": "None", "facebook": "None", "youtube": "None", "website": "None", "summary": "None", "logo": "None", "latitude": 46.551538099919206, "longitude": -70.6621107105142}}