{"827252057RR0001": {"name": "Story Planet", "designationCode": "C", "categoryCode": "21", "address": "269 GERRARD ST E", "city": "TORONTO", "province": "ON", "country": "CA", "postalCode": "M5A2G3", "twitter": "None", "instagram": "None", "facebook": "None", "youtube": "None", "website": "None", "summary": "None", "logo": "None", "latitude": 43.662018616134915, "longitude": -79.36785684124874}, "807121504RR0001": {"name": "Story Studio Writing Society", "designationCode": "C", "categoryCode": "21", "address": "1750 BAY ST", "city": "VICTORIA", "province": "BC", "country": "CA", "postalCode": "V8R2C1", "twitter": "None", "instagram": "None", "facebook": "None", "youtube": "None", "website": "None", "summary": "None", "logo": "None", "latitude": 48.433784467684106, "longitude": -123.33099177254891}, "805064482RR0001": {"name": "StoryCentre Canada", "designationCode": "C", "categoryCode": "20", "address": "1505 - 1 BEDFORD RD", "city": "TORONTO", "province": "ON", "country": "CA", "postalCode": "M5R2B5", "twitter": "None", "instagram": "None", "facebook": "None", "youtube": "None", "website": "None", "summary": "None", "logo": "None", "latitude": 43.6721690784215, "longitude": -79.39892716459852}, "825744683RR0001": {"name": "Stouffville Grace Baptist Church", "designationCode": "C", "categoryCode": "31", "address": "12485 TENTH LINE", "city": "STOUFFVILLE", "province": "ON", "country": "CA", "postalCode": "L4A3E9", "twitter": "None", "instagram": "None", "facebook": "None", "youtube": "None", "website": "None", "summary": "None", "logo": "None", "latitude": 43.9808323713716, "longitude": -79.23257660465198}, "738150325RR0001": {"name": "Strabane Cemetery Board", "designationCode": "C", "categoryCode": "59", "address": "POST OFFICE BOX 341           57 WELLINGTON STREET", "city": "WATERDOWN", "province": "ON", "country": "CA", "postalCode": "L0R2H0", "twitter": "None", "instagram": "None", "facebook": "None", "youtube": "None", "website": "None", "summary": "None", "logo": "None", "latitude": 43.34073422427711, "longitude": -79.89735100002865}, "119199644RR0001": {"name": "Straffordville Pastoral Charge AKA Bayham United Church", "designationCode": "C", "categoryCode": "44", "address": "56829 JACKSON LINE", "city": "STRAFFORDVILLE", "province": "ON", "country": "CA", "postalCode": "N0J1Y0", "twitter": "None", "instagram": "None", "facebook": "None", "youtube": "None", "website": "None", "summary": "None", "logo": "None", "latitude": 42.719346974352014, "longitude": -80.7453182212464}, "854109394RR0001": {"name": "Strait Area Transit Co-Operative Ltd.", "designationCode": "C", "categoryCode": "59", "address": "2 - 32 PAINT ST", "city": "PORT HAWKESBURY", "province": "NS", "country": "CA", "postalCode": "B9A3J8", "twitter": "None", "instagram": "None", "facebook": "None", "youtube": "None", "website": "None", "summary": "None", "logo": "None", "latitude": 45.615236249783656, "longitude": -61.33262945721077}, "802517359RR0001": {"name": "Strasbourg Tiny Tots and Helping Hands Daycare Inc.", "designationCode": "C", "categoryCode": "01", "address": "BOX 327", "city": "STRASBOURG", "province": "SK", "country": "CA", "postalCode": "S0G4V0", "twitter": "None", "instagram": "None", "facebook": "None", "youtube": "None", "website": "None", "summary": "None", "logo": "None", "latitude": 51.07036000000005, "longitude": -104.96119999999996}, "786869321RR0001": {"name": "Strategic Ministry Partnerships-Canada", "designationCode": "C", "categoryCode": "09", "address": "17 DUNLOP PL", "city": "KITCHENER", "province": "ON", "country": "CA", "postalCode": "N2P1J3", "twitter": "None", "instagram": "None", "facebook": "None", "youtube": "None", "website": "None", "summary": "None", "logo": "None", "latitude": 43.39841804385709, "longitude": -80.44427420425313}, "107379943RR0001": {"name": "Strategic Renewal Canada", "designationCode": "C", "categoryCode": "47", "address": "46 NAUTICAL DR", "city": "GRANDE-DIGUE", "province": "NB", "country": "CA", "postalCode": "E4R4X6", "twitter": "None", "instagram": "None", "facebook": "None", "youtube": "None", "website": "None", "summary": "None", "logo": "None", "latitude": 46.34264050002315, "longitude": -64.52945231600134}, "727760126RR0001": {"name": "Stratford Perth Hospice Foundation", "designationCode": "C", "categoryCode": "03", "address": "PO BOX 25004 HURON STREET", "city": "STRATFORD", "province": "ON", "country": "CA", "postalCode": "N5A0B4", "twitter": "None", "instagram": "None", "facebook": "None", "youtube": "None", "website": "None", "summary": "None", "logo": "None", "latitude": 43.37649142403761, "longitude": -80.99361541061292}, "136565702RR0001": {"name": "Stratford/Perth Shelter Link", "designationCode": "C", "categoryCode": "01", "address": "130 YOUNGS STREET", "city": "STRATFORD", "province": "ON", "country": "CA", "postalCode": "N5A1J7", "twitter": "None", "instagram": "None", "facebook": "None", "youtube": "None", "website": "None", "summary": "None", "logo": "None", "latitude": 43.366600682830224, "longitude": -80.9928735413922}, "804008332RR0001": {"name": "Strathcona Church", "designationCode": "C", "categoryCode": "39", "address": "431 PRINCESS AVENUE", "city": "VANCOUVER", "province": "BC", "country": "CA", "postalCode": "V6A3C9", "twitter": "None", "instagram": "None", "facebook": "None", "youtube": "None", "website": "None", "summary": "None", "logo": "None", "latitude": 49.280490000000015, "longitude": -123.09149312158793}, "840521298RR0001": {"name": "Strathcona Community Hospital Foundation", "designationCode": "A", "categoryCode": "13", "address": "9000 EMERALD DR", "city": "SHERWOOD PARK", "province": "AB", "country": "CA", "postalCode": "T8H0J3", "twitter": "None", "instagram": "None", "facebook": "None", "youtube": "None", "website": "None", "summary": "None", "logo": "None", "latitude": 53.56693245957322, "longitude": -113.27398691602131}, "893198754RR0001": {"name": "Strathcona Vineyard Church", "designationCode": "C", "categoryCode": "39", "address": "PO BOX 21673                  1424 COMMERCIAL DRIVE, RPO", "city": "VANCOUVER", "province": "BC", "country": "CA", "postalCode": "V5L3X9", "twitter": "None", "instagram": "None", "facebook": "None", "youtube": "None", "website": "None", "summary": "None", "logo": "None", "latitude": 49.271858533335184, "longitude": -123.06953653292588}, "800625980RR0001": {"name": "Strathearn Building Society", "designationCode": "C", "categoryCode": "56", "address": "PO BOX 68064                  RPO BONNIE DOON SHO", "city": "EDMONTON", "province": "AB", "country": "CA", "postalCode": "T6C4N6", "twitter": "None", "instagram": "None", "facebook": "None", "youtube": "None", "website": "None", "summary": "None", "logo": "None", "latitude": 53.52532000000008, "longitude": -113.46759999999995}, "895109726RR0001": {"name": "Strathgartney Chamber Orchestra", "designationCode": "C", "categoryCode": "22", "address": "209 ARCONA ST", "city": "SUMMERSIDE", "province": "PE", "country": "CA", "postalCode": "C1N2W5", "twitter": "None", "instagram": "None", "facebook": "None", "youtube": "None", "website": "None", "summary": "None", "logo": "None", "latitude": 46.39830123980033, "longitude": -63.78434803052688}, "106693047RR0044": {"name": "Strathmore Company of the Seventh-day Adventist Church", "designationCode": "C", "categoryCode": "41", "address": "5816 HIGHWAY, 2A", "city": "LACOMBE", "province": "AB", "country": "CA", "postalCode": "T4L2G5", "twitter": "None", "instagram": "None", "facebook": "None", "youtube": "None", "website": "None", "summary": "None", "logo": "None", "latitude": 52.474063600197404, "longitude": -113.71692568401835}, "846040327RR0001": {"name": "Strathmore High School Education Foundation", "designationCode": "B", "categoryCode": "20", "address": "100 BRENT BOULEVARD", "city": "STRATHMORE", "province": "AB", "country": "CA", "postalCode": "T1P1V2", "twitter": "None", "instagram": "None", "facebook": "None", "youtube": "None", "website": "None", "summary": "None", "logo": "None", "latitude": 51.05960347662824, "longitude": -113.397102}, "878221522RR0001": {"name": "Strathroy and Area Seniors' Centre Council", "designationCode": "C", "categoryCode": "56", "address": "137 FRANK ST", "city": "STRATHROY", "province": "ON", "country": "CA", "postalCode": "N7G2R8", "twitter": "None", "instagram": "None", "facebook": "None", "youtube": "None", "website": "None", "summary": "None", "logo": "None", "latitude": 42.95819801362713, "longitude": -81.62583937928324}, "848982856RR0001": {"name": "Strauss Foundation", "designationCode": "B", "categoryCode": "03", "address": "7080-100 KING STREET WEST     BOX 292, FIRST CANADIAN PLACE", "city": "TORONTO", "province": "ON", "country": "CA", "postalCode": "M5X1C9", "twitter": "None", "instagram": "None", "facebook": "None", "youtube": "None", "website": "None", "summary": "None", "logo": "None", "latitude": 43.64837001558063, "longitude": -79.38150001500362}, "813687936RR0001": {"name": "Strays That Can't Pay Inc.", "designationCode": "C", "categoryCode": "54", "address": "51 CAVENDISH ST.ST            BOX 252", "city": "ELKHORN", "province": "MB", "country": "CA", "postalCode": "R0M0N0", "twitter": "None", "instagram": "None", "facebook": "None", "youtube": "None", "website": "None", "summary": "None", "logo": "None", "latitude": 49.97516806938688, "longitude": -101.24087399999999}, "802382291RR0001": {"name": "Stream of Life International Church Corporation", "designationCode": "C", "categoryCode": "39", "address": "24 MAGNOLIA DRIVE", "city": "BRANDON", "province": "MB", "country": "CA", "postalCode": "R7A6N9", "twitter": "None", "instagram": "None", "facebook": "None", "youtube": "None", "website": "None", "summary": "None", "logo": "None", "latitude": 49.81625027699232, "longitude": -99.95291459175354}, "827323155RR0001": {"name": "Streams of Zion Restoration Ministries / Minist\u00e8res de restauration fleuves de Zion", "designationCode": "C", "categoryCode": "49", "address": "85 RUE ELM", "city": "DEUX-MONTAGNES", "province": "QC", "country": "CA", "postalCode": "J7R3H3", "twitter": "None", "instagram": "None", "facebook": "None", "youtube": "None", "website": "None", "summary": "None", "logo": "None", "latitude": 45.539596413555245, "longitude": -73.8874245294017}, "835040973RR0001": {"name": "Street Help Homeless Centre of Windsor", "designationCode": "C", "categoryCode": "01", "address": "964 WYANDOTTE STREET EAST", "city": "WINDSOR", "province": "ON", "country": "CA", "postalCode": "N9A3J9", "twitter": "None", "instagram": "None", "facebook": "None", "youtube": "None", "website": "None", "summary": "None", "logo": "None", "latitude": 42.319063808366, "longitude": -83.02311667735528}, "808189617RR0001": {"name": "Streetohome Foundation", "designationCode": "C", "categoryCode": "09", "address": "103-525 SEYMOUR ST.", "city": "VANCOUVER", "province": "BC", "country": "CA", "postalCode": "V6B3H7", "twitter": "None", "instagram": "None", "facebook": "None", "youtube": "None", "website": "None", "summary": "None", "logo": "None", "latitude": 49.283685302816, "longitude": -123.11443653124803}, "828311910RR0001": {"name": "Streetwise Actors Inc.", "designationCode": "C", "categoryCode": "22", "address": "2355 FIFTH LINE WEST          TOWNHOUSE # 17", "city": "MISSISSAUGA", "province": "ON", "country": "CA", "postalCode": "L5K2M8", "twitter": "None", "instagram": "None", "facebook": "None", "youtube": "None", "website": "None", "summary": "None", "logo": "None", "latitude": 43.52990094786169, "longitude": -79.65937490876605}, "847282217RR0001": {"name": "Strength Renewal House of Worship", "designationCode": "C", "categoryCode": "39", "address": "10 CHIPMUNK TRAIL", "city": "WOODBRIDGE", "province": "ON", "country": "CA", "postalCode": "L4H2E7", "twitter": "None", "instagram": "None", "facebook": "None", "youtube": "None", "website": "None", "summary": "None", "logo": "None", "latitude": 43.83981318347842, "longitude": -79.55196834277795}, "853365583RR0001": {"name": "Strengthening Access to Global Enterprises (SAGE) for Youth Society", "designationCode": "C", "categoryCode": "20", "address": "411 - 324 LARRY UTECK BLVD", "city": "HALIFAX", "province": "NS", "country": "CA", "postalCode": "B3M0E7", "twitter": "None", "instagram": "None", "facebook": "None", "youtube": "None", "website": "None", "summary": "None", "logo": "None", "latitude": 44.70192578146532, "longitude": -63.67236923068239}, "840887939RR0001": {"name": "Strengthening Metis Women Development Association", "designationCode": "C", "categoryCode": "59", "address": "8185 POOLEY RD", "city": "PRINCE GEORGE", "province": "BC", "country": "CA", "postalCode": "V2N5W3", "twitter": "None", "instagram": "None", "facebook": "None", "youtube": "None", "website": "None", "summary": "None", "logo": "None", "latitude": 53.851878, "longitude": -122.63217055404195}, "835853599RR0001": {"name": "Strings Attached Orchestra", "designationCode": "C", "categoryCode": "22", "address": "154 THEODORE PLACE", "city": "THORNHILL", "province": "ON", "country": "CA", "postalCode": "L4J8E3", "twitter": "None", "instagram": "None", "facebook": "None", "youtube": "None", "website": "None", "summary": "None", "logo": "None", "latitude": 43.803174204570254, "longitude": -79.43562637593055}, "812909257RR0001": {"name": "Strive Learning Centre for Children", "designationCode": "C", "categoryCode": "20", "address": "19 CANTON AVE", "city": "NORTH YORK", "province": "ON", "country": "CA", "postalCode": "M3M1N1", "twitter": "None", "instagram": "None", "facebook": "None", "youtube": "None", "website": "None", "summary": "None", "logo": "None", "latitude": 43.72478439439666, "longitude": -79.49592688103779}, "728274093RR0001": {"name": "Strong Harbour Strings Program Incorporated", "designationCode": "C", "categoryCode": "22", "address": "49 FEILD ST", "city": "ST. JOHN'S", "province": "NL", "country": "CA", "postalCode": "A1C4J3", "twitter": "None", "instagram": "None", "facebook": "None", "youtube": "None", "website": "None", "summary": "None", "logo": "None", "latitude": 47.56515050652087, "longitude": -52.7171646833342}, "820698777RR0001": {"name": "Strong Orange Violence Prevention", "designationCode": "C", "categoryCode": "59", "address": "364 - 900 GREENBANK RD", "city": "NEPEAN", "province": "ON", "country": "CA", "postalCode": "K2J4P6", "twitter": "None", "instagram": "None", "facebook": "None", "youtube": "None", "website": "None", "summary": "None", "logo": "None", "latitude": 45.28505632082076, "longitude": -75.75530237463155}, "107396905RR0056": {"name": "Strong Tower Foursquare Gospel Church", "designationCode": "C", "categoryCode": "39", "address": "41 COPPERMILL DR", "city": "BRAMPTON", "province": "ON", "country": "CA", "postalCode": "L7A1N1", "twitter": "None", "instagram": "None", "facebook": "None", "youtube": "None", "website": "None", "summary": "None", "logo": "None", "latitude": 43.71161354844472, "longitude": -79.81105534205679}, "844746172RR0001": {"name": "Strong Tower Ministries International", "designationCode": "C", "categoryCode": "39", "address": "19 ALLANGROVE DRIVE", "city": "BRAMPTON", "province": "ON", "country": "CA", "postalCode": "L7A2M4", "twitter": "None", "instagram": "None", "facebook": "None", "youtube": "None", "website": "None", "summary": "None", "logo": "None", "latitude": 43.703921251745555, "longitude": -79.82833592310587}, "842152282RR0001": {"name": "Strongest Families Institute / L'institut des Familles Solides", "designationCode": "C", "categoryCode": "11", "address": "200 - 267 COBEQUID RD", "city": "LOWER SACKVILLE", "province": "NS", "country": "CA", "postalCode": "B4C4E6", "twitter": "None", "instagram": "None", "facebook": "None", "youtube": "None", "website": "None", "summary": "None", "logo": "None", "latitude": 44.76074255727421, "longitude": -63.656961972935555}, "784440281RR0001": {"name": "Strongroom Foundation", "designationCode": "B", "categoryCode": "03", "address": "621 22 AVENUE SOUTHWEST", "city": "CALGARY", "province": "AB", "country": "CA", "postalCode": "T2S0H7", "twitter": "None", "instagram": "None", "facebook": "None", "youtube": "None", "website": "None", "summary": "None", "logo": "None", "latitude": 51.03333253621104, "longitude": -114.07549016472387}, "108041492RR0001": {"name": "Struts Gallery Inc.", "designationCode": "C", "categoryCode": "22", "address": "7 LORNE STREET", "city": "SACKVILLE", "province": "NB", "country": "CA", "postalCode": "E4L3Z6", "twitter": "None", "instagram": "None", "facebook": "None", "youtube": "None", "website": "None", "summary": "None", "logo": "None", "latitude": 45.89672596947312, "longitude": -64.36646255790843}, "849289434RR0001": {"name": "Str8 up 10,000 Little Steps to Healing Inc.", "designationCode": "C", "categoryCode": "59", "address": "226 AVENUE V SOUTH", "city": "SASKATOON", "province": "SK", "country": "CA", "postalCode": "S7M3E3", "twitter": "None", "instagram": "None", "facebook": "None", "youtube": "None", "website": "None", "summary": "None", "logo": "None", "latitude": 52.12674899999999, "longitude": -106.70418627944517}, "107910259RR0044": {"name": "Sts. Cyril and Methodius Parish", "designationCode": "C", "categoryCode": "38", "address": "5255 THORNWOOD DRIVE", "city": "MISSISSAUGA", "province": "ON", "country": "CA", "postalCode": "L4Z3J3", "twitter": "None", "instagram": "None", "facebook": "None", "youtube": "None", "website": "None", "summary": "None", "logo": "None", "latitude": 43.612652304201, "longitude": -79.65361762637805}, "107910259RR0154": {"name": "Sts. Martha and Mary Parish", "designationCode": "C", "categoryCode": "38", "address": "1870 BURNHAMTHOPE", "city": "MISSISSAUGA", "province": "ON", "country": "CA", "postalCode": "L4X2S5", "twitter": "None", "instagram": "None", "facebook": "None", "youtube": "None", "website": "None", "summary": "None", "logo": "None", "latitude": 43.63245306186183, "longitude": -79.59158147080078}, "878792142RR0001": {"name": "Sts. Peter & Paul Romanian Orthodox Church", "designationCode": "C", "categoryCode": "39", "address": "184 MADISON AVENUE", "city": "KITCHENER", "province": "ON", "country": "CA", "postalCode": "N2G3M8", "twitter": "None", "instagram": "None", "facebook": "None", "youtube": "None", "website": "None", "summary": "None", "logo": "None", "latitude": 43.44173337774823, "longitude": -80.48663383793051}, "820860898RR0001": {"name": "Sts. Peter & Paul Ukrainian Orthodox Autocephalous Church ofNew Westminster", "designationCode": "C", "categoryCode": "39", "address": "304 8TH ST.", "city": "NEW WESTMINSTER", "province": "BC", "country": "CA", "postalCode": "V3M4R1", "twitter": "None", "instagram": "None", "facebook": "None", "youtube": "None", "website": "None", "summary": "None", "logo": "None", "latitude": 49.20680188913697, "longitude": -122.91861186360502}, "107910259RR0183": {"name": "Sts. Peter and Paul Parish", "designationCode": "C", "categoryCode": "38", "address": "4070 CENTRAL PARKWAY EAST", "city": "MISSISSAUGA", "province": "ON", "country": "CA", "postalCode": "L4Z1T6", "twitter": "None", "instagram": "None", "facebook": "None", "youtube": "None", "website": "None", "summary": "None", "logo": "None", "latitude": 43.60256568469053, "longitude": -79.6283087302497}, "108148263RR0140": {"name": "Sts. Peter and Paul Ukrainian Orthodox Church (Melnychuk Congregation)", "designationCode": "C", "categoryCode": "39", "address": "PO BOX 447", "city": "STAR CITY", "province": "SK", "country": "CA", "postalCode": "S0E1P0", "twitter": "None", "instagram": "None", "facebook": "None", "youtube": "None", "website": "None", "summary": "None", "logo": "None", "latitude": 52.86635717851631, "longitude": -104.5917405}, "802419978RR0001": {"name": "Stuart Lake Outreach Group Society", "designationCode": "C", "categoryCode": "09", "address": "PO BOX 1144", "city": "FORT ST. JAMES", "province": "BC", "country": "CA", "postalCode": "V0J1P0", "twitter": "None", "instagram": "None", "facebook": "None", "youtube": "None", "website": "None", "summary": "None", "logo": "None", "latitude": 54.44540000000006, "longitude": -124.25099999999998}, "823621909RR0001": {"name": "Student Energy", "designationCode": "C", "categoryCode": "21", "address": "7804 5 ST NW", "city": "CALGARY", "province": "AB", "country": "CA", "postalCode": "T2K1E1", "twitter": "None", "instagram": "None", "facebook": "None", "youtube": "None", "website": "None", "summary": "None", "logo": "None", "latitude": 51.12210650291419, "longitude": -114.07413021703506}, "829943661RR0001": {"name": "Student Energy in Action for Regina Community Health Inc.", "designationCode": "C", "categoryCode": "11", "address": "3510 5TH AVENUE", "city": "REGINA", "province": "SK", "country": "CA", "postalCode": "S4T0M2", "twitter": "None", "instagram": "None", "facebook": "None", "youtube": "None", "website": "None", "summary": "None", "logo": "None", "latitude": 50.461478723208664, "longitude": -104.6313646339252}, "802293266RR0001": {"name": "Student Transportation of Canada Education Foundation", "designationCode": "A", "categoryCode": "03", "address": "160 SAUNDERS ROAD             UNIT #6", "city": "BARRIE", "province": "ON", "country": "CA", "postalCode": "L4N9A4", "twitter": "None", "instagram": "None", "facebook": "None", "youtube": "None", "website": "None", "summary": "None", "logo": "None", "latitude": 44.3323290780193, "longitude": -79.67694641799864}, "843657578RR0001": {"name": "Student Unity Project", "designationCode": "B", "categoryCode": "09", "address": "98 OLD COLONY DR", "city": "WHITBY", "province": "ON", "country": "CA", "postalCode": "L1R2G9", "twitter": "None", "instagram": "None", "facebook": "None", "youtube": "None", "website": "None", "summary": "None", "logo": "None", "latitude": 43.904660321137854, "longitude": -78.95218181193394}, "823066774RR0001": {"name": "Student-Athlete Mental Health Initiative / Initiative sant\u00e9 mentale pour \u00e9tudiants-athl\u00e8tes", "designationCode": "C", "categoryCode": "11", "address": "823 - 60 SOUTHPORT ST", "city": "TORONTO", "province": "ON", "country": "CA", "postalCode": "M6S3N4", "twitter": "None", "instagram": "None", "facebook": "None", "youtube": "None", "website": "None", "summary": "None", "logo": "None", "latitude": 43.63909269383713, "longitude": -79.47327267990039}, "789247491RR0001": {"name": "Students for Africa in Mutual Empowerment for International Development", "designationCode": "C", "categoryCode": "09", "address": "173 THRASHER RD               RR 1", "city": "PLAINFIELD", "province": "ON", "country": "CA", "postalCode": "K0K2V0", "twitter": "None", "instagram": "None", "facebook": "None", "youtube": "None", "website": "None", "summary": "None", "logo": "None", "latitude": 44.272873660078, "longitude": -77.35645031617486}, "824296552RR0001": {"name": "Students for Education, Empowerment and Development (SEED)", "designationCode": "C", "categoryCode": "21", "address": "52 HALFORD AVE.", "city": "TORONTO", "province": "ON", "country": "CA", "postalCode": "M6S4E9", "twitter": "None", "instagram": "None", "facebook": "None", "youtube": "None", "website": "None", "summary": "None", "logo": "None", "latitude": 43.65314310629584, "longitude": -79.48897456483333}, "836648766RR0001": {"name": "Students on Ice Foundation/Fondation des \u00e9tudiants sur glace", "designationCode": "C", "categoryCode": "21", "address": "1740 CHEMIN PINK", "city": "GATINEAU", "province": "QC", "country": "CA", "postalCode": "J9J3N7", "twitter": "None", "instagram": "None", "facebook": "None", "youtube": "None", "website": "None", "summary": "None", "logo": "None", "latitude": 45.442284468981235, "longitude": -75.81120469527941}, "783745490RR0001": {"name": "Students' Alzheimer's Alliance at the University of Toronto (SAAUT)", "designationCode": "C", "categoryCode": "19", "address": "535 - 21 SUSSEX AVE", "city": "TORONTO", "province": "ON", "country": "CA", "postalCode": "M5S1J6", "twitter": "None", "instagram": "None", "facebook": "None", "youtube": "None", "website": "None", "summary": "None", "logo": "None", "latitude": 43.66497482763007, "longitude": -79.4009748985516}, "846102127RR0001": {"name": "Studio-\u00c9glise cit\u00e9 de foi / Faith City Studio-Church", "designationCode": "C", "categoryCode": "39", "address": "2754 CLERMONT", "city": "MASCOUCHE", "province": "QC", "country": "CA", "postalCode": "J7K1C2", "twitter": "None", "instagram": "None", "facebook": "None", "youtube": "None", "website": "None", "summary": "None", "logo": "None", "latitude": 45.756064897022405, "longitude": -73.60795033028445}, "871860276RR0001": {"name": "Studio9 Independent School of the Arts Society", "designationCode": "C", "categoryCode": "20", "address": "1180 HOUGHTON RD.", "city": "KELOWNA", "province": "BC", "country": "CA", "postalCode": "V1X2C9", "twitter": "None", "instagram": "None", "facebook": "None", "youtube": "None", "website": "None", "summary": "None", "logo": "None", "latitude": 49.89220350490476, "longitude": -119.40980400000001}, "866347818RR0001": {"name": "Sturgeon Foundation", "designationCode": "C", "categoryCode": "01", "address": "9922-103 STREET", "city": "MORINVILLE", "province": "AB", "country": "CA", "postalCode": "T8R1E6", "twitter": "None", "instagram": "None", "facebook": "None", "youtube": "None", "website": "None", "summary": "None", "logo": "None", "latitude": 53.8011537485429, "longitude": -113.65131903124804}, "839727336RR0001": {"name": "Sturgeon Lake Bible Camp Society", "designationCode": "C", "categoryCode": "56", "address": "PO BOX 1469", "city": "VALLEYVIEW", "province": "AB", "country": "CA", "postalCode": "T0H3N0", "twitter": "None", "instagram": "None", "facebook": "None", "youtube": "None", "website": "None", "summary": "None", "logo": "None", "latitude": 55.06844000000007, "longitude": -117.27238999999997}, "119288918RR0205": {"name": "Sturgis Congregation of Jehovah's Witnesses, Sturgis, Saskatchewan", "designationCode": "C", "categoryCode": "61", "address": "POST OFFICE BOX 186", "city": "STURGIS", "province": "SK", "country": "CA", "postalCode": "S0A4A0", "twitter": "None", "instagram": "None", "facebook": "None", "youtube": "None", "website": "None", "summary": "None", "logo": "None", "latitude": 51.940030000000036, "longitude": -102.54296999999997}, "844954578RR0001": {"name": "Sub Arctic Missionary Foundation", "designationCode": "C", "categoryCode": "47", "address": "208 - 3132 PARSONS RD NW", "city": "EDMONTON", "province": "AB", "country": "CA", "postalCode": "T6N1L6", "twitter": "None", "instagram": "None", "facebook": "None", "youtube": "None", "website": "None", "summary": "None", "logo": "None", "latitude": 53.46344797446477, "longitude": -113.48617014547837}, "835413899RR0001": {"name": "Subhash and Promila Jhamb Foundation", "designationCode": "B", "categoryCode": "03", "address": "1261 CATCHACOMA COURT", "city": "MISSISSAUGA", "province": "ON", "country": "CA", "postalCode": "L5H2X5", "twitter": "None", "instagram": "None", "facebook": "None", "youtube": "None", "website": "None", "summary": "None", "logo": "None", "latitude": 43.538944053580614, "longitude": -79.6121871624735}, "856914247RR0001": {"name": "Subtle Technologies Arts Projects", "designationCode": "C", "categoryCode": "22", "address": "720 BATHURST ST", "city": "TORONTO", "province": "ON", "country": "CA", "postalCode": "M5S2R4", "twitter": "None", "instagram": "None", "facebook": "None", "youtube": "None", "website": "None", "summary": "None", "logo": "None", "latitude": 43.66323143574358, "longitude": -79.41047606191914}, "804825255RR0001": {"name": "Success Beyond Limits Education Program INC.", "designationCode": "C", "categoryCode": "21", "address": "755 OAKDALE RD", "city": "NORTH YORK", "province": "ON", "country": "CA", "postalCode": "M3N1W7", "twitter": "None", "instagram": "None", "facebook": "None", "youtube": "None", "website": "None", "summary": "None", "logo": "None", "latitude": 43.75324694829533, "longitude": -79.5258308406145}, "765410725RR0001": {"name": "Succession de Rita Therrien (Metcalf)", "designationCode": "A", "categoryCode": "05", "address": "540 - 1002 RUE SHERBROOKE O", "city": "MONTREAL", "province": "QC", "country": "CA", "postalCode": "H3A3L6", "twitter": "None", "instagram": "None", "facebook": "None", "youtube": "None", "website": "None", "summary": "None", "logo": "None", "latitude": 45.50420051526984, "longitude": -73.57425178965626}, "815837356RR0001": {"name": "Succession Dr. Emile Hebert", "designationCode": "B", "categoryCode": "03", "address": "5TH FLOOR SOUTH WING          1 PVM ROYAL TRUST COMPANY", "city": "MONTREAL", "province": "QC", "country": "CA", "postalCode": "H3B2B2", "twitter": "None", "instagram": "None", "facebook": "None", "youtube": "None", "website": "None", "summary": "None", "logo": "None", "latitude": 45.49987500000006, "longitude": -73.56867649999994}, "844933853RR0001": {"name": "Sudan (Canadian) Medical Care Inc.", "designationCode": "C", "categoryCode": "11", "address": "4590 PUTNAM ROAD              RR# 2", "city": "MOSSLEY", "province": "ON", "country": "CA", "postalCode": "N0L1V0", "twitter": "None", "instagram": "None", "facebook": "None", "youtube": "None", "website": "None", "summary": "None", "logo": "None", "latitude": 42.942382019706855, "longitude": -80.94191502233258}, "859658619RR0001": {"name": "Sudanese Community Church of Toronto", "designationCode": "C", "categoryCode": "39", "address": "360 WINDERMERE AV.", "city": "TORONTO", "province": "ON", "country": "CA", "postalCode": "M6S3L4", "twitter": "None", "instagram": "None", "facebook": "None", "youtube": "None", "website": "None", "summary": "None", "logo": "None", "latitude": 43.649682569796354, "longitude": -79.48030716518521}, "711555490RR0001": {"name": "Sudanese Lutheran Mission Society - Canada", "designationCode": "C", "categoryCode": "47", "address": "104 GRAY ST", "city": "KITCHENER", "province": "ON", "country": "CA", "postalCode": "N2A3R3", "twitter": "None", "instagram": "None", "facebook": "None", "youtube": "None", "website": "None", "summary": "None", "logo": "None", "latitude": 43.45492554400133, "longitude": -80.42801979029386}, "865277958RR0001": {"name": "Sudbury and Area Victim Services/Services aux Victimes du Grand Sudbury", "designationCode": "C", "categoryCode": "09", "address": "190 BRADY STREET", "city": "SUDBURY", "province": "ON", "country": "CA", "postalCode": "P3E1C7", "twitter": "None", "instagram": "None", "facebook": "None", "youtube": "None", "website": "None", "summary": "None", "logo": "None", "latitude": 46.48961251211811, "longitude": -80.99112149999999}, "118915784RR0001": {"name": "Sudbury Finnish Language School", "designationCode": "C", "categoryCode": "20", "address": "233 FOURTH AVENUE", "city": "SUDBURY", "province": "ON", "country": "CA", "postalCode": "P3B4C3", "twitter": "None", "instagram": "None", "facebook": "None", "youtube": "None", "website": "None", "summary": "None", "logo": "None", "latitude": 46.4844105024189, "longitude": -80.93563061928668}, "899678320RR0001": {"name": "Sudbury Fire Safety Foundation", "designationCode": "C", "categoryCode": "59", "address": "49 ROXBOROUGH DRIVE", "city": "SUDBURY", "province": "ON", "country": "CA", "postalCode": "P3E1J8", "twitter": "None", "instagram": "None", "facebook": "None", "youtube": "None", "website": "None", "summary": "None", "logo": "None", "latitude": 46.48467514672658, "longitude": -80.99849826311669}, "821981024RR0001": {"name": "Sudbury International Development Assistance Program", "designationCode": "C", "categoryCode": "09", "address": "3030 RICHVIEW BOULEVARD,", "city": "OAKVILLE", "province": "ON", "country": "CA", "postalCode": "L6M5E1", "twitter": "None", "instagram": "None", "facebook": "None", "youtube": "None", "website": "None", "summary": "None", "logo": "None", "latitude": 43.42649064778699, "longitude": -79.76732010378568}, "806424768RR0001": {"name": "Sudbury Shared Harvest", "designationCode": "C", "categoryCode": "09", "address": "305 - 176 LARCH ST", "city": "SUDBURY", "province": "ON", "country": "CA", "postalCode": "P3E1C5", "twitter": "None", "instagram": "None", "facebook": "None", "youtube": "None", "website": "None", "summary": "None", "logo": "None", "latitude": 46.4914070361478, "longitude": -80.99033688487562}, "885685636RR0001": {"name": "Suddenly Dance Theatre Society", "designationCode": "C", "categoryCode": "22", "address": "PO BOX 8184", "city": "VICTORIA", "province": "BC", "country": "CA", "postalCode": "V8W3R8", "twitter": "None", "instagram": "None", "facebook": "None", "youtube": "None", "website": "None", "summary": "None", "logo": "None", "latitude": 48.42854700000005, "longitude": -123.36445249999994}, "770909927RR0001": {"name": "Sudev Charitable Foundation", "designationCode": "B", "categoryCode": "03", "address": "2412 EIGHTH LINE", "city": "OAKVILLE", "province": "ON", "country": "CA", "postalCode": "L6H6S9", "twitter": "None", "instagram": "None", "facebook": "None", "youtube": "None", "website": "None", "summary": "None", "logo": "None", "latitude": 43.49077877961806, "longitude": -79.70936839399262}, "806219101RR0001": {"name": "Suffah Academy of Learning Inc.", "designationCode": "C", "categoryCode": "20", "address": "6610 TURNER VALLEY ROAD", "city": "MISSISSAUGA", "province": "ON", "country": "CA", "postalCode": "L5N2P1", "twitter": "None", "instagram": "None", "facebook": "None", "youtube": "None", "website": "None", "summary": "None", "logo": "None", "latitude": 43.59770546624183, "longitude": -79.74134054385708}, "856872817RR0001": {"name": "Sufi Meditation Centers Society", "designationCode": "C", "categoryCode": "60", "address": "3660 E. HASTINGS", "city": "VANCOUVER", "province": "BC", "country": "CA", "postalCode": "V5K2A9", "twitter": "None", "instagram": "None", "facebook": "None", "youtube": "None", "website": "None", "summary": "None", "logo": "None", "latitude": 49.28108251399405, "longitude": -123.02444233236193}, "805061637RR0001": {"name": "Sugarbush Christian Church (Disciples of Christ)", "designationCode": "C", "categoryCode": "39", "address": "30 GRANDRIDGE CRESCENT,", "city": "GUELPH", "province": "ON", "country": "CA", "postalCode": "N1H8G1", "twitter": "None", "instagram": "None", "facebook": "None", "youtube": "None", "website": "None", "summary": "None", "logo": "None", "latitude": 43.53732087065043, "longitude": -80.29253959106106}, "820582559RR0001": {"name": "Suicide Prevention Resource Centre", "designationCode": "C", "categoryCode": "09", "address": "200-10014 99 ST", "city": "GRANDE PRAIRIE", "province": "AB", "country": "CA", "postalCode": "T8V3N4", "twitter": "None", "instagram": "None", "facebook": "None", "youtube": "None", "website": "None", "summary": "None", "logo": "None", "latitude": 55.17131889286745, "longitude": -118.79170101875455}, "850611781RR0001": {"name": "Suitcase in Point Arts Performances", "designationCode": "C", "categoryCode": "22", "address": "36 JAMES ST                   3RD FLOOR", "city": "ST-CATHARINES", "province": "ON", "country": "CA", "postalCode": "L2R5B8", "twitter": "None", "instagram": "None", "facebook": "None", "youtube": "None", "website": "None", "summary": "None", "logo": "None", "latitude": 43.158532399128504, "longitude": -79.24493665609687}, "817695190RR0001": {"name": "Suitcase Theatre Arts And Eduction Outreach Inc.", "designationCode": "C", "categoryCode": "22", "address": "40 KENWAY ROAD,", "city": "TORONTO", "province": "ON", "country": "CA", "postalCode": "M8Z4W8", "twitter": "None", "instagram": "None", "facebook": "None", "youtube": "None", "website": "None", "summary": "None", "logo": "None", "latitude": 43.64102657063305, "longitude": -79.52555661630781}, "813306099RR0001": {"name": "Suite Living 360 Affordable Housing Corp.", "designationCode": "C", "categoryCode": "09", "address": "1440-1011 UPPER MIDDLE RD E.", "city": "OAKVILLE", "province": "ON", "country": "CA", "postalCode": "L6H5Z5", "twitter": "None", "instagram": "None", "facebook": "None", "youtube": "None", "website": "None", "summary": "None", "logo": "None", "latitude": 43.50140909276047, "longitude": -79.67383812862802}, "826767170RR0001": {"name": "Suits his Style", "designationCode": "C", "categoryCode": "59", "address": "231 - 225 DONALD ST", "city": "OTTAWA", "province": "ON", "country": "CA", "postalCode": "K1K1N1", "twitter": "None", "instagram": "None", "facebook": "None", "youtube": "None", "website": "None", "summary": "None", "logo": "None", "latitude": 45.42760444056142, "longitude": -75.65890547558996}, "141408740RR0001": {"name": "Sukyo Mahikari Religious Organization of Canada/Sukyo Mahikari Organisation Religieuse du Canada", "designationCode": "C", "categoryCode": "49", "address": "40 HISTON CRESCENT", "city": "BRAMPTON", "province": "ON", "country": "CA", "postalCode": "L6V3R1", "twitter": "None", "instagram": "None", "facebook": "None", "youtube": "None", "website": "None", "summary": "None", "logo": "None", "latitude": 43.713083651941936, "longitude": -79.77169065364403}, "817058225RR0001": {"name": "Sulaimani Community Association of Toronto Inc.", "designationCode": "C", "categoryCode": "60", "address": "9 LOFTHOUSE SQ", "city": "SCARBOROUGH", "province": "ON", "country": "CA", "postalCode": "M1W2E1", "twitter": "None", "instagram": "None", "facebook": "None", "youtube": "None", "website": "None", "summary": "None", "logo": "None"}, "846991776RR0001": {"name": "Sum Theatre Corp.", "designationCode": "C", "categoryCode": "22", "address": "13 - 720 MAIN ST", "city": "SASKATOON", "province": "SK", "country": "CA", "postalCode": "S7H0K1", "twitter": "None", "instagram": "None", "facebook": "None", "youtube": "None", "website": "None", "summary": "None", "logo": "None", "latitude": 52.11666954674263, "longitude": -106.6528305}, "854211463RR0001": {"name": "Summer Arts Scene for Youth in Central Okanagan Society", "designationCode": "C", "categoryCode": "22", "address": "4495 SWAISLAND RD", "city": "KELOWNA", "province": "BC", "country": "CA", "postalCode": "V1W1Y8", "twitter": "None", "instagram": "None", "facebook": "None", "youtube": "None", "website": "None", "summary": "None", "logo": "None", "latitude": 49.821399859830414, "longitude": -119.493832372151}, "830479846RR0001": {"name": "Summerland Charitable Trust", "designationCode": "B", "categoryCode": "45", "address": "3425 2ND AVENUE SOUTH", "city": "LETHBRIDGE", "province": "AB", "country": "CA", "postalCode": "T1J4V1", "twitter": "None", "instagram": "None", "facebook": "None", "youtube": "None", "website": "None", "summary": "None", "logo": "None", "latitude": 49.696839530439966, "longitude": -112.78914308381903}, "119205334RR0001": {"name": "Summerland Museum and Archives Society", "designationCode": "C", "categoryCode": "50", "address": "9521 WHARTON ST               BOX 1491", "city": "SUMMERLAND", "province": "BC", "country": "CA", "postalCode": "V0H1Z0", "twitter": "None", "instagram": "None", "facebook": "None", "youtube": "None", "website": "None", "summary": "None", "logo": "None", "latitude": 49.60089158338634, "longitude": -119.67881219761668}, "866702087RR0001": {"name": "Summerland Pipes and Drums", "designationCode": "C", "categoryCode": "22", "address": "101 - 4350 PONDEROSA DR.", "city": "PEACHLAND", "province": "BC", "country": "CA", "postalCode": "V0H1X5", "twitter": "None", "instagram": "None", "facebook": "None", "youtube": "None", "website": "None", "summary": "None", "logo": "None", "latitude": 49.78385686513314, "longitude": -119.72462641868862}, "119288918RR0466": {"name": "Summerside Congregation of Jehovah's Witnesses, Summerside, Prince Edward Island", "designationCode": "C", "categoryCode": "61", "address": "38 DYLAN AVE.", "city": "SUMMERSIDE", "province": "PE", "country": "CA", "postalCode": "C1N6R3", "twitter": "None", "instagram": "None", "facebook": "None", "youtube": "None", "website": "None", "summary": "None", "logo": "None", "latitude": 46.40763315015292, "longitude": -63.758047169859765}, "740526728RR0001": {"name": "Summerside United Pentecostal Church Inc.", "designationCode": "C", "categoryCode": "39", "address": "POST OFFICE BOX 1351", "city": "SUMMERSIDE", "province": "PE", "country": "CA", "postalCode": "C1N4K2", "twitter": "None", "instagram": "None", "facebook": "None", "youtube": "None", "website": "None", "summary": "None", "logo": "None", "latitude": 46.39407900000006, "longitude": -63.791980999999936}, "131527699RR0001": {"name": "Summerside Y Service Club", "designationCode": "C", "categoryCode": "49", "address": "212 GREEN STREET", "city": "SUMMERSIDE", "province": "PE", "country": "CA", "postalCode": "C1N1Y4", "twitter": "None", "instagram": "None", "facebook": "None", "youtube": "None", "website": "None", "summary": "None", "logo": "None", "latitude": 46.39768866388716, "longitude": -63.78720393228112}, "119205987RR0001": {"name": "Sun Parlour Players Community Theatre", "designationCode": "C", "categoryCode": "22", "address": "PO BOX 434 STN MAIN", "city": "LEAMINGTON", "province": "ON", "country": "CA", "postalCode": "N8H3W5", "twitter": "None", "instagram": "None", "facebook": "None", "youtube": "None", "website": "None", "summary": "None", "logo": "None", "latitude": 42.05413500000006, "longitude": -82.59973099999993}, "804029858RR0001": {"name": "Sun Peaks Education Society", "designationCode": "C", "categoryCode": "20", "address": "201-1967 TRANS CANADA HWY E", "city": "KAMLOOPS", "province": "BC", "country": "CA", "postalCode": "V2C4A4", "twitter": "None", "instagram": "None", "facebook": "None", "youtube": "None", "website": "None", "summary": "None", "logo": "None", "latitude": 50.67987098194653, "longitude": -120.27495791365274}, "849428370RR0001": {"name": "Sun Peaks Skatepark Foundation", "designationCode": "C", "categoryCode": "56", "address": "4361 HEFFLEY-LOUIS CREEK RD", "city": "HEFFLEY CREEK", "province": "BC", "country": "CA", "postalCode": "V0E1Z1", "twitter": "None", "instagram": "None", "facebook": "None", "youtube": "None", "website": "None", "summary": "None", "logo": "None", "latitude": 50.85275798607417, "longitude": -119.97472490088508}, "108050899RR0001": {"name": "Sunbeam Centre", "designationCode": "C", "categoryCode": "01", "address": "2749 KINGSWAY DR", "city": "KITCHENER", "province": "ON", "country": "CA", "postalCode": "N2C1A7", "twitter": "None", "instagram": "None", "facebook": "None", "youtube": "None", "website": "None", "summary": "None", "logo": "None", "latitude": 43.42932000438608, "longitude": -80.43923950799183}, "831488507RR0001": {"name": "Sundance Canine Rescue Society", "designationCode": "C", "categoryCode": "54", "address": "6915 31 AVENUE NW", "city": "EDMONTON", "province": "AB", "country": "CA", "postalCode": "T6K3T5", "twitter": "None", "instagram": "None", "facebook": "None", "youtube": "None", "website": "None", "summary": "None", "logo": "None", "latitude": 53.46148057444221, "longitude": -113.44015937979704}}