{"119196269RR0001": {"name": "ST PAUL'S PRESBYTERIAN CHURCH", "designationCode": "C", "categoryCode": "37", "address": "355 IRISH MOUNTAIN ROAD       R.R. #2", "city": "NEW GLASGOW", "province": "NS", "country": "CA", "postalCode": "B2H5C5", "twitter": "None", "instagram": "None", "facebook": "None", "youtube": "None", "website": "None", "summary": "None", "logo": "None", "latitude": 45.48338601667709, "longitude": -62.62710023896268}, "119196277RR0001": {"name": "ST PAUL'S PRESBYTERIAN CHURCH", "designationCode": "C", "categoryCode": "37", "address": "BOX 86", "city": "MERIGOMISH", "province": "NS", "country": "CA", "postalCode": "B0K1G0", "twitter": "None", "instagram": "None", "facebook": "None", "youtube": "None", "website": "None", "summary": "None", "logo": "None", "latitude": 45.63122000000004, "longitude": -62.42946999999998}, "119196293RR0001": {"name": "ST PAUL'S PRESBYTERIAN CHURCH", "designationCode": "C", "categoryCode": "37", "address": "3077 HIGHWAY 236", "city": "OLD BARNS", "province": "NS", "country": "CA", "postalCode": "B6L1K1", "twitter": "None", "instagram": "None", "facebook": "None", "youtube": "None", "website": "None", "summary": "None", "logo": "None", "latitude": 45.35200188153335, "longitude": -63.380247621805005}, "119196301RR0001": {"name": "ST PAUL'S PRESBYTERIAN CHURCH", "designationCode": "C", "categoryCode": "37", "address": "5446 ROUTE 108 HWY", "city": "DERBY JUNCTION", "province": "NB", "country": "CA", "postalCode": "E1V5H9", "twitter": "None", "instagram": "None", "facebook": "None", "youtube": "None", "website": "None", "summary": "None", "logo": "None", "latitude": 46.960780382353, "longitude": -65.59491001583716}, "119196350RR0001": {"name": "ST PAUL'S PRESBYTERIAN CHURCH", "designationCode": "C", "categoryCode": "37", "address": "344 OLD RIVER ROAD", "city": "MALLORYTOWN", "province": "ON", "country": "CA", "postalCode": "K0E1R0", "twitter": "None", "instagram": "None", "facebook": "None", "youtube": "None", "website": "None", "summary": "None", "logo": "None", "latitude": 44.46051567218609, "longitude": -75.857459478176}, "119196392RR0001": {"name": "ST PAUL'S PRESBYTERIAN CHURCH", "designationCode": "C", "categoryCode": "37", "address": "971 WOODROFFE AVENUE", "city": "OTTAWA", "province": "ON", "country": "CA", "postalCode": "K2A3G9", "twitter": "None", "instagram": "None", "facebook": "None", "youtube": "None", "website": "None", "summary": "None", "logo": "None", "latitude": 45.363670394973575, "longitude": -75.76967963688097}, "119196426RR0001": {"name": "ST PAUL'S PRESBYTERIAN CHURCH", "designationCode": "C", "categoryCode": "37", "address": "P O BOX 400", "city": "VICTORIA HARBOUR", "province": "ON", "country": "CA", "postalCode": "L0K2A0", "twitter": "None", "instagram": "None", "facebook": "None", "youtube": "None", "website": "None", "summary": "None", "logo": "None", "latitude": 44.4330609289348, "longitude": -79.15897164905537}, "119196483RR0001": {"name": "ST PAUL'S PRESBYTERIAN CHURCH", "designationCode": "C", "categoryCode": "37", "address": "RR 2", "city": "ANCASTER", "province": "ON", "country": "CA", "postalCode": "L9G3L1", "twitter": "None", "instagram": "None", "facebook": "None", "youtube": "None", "website": "None", "summary": "None", "logo": "None", "latitude": 43.200829568023195, "longitude": -80.01456174959634}, "119196533RR0001": {"name": "ST PAUL'S PRESBYTERIAN CHURCH", "designationCode": "C", "categoryCode": "37", "address": "56 THAMES ST", "city": "INGERSOLL", "province": "ON", "country": "CA", "postalCode": "N5C2S9", "twitter": "None", "instagram": "None", "facebook": "None", "youtube": "None", "website": "None", "summary": "None", "logo": "None", "latitude": 43.03998184292217, "longitude": -80.88441420208875}, "119196541RR0001": {"name": "ST PAUL'S PRESBYTERIAN CHURCH", "designationCode": "C", "categoryCode": "37", "address": "136 CATHCART STREET", "city": "SAULT STE. MARIE", "province": "ON", "country": "CA", "postalCode": "P6A1E3", "twitter": "None", "instagram": "None", "facebook": "None", "youtube": "None", "website": "None", "summary": "None", "logo": "None", "latitude": 46.52044446047075, "longitude": -84.34275960629584}, "119196582RR0001": {"name": "ST PAUL'S PRESBYTERIAN CHURCH", "designationCode": "C", "categoryCode": "37", "address": "BOX 1264", "city": "BANFF", "province": "AB", "country": "CA", "postalCode": "T1L1B3", "twitter": "None", "instagram": "None", "facebook": "None", "youtube": "None", "website": "None", "summary": "None", "logo": "None", "latitude": 51.17577900000006, "longitude": -115.57274299999993}, "119196590RR0001": {"name": "ST PAUL'S PRESBYTERIAN CHURCH", "designationCode": "C", "categoryCode": "37", "address": "BOX 248", "city": "ECKVILLE", "province": "AB", "country": "CA", "postalCode": "T0M0X0", "twitter": "None", "instagram": "None", "facebook": "None", "youtube": "None", "website": "None", "summary": "None", "logo": "None", "latitude": 52.359560000000045, "longitude": -114.36145999999997}, "129114831RR0001": {"name": "ST PAUL'S PRESBYTERIAN CHURCH", "designationCode": "C", "categoryCode": "37", "address": "PO BOX 118", "city": "WIARTON", "province": "ON", "country": "CA", "postalCode": "N0H2T0", "twitter": "None", "instagram": "None", "facebook": "None", "youtube": "None", "website": "None", "summary": "None", "logo": "None", "latitude": 44.74013000000008, "longitude": -81.13977999999997}, "131801987RR0001": {"name": "ST PAUL'S PRESBYTERIAN CHURCH", "designationCode": "C", "categoryCode": "37", "address": "131 WALTON ST", "city": "PORT HOPE", "province": "ON", "country": "CA", "postalCode": "L1A1N4", "twitter": "None", "instagram": "None", "facebook": "None", "youtube": "None", "website": "None", "summary": "None", "logo": "None", "latitude": 43.95222185648354, "longitude": -78.29681683847878}, "131909178RR0001": {"name": "ST PAUL'S PRESBYTERIAN CHURCH", "designationCode": "C", "categoryCode": "37", "address": "BOX 879", "city": "WINCHESTER", "province": "ON", "country": "CA", "postalCode": "K0C2K0", "twitter": "None", "instagram": "None", "facebook": "None", "youtube": "None", "website": "None", "summary": "None", "logo": "None", "latitude": 45.0389951460454, "longitude": -75.27678656455626}, "132041138RR0001": {"name": "ST PAUL'S PRESBYTERIAN CHURCH", "designationCode": "C", "categoryCode": "37", "address": "2775 THIRD CONCESSION", "city": "STELLA", "province": "ON", "country": "CA", "postalCode": "K0H2S0", "twitter": "None", "instagram": "None", "facebook": "None", "youtube": "None", "website": "None", "summary": "None", "logo": "None", "latitude": 44.13717598598204, "longitude": -76.70834707175369}, "887364685RR0001": {"name": "ST PAUL'S PRESBYTERIAN CHURCH", "designationCode": "C", "categoryCode": "37", "address": "282 CONC. 7, RR#5", "city": "KINCARDINE", "province": "ON", "country": "CA", "postalCode": "N2Z2X6", "twitter": "None", "instagram": "None", "facebook": "None", "youtube": "None", "website": "None", "summary": "None", "logo": "None", "latitude": 44.16937438582698, "longitude": -81.4561423505109}, "888094398RR0001": {"name": "ST PAUL'S PRESBYTERIAN CHURCH", "designationCode": "C", "categoryCode": "37", "address": "2600 HEADON FOREST DR.", "city": "BURLINGTON", "province": "ON", "country": "CA", "postalCode": "L7M4G2", "twitter": "None", "instagram": "None", "facebook": "None", "youtube": "None", "website": "None", "summary": "None", "logo": "None", "latitude": 43.386601113566506, "longitude": -79.82770456350568}, "889039194RR0001": {"name": "ST PAUL'S PRESBYTERIAN CHURCH", "designationCode": "C", "categoryCode": "37", "address": "166-168 JOHN STREET", "city": "HAWKESBURY", "province": "ON", "country": "CA", "postalCode": "K6A1X9", "twitter": "None", "instagram": "None", "facebook": "None", "youtube": "None", "website": "None", "summary": "None", "logo": "None", "latitude": 45.61109085345377, "longitude": -74.60472262963802}, "890371842RR0001": {"name": "ST PAUL'S PRESBYTERIAN CHURCH", "designationCode": "C", "categoryCode": "37", "address": "32 WILSON RD NORTH", "city": "OSHAWA", "province": "ON", "country": "CA", "postalCode": "L1G6C8", "twitter": "None", "instagram": "None", "facebook": "None", "youtube": "None", "website": "None", "summary": "None", "logo": "None", "latitude": 43.9031369969416, "longitude": -78.84442764143901}, "890468796RR0001": {"name": "ST PAUL'S PRESBYTERIAN CHURCH", "designationCode": "C", "categoryCode": "37", "address": "325 HARDWICKE ROAD", "city": "HARDWICKE", "province": "NB", "country": "CA", "postalCode": "E9A1L5", "twitter": "None", "instagram": "None", "facebook": "None", "youtube": "None", "website": "None", "summary": "None", "logo": "None", "latitude": 47.081367608921575, "longitude": -65.02950667361067}, "119196616RR0001": {"name": "ST PAUL'S PRESBYTERN CHURCH", "designationCode": "C", "categoryCode": "37", "address": "113 VICTORIA ST", "city": "WOODSTOCK", "province": "NB", "country": "CA", "postalCode": "E7M3Z4", "twitter": "None", "instagram": "None", "facebook": "None", "youtube": "None", "website": "None", "summary": "None", "logo": "None", "latitude": 46.15351959781307, "longitude": -67.57417491923938}, "134661719RR0001": {"name": "ST PAUL'S ROMAN CATHOLIC CHURCH", "designationCode": "C", "categoryCode": "38", "address": "BOX 567", "city": "HIGH PRAIRIE", "province": "AB", "country": "CA", "postalCode": "T0G1E0", "twitter": "None", "instagram": "None", "facebook": "None", "youtube": "None", "website": "None", "summary": "None", "logo": "None", "latitude": 55.43123005496565, "longitude": -116.49809993060764}, "129049375RR0001": {"name": "ST PAUL'S SOCIAL SERVICES", "designationCode": "C", "categoryCode": "09", "address": "472 RICHMOND ST.", "city": "LONDON", "province": "ON", "country": "CA", "postalCode": "N6A3E6", "twitter": "None", "instagram": "None", "facebook": "None", "youtube": "None", "website": "None", "summary": "None", "logo": "None", "latitude": 42.98583169331751, "longitude": -81.25056507386529}, "868483249RR0001": {"name": "ST PAUL'S TERRACE SENIORS RESIDENCE", "designationCode": "C", "categoryCode": "01", "address": "3333 FINCH AVE E", "city": "TORONTO", "province": "ON", "country": "CA", "postalCode": "M1W2R9", "twitter": "None", "instagram": "None", "facebook": "None", "youtube": "None", "website": "None", "summary": "None", "logo": "None", "latitude": 43.796452162329274, "longitude": -79.31696211030655}, "849143748RR0001": {"name": "ST PAUL'S TORONTO SCHOOL OF IRISH MUSIC", "designationCode": "C", "categoryCode": "22", "address": "80 HOLM CRES", "city": "THORNHILL", "province": "ON", "country": "CA", "postalCode": "L3T5J3", "twitter": "None", "instagram": "None", "facebook": "None", "youtube": "None", "website": "None", "summary": "None", "logo": "None", "latitude": 43.82514244157197, "longitude": -79.39350387457425}, "119196772RR0001": {"name": "ST PAUL'S UNITED CHURCH", "designationCode": "C", "categoryCode": "44", "address": "54 OAK ST", "city": "MCADAM", "province": "NB", "country": "CA", "postalCode": "E6J1M6", "twitter": "None", "instagram": "None", "facebook": "None", "youtube": "None", "website": "None", "summary": "None", "logo": "None", "latitude": 45.59607540550517, "longitude": -67.33136737745977}, "119196848RR0001": {"name": "ST PAUL'S UNITED CHURCH", "designationCode": "C", "categoryCode": "44", "address": "3044 YORKS CORNERS RD", "city": "METCALFE", "province": "ON", "country": "CA", "postalCode": "K0A2P0", "twitter": "None", "instagram": "None", "facebook": "None", "youtube": "None", "website": "None", "summary": "None", "logo": "None", "latitude": 45.23972563214911, "longitude": -75.42132025736959}, "119196855RR0001": {"name": "ST PAUL'S UNITED CHURCH", "designationCode": "C", "categoryCode": "44", "address": "BOX 645", "city": "BANCROFT", "province": "ON", "country": "CA", "postalCode": "K0L1C0", "twitter": "None", "instagram": "None", "facebook": "None", "youtube": "None", "website": "None", "summary": "None", "logo": "None", "latitude": 45.03567300000006, "longitude": -77.98000849999994}, "119196913RR0001": {"name": "ST PAUL'S UNITED CHURCH", "designationCode": "C", "categoryCode": "44", "address": "454 REBECCA ST", "city": "OAKVILLE", "province": "ON", "country": "CA", "postalCode": "L6K1K7", "twitter": "None", "instagram": "None", "facebook": "None", "youtube": "None", "website": "None", "summary": "None", "logo": "None", "latitude": 43.43141235913793, "longitude": -79.68800373215427}, "119196921RR0001": {"name": "ST PAUL'S UNITED CHURCH", "designationCode": "C", "categoryCode": "44", "address": "30 MAIN ST S", "city": "BRAMPTON", "province": "ON", "country": "CA", "postalCode": "L6W2C4", "twitter": "None", "instagram": "None", "facebook": "None", "youtube": "None", "website": "None", "summary": "None", "logo": "None", "latitude": 43.68518319874188, "longitude": -79.75892283233327}, "119196962RR0001": {"name": "ST PAUL'S UNITED CHURCH", "designationCode": "C", "categoryCode": "44", "address": "200 MCINTOSH STREET", "city": "SCARBOROUGH", "province": "ON", "country": "CA", "postalCode": "M1N3Z3", "twitter": "None", "instagram": "None", "facebook": "None", "youtube": "None", "website": "None", "summary": "None", "logo": "None", "latitude": 43.709784076057424, "longitude": -79.25072168168941}, "119197069RR0001": {"name": "ST PAUL'S UNITED CHURCH", "designationCode": "C", "categoryCode": "44", "address": "973 PILLETTE ROAD", "city": "WINDSOR", "province": "ON", "country": "CA", "postalCode": "N8Y3B7", "twitter": "None", "instagram": "None", "facebook": "None", "youtube": "None", "website": "None", "summary": "None", "logo": "None", "latitude": 42.322716723555935, "longitude": -82.97790878132014}, "119197283RR0001": {"name": "ST PAUL'S UNITED CHURCH", "designationCode": "C", "categoryCode": "44", "address": "11526 76 AVE NW", "city": "EDMONTON", "province": "AB", "country": "CA", "postalCode": "T6G0K7", "twitter": "None", "instagram": "None", "facebook": "None", "youtube": "None", "website": "None", "summary": "None", "logo": "None", "latitude": 53.51229246047075, "longitude": -113.530824}, "119197317RR0001": {"name": "ST PAUL'S UNITED CHURCH", "designationCode": "C", "categoryCode": "44", "address": "BOX 411", "city": "BURNS LAKE", "province": "BC", "country": "CA", "postalCode": "V0J1E0", "twitter": "None", "instagram": "None", "facebook": "None", "youtube": "None", "website": "None", "summary": "None", "logo": "None", "latitude": 54.22723000000008, "longitude": -125.76009999999997}, "130592017RR0001": {"name": "ST PAUL'S UNITED CHURCH", "designationCode": "C", "categoryCode": "44", "address": "65 KINGS CRES", "city": "AJAX", "province": "ON", "country": "CA", "postalCode": "L1S2M4", "twitter": "None", "instagram": "None", "facebook": "None", "youtube": "None", "website": "None", "summary": "None", "logo": "None", "latitude": 43.8502272964107, "longitude": -79.01473129840126}, "130976525RR0001": {"name": "ST PAUL'S UNITED CHURCH", "designationCode": "C", "categoryCode": "44", "address": "349 WAVERLEY ST", "city": "THUNDER BAY", "province": "ON", "country": "CA", "postalCode": "P7B1B7", "twitter": "None", "instagram": "None", "facebook": "None", "youtube": "None", "website": "None", "summary": "None", "logo": "None", "latitude": 48.436656178065824, "longitude": -89.22658698828738}, "131440315RR0001": {"name": "ST PAUL'S UNITED CHURCH", "designationCode": "C", "categoryCode": "44", "address": "173 OLD SAMBRO RD", "city": "HALIFAX", "province": "NS", "country": "CA", "postalCode": "B3R2H6", "twitter": "None", "instagram": "None", "facebook": "None", "youtube": "None", "website": "None", "summary": "None", "logo": "None", "latitude": 44.60979884546101, "longitude": -63.62462162770477}, "131630410RR0001": {"name": "ST PAUL'S UNITED CHURCH", "designationCode": "C", "categoryCode": "44", "address": "360 DEVINE ST", "city": "SARNIA", "province": "ON", "country": "CA", "postalCode": "N7T1V1", "twitter": "None", "instagram": "None", "facebook": "None", "youtube": "None", "website": "None", "summary": "None", "logo": "None", "latitude": 42.964493076996995, "longitude": -82.40202762044211}, "131744229RR0001": {"name": "ST PAUL'S UNITED CHURCH", "designationCode": "C", "categoryCode": "44", "address": "178 CHURCH ST", "city": "BOWMANVILLE", "province": "ON", "country": "CA", "postalCode": "L1C1T9", "twitter": "None", "instagram": "None", "facebook": "None", "youtube": "None", "website": "None", "summary": "None", "logo": "None", "latitude": 43.91375407080594, "longitude": -78.69059686329285}, "131817579RR0001": {"name": "ST PAUL'S UNITED CHURCH", "designationCode": "C", "categoryCode": "44", "address": "BOX 700", "city": "FAIRVIEW", "province": "AB", "country": "CA", "postalCode": "T0H1L0", "twitter": "None", "instagram": "None", "facebook": "None", "youtube": "None", "website": "None", "summary": "None", "logo": "None", "latitude": 56.06862000000007, "longitude": -118.39200999999997}, "131945354RR0001": {"name": "ST PAUL'S UNITED CHURCH", "designationCode": "C", "categoryCode": "44", "address": "PO BOX 540", "city": "MILK RIVER", "province": "AB", "country": "CA", "postalCode": "T0K1M0", "twitter": "None", "instagram": "None", "facebook": "None", "youtube": "None", "website": "None", "summary": "None", "logo": "None"}, "132465477RR0001": {"name": "ST PAUL'S UNITED CHURCH", "designationCode": "C", "categoryCode": "44", "address": "42 TRAGINA AVE. NORTH", "city": "HAMILTON", "province": "ON", "country": "CA", "postalCode": "L8H5C5", "twitter": "None", "instagram": "None", "facebook": "None", "youtube": "None", "website": "None", "summary": "None", "logo": "None", "latitude": 43.240600351924556, "longitude": -79.80386924060839}, "135216240RR0001": {"name": "ST PAUL'S UNITED CHURCH", "designationCode": "C", "categoryCode": "44", "address": "BOX 307", "city": "ROCANVILLE", "province": "SK", "country": "CA", "postalCode": "S0A3L0", "twitter": "None", "instagram": "None", "facebook": "None", "youtube": "None", "website": "None", "summary": "None", "logo": "None", "latitude": 50.377500000000055, "longitude": -101.68600999999995}, "140262668RR0002": {"name": "ST PAUL'S UNITED CHURCH", "designationCode": "C", "categoryCode": "44", "address": "BOX 567", "city": "ASSINIBOIA", "province": "SK", "country": "CA", "postalCode": "S0H0B0", "twitter": "None", "instagram": "None", "facebook": "None", "youtube": "None", "website": "None", "summary": "None", "logo": "None", "latitude": 49.63287300000006, "longitude": -105.99348049999993}, "887097889RR0001": {"name": "ST PAUL'S UNITED CHURCH", "designationCode": "C", "categoryCode": "44", "address": "POST OFFICE BOX 646", "city": "RICHMOND", "province": "ON", "country": "CA", "postalCode": "K0A2Z0", "twitter": "None", "instagram": "None", "facebook": "None", "youtube": "None", "website": "None", "summary": "None", "logo": "None", "latitude": 45.07289024235629, "longitude": -76.0222203768388}, "889498796RR0001": {"name": "ST PAUL'S UNITED CHURCH", "designationCode": "C", "categoryCode": "44", "address": "211 PINE STREET", "city": "MAGOG", "province": "QC", "country": "CA", "postalCode": "J1X2H8", "twitter": "None", "instagram": "None", "facebook": "None", "youtube": "None", "website": "None", "summary": "None", "logo": "None", "latitude": 41.43702648456368, "longitude": -122.37961461226845}, "889663993RR0001": {"name": "ST PAUL'S UNITED CHURCH", "designationCode": "C", "categoryCode": "44", "address": "BOX 35", "city": "HARDISTY", "province": "AB", "country": "CA", "postalCode": "T0B1V0", "twitter": "None", "instagram": "None", "facebook": "None", "youtube": "None", "website": "None", "summary": "None", "logo": "None", "latitude": 52.6759699594612, "longitude": -111.3037099339259}, "892859661RR0001": {"name": "ST PAUL'S UNITED CHURCH", "designationCode": "C", "categoryCode": "44", "address": "2410 MALAVIEW AVE", "city": "SIDNEY", "province": "BC", "country": "CA", "postalCode": "V8L2G3", "twitter": "None", "instagram": "None", "facebook": "None", "youtube": "None", "website": "None", "summary": "None", "logo": "None", "latitude": 48.6570965115412, "longitude": -123.4000715553696}, "860082015RR0001": {"name": "ST PAUL'S UNITED CHURCH FOUNDATION", "designationCode": "A", "categoryCode": "43", "address": "1130 SPRINGFIELD RD", "city": "KELOWNA", "province": "BC", "country": "CA", "postalCode": "V1Y8H5", "twitter": "None", "instagram": "None", "facebook": "None", "youtube": "None", "website": "None", "summary": "None", "logo": "None", "latitude": 49.876921718506374, "longitude": -119.47655816084877}, "888214244RR0001": {"name": "ST PAUL'S/AGRICOLA CEMETERY", "designationCode": "C", "categoryCode": "59", "address": "BOX 3451", "city": "FORT SASKATCHEWAN", "province": "AB", "country": "CA", "postalCode": "T8L2T4", "twitter": "None", "instagram": "None", "facebook": "None", "youtube": "None", "website": "None", "summary": "None", "logo": "None", "latitude": 53.71287900000006, "longitude": -113.21417149999994}, "119194140RR0001": {"name": "ST PAULS ANGLICAN CHURCH", "designationCode": "C", "categoryCode": "30", "address": "PO BOX 144", "city": "SYDENHAM", "province": "ON", "country": "CA", "postalCode": "K0H2T0", "twitter": "None", "instagram": "None", "facebook": "None", "youtube": "None", "website": "None", "summary": "None", "logo": "None", "latitude": 44.369393050018516, "longitude": -76.57237772157914}, "119194157RR0001": {"name": "ST PAULS ANGLICAN CHURCH", "designationCode": "C", "categoryCode": "30", "address": "BOX 406", "city": "BEAVERTON", "province": "ON", "country": "CA", "postalCode": "L0K1A0", "twitter": "None", "instagram": "None", "facebook": "None", "youtube": "None", "website": "None", "summary": "None", "logo": "None", "latitude": 44.43273000000005, "longitude": -79.15524999999997}, "119194504RR0001": {"name": "ST PAULS CHURCH LAMOREAUX", "designationCode": "C", "categoryCode": "30", "address": "3333 FINCH AVE E", "city": "AGINCOURT", "province": "ON", "country": "CA", "postalCode": "M1W2R9", "twitter": "None", "instagram": "None", "facebook": "None", "youtube": "None", "website": "None", "summary": "None", "logo": "None", "latitude": 43.796452162329274, "longitude": -79.31696211030655}, "119194553RR0001": {"name": "ST PAULS CHURCH SINGHAMPTON", "designationCode": "C", "categoryCode": "30", "address": "BOX 96", "city": "DUNTROON", "province": "ON", "country": "CA", "postalCode": "L0M1H0", "twitter": "None", "instagram": "None", "facebook": "None", "youtube": "None", "website": "None", "summary": "None", "logo": "None", "latitude": 44.398000000000025, "longitude": -80.19377999999995}, "124265455RR0001": {"name": "ST PAULS CHURCH, COULSONS HILL", "designationCode": "C", "categoryCode": "30", "address": "256 CHILCOTT CRES", "city": "NEWMARKET", "province": "ON", "country": "CA", "postalCode": "L3X3G7", "twitter": "None", "instagram": "None", "facebook": "None", "youtube": "None", "website": "None", "summary": "None", "logo": "None", "latitude": 44.05332775102441, "longitude": -79.4973852665763}, "890058449RR0001": {"name": "ST PAULS CHURCH, WASHAGO", "designationCode": "C", "categoryCode": "30", "address": "3314 QUETTON ST               BOX 3", "city": "WASHAGO", "province": "ON", "country": "CA", "postalCode": "L0K2B0", "twitter": "None", "instagram": "None", "facebook": "None", "youtube": "None", "website": "None", "summary": "None", "logo": "None", "latitude": 44.74959533556458, "longitude": -79.33526614048672}, "892330242RR0001": {"name": "ST PAULS EVANGELICAL LUTHERAN CHURCH", "designationCode": "C", "categoryCode": "32", "address": "78 CH. DU PRETRE(POLTIMORE)", "city": "VAL DES MONTS", "province": "QC", "country": "CA", "postalCode": "J8N2H2", "twitter": "None", "instagram": "None", "facebook": "None", "youtube": "None", "website": "None", "summary": "None", "logo": "None", "latitude": 45.81072940608207, "longitude": -75.7296234163252}, "119195774RR0001": {"name": "ST PAULS LUTHERAN CHURCH", "designationCode": "C", "categoryCode": "30", "address": "592 NORTH RIVER RD            RR 3", "city": "NEW GERMANY", "province": "NS", "country": "CA", "postalCode": "B0R1E0", "twitter": "None", "instagram": "None", "facebook": "None", "youtube": "None", "website": "None", "summary": "None", "logo": "None", "latitude": 44.61783572096508, "longitude": -64.76928196832495}, "132153917RR0001": {"name": "ST PAULS LUTHERAN CHURCH", "designationCode": "C", "categoryCode": "32", "address": "63 GRAND AVE N", "city": "CAMBRIDGE", "province": "ON", "country": "CA", "postalCode": "N1S2L1", "twitter": "None", "instagram": "None", "facebook": "None", "youtube": "None", "website": "None", "summary": "None", "logo": "None", "latitude": 43.36176667055227, "longitude": -80.31753375864179}, "891587669RR0001": {"name": "ST PAULS PRESBYTERIAN CHURCH", "designationCode": "C", "categoryCode": "37", "address": "10150 PINEVALLEY DR RR #2", "city": "WOODBRIDGE", "province": "ON", "country": "CA", "postalCode": "L4L1A6", "twitter": "None", "instagram": "None", "facebook": "None", "youtube": "None", "website": "None", "summary": "None", "logo": "None", "latitude": 43.84318968359401, "longitude": -79.58726877647273}, "133563767RR0001": {"name": "ST PAULS PRESBYTERIAN CHURCH BRAMALEA", "designationCode": "C", "categoryCode": "37", "address": "723 BALMORAL DR", "city": "BRAMPTON", "province": "ON", "country": "CA", "postalCode": "L6T1X5", "twitter": "None", "instagram": "None", "facebook": "None", "youtube": "None", "website": "None", "summary": "None", "logo": "None", "latitude": 43.71928426640342, "longitude": -79.69325735001996}, "140491952RR0001": {"name": "ST PAULS REST HOME OF BURY INC", "designationCode": "C", "categoryCode": "01", "address": "592 MAIN ST.", "city": "BURY", "province": "QC", "country": "CA", "postalCode": "J0B1J0", "twitter": "None", "instagram": "None", "facebook": "None", "youtube": "None", "website": "None", "summary": "None", "logo": "None", "latitude": 45.473321501009615, "longitude": -71.49819944740034}, "119196731RR0001": {"name": "ST PAULS UNITED CHURCH", "designationCode": "C", "categoryCode": "44", "address": "ROBERT LEWIS                  RR 1", "city": "LUNENBURG", "province": "NS", "country": "CA", "postalCode": "B0J2C0", "twitter": "None", "instagram": "None", "facebook": "None", "youtube": "None", "website": "None", "summary": "None", "logo": "None", "latitude": 44.7846676914111, "longitude": -64.37656672697186}, "119196749RR0001": {"name": "ST PAULS UNITED CHURCH", "designationCode": "C", "categoryCode": "44", "address": "RR#3", "city": "SHELBURNE", "province": "NS", "country": "CA", "postalCode": "B0T1W0", "twitter": "None", "instagram": "None", "facebook": "None", "youtube": "None", "website": "None", "summary": "None", "logo": "None", "latitude": 43.57026600000006, "longitude": -65.35813399999994}, "119196806RR0001": {"name": "ST PAULS UNITED CHURCH", "designationCode": "C", "categoryCode": "44", "address": "49 GALE", "city": "ORMSTOWN", "province": "QC", "country": "CA", "postalCode": "J0S1K0", "twitter": "None", "instagram": "None", "facebook": "None", "youtube": "None", "website": "None", "summary": "None", "logo": "None", "latitude": 45.1253284283105, "longitude": -74.00021156937244}, "119196814RR0001": {"name": "ST PAULS UNITED CHURCH", "designationCode": "C", "categoryCode": "44", "address": "PO BOX 84", "city": "TEMISCAMING", "province": "QC", "country": "CA", "postalCode": "J0Z3R0", "twitter": "None", "instagram": "None", "facebook": "None", "youtube": "None", "website": "None", "summary": "None", "logo": "None", "latitude": 46.74185700000005, "longitude": -79.06862149999994}, "119196954RR0001": {"name": "ST PAULS UNITED CHURCH", "designationCode": "C", "categoryCode": "44", "address": "123 MAIN STREET", "city": "MILTON", "province": "ON", "country": "CA", "postalCode": "L9T1N4", "twitter": "None", "instagram": "None", "facebook": "None", "youtube": "None", "website": "None", "summary": "None", "logo": "None", "latitude": 43.51115682099365, "longitude": -79.88537309022432}, "119196996RR0001": {"name": "ST PAULS UNITED CHURCH", "designationCode": "C", "categoryCode": "44", "address": "BOX 325", "city": "MILVERTON", "province": "ON", "country": "CA", "postalCode": "N0K1M0", "twitter": "None", "instagram": "None", "facebook": "None", "youtube": "None", "website": "None", "summary": "None", "logo": "None", "latitude": 43.567990000000066, "longitude": -80.92049999999995}, "119197150RR0001": {"name": "ST PAULS UNITED CHURCH", "designationCode": "C", "categoryCode": "44", "address": "PO BOX 547", "city": "VIRDEN", "province": "MB", "country": "CA", "postalCode": "R0M2C0", "twitter": "None", "instagram": "None", "facebook": "None", "youtube": "None", "website": "None", "summary": "None", "logo": "None", "latitude": 49.85688000000005, "longitude": -100.92262999999997}, "119197291RR0001": {"name": "ST PAULS UNITED CHURCH", "designationCode": "C", "categoryCode": "44", "address": "10206 100 AVE", "city": "GRANDE PRAIRIE", "province": "AB", "country": "CA", "postalCode": "T8V0V6", "twitter": "None", "instagram": "None", "facebook": "None", "youtube": "None", "website": "None", "summary": "None", "logo": "None", "latitude": 55.17072345383431, "longitude": -118.80180350389514}, "119197333RR0002": {"name": "ST PAULS UNITED CHURCH", "designationCode": "C", "categoryCode": "44", "address": "1130 SPRINGFIELD RD", "city": "KELOWNA", "province": "BC", "country": "CA", "postalCode": "V1Y8H5", "twitter": "None", "instagram": "None", "facebook": "None", "youtube": "None", "website": "None", "summary": "None", "logo": "None", "latitude": 49.876921718506374, "longitude": -119.47655816084877}, "133347310RR0001": {"name": "ST PAULS UNITED CHURCH", "designationCode": "C", "categoryCode": "44", "address": "BOX 427", "city": "WALKERTON", "province": "ON", "country": "CA", "postalCode": "N0G2V0", "twitter": "None", "instagram": "None", "facebook": "None", "youtube": "None", "website": "None", "summary": "None", "logo": "None", "latitude": 44.12817000000007, "longitude": -81.15211999999997}, "140103144RR0001": {"name": "ST PAULS UNITED CHURCH", "designationCode": "C", "categoryCode": "44", "address": "9107 INDIAN CREEK LINE", "city": "CHATHAM", "province": "ON", "country": "CA", "postalCode": "N7M0L5", "twitter": "None", "instagram": "None", "facebook": "None", "youtube": "None", "website": "None", "summary": "None", "logo": "None", "latitude": 42.40307650516455, "longitude": -82.14321693981161}, "890140049RR0001": {"name": "ST PETER & PAUL PARISH", "designationCode": "C", "categoryCode": "38", "address": "BOX 189", "city": "RYCROFT", "province": "AB", "country": "CA", "postalCode": "T0H3A0", "twitter": "None", "instagram": "None", "facebook": "None", "youtube": "None", "website": "None", "summary": "None", "logo": "None", "latitude": 55.749970000000076, "longitude": -118.71945999999997}, "119197598RR0001": {"name": "ST PETER & PAUL ROMANIAN ORTHODOX CHURCH", "designationCode": "C", "categoryCode": "39", "address": "P.O. BOX 1791", "city": "CANORA", "province": "SK", "country": "CA", "postalCode": "S0A0L0", "twitter": "None", "instagram": "None", "facebook": "None", "youtube": "None", "website": "None", "summary": "None", "logo": "None", "latitude": 51.62535661313478, "longitude": -102.4443087080291}, "130667934RR0001": {"name": "ST PETER & ST PAUL RUSSO GREEK CATHOLIC ORTHODOX CHURCH OF MONTREAL", "designationCode": "C", "categoryCode": "38", "address": "1175 RUE DE CHAMPLAIN", "city": "MONTREAL", "province": "QC", "country": "CA", "postalCode": "H2L2R7", "twitter": "None", "instagram": "None", "facebook": "None", "youtube": "None", "website": "None", "summary": "None", "logo": "None", "latitude": 45.520864772981604, "longitude": -73.55088896459702}, "888496460RR0001": {"name": "ST PETER & ST PAUL UKRAINIAN ORTHODOX CHURCH OF SWAN PLAIN SASKATCHEWAN", "designationCode": "C", "categoryCode": "39", "address": "R.R. #1, SITE #2, BOX 7", "city": "NORQUAY", "province": "SK", "country": "CA", "postalCode": "S0A2V0", "twitter": "None", "instagram": "None", "facebook": "None", "youtube": "None", "website": "None", "summary": "None", "logo": "None", "latitude": 51.88364836989076, "longitude": -102.08578226377534}, "119197465RR0001": {"name": "ST PETER AND PAUL UKRAINIAN CATHOLIC CHURCH OF FRASERWOOD, MANITOBA", "designationCode": "C", "categoryCode": "38", "address": "BOX 1426", "city": "GIMLI", "province": "MB", "country": "CA", "postalCode": "R0C1B0", "twitter": "None", "instagram": "None", "facebook": "None", "youtube": "None", "website": "None", "summary": "None", "logo": "None", "latitude": 50.30677349294383, "longitude": -96.92898988377391}, "128967353RR0084": {"name": "ST PETER CELESTINE'S PARISH", "designationCode": "C", "categoryCode": "38", "address": "P.O. BOX 7", "city": "PAKENHAM", "province": "ON", "country": "CA", "postalCode": "K0A2X0", "twitter": "None", "instagram": "None", "facebook": "None", "youtube": "None", "website": "None", "summary": "None", "logo": "None", "latitude": 45.33251000000007, "longitude": -76.29050999999998}, "119197564RR0001": {"name": "ST PETER LUTHERAN CHURCH", "designationCode": "C", "categoryCode": "32", "address": "5712-48 AVE", "city": "STETTLER", "province": "AB", "country": "CA", "postalCode": "T0C2L1", "twitter": "None", "instagram": "None", "facebook": "None", "youtube": "None", "website": "None", "summary": "None", "logo": "None", "latitude": 52.323357036932194, "longitude": -112.71667229998873}, "131548950RR0001": {"name": "ST PETER LUTHERAN CHURCH", "designationCode": "C", "categoryCode": "32", "address": "758-8TH STREET S.E.", "city": "MEDICINE HAT", "province": "AB", "country": "CA", "postalCode": "T1A1M5", "twitter": "None", "instagram": "None", "facebook": "None", "youtube": "None", "website": "None", "summary": "None", "logo": "None", "latitude": 50.03117252928614, "longitude": -110.66759019317328}, "119197556RR0001": {"name": "ST PETER LUTHERAN CHURCH,", "designationCode": "C", "categoryCode": "32", "address": "BOX 94", "city": "TEULON", "province": "MB", "country": "CA", "postalCode": "R0C3B0", "twitter": "None", "instagram": "None", "facebook": "None", "youtube": "None", "website": "None", "summary": "None", "logo": "None"}, "899364681RR0001": {"name": "ST PETER PUBLICATIONS INC", "designationCode": "C", "categoryCode": "47", "address": "PO BOX 713", "city": "CHARLOTTETOWN", "province": "PE", "country": "CA", "postalCode": "C1A7L3", "twitter": "None", "instagram": "None", "facebook": "None", "youtube": "None", "website": "None", "summary": "None", "logo": "None", "latitude": 46.23659700000006, "longitude": -63.12815449999994}, "134770387RR0001": {"name": "ST PETER THE ALEUT ORTHODOX CHRISTIAN CHURCH", "designationCode": "C", "categoryCode": "39", "address": "1802 33 AVE SW", "city": "CALGARY", "province": "AB", "country": "CA", "postalCode": "T2T1Y9", "twitter": "None", "instagram": "None", "facebook": "None", "youtube": "None", "website": "None", "summary": "None", "logo": "None", "latitude": 51.02402646047074, "longitude": -114.1025535}, "119197796RR0001": {"name": "ST PETER'S ANGLICAN CHURCH", "designationCode": "C", "categoryCode": "30", "address": "PO BOX 398", "city": "OKOTOKS", "province": "AB", "country": "CA", "postalCode": "T1S1A6", "twitter": "None", "instagram": "None", "facebook": "None", "youtube": "None", "website": "None", "summary": "None", "logo": "None", "latitude": 50.72589600000006, "longitude": -113.97494149999994}, "119238210RR0010": {"name": "ST PETER'S ANGLICAN CHURCH", "designationCode": "C", "categoryCode": "30", "address": "P.O. BOX 94                   4390 GOVERNMENT STREET", "city": "HAZELTON", "province": "BC", "country": "CA", "postalCode": "V0J1Y0", "twitter": "None", "instagram": "None", "facebook": "None", "youtube": "None", "website": "None", "summary": "None", "logo": "None", "latitude": 55.25751090229211, "longitude": -127.67341451240678}, "119238210RR0013": {"name": "ST PETER'S ANGLICAN CHURCH", "designationCode": "C", "categoryCode": "30", "address": "BOX 455", "city": "HUDSON'S HOPE", "province": "BC", "country": "CA", "postalCode": "V0C1V0", "twitter": "None", "instagram": "None", "facebook": "None", "youtube": "None", "website": "None", "summary": "None", "logo": "None", "latitude": 56.02881000000008, "longitude": -121.90894999999995}, "129144549RR0017": {"name": "ST PETER'S ANGLICAN CHURCH", "designationCode": "C", "categoryCode": "30", "address": "P.O. BOX 226", "city": "REVELSTOKE", "province": "BC", "country": "CA", "postalCode": "V0E2S0", "twitter": "None", "instagram": "None", "facebook": "None", "youtube": "None", "website": "None", "summary": "None", "logo": "None", "latitude": 52.00738183978388, "longitude": -118.56208529545198}, "892379249RR0001": {"name": "ST PETER'S ANGLICAN CHURCH LAC LA NONNE", "designationCode": "C", "categoryCode": "30", "address": "5134 52 ST", "city": "BARRHEAD", "province": "AB", "country": "CA", "postalCode": "T7N1E9", "twitter": "None", "instagram": "None", "facebook": "None", "youtube": "None", "website": "None", "summary": "None", "logo": "None", "latitude": 54.12239238219164, "longitude": -114.40559524219492}, "129913315RR0002": {"name": "ST PETER'S ANGLICAN CHURCH OF CANADA", "designationCode": "C", "categoryCode": "30", "address": "755 ELM ST", "city": "WINNIPEG", "province": "MB", "country": "CA", "postalCode": "R3M3N8", "twitter": "None", "instagram": "None", "facebook": "None", "youtube": "None", "website": "None", "summary": "None", "logo": "None", "latitude": 49.85663582292687, "longitude": -97.18112467655352}, "119197929RR0001": {"name": "ST PETER'S BY THE LAKE", "designationCode": "C", "categoryCode": "30", "address": "57 SAUBLE FALLS RD", "city": "SAUBLE BEACH", "province": "ON", "country": "CA", "postalCode": "N0H2G0", "twitter": "None", "instagram": "None", "facebook": "None", "youtube": "None", "website": "None", "summary": "None", "logo": "None", "latitude": 44.660628125454416, "longitude": -81.273591670004}, "867315947RR0001": {"name": "ST PETER'S CARE CENTRES", "designationCode": "C", "categoryCode": "01", "address": "125 REDFERN AVENUE", "city": "HAMILTON", "province": "ON", "country": "CA", "postalCode": "L9C7W9", "twitter": "None", "instagram": "None", "facebook": "None", "youtube": "None", "website": "None", "summary": "None", "logo": "None", "latitude": 43.24085920422751, "longitude": -79.91953122013263}, "889392023RR0001": {"name": "ST PETER'S CEMETERY FUND", "designationCode": "C", "categoryCode": "59", "address": "165 MERTON", "city": "ST. LAMBERT", "province": "QC", "country": "CA", "postalCode": "J4P2W1", "twitter": "None", "instagram": "None", "facebook": "None", "youtube": "None", "website": "None", "summary": "None", "logo": "None", "latitude": 45.51014827947382, "longitude": -73.51604196823236}, "119198091RR0001": {"name": "ST PETER'S CHURCH", "designationCode": "C", "categoryCode": "30", "address": "83 BOUL. LEVESQUE             P.O. BOX 610", "city": "PASPEBIAC", "province": "QC", "country": "CA", "postalCode": "G0C2K0", "twitter": "None", "instagram": "None", "facebook": "None", "youtube": "None", "website": "None", "summary": "None", "logo": "None", "latitude": 45.12264935465365, "longitude": -72.99082814902114}, "119198133RR0001": {"name": "ST PETER'S CHURCH", "designationCode": "C", "categoryCode": "30", "address": "45 PRINCIPALE OUEST", "city": "COOKSHIRE", "province": "QC", "country": "CA", "postalCode": "J0B1M0", "twitter": "None", "instagram": "None", "facebook": "None", "youtube": "None", "website": "None", "summary": "None", "logo": "None", "latitude": 45.41246036943835, "longitude": -71.62992732930351}, "119198356RR0002": {"name": "ST PETER'S CHURCH", "designationCode": "C", "categoryCode": "30", "address": "267 ROSSMORE ROAD", "city": "SAULT STE MARIE", "province": "ON", "country": "CA", "postalCode": "P6C2Y9", "twitter": "None", "instagram": "None", "facebook": "None", "youtube": "None", "website": "None", "summary": "None", "logo": "None", "latitude": 46.544574532315906, "longitude": -84.36920044310116}, "119198422RR0001": {"name": "ST PETER'S CHURCH", "designationCode": "C", "categoryCode": "30", "address": "BOX 186", "city": "QU'APPELLE", "province": "SK", "country": "CA", "postalCode": "S0G4A0", "twitter": "None", "instagram": "None", "facebook": "None", "youtube": "None", "website": "None", "summary": "None", "logo": "None", "latitude": 50.33098795842485, "longitude": -102.28109602986969}, "129950804RR0028": {"name": "ST PETER'S CHURCH", "designationCode": "C", "categoryCode": "38", "address": "301 MACHLEARY ST", "city": "NANAIMO", "province": "BC", "country": "CA", "postalCode": "V9R2G8", "twitter": "None", "instagram": "None", "facebook": "None", "youtube": "None", "website": "None", "summary": "None", "logo": "None", "latitude": 49.16360064318034, "longitude": -123.94861060352434}, "130098098RR0001": {"name": "ST PETER'S CHURCH", "designationCode": "C", "categoryCode": "38", "address": "748 KEEWATIN ST", "city": "WINNIPEG", "province": "MB", "country": "CA", "postalCode": "R2X2X8", "twitter": "None", "instagram": "None", "facebook": "None", "youtube": "None", "website": "None", "summary": "None", "logo": "None", "latitude": 49.93450200000001, "longitude": -97.19525472058349}}