{"889628947RR0001": {"name": "BEECHY-DEMAINE EMERGENCY SERVICES", "designationCode": "C", "categoryCode": "59", "address": "BOX 190", "city": "BEECHY", "province": "SK", "country": "CA", "postalCode": "S0L0C0", "twitter": "None", "instagram": "None", "facebook": "None", "youtube": "None", "website": "None", "summary": "None", "logo": "None", "latitude": 50.87650000000008, "longitude": -107.38328999999999}, "118888148RR0001": {"name": "BEEHIVE SUPPORT SERVICES ASSOCIATION", "designationCode": "C", "categoryCode": "11", "address": "P.O. BOX 6007", "city": "DRAYTON VALLEY", "province": "AB", "country": "CA", "postalCode": "T7A1R6", "twitter": "None", "instagram": "None", "facebook": "None", "youtube": "None", "website": "None", "summary": "None", "logo": "None", "latitude": 53.22798600000006, "longitude": -114.98692399999993}, "106781883RR0001": {"name": "BEENDIGEN INCORPORATED", "designationCode": "C", "categoryCode": "01", "address": "103 - 100 ANEMKI DR", "city": "FORT WILLIAM FIRST NATION", "province": "ON", "country": "CA", "postalCode": "P7J1J4", "twitter": "None", "instagram": "None", "facebook": "None", "youtube": "None", "website": "None", "summary": "None", "logo": "None", "latitude": 48.35373485769501, "longitude": -89.26246118761492}, "118793074RR0009": {"name": "BEER-SHEBA SEVENTH-DAY ADVENTIST CHURCH", "designationCode": "C", "categoryCode": "41", "address": "5641 ST-MICHEL", "city": "MONTREAL", "province": "QC", "country": "CA", "postalCode": "H1Y2E3", "twitter": "None", "instagram": "None", "facebook": "None", "youtube": "None", "website": "None", "summary": "None", "logo": "None", "latitude": 45.552209939234686, "longitude": -73.5771560405102}, "856875018RR0001": {"name": "BEES FOR BABAR SOCIETY", "designationCode": "C", "categoryCode": "01", "address": "890 EBERTS STREET", "city": "NANAIMO", "province": "BC", "country": "CA", "postalCode": "V9S1P6", "twitter": "None", "instagram": "None", "facebook": "None", "youtube": "None", "website": "None", "summary": "None", "logo": "None", "latitude": 49.178710529286136, "longitude": -123.9606706902591}, "889830592RR0001": {"name": "BEETHOVEN SOCIETY FOR PIANISTS, GREATER TORONTO CHAPTER", "designationCode": "C", "categoryCode": "22", "address": "21 THORNE LANE", "city": "THORNHILL", "province": "ON", "country": "CA", "postalCode": "L3T5K6", "twitter": "None", "instagram": "None", "facebook": "None", "youtube": "None", "website": "None", "summary": "None", "logo": "None", "latitude": 43.82306831279932, "longitude": -79.38479520035798}, "898595178RR0001": {"name": "BEGINNING EXPERIENCE OF WINNIPEG", "designationCode": "C", "categoryCode": "49", "address": "151 AVENUE DE LA CATHEDRALE", "city": "WINNIPEG", "province": "MB", "country": "CA", "postalCode": "R2H0H6", "twitter": "None", "instagram": "None", "facebook": "None", "youtube": "None", "website": "None", "summary": "None", "logo": "None", "latitude": 49.88967351154119, "longitude": -97.12280516625309}, "118802388RR0001": {"name": "BEGINNINGS FAMILY SERVICES INC.", "designationCode": "C", "categoryCode": "09", "address": "1 YOUNG STREET                SUITE 308", "city": "HAMILTON", "province": "ON", "country": "CA", "postalCode": "L8N1T8", "twitter": "None", "instagram": "None", "facebook": "None", "youtube": "None", "website": "None", "summary": "None", "logo": "None", "latitude": 43.25126996087477, "longitude": -79.87107463835193}, "100452838RR0001": {"name": "BEGINNINGS PRESCHOOL INC.", "designationCode": "C", "categoryCode": "20", "address": "2016 9TH ST", "city": "BRANDON", "province": "MB", "country": "CA", "postalCode": "R7A7S3", "twitter": "None", "instagram": "None", "facebook": "None", "youtube": "None", "website": "None", "summary": "None", "logo": "None", "latitude": 49.817015999999995, "longitude": -99.9498155629001}, "862403219RR0001": {"name": "BEHAVIOUR INSTITUTE CHILDREN'S BURSARY", "designationCode": "C", "categoryCode": "21", "address": "1404-40 RICHVIEW RD", "city": "ETOBICOKE", "province": "ON", "country": "CA", "postalCode": "M9A5C1", "twitter": "None", "instagram": "None", "facebook": "None", "youtube": "None", "website": "None", "summary": "None", "logo": "None", "latitude": 43.684770140198275, "longitude": -79.5157701848634}, "871308722RR0001": {"name": "BEING GRATEFUL FOUNDATION", "designationCode": "C", "categoryCode": "11", "address": "BOX62                         STE 1250-1500 WEST GEORGIA ST.", "city": "VANCOUVER", "province": "BC", "country": "CA", "postalCode": "V6G2Z6", "twitter": "None", "instagram": "None", "facebook": "None", "youtube": "None", "website": "None", "summary": "None", "logo": "None", "latitude": 49.290187500000016, "longitude": -123.130035}, "888174463RR0001": {"name": "BEIS MEIR", "designationCode": "C", "categoryCode": "49", "address": "77 GLEN RUSH BLVD", "city": "NORTH YORK", "province": "ON", "country": "CA", "postalCode": "M5N2T8", "twitter": "None", "instagram": "None", "facebook": "None", "youtube": "None", "website": "None", "summary": "None", "logo": "None", "latitude": 43.71787829254421, "longitude": -79.42640947885086}, "891318743RR0001": {"name": "BEISEKER CHARITABLE TRUST", "designationCode": "B", "categoryCode": "39", "address": "1700B VARSITY ESTATES DR NW", "city": "CALGARY", "province": "AB", "country": "CA", "postalCode": "T3B2W9", "twitter": "None", "instagram": "None", "facebook": "None", "youtube": "None", "website": "None", "summary": "None", "logo": "None", "latitude": 51.09710915749428, "longitude": -114.1714095165103}, "106693047RR0002": {"name": "BEISEKER LEVEL LAND SEVENTH-DAY ADVENTIST CHURCH", "designationCode": "C", "categoryCode": "41", "address": "5816 HIGHWAY, 2A", "city": "LACOMBE", "province": "AB", "country": "CA", "postalCode": "T4L2G5", "twitter": "None", "instagram": "None", "facebook": "None", "youtube": "None", "website": "None", "summary": "None", "logo": "None", "latitude": 52.474063600197404, "longitude": -113.71692568401835}, "118802412RR0001": {"name": "BEIT AM BNAY ABRAHAM INC.", "designationCode": "C", "categoryCode": "01", "address": "209-2211 MCPHILLIPS ST", "city": "WINNIPEG", "province": "MB", "country": "CA", "postalCode": "R2V3M5", "twitter": "None", "instagram": "None", "facebook": "None", "youtube": "None", "website": "None", "summary": "None", "logo": "None", "latitude": 49.940370545640214, "longitude": -97.15895728109044}, "118779081RR0001": {"name": "BEIT HALOCHEM CANADA/AID TO DISABLED VETERANS OF ISRAEL (CANADA)", "designationCode": "C", "categoryCode": "09", "address": "219-1600 STEELES AVENUE WEST", "city": "CONCORD", "province": "ON", "country": "CA", "postalCode": "L4K4M2", "twitter": "None", "instagram": "None", "facebook": "None", "youtube": "None", "website": "None", "summary": "None", "logo": "None", "latitude": 43.77641293434587, "longitude": -79.51718439392475}, "135410892RR0001": {"name": "BEIT JERUSALEM", "designationCode": "C", "categoryCode": "01", "address": "303-4480 CH C\u00d4TE-DE-LIESSE", "city": "MONT-ROYAL", "province": "QC", "country": "CA", "postalCode": "H4N2R1", "twitter": "None", "instagram": "None", "facebook": "None", "youtube": "None", "website": "None", "summary": "None", "logo": "None", "latitude": 45.50458636274458, "longitude": -73.66451676876935}, "136843083RR0001": {"name": "BEIT RAYIM SYNAGOGUE", "designationCode": "C", "categoryCode": "39", "address": "244 9600 BATHURST STREET", "city": "VAUGHAN", "province": "ON", "country": "CA", "postalCode": "L6A3Z8", "twitter": "None", "instagram": "None", "facebook": "None", "youtube": "None", "website": "None", "summary": "None", "logo": "None", "latitude": 43.85625647931221, "longitude": -79.46068020491602}, "108073263RR0001": {"name": "BEKEVAR PRESBYTERIAN CHURCH", "designationCode": "C", "categoryCode": "37", "address": "P.O. BOX 247", "city": "KIPLING", "province": "SK", "country": "CA", "postalCode": "S0G2S0", "twitter": "None", "instagram": "None", "facebook": "None", "youtube": "None", "website": "None", "summary": "None", "logo": "None", "latitude": 50.94214200000001, "longitude": -104.50606274999998}, "827175522RR0001": {"name": "BEL CANTO CHOIRS ASSOCIATION", "designationCode": "C", "categoryCode": "22", "address": "PO 2678", "city": "PRINCE GEORGE", "province": "BC", "country": "CA", "postalCode": "V2N4T5", "twitter": "None", "instagram": "None", "facebook": "None", "youtube": "None", "website": "None", "summary": "None", "logo": "None", "latitude": 53.91241800000006, "longitude": -122.74463149999994}, "886745397RR0001": {"name": "BEL PARC", "designationCode": "C", "categoryCode": "09", "address": "BOX 196", "city": "BELMONT", "province": "ON", "country": "CA", "postalCode": "N0L1B0", "twitter": "None", "instagram": "None", "facebook": "None", "youtube": "None", "website": "None", "summary": "None", "logo": "None", "latitude": 42.85080058689415, "longitude": -81.08013252903665}, "861530749RR0001": {"name": "BELARUS' CHILDREN OF CHERNOBYL INC.", "designationCode": "C", "categoryCode": "11", "address": "4030 LOCUST LANE", "city": "BEAMSVILLE", "province": "ON", "country": "CA", "postalCode": "L0R1B2", "twitter": "None", "instagram": "None", "facebook": "None", "youtube": "None", "website": "None", "summary": "None", "logo": "None", "latitude": 43.15394860502642, "longitude": -79.49346930806746}, "118802446RR0001": {"name": "BELBUTTE CHURCH", "designationCode": "C", "categoryCode": "36", "address": "RR #1                         SITE 6, COMP 32", "city": "SPIRITWOOD", "province": "SK", "country": "CA", "postalCode": "S0J2M0", "twitter": "None", "instagram": "None", "facebook": "None", "youtube": "None", "website": "None", "summary": "None", "logo": "None", "latitude": 53.365313135976656, "longitude": -107.520980697823}, "872311915RR0001": {"name": "BELCUM FOUNDATION", "designationCode": "B", "categoryCode": "03", "address": "700 - 2695 GRANVILLE ST", "city": "VANCOUVER", "province": "BC", "country": "CA", "postalCode": "V6H3H4", "twitter": "None", "instagram": "None", "facebook": "None", "youtube": "None", "website": "None", "summary": "None", "logo": "None", "latitude": 49.261897288649095, "longitude": -123.13869492509642}, "869705038RR0001": {"name": "BELFAST HISTORICAL SOCIETY", "designationCode": "C", "categoryCode": "52", "address": "7336 TRANS CANADA HIGHWAY", "city": "VERNON BRIDGE", "province": "PE", "country": "CA", "postalCode": "C0A2E0", "twitter": "None", "instagram": "None", "facebook": "None", "youtube": "None", "website": "None", "summary": "None", "logo": "None", "latitude": 46.17314185873387, "longitude": -62.872655490420705}, "863228771RR0001": {"name": "BELFOUNTAIN VILLAGE CHURCH", "designationCode": "C", "categoryCode": "31", "address": "17049 WINSTON CHURCHILL BLVD", "city": "TERRA COTTA", "province": "ON", "country": "CA", "postalCode": "L7K1J1", "twitter": "None", "instagram": "None", "facebook": "None", "youtube": "None", "website": "None", "summary": "None", "logo": "None", "latitude": 43.779449212158035, "longitude": -80.02913583608512}, "130881055RR0001": {"name": "BELGRAVE PASTORAL CHARGE,", "designationCode": "C", "categoryCode": "44", "address": "40693 BRANDON RD              RR 5", "city": "BRUSSELS", "province": "ON", "country": "CA", "postalCode": "N0G1H0", "twitter": "None", "instagram": "None", "facebook": "None", "youtube": "None", "website": "None", "summary": "None", "logo": "None", "latitude": 43.801545198907476, "longitude": -81.33136521530822}, "887207009RR0001": {"name": "BELGRAVIA PARENT COUNCIL SOCIETY", "designationCode": "C", "categoryCode": "21", "address": "11605 - 74 AVENUE", "city": "EDMONTON", "province": "AB", "country": "CA", "postalCode": "T6G0G1", "twitter": "None", "instagram": "None", "facebook": "None", "youtube": "None", "website": "None", "summary": "None", "logo": "None", "latitude": 53.51032054558879, "longitude": -113.53246297446478}, "106782360RR0001": {"name": "BELHAVEN FREE METHODIST CHURCH", "designationCode": "C", "categoryCode": "39", "address": "25152 WARDEN AVE              BOX A 16 RR 3", "city": "SUTTON WEST", "province": "ON", "country": "CA", "postalCode": "L0E1R0", "twitter": "None", "instagram": "None", "facebook": "None", "youtube": "None", "website": "None", "summary": "None", "logo": "None", "latitude": 44.26164507132555, "longitude": -79.42874879089945}, "815324470RR0001": {"name": "BELIEVE TO ACHIEVE ORGANIZATION", "designationCode": "C", "categoryCode": "09", "address": "724 CORTEZ AVENUE", "city": "PICKERING", "province": "ON", "country": "CA", "postalCode": "L1W1Y4", "twitter": "None", "instagram": "None", "facebook": "None", "youtube": "None", "website": "None", "summary": "None", "logo": "None", "latitude": 43.82035674871262, "longitude": -79.07482042072068}, "118802529RR0001": {"name": "BELIEVER'S BOOKSHELF CANADA INC.", "designationCode": "C", "categoryCode": "47", "address": "5205 REGIONAL ROAD 81         UNIT # 3", "city": "BEAMSVILLE", "province": "ON", "country": "CA", "postalCode": "L0R1B3", "twitter": "None", "instagram": "None", "facebook": "None", "youtube": "None", "website": "None", "summary": "None", "logo": "None", "latitude": 43.170555530671116, "longitude": -79.49054028420568}, "851178277RR0001": {"name": "BELIEVERS BIBLE FELLOWSHIP", "designationCode": "C", "categoryCode": "39", "address": "7825 BAYVIEW AVENUE           SUITE 108", "city": "THORNHILL", "province": "ON", "country": "CA", "postalCode": "L3T7N2", "twitter": "None", "instagram": "None", "facebook": "None", "youtube": "None", "website": "None", "summary": "None", "logo": "None", "latitude": 43.82311707002721, "longitude": -79.40157093328996}, "132667288RR0001": {"name": "BELIEVERS FELLOWSHIP", "designationCode": "C", "categoryCode": "34", "address": "PO BOX 238", "city": "SIOUX NARROWS", "province": "ON", "country": "CA", "postalCode": "P0X1N0", "twitter": "None", "instagram": "None", "facebook": "None", "youtube": "None", "website": "None", "summary": "None", "logo": "None", "latitude": 49.40861000000007, "longitude": -94.09623999999997}, "106782402RR0001": {"name": "BELIEVERS FULL GOSPEL ASSEMBLY OF GRANDE PRAIRIE", "designationCode": "C", "categoryCode": "39", "address": "10711 100 ST", "city": "GRANDE PRAIRIE", "province": "AB", "country": "CA", "postalCode": "T8V2M6", "twitter": "None", "instagram": "None", "facebook": "None", "youtube": "None", "website": "None", "summary": "None", "logo": "None", "latitude": 55.17724352833769, "longitude": -118.79466427208855}, "893712208RR0001": {"name": "BELIEVERS OF ONENESS PENTECOSTAL CHURCH INC.", "designationCode": "C", "categoryCode": "49", "address": "PO BOX 433 STN A", "city": "FREDERICTON", "province": "NB", "country": "CA", "postalCode": "E3B4Z9", "twitter": "None", "instagram": "None", "facebook": "None", "youtube": "None", "website": "None", "summary": "None", "logo": "None", "latitude": 45.96062100000006, "longitude": -66.63911299999994}, "118802560RR0001": {"name": "BELIEVERS QUARTET INC.", "designationCode": "C", "categoryCode": "47", "address": "151 UNIVERISTY PK DR", "city": "REGINA", "province": "SK", "country": "CA", "postalCode": "S4V0E5", "twitter": "None", "instagram": "None", "facebook": "None", "youtube": "None", "website": "None", "summary": "None", "logo": "None", "latitude": 50.431149870650444, "longitude": -104.55880026669188}, "834820524RR0001": {"name": "BELL BARN SOCIETY OF INDIAN HEAD INC.", "designationCode": "C", "categoryCode": "52", "address": "BOX 1882                      NE 12-26-18-13 W2", "city": "INDIAN HEAD", "province": "SK", "country": "CA", "postalCode": "S0G2K0", "twitter": "None", "instagram": "None", "facebook": "None", "youtube": "None", "website": "None", "summary": "None", "logo": "None", "latitude": 50.53215300000005, "longitude": -103.67880199999993}, "877495713RR0001": {"name": "BELL CANADA EMPLOYEES' CHARITY TRUST", "designationCode": "B", "categoryCode": "75", "address": "1, ALEXANDRE G. BELL          A-4", "city": "VERDUN", "province": "QC", "country": "CA", "postalCode": "H3E3B3", "twitter": "None", "instagram": "None", "facebook": "None", "youtube": "None", "website": "None", "summary": "None", "logo": "None", "latitude": 45.47204700000006, "longitude": -73.54135249999993}, "866755283RR0001": {"name": "BELL ISLAND COMMUNITY FOOD BANK CORP", "designationCode": "C", "categoryCode": "09", "address": "PO BOX 899", "city": "BELL ISLAND", "province": "NL", "country": "CA", "postalCode": "A0A4H0", "twitter": "None", "instagram": "None", "facebook": "None", "youtube": "None", "website": "None", "summary": "None", "logo": "None", "latitude": 47.62298000000004, "longitude": -52.94907999999998}, "897798542RR0001": {"name": "BELL ISLAND HERITAGE SOCIETY INC.", "designationCode": "C", "categoryCode": "50", "address": "P.O BOX 219                   13 COMPRESSOR HILL", "city": "BELL ISLAND", "province": "NL", "country": "CA", "postalCode": "A0A4H0", "twitter": "None", "instagram": "None", "facebook": "None", "youtube": "None", "website": "None", "summary": "None", "logo": "None", "latitude": 47.64660376386762, "longitude": -52.94660880050284}, "118802941RR0001": {"name": "BELL ISLAND PORTUGAL COVE PASTORAL CHARGE", "designationCode": "C", "categoryCode": "44", "address": "1859 PORTUGAL COVE ROAD", "city": "PORTUGAL COVE-ST PHILLIPS", "province": "NL", "country": "CA", "postalCode": "A1M2M8", "twitter": "None", "instagram": "None", "facebook": "None", "youtube": "None", "website": "None", "summary": "None", "logo": "None", "latitude": 47.62701493090514, "longitude": -52.85089921879595}, "891808644RR0001": {"name": "BELL'ARTE SINGERS", "designationCode": "C", "categoryCode": "22", "address": "131 MANNING AVE", "city": "TORONTO", "province": "ON", "country": "CA", "postalCode": "M6J2K6", "twitter": "None", "instagram": "None", "facebook": "None", "youtube": "None", "website": "None", "summary": "None", "logo": "None", "latitude": 43.649575700530896, "longitude": -79.41017882970755}, "106782469RR0001": {"name": "BELLA BELLA COMMUNITY SCHOOL SOCIETY", "designationCode": "C", "categoryCode": "20", "address": "GENERAL DELIVERY", "city": "BELLA BELLA", "province": "BC", "country": "CA", "postalCode": "V0T1Z0", "twitter": "None", "instagram": "None", "facebook": "None", "youtube": "None", "website": "None", "summary": "None", "logo": "None", "latitude": 52.16569800000006, "longitude": -128.14515349999994}, "887630390RR0001": {"name": "BELLA BELLA PASTORAL CHARGE,", "designationCode": "C", "categoryCode": "44", "address": "PO BOX 789", "city": "BELLA BELLA", "province": "BC", "country": "CA", "postalCode": "V0T1Z0", "twitter": "None", "instagram": "None", "facebook": "None", "youtube": "None", "website": "None", "summary": "None", "logo": "None", "latitude": 52.16569800000006, "longitude": -128.14515349999994}, "890306442RR0001": {"name": "BELLA BELLA PENTECOSTAL CHURCH,", "designationCode": "C", "categoryCode": "36", "address": "PO BOX 103", "city": "WAGLISLA", "province": "BC", "country": "CA", "postalCode": "V0T1Z0", "twitter": "None", "instagram": "None", "facebook": "None", "youtube": "None", "website": "None", "summary": "None", "logo": "None", "latitude": 52.17227832572397, "longitude": -128.14426060121804}, "106782535RR0001": {"name": "BELLA COOLA COMMUNITY SUPPORT SOCIETY", "designationCode": "C", "categoryCode": "56", "address": "P.O. BOX 22", "city": "BELLA COOLA", "province": "BC", "country": "CA", "postalCode": "V0T1C0", "twitter": "None", "instagram": "None", "facebook": "None", "youtube": "None", "website": "None", "summary": "None", "logo": "None", "latitude": 52.37146000000007, "longitude": -126.81591999999995}, "118802594RR0001": {"name": "BELLA COOLA FAIR ASSOCIATION", "designationCode": "C", "categoryCode": "56", "address": "BOX 157", "city": "BELLA COOLA", "province": "BC", "country": "CA", "postalCode": "V0T1C0", "twitter": "None", "instagram": "None", "facebook": "None", "youtube": "None", "website": "None", "summary": "None", "logo": "None", "latitude": 52.37146000000007, "longitude": -126.81591999999995}, "106782600RR0001": {"name": "BELLA COOLA PASTORAL CHARGE", "designationCode": "C", "categoryCode": "44", "address": "BOX 158", "city": "BELLA COOLA", "province": "BC", "country": "CA", "postalCode": "V0T1C0", "twitter": "None", "instagram": "None", "facebook": "None", "youtube": "None", "website": "None", "summary": "None", "logo": "None", "latitude": 52.37146000000007, "longitude": -126.81591999999995}, "871334942RR0001": {"name": "BELLA COOLA PENTECOSTAL ASSEMBLY", "designationCode": "C", "categoryCode": "36", "address": "BOX 756", "city": "BELLA COOLA", "province": "BC", "country": "CA", "postalCode": "V0T1C0", "twitter": "None", "instagram": "None", "facebook": "None", "youtube": "None", "website": "None", "summary": "None", "logo": "None", "latitude": 52.37146000000007, "longitude": -126.81591999999995}, "118818491RR0042": {"name": "BELLA COOLA SEVENTH-DAY ADVENTIST CHURCH", "designationCode": "C", "categoryCode": "41", "address": "PO 1000", "city": "ABBOTSFORD", "province": "BC", "country": "CA", "postalCode": "V2S4P5", "twitter": "None", "instagram": "None", "facebook": "None", "youtube": "None", "website": "None", "summary": "None", "logo": "None", "latitude": 49.03851300000005, "longitude": -122.29441549999993}, "871276036RR0001": {"name": "BELLA COOLA VALLEY AWARDS FOUNDATION SOCIETY", "designationCode": "C", "categoryCode": "22", "address": "BOX 70", "city": "BELLA COOLA", "province": "BC", "country": "CA", "postalCode": "V0T1C0", "twitter": "None", "instagram": "None", "facebook": "None", "youtube": "None", "website": "None", "summary": "None", "logo": "None", "latitude": 52.37146000000007, "longitude": -126.81591999999995}, "106782642RR0002": {"name": "BELLA COOLA VALLEY MUSEUM SOCIETY", "designationCode": "C", "categoryCode": "50", "address": "BOX 726", "city": "BELLA COOLA", "province": "BC", "country": "CA", "postalCode": "V0T1C0", "twitter": "None", "instagram": "None", "facebook": "None", "youtube": "None", "website": "None", "summary": "None", "logo": "None", "latitude": 52.37146000000007, "longitude": -126.81591999999995}, "863488052RR0001": {"name": "BELLA ROSE ARTS CENTRE SOCIETY", "designationCode": "C", "categoryCode": "22", "address": "PO BOX 25136                  283 THOMAS RADDALL DRIVE", "city": "HALIFAX", "province": "NS", "country": "CA", "postalCode": "B3M4H4", "twitter": "None", "instagram": "None", "facebook": "None", "youtube": "None", "website": "None", "summary": "None", "logo": "None", "latitude": 44.655772393097664, "longitude": -63.66390492584623}, "118802644RR0001": {"name": "BELLAFIELD PRESBYTERIAN CHURCH", "designationCode": "C", "categoryCode": "37", "address": "PO BOX 91", "city": "DUNREA", "province": "MB", "country": "CA", "postalCode": "R0K0S0", "twitter": "None", "instagram": "None", "facebook": "None", "youtube": "None", "website": "None", "summary": "None", "logo": "None", "latitude": 49.40691000000004, "longitude": -99.73213999999996}, "890914385RR0001": {"name": "BELLE COTE AND AREA COMMUNITY CENTRE", "designationCode": "C", "categoryCode": "56", "address": "GENERAL DELIVERY", "city": "BELLE COTE", "province": "NS", "country": "CA", "postalCode": "B0E1C0", "twitter": "None", "instagram": "None", "facebook": "None", "youtube": "None", "website": "None", "summary": "None", "logo": "None", "latitude": 46.44944700000005, "longitude": -61.095733999999936}, "834449324RR0001": {"name": "BELLE PLAINE CHARITABLE TRUST", "designationCode": "B", "categoryCode": "39", "address": "3425 - 2 AVENUE SOUTH         MEYERS NORRIS PENNY, LLP", "city": "LETHBRIDGE", "province": "AB", "country": "CA", "postalCode": "T1J4V1", "twitter": "None", "instagram": "None", "facebook": "None", "youtube": "None", "website": "None", "summary": "None", "logo": "None", "latitude": 49.696839530439966, "longitude": -112.78914308381903}, "887197598RR0001": {"name": "BELLE RIVER LIONS CLUB CHARITABLE TRUST", "designationCode": "C", "categoryCode": "65", "address": "PO BOX 1314", "city": "BELLE RIVER", "province": "ON", "country": "CA", "postalCode": "N0R1A0", "twitter": "None", "instagram": "None", "facebook": "None", "youtube": "None", "website": "None", "summary": "None", "logo": "None", "latitude": 42.28923300000005, "longitude": -82.71911149999994}, "100459932RR0001": {"name": "BELLE RIVER-ROCHESTER GOODFELLOWS INC.", "designationCode": "C", "categoryCode": "09", "address": "104 - 2885 LAUZON PKY", "city": "WINDSOR", "province": "ON", "country": "CA", "postalCode": "N8T3H5", "twitter": "None", "instagram": "None", "facebook": "None", "youtube": "None", "website": "None", "summary": "None", "logo": "None", "latitude": 42.29208002111233, "longitude": -82.9249414988539}, "131529471RR0001": {"name": "BELLE VIEW BIBLE CAMP", "designationCode": "C", "categoryCode": "56", "address": "BOX 978", "city": "ST PAUL", "province": "AB", "country": "CA", "postalCode": "T0A3A0", "twitter": "None", "instagram": "None", "facebook": "None", "youtube": "None", "website": "None", "summary": "None", "logo": "None", "latitude": 53.99207006217902, "longitude": -111.26834992613558}, "892378431RR0001": {"name": "BELLEISLE COMMUNITY POOL ASSOCIATION INC", "designationCode": "C", "categoryCode": "56", "address": "1777 ROUTE 124", "city": "SPRINGFIELD KINGS CO", "province": "NB", "country": "CA", "postalCode": "E5T2J9", "twitter": "None", "instagram": "None", "facebook": "None", "youtube": "None", "website": "None", "summary": "None", "logo": "None", "latitude": 45.67086387876019, "longitude": -65.82829197260995}, "118802735RR0001": {"name": "BELLEISLE CREEK BAPTIST CHURCH", "designationCode": "C", "categoryCode": "31", "address": "983 EAST SCOTCH SETTLEMENT RD", "city": "BELLEISLE CREEK", "province": "NB", "country": "CA", "postalCode": "E5P1N3", "twitter": "None", "instagram": "None", "facebook": "None", "youtube": "None", "website": "None", "summary": "None", "logo": "None", "latitude": 45.74898523590786, "longitude": -65.7647699902545}, "106782956RR0001": {"name": "BELLEVILLE AND DISTRICT CHILDREN'S SERVICES COMMITTEE", "designationCode": "C", "categoryCode": "01", "address": "225 BRIDGE STREET EAST", "city": "BELLEVILLE", "province": "ON", "country": "CA", "postalCode": "K8N1N7", "twitter": "None", "instagram": "None", "facebook": "None", "youtube": "None", "website": "None", "summary": "None", "logo": "None", "latitude": 44.16674684984707, "longitude": -77.37035785567545}, "118802792RR0001": {"name": "BELLEVILLE ART ASSOCIATION", "designationCode": "C", "categoryCode": "22", "address": "392 FRONT ST", "city": "BELLEVILLE", "province": "ON", "country": "CA", "postalCode": "K8N2Z8", "twitter": "None", "instagram": "None", "facebook": "None", "youtube": "None", "website": "None", "summary": "None", "logo": "None", "latitude": 44.16814577969728, "longitude": -77.38592381262825}, "894225432RR0001": {"name": "BELLEVILLE BAPTIST CHURCH INC.", "designationCode": "C", "categoryCode": "39", "address": "4315 ROUTE 540", "city": "BELLEVILLE", "province": "NB", "country": "CA", "postalCode": "E7M5T5", "twitter": "None", "instagram": "None", "facebook": "None", "youtube": "None", "website": "None", "summary": "None", "logo": "None", "latitude": 46.20086377760814, "longitude": -67.70252849102472}, "122769425RR0001": {"name": "BELLEVILLE CEMETERY COMPANY", "designationCode": "C", "categoryCode": "59", "address": "631 DUNDAS STREET WEST        RR 2", "city": "BELLEVILLE", "province": "ON", "country": "CA", "postalCode": "K8N4Z2", "twitter": "None", "instagram": "None", "facebook": "None", "youtube": "None", "website": "None", "summary": "None", "logo": "None", "latitude": 44.14241212877174, "longitude": -77.42116784525957}, "118802800RR0001": {"name": "BELLEVILLE CENTENNIAL FREE METHODIST CHURCH", "designationCode": "C", "categoryCode": "39", "address": "135 AVONDALE RD", "city": "BELLEVILLE", "province": "ON", "country": "CA", "postalCode": "K8P4G4", "twitter": "None", "instagram": "None", "facebook": "None", "youtube": "None", "website": "None", "summary": "None", "logo": "None", "latitude": 44.151577102429364, "longitude": -77.4119190121477}, "898798467RR0001": {"name": "BELLEVILLE COMMUNITY FUND", "designationCode": "C", "categoryCode": "09", "address": "PO BOX 20102", "city": "BELLEVILLE", "province": "ON", "country": "CA", "postalCode": "K8N5V1", "twitter": "None", "instagram": "None", "facebook": "None", "youtube": "None", "website": "None", "summary": "None", "logo": "None", "latitude": 44.16104400000006, "longitude": -77.38183249999993}, "106782972RR0001": {"name": "BELLEVILLE DISTRICT CHRISTIAN SCHOOL SOCIETY", "designationCode": "C", "categoryCode": "20", "address": "18 CHRISTIAN SCHOOL RD        RR 5", "city": "BELLEVILLE", "province": "ON", "country": "CA", "postalCode": "K8N4Z5", "twitter": "None", "instagram": "None", "facebook": "None", "youtube": "None", "website": "None", "summary": "None", "logo": "None", "latitude": 44.214810671965886, "longitude": -77.40920107836602}, "889073649RR0001": {"name": "BELLEVILLE FIRE FIGHTERS ASSOCIATION BENEVOLENT FUND", "designationCode": "C", "categoryCode": "59", "address": "P.O BOX 20048", "city": "BELLEVILLE", "province": "ON", "country": "CA", "postalCode": "K8N5V1", "twitter": "None", "instagram": "None", "facebook": "None", "youtube": "None", "website": "None", "summary": "None", "logo": "None", "latitude": 44.16104400000006, "longitude": -77.38183249999993}, "118802842RR0001": {"name": "BELLEVILLE GENERAL HOSPITAL AUXILIARY", "designationCode": "C", "categoryCode": "19", "address": "265 DUNDAS STE", "city": "BELLEVILLE", "province": "ON", "country": "CA", "postalCode": "K8N1E2", "twitter": "None", "instagram": "None", "facebook": "None", "youtube": "None", "website": "None", "summary": "None", "logo": "None", "latitude": 44.16384327615561, "longitude": -77.36444509686078}, "122935869RR0001": {"name": "BELLEVILLE KINSMEN COMMUNITY CENTRE AND PARTICIPARK", "designationCode": "C", "categoryCode": "56", "address": "525 DUNDAS ST E", "city": "BELLEVILLE", "province": "ON", "country": "CA", "postalCode": "K8N1G4", "twitter": "None", "instagram": "None", "facebook": "None", "youtube": "None", "website": "None", "summary": "None", "logo": "None", "latitude": 44.167855429529624, "longitude": -77.3494216900456}, "874355704RR0001": {"name": "BELLEVILLE KOREAN PRESBYTERIAN CHURCH", "designationCode": "C", "categoryCode": "39", "address": "432 BRIDGE STR. EAST", "city": "BELLEVILLE", "province": "ON", "country": "CA", "postalCode": "K8N1R1", "twitter": "None", "instagram": "None", "facebook": "None", "youtube": "None", "website": "None", "summary": "None", "logo": "None", "latitude": 44.16985408638652, "longitude": -77.35716653514316}, "890280951RR0001": {"name": "BELLEVILLE POLICE SERVICE CHILDREN'S SAFETY VILLAGE", "designationCode": "C", "categoryCode": "29", "address": "93 DUNDAS STREET EAST", "city": "BELLEVILLE", "province": "ON", "country": "CA", "postalCode": "K8N1C2", "twitter": "None", "instagram": "None", "facebook": "None", "youtube": "None", "website": "None", "summary": "None", "logo": "None", "latitude": 44.16195156895964, "longitude": -77.37730218872989}, "140729039RR0001": {"name": "BELLEVILLE PREGNANCY AND FAMILY CARE CENTRE", "designationCode": "C", "categoryCode": "09", "address": "204-200 DUNDAS ST E", "city": "BELLEVILLE", "province": "ON", "country": "CA", "postalCode": "K8N1E3", "twitter": "None", "instagram": "None", "facebook": "None", "youtube": "None", "website": "None", "summary": "None", "logo": "None", "latitude": 44.162832264556165, "longitude": -77.36944850848276}, "107797383RR0090": {"name": "BELLEVILLE SEVENTH-DAY ADVENTIST CHURCH", "designationCode": "C", "categoryCode": "41", "address": "253 DUNDAS STREET WEST", "city": "BELLEVILLE", "province": "ON", "country": "CA", "postalCode": "K8P1A9", "twitter": "None", "instagram": "None", "facebook": "None", "youtube": "None", "website": "None", "summary": "None", "logo": "None", "latitude": 44.151401623319636, "longitude": -77.39750925722815}, "106783087RR0001": {"name": "BELLEVILLE WESLEYAN CHURCH", "designationCode": "C", "categoryCode": "39", "address": "78 EVERETT ST", "city": "BELLEVILLE", "province": "ON", "country": "CA", "postalCode": "K8P3K3", "twitter": "None", "instagram": "None", "facebook": "None", "youtube": "None", "website": "None", "summary": "None", "logo": "None", "latitude": 44.166393702464134, "longitude": -77.3889049153729}, "863175865RR0001": {"name": "BELLEVUE AND EXTENSION CEMETERY ASSOCIATION", "designationCode": "C", "categoryCode": "59", "address": "PO BOX 83", "city": "RIVER JOHN", "province": "NS", "country": "CA", "postalCode": "B0K1N0", "twitter": "None", "instagram": "None", "facebook": "None", "youtube": "None", "website": "None", "summary": "None", "logo": "None", "latitude": 45.71633084188482, "longitude": -62.89386615532279}, "119288918RR0901": {"name": "BELLEVUE PARK CONGREGATION OF JEHOVAH'S WITNESSES", "designationCode": "C", "categoryCode": "61", "address": "742 THIRD LINE EAST", "city": "SAULT STE MARIE", "province": "ON", "country": "CA", "postalCode": "P6A6J8", "twitter": "None", "instagram": "None", "facebook": "None", "youtube": "None", "website": "None", "summary": "None", "logo": "None", "latitude": 46.553174265568735, "longitude": -84.31344343934126}, "118802933RR0002": {"name": "BELLINGHAM UNITED CHURCH", "designationCode": "C", "categoryCode": "44", "address": "2273 HWY 554                  R.R. #1", "city": "IRON BRIDGE", "province": "ON", "country": "CA", "postalCode": "P0R1H0", "twitter": "None", "instagram": "None", "facebook": "None", "youtube": "None", "website": "None", "summary": "None", "logo": "None", "latitude": 46.391932505976435, "longitude": -83.28424425180816}, "118802958RR0001": {"name": "BELLIS SOCIETY OF MISSIONS", "designationCode": "C", "categoryCode": "09", "address": "PO BOX 102", "city": "BELLIS", "province": "AB", "country": "CA", "postalCode": "T0A0J0", "twitter": "None", "instagram": "None", "facebook": "None", "youtube": "None", "website": "None", "summary": "None", "logo": "None", "latitude": 54.13262000000003, "longitude": -112.15113999999994}, "891604068RR0001": {"name": "BELLIS UKRAINIAN RECREATIONAL & CULTURAL CENTER", "designationCode": "C", "categoryCode": "56", "address": "POST OFFICE BOX 91", "city": "BELLIS", "province": "AB", "country": "CA", "postalCode": "T0A0J0", "twitter": "None", "instagram": "None", "facebook": "None", "youtube": "None", "website": "None", "summary": "None", "logo": "None", "latitude": 54.13262000000003, "longitude": -112.15113999999994}, "889840799RR0001": {"name": "BELLIVEAU COVE DEVELOPMENT COMMISSION", "designationCode": "C", "categoryCode": "52", "address": "BOX 5", "city": "BELLIVEAU COVE", "province": "NS", "country": "CA", "postalCode": "B0W1J0", "twitter": "None", "instagram": "None", "facebook": "None", "youtube": "None", "website": "None", "summary": "None", "logo": "None", "latitude": 44.386101041319264, "longitude": -66.06239395351582}, "118802982RR0001": {"name": "BELLS CORNERS CEMETERY BOARD", "designationCode": "C", "categoryCode": "59", "address": "123 SLATER STREET, 3RD FLOOR", "city": "OTTAWA", "province": "ON", "country": "CA", "postalCode": "K1P5H2", "twitter": "None", "instagram": "None", "facebook": "None", "youtube": "None", "website": "None", "summary": "None", "logo": "None", "latitude": 45.42071141078527, "longitude": -75.69659091147776}, "100462118RR0001": {"name": "BELLS CORNERS CO-OPERATIVE NURSERY SCHOOL, INC.", "designationCode": "C", "categoryCode": "01", "address": "3955 OLD RICHMOND RD", "city": "NEPEAN", "province": "ON", "country": "CA", "postalCode": "K2H5C5", "twitter": "None", "instagram": "None", "facebook": "None", "youtube": "None", "website": "None", "summary": "None", "logo": "None", "latitude": 45.315542804922124, "longitude": -75.82831076161331}, "106783343RR0001": {"name": "BELLS CORNERS UNITED CHURCH", "designationCode": "C", "categoryCode": "44", "address": "3955 OLD RICHMOND RD", "city": "NEPEAN", "province": "ON", "country": "CA", "postalCode": "K2H5C5", "twitter": "None", "instagram": "None", "facebook": "None", "youtube": "None", "website": "None", "summary": "None", "logo": "None", "latitude": 45.315542804922124, "longitude": -75.82831076161331}, "119288918RR0364": {"name": "BELLWOOD PARK CONGREGATION OF JEHOVAH'S WITNESSES, LONDON, ONTARIO", "designationCode": "C", "categoryCode": "61", "address": "905 MEDWAY PARK COURT", "city": "LONDON", "province": "ON", "country": "CA", "postalCode": "N6G5C7", "twitter": "None", "instagram": "None", "facebook": "None", "youtube": "None", "website": "None", "summary": "None", "logo": "None", "latitude": 43.02094320569543, "longitude": -81.31494885388643}, "802834473RR0001": {"name": "BELLWOODS (DUNDAS STREET WEST) COMMUNITY HOUSING COMPLEX INC.", "designationCode": "C", "categoryCode": "01", "address": "701-789 DON MILLS RD", "city": "TORONTO", "province": "ON", "country": "CA", "postalCode": "M3C1T5", "twitter": "None", "instagram": "None", "facebook": "None", "youtube": "None", "website": "None", "summary": "None", "logo": "None", "latitude": 43.71848363947712, "longitude": -79.33802178290762}, "108070665RR0001": {"name": "BELLWOODS CENTRES FOR COMMUNITY LIVING INC.", "designationCode": "C", "categoryCode": "11", "address": "701-789 DON MILLS RD", "city": "NORTH YORK", "province": "ON", "country": "CA", "postalCode": "M3C1T5", "twitter": "None", "instagram": "None", "facebook": "None", "youtube": "None", "website": "None", "summary": "None", "logo": "None", "latitude": 43.708179055694835, "longitude": -79.33384518793717}, "864965157RR0001": {"name": "BELMONT & AREA DONOR'S CHOICE", "designationCode": "A", "categoryCode": "03", "address": "219 GEORGE ST.                P.O. BOX 13", "city": "BELMONT", "province": "MB", "country": "CA", "postalCode": "R0K0C0", "twitter": "None", "instagram": "None", "facebook": "None", "youtube": "None", "website": "None", "summary": "None", "logo": "None", "latitude": 49.41099390918474, "longitude": -99.45475806089374}, "130336373RR0001": {"name": "BELMONT AND DISTRICT HISTORICAL SOCIETY INCORPORATED", "designationCode": "C", "categoryCode": "50", "address": "P.O. BOX 69", "city": "BELMONT", "province": "MB", "country": "CA", "postalCode": "R0K0C0", "twitter": "None", "instagram": "None", "facebook": "None", "youtube": "None", "website": "None", "summary": "None", "logo": "None", "latitude": 49.41124000000008, "longitude": -99.45502999999997}, "891281198RR0001": {"name": "BELMONT ATHLETICS AND EXTRA-CURRICULAR SOCIETY", "designationCode": "C", "categoryCode": "21", "address": "3041 LANGFORD LAKE RD", "city": "VICTORIA", "province": "BC", "country": "CA", "postalCode": "V9B0L9", "twitter": "None", "instagram": "None", "facebook": "None", "youtube": "None", "website": "None", "summary": "None", "logo": "None", "latitude": 48.44374302865905, "longitude": -123.53073765303262}, "890489867RR0001": {"name": "BELMONT HOUSE FOUNDATION", "designationCode": "A", "categoryCode": "03", "address": "55 BELMONT STREET", "city": "TORONTO", "province": "ON", "country": "CA", "postalCode": "M5R1R1", "twitter": "None", "instagram": "None", "facebook": "None", "youtube": "None", "website": "None", "summary": "None", "logo": "None", "latitude": 43.67510184147987, "longitude": -79.39108586912123}, "858444193RR0001": {"name": "BELMONT LIONS COMMUNITY PARK TRUST", "designationCode": "C", "categoryCode": "65", "address": "359 SCARLETT PLACE", "city": "BELMONT", "province": "ON", "country": "CA", "postalCode": "N0L1B0", "twitter": "None", "instagram": "None", "facebook": "None", "youtube": "None", "website": "None", "summary": "None", "logo": "None", "latitude": 42.881262048881865, "longitude": -81.08504581343978}, "871309670RR0001": {"name": "BELMONT PENTECOSTAL ASSEMBLY", "designationCode": "C", "categoryCode": "36", "address": "BOX 5", "city": "BELMONT", "province": "MB", "country": "CA", "postalCode": "R0K0C0", "twitter": "None", "instagram": "None", "facebook": "None", "youtube": "None", "website": "None", "summary": "None", "logo": "None", "latitude": 49.4111310728558, "longitude": -99.45878483481715}, "118803055RR0001": {"name": "BELMONT SCHOLARSHIP SOCIETY", "designationCode": "C", "categoryCode": "21", "address": "3067 JACKLIN ROAD", "city": "VICTORIA", "province": "BC", "country": "CA", "postalCode": "V9B3Y7", "twitter": "None", "instagram": "None", "facebook": "None", "youtube": "None", "website": "None", "summary": "None", "logo": "None", "latitude": 48.437925350251106, "longitude": -123.512968727538}, "118803071RR0001": {"name": "BELMONT UNITED BAPTIST CHURCH", "designationCode": "C", "categoryCode": "31", "address": "BELMONT UNITED BAPTIST CHURCH 1113 BELMONT ROAD", "city": "BELMONT", "province": "NS", "country": "CA", "postalCode": "B0M1C0", "twitter": "None", "instagram": "None", "facebook": "None", "youtube": "None", "website": "None", "summary": "None", "logo": "None", "latitude": 45.42447806356394, "longitude": -63.38527079866106}, "118803089RR0001": {"name": "BELMONT UNITED BAPTIST CHURCH", "designationCode": "C", "categoryCode": "31", "address": "585 BELMONT RD RTE 123", "city": "MISCOUCHE", "province": "PE", "country": "CA", "postalCode": "C0B1T0", "twitter": "None", "instagram": "None", "facebook": "None", "youtube": "None", "website": "None", "summary": "None", "logo": "None", "latitude": 46.49223284373437, "longitude": -63.81713717352251}, "118803097RR0001": {"name": "BELMONT UNITED CHURCH", "designationCode": "C", "categoryCode": "44", "address": "115 SEVENTH AVE", "city": "BELMONT", "province": "ON", "country": "CA", "postalCode": "N0L1B0", "twitter": "None", "instagram": "None", "facebook": "None", "youtube": "None", "website": "None", "summary": "None", "logo": "None", "latitude": 42.886074591052996, "longitude": -81.10737427037822}, "817016678RR0001": {"name": "BELMONT UNITED CHURCH", "designationCode": "C", "categoryCode": "44", "address": "P.O. BOX 101", "city": "BELMONT", "province": "MB", "country": "CA", "postalCode": "R0K0C0", "twitter": "None", "instagram": "None", "facebook": "None", "youtube": "None", "website": "None", "summary": "None", "logo": "None", "latitude": 49.41124000000008, "longitude": -99.45502999999997}, "888061942RR0001": {"name": "BELMONT-METHUEN AND HAVELOCK HISTORICAL SOCIETY", "designationCode": "C", "categoryCode": "50", "address": "8706 COUNTY ROAD 50           RR3", "city": "HAVELOCK", "province": "ON", "country": "CA", "postalCode": "K0L1Z0", "twitter": "None", "instagram": "None", "facebook": "None", "youtube": "None", "website": "None", "summary": "None", "logo": "None", "latitude": 44.41193879935489, "longitude": -77.8054918186019}}