{"119051068RR0001": {"name": "NANTON-CAYLEY PASTORAL CHARGE", "designationCode": "C", "categoryCode": "44", "address": "P.O. BOX 759", "city": "NANTON", "province": "AB", "country": "CA", "postalCode": "T0L1R0", "twitter": "None", "instagram": "None", "facebook": "None", "youtube": "None", "website": "None", "summary": "None", "logo": "None", "latitude": 50.448604499999995, "longitude": -113.84751825000001}, "872180096RR0001": {"name": "NANTON-PARKLAND UNITED CHURCH", "designationCode": "C", "categoryCode": "44", "address": "BOX 759", "city": "NANTON", "province": "AB", "country": "CA", "postalCode": "T0L1R0", "twitter": "None", "instagram": "None", "facebook": "None", "youtube": "None", "website": "None", "summary": "None", "logo": "None", "latitude": 50.448604499999995, "longitude": -113.84751825000001}, "119051084RR0001": {"name": "NAOMI LEVIN SCHOLARSHIP FUND", "designationCode": "C", "categoryCode": "21", "address": "RE CENTRE 174 MARKET AVE", "city": "WINNIPEG", "province": "MB", "country": "CA", "postalCode": "R3B0P8", "twitter": "None", "instagram": "None", "facebook": "None", "youtube": "None", "website": "None", "summary": "None", "logo": "None", "latitude": 49.89883604965681, "longitude": -97.13688230157524}, "119051092RR0001": {"name": "NAOMI'S FAMILY RESOURCE CENTRE (WINCHESTER)", "designationCode": "C", "categoryCode": "09", "address": "P.O. BOX 849                  607 ST LAWRENCE STREET", "city": "WINCHESTER", "province": "ON", "country": "CA", "postalCode": "K0C2K0", "twitter": "None", "instagram": "None", "facebook": "None", "youtube": "None", "website": "None", "summary": "None", "logo": "None", "latitude": 45.086124383028356, "longitude": -75.34847733288153}, "889766549RR0001": {"name": "NAPAN SCHOLARSHIP COMMITTEE", "designationCode": "C", "categoryCode": "21", "address": "617 NORTH NAPAN ROAD", "city": "NAPAN", "province": "NB", "country": "CA", "postalCode": "E1N4W7", "twitter": "None", "instagram": "None", "facebook": "None", "youtube": "None", "website": "None", "summary": "None", "logo": "None", "latitude": 47.01728340882906, "longitude": -65.40765279153173}, "891919573RR0001": {"name": "NAPANEE BAPTIST CHURCH,", "designationCode": "C", "categoryCode": "31", "address": "291 DUNDAS ST W", "city": "NAPANEE", "province": "ON", "country": "CA", "postalCode": "K7R2B3", "twitter": "None", "instagram": "None", "facebook": "None", "youtube": "None", "website": "None", "summary": "None", "logo": "None", "latitude": 44.24116546771276, "longitude": -76.96207789638721}, "891264947RR0001": {"name": "NAPANEE CEMETERY COMPANY", "designationCode": "C", "categoryCode": "59", "address": "9 THOMAS ST. EAST", "city": "NAPANEE", "province": "ON", "country": "CA", "postalCode": "K7R1K5", "twitter": "None", "instagram": "None", "facebook": "None", "youtube": "None", "website": "None", "summary": "None", "logo": "None", "latitude": 44.25001869305771, "longitude": -76.95265412311714}, "891521742RR0001": {"name": "NAPANEE DISTRICT COMMUNITY FOUNDATION", "designationCode": "A", "categoryCode": "53", "address": "47 DUNDAS ST E", "city": "NAPANEE", "province": "ON", "country": "CA", "postalCode": "K7R1H7", "twitter": "None", "instagram": "None", "facebook": "None", "youtube": "None", "website": "None", "summary": "None", "logo": "None", "latitude": 44.2482677369148, "longitude": -76.94874414143901}, "108003146RR0001": {"name": "NAPANEE STANDARD WESLEYAN CHURCH", "designationCode": "C", "categoryCode": "39", "address": "51 PALACE ROAD", "city": "NAPANEE", "province": "ON", "country": "CA", "postalCode": "K7R3B1", "twitter": "None", "instagram": "None", "facebook": "None", "youtube": "None", "website": "None", "summary": "None", "logo": "None", "latitude": 44.24440062031854, "longitude": -76.94670997544573}, "130946072RR0001": {"name": "NAPI FRIENDSHIP ASSOCIATION", "designationCode": "C", "categoryCode": "59", "address": "BOX 657", "city": "PINCHER CREEK", "province": "AB", "country": "CA", "postalCode": "T0K1W0", "twitter": "None", "instagram": "None", "facebook": "None", "youtube": "None", "website": "None", "summary": "None", "logo": "None", "latitude": 49.48739000000006, "longitude": -113.9366800732874}, "891093544RR0001": {"name": "NAPINKA CEMETERY MEMORIAL FUND", "designationCode": "C", "categoryCode": "59", "address": "BOX 95", "city": "NAPINKA", "province": "MB", "country": "CA", "postalCode": "R0M1N0", "twitter": "None", "instagram": "None", "facebook": "None", "youtube": "None", "website": "None", "summary": "None", "logo": "None", "latitude": 49.32217000000003, "longitude": -100.84226999999998}, "119051134RR0001": {"name": "NAPPAN UNITED CHURCH", "designationCode": "C", "categoryCode": "44", "address": "4278 HIGHWAY 302", "city": "NAPPAN", "province": "NS", "country": "CA", "postalCode": "B0L1C0", "twitter": "None", "instagram": "None", "facebook": "None", "youtube": "None", "website": "None", "summary": "None", "logo": "None", "latitude": 45.76945483095082, "longitude": -64.23840412989469}, "119051142RR0001": {"name": "NARAMATA CENTRE SOCIETY", "designationCode": "C", "categoryCode": "20", "address": "PO BOX 68", "city": "NARAMATA", "province": "BC", "country": "CA", "postalCode": "V0H1N0", "twitter": "None", "instagram": "None", "facebook": "None", "youtube": "None", "website": "None", "summary": "None", "logo": "None", "latitude": 49.57393320089192, "longitude": -119.57989835440355}, "129144549RR0032": {"name": "NARAMATA COMMUNITY CHURCH", "designationCode": "C", "categoryCode": "30", "address": "BOX 88", "city": "NARAMATA", "province": "BC", "country": "CA", "postalCode": "V0H1N0", "twitter": "None", "instagram": "None", "facebook": "None", "youtube": "None", "website": "None", "summary": "None", "logo": "None", "latitude": 49.57393320089192, "longitude": -119.57989835440355}, "879668317RR0001": {"name": "NARAMATA COMMUNITY FUND SOCIETY", "designationCode": "C", "categoryCode": "01", "address": "502 ELLIS STREET", "city": "PENTICTON", "province": "BC", "country": "CA", "postalCode": "V2A4M3", "twitter": "None", "instagram": "None", "facebook": "None", "youtube": "None", "website": "None", "summary": "None", "logo": "None", "latitude": 49.49581125950718, "longitude": -119.58962753690352}, "890441843RR0001": {"name": "NARAMATA HERITAGE MUSEUM SOCIETY", "designationCode": "C", "categoryCode": "50", "address": "2ND STREET & ROBINSON AVENUE  P.O. BOX 95", "city": "NARAMATA", "province": "BC", "country": "CA", "postalCode": "V0H1N0", "twitter": "None", "instagram": "None", "facebook": "None", "youtube": "None", "website": "None", "summary": "None", "logo": "None", "latitude": 49.59654023248332, "longitude": -119.58995001814135}, "891113987RR0001": {"name": "NARAYAN DAS EDUCATIONAL SOCIETY", "designationCode": "C", "categoryCode": "21", "address": "#2504, 1100-8 AVENUE S.W.", "city": "CALGARY", "province": "AB", "country": "CA", "postalCode": "T2P3T9", "twitter": "None", "instagram": "None", "facebook": "None", "youtube": "None", "website": "None", "summary": "None", "logo": "None", "latitude": 51.046233442148875, "longitude": -114.08676322009349}, "107760142RR0001": {"name": "NARCONON INCORPORATED", "designationCode": "C", "categoryCode": "57", "address": "7651 MILBUROUGH LINE", "city": "FREELTON", "province": "ON", "country": "CA", "postalCode": "L0R1K0", "twitter": "None", "instagram": "None", "facebook": "None", "youtube": "None", "website": "None", "summary": "None", "logo": "None", "latitude": 43.4304860928955, "longitude": -79.97785218409355}, "897333837RR0001": {"name": "NARCOSLI CHRISTIAN FELLOWSHIP", "designationCode": "C", "categoryCode": "39", "address": "8302 WEST FRASER ROAD", "city": "QUESNEL", "province": "BC", "country": "CA", "postalCode": "V2J6R3", "twitter": "None", "instagram": "None", "facebook": "None", "youtube": "None", "website": "None", "summary": "None", "logo": "None", "latitude": 52.819390877645226, "longitude": -122.47526047391538}, "871347506RR0001": {"name": "NARRATIVE 360 SOCIETY FOR DOCUMENTARY STUDIES", "designationCode": "C", "categoryCode": "22", "address": "6 - 3477 COMMERCIAL ST", "city": "VANCOUVER", "province": "BC", "country": "CA", "postalCode": "V5N4E8", "twitter": "None", "instagram": "None", "facebook": "None", "youtube": "None", "website": "None", "summary": "None", "logo": "None", "latitude": 49.25363428282071, "longitude": -123.06794352002396}, "119051191RR0001": {"name": "NARROWS BAPTIST CEMETERY INC.", "designationCode": "C", "categoryCode": "59", "address": "2238 LAKEVIEW RD", "city": "CAMBRIDGE-NARROWS", "province": "NB", "country": "CA", "postalCode": "E4C1N8", "twitter": "None", "instagram": "None", "facebook": "None", "youtube": "None", "website": "None", "summary": "None", "logo": "None", "latitude": 45.83115164935752, "longitude": -65.95524909248557}, "858555279RR0001": {"name": "NASHWAAK BRIDGE COMMUNITY CEMETERY INC.", "designationCode": "C", "categoryCode": "33", "address": "121 ROUTE 107 HWY", "city": "NASHWAAK BRIDGE", "province": "NB", "country": "CA", "postalCode": "E6C2G3", "twitter": "None", "instagram": "None", "facebook": "None", "youtube": "None", "website": "None", "summary": "None", "logo": "None", "latitude": 46.24082126919585, "longitude": -66.61910373439174}, "119288918RR0629": {"name": "NASHWAAK CONGREGATION OF JEHOVAH'S WITNESSES", "designationCode": "C", "categoryCode": "61", "address": "1039 MCLEOD HILL RD", "city": "MCLEOD HILL", "province": "NB", "country": "CA", "postalCode": "E3G6H8", "twitter": "None", "instagram": "None", "facebook": "None", "youtube": "None", "website": "None", "summary": "None", "logo": "None", "latitude": 46.02269798692959, "longitude": -66.67945009181086}, "888916798RR0001": {"name": "NASHWAAK UNITED BAPTIST CHURCH,", "designationCode": "C", "categoryCode": "31", "address": "370 LOWER DURHAM RD", "city": "DURHAM BRIDGE", "province": "NB", "country": "CA", "postalCode": "E6C1G1", "twitter": "None", "instagram": "None", "facebook": "None", "youtube": "None", "website": "None", "summary": "None", "logo": "None", "latitude": 46.127628468406186, "longitude": -66.51448382806277}, "849179726RR0001": {"name": "NASHWAAK VALLEY PENTECOSTAL CHURCH INC.", "designationCode": "C", "categoryCode": "39", "address": "2265 ROUTE 148", "city": "TAYMOUTH", "province": "NB", "country": "CA", "postalCode": "E6C2B5", "twitter": "None", "instagram": "None", "facebook": "None", "youtube": "None", "website": "None", "summary": "None", "logo": "None", "latitude": 46.18699818694415, "longitude": -66.60758550148222}, "889361192RR0001": {"name": "NASHWAAK VILLAGE UNITED CHURCH", "designationCode": "C", "categoryCode": "44", "address": "1644 CANADA ST", "city": "NASHWAAK VILLAGE", "province": "NB", "country": "CA", "postalCode": "E6C1M6", "twitter": "None", "instagram": "None", "facebook": "None", "youtube": "None", "website": "None", "summary": "None", "logo": "None", "latitude": 46.07859324683368, "longitude": -66.60890718637238}, "129138418RR0001": {"name": "NASHWAAKSIS UNITED BAPTIST CHURCH,", "designationCode": "C", "categoryCode": "31", "address": "104 EDGEWOOD DRIVE", "city": "FREDERICTON", "province": "NB", "country": "CA", "postalCode": "E3A1T3", "twitter": "None", "instagram": "None", "facebook": "None", "youtube": "None", "website": "None", "summary": "None", "logo": "None", "latitude": 45.98199799417162, "longitude": -66.6587745062324}, "119051274RR0001": {"name": "NASHWAAKSIS UNITED CHURCH", "designationCode": "C", "categoryCode": "44", "address": "46 MAIN ST.", "city": "FREDERICTON", "province": "NB", "country": "CA", "postalCode": "E3A1C1", "twitter": "None", "instagram": "None", "facebook": "None", "youtube": "None", "website": "None", "summary": "None", "logo": "None", "latitude": 45.982055577846424, "longitude": -66.66179479491015}, "119051316RR0001": {"name": "NASSAGAWEYA PRESBYTERIAN CHURCH", "designationCode": "C", "categoryCode": "37", "address": "10589-6TH LINE NASS RR 3 STN MAIN", "city": "MILTON", "province": "ON", "country": "CA", "postalCode": "L9E0C9", "twitter": "None", "instagram": "None", "facebook": "None", "youtube": "None", "website": "None", "summary": "None", "logo": "None", "latitude": 43.53116672262124, "longitude": -79.79922736476085}, "897274015RR0001": {"name": "NASTAWGAN TRAILS INC.", "designationCode": "C", "categoryCode": "56", "address": "RR#1 SAWMILL RD.", "city": "NEW LISKEARD", "province": "ON", "country": "CA", "postalCode": "P0J1P0", "twitter": "None", "instagram": "None", "facebook": "None", "youtube": "None", "website": "None", "summary": "None", "logo": "None", "latitude": 47.55171713302964, "longitude": -79.82807998951911}, "890643547RR0001": {"name": "NATHAN & SHANI BLEEMAN CHARITABLE FOUNDATION", "designationCode": "B", "categoryCode": "03", "address": "970 LAWRENCE AVE WEST, STE#304", "city": "TORONTO", "province": "ON", "country": "CA", "postalCode": "M6A3B6", "twitter": "None", "instagram": "None", "facebook": "None", "youtube": "None", "website": "None", "summary": "None", "logo": "None", "latitude": 43.713414238444024, "longitude": -79.45809593770547}, "119051340RR0001": {"name": "NATHAN AND LILY SILVER FAMILY FOUNDATION", "designationCode": "B", "categoryCode": "03", "address": "1 YORKDALE ROAD STE 601", "city": "NORTH YORK", "province": "ON", "country": "CA", "postalCode": "M6A3A1", "twitter": "None", "instagram": "None", "facebook": "None", "youtube": "None", "website": "None", "summary": "None", "logo": "None", "latitude": 43.72823883758475, "longitude": -79.45371698998802}, "828715870RR0001": {"name": "NATION AT PRAYER", "designationCode": "C", "categoryCode": "49", "address": "9 COULSON CRT", "city": "MARKHAM", "province": "ON", "country": "CA", "postalCode": "L3P6G7", "twitter": "None", "instagram": "None", "facebook": "None", "youtube": "None", "website": "None", "summary": "None", "logo": "None", "latitude": 43.882524566737914, "longitude": -79.28281055770688}, "866186059RR0001": {"name": "NATIONAL ABORIGINAL CIRCLE AGAINST FAMILY VIOLENCE/CERCLE N ATIONAL DES AUTOCHTONES CONTRE LA VIOLENCE FAMILIALE", "designationCode": "C", "categoryCode": "29", "address": "PO BOX 2169", "city": "KAHNAWAKE", "province": "QC", "country": "CA", "postalCode": "J0L1B0", "twitter": "None", "instagram": "None", "facebook": "None", "youtube": "None", "website": "None", "summary": "None", "logo": "None", "latitude": 45.40894000000003, "longitude": -73.67382999999995}, "883789760RR0001": {"name": "NATIONAL ABORIGINAL DIABETES ASSOCIATION, INC.", "designationCode": "C", "categoryCode": "11", "address": "103 - 90 GARRY ST", "city": "WINNIPEG", "province": "MB", "country": "CA", "postalCode": "R3C4H1", "twitter": "None", "instagram": "None", "facebook": "None", "youtube": "None", "website": "None", "summary": "None", "logo": "None", "latitude": 49.890267531364145, "longitude": -97.13868578045343}, "720333327RR0001": {"name": "NATIONAL ANONYMOUS CALL CENTRE", "designationCode": "C", "categoryCode": "59", "address": "116 OXFORD ST", "city": "INGERSOLL", "province": "ON", "country": "CA", "postalCode": "N5C2V5", "twitter": "None", "instagram": "None", "facebook": "None", "youtube": "None", "website": "None", "summary": "None", "logo": "None", "latitude": 43.03816777324142, "longitude": -80.88391280780766}, "119051407RR0002": {"name": "NATIONAL ARTS CENTRE CORPORATION EMPLOYEES CHARITY TRUST", "designationCode": "B", "categoryCode": "75", "address": "BOX 1534 STATION B", "city": "OTTAWA", "province": "ON", "country": "CA", "postalCode": "K1P5W1", "twitter": "None", "instagram": "None", "facebook": "None", "youtube": "None", "website": "None", "summary": "None", "logo": "None", "latitude": 45.42177300000006, "longitude": -75.69115999999994}, "119051407RR0001": {"name": "NATIONAL ARTS CENTRE CORPORATION/SOCIETE DU CENTRE NATIONAL DES ARTS", "designationCode": "C", "categoryCode": "22", "address": "53 ELGIN STREET               PO BOX 1534 STN B", "city": "OTTAWA", "province": "ON", "country": "CA", "postalCode": "K1P5W1", "twitter": "None", "instagram": "None", "facebook": "None", "youtube": "None", "website": "None", "summary": "None", "logo": "None", "latitude": 45.4232403482466, "longitude": -75.69463668863087}, "862225927RR0001": {"name": "NATIONAL ARTS CENTRE FOUNDATION/FONDATION CENTRE NATIONAL DES ARTS", "designationCode": "A", "categoryCode": "22", "address": "PO BOX 1534                   STATION B", "city": "OTTAWA", "province": "ON", "country": "CA", "postalCode": "K1P5W1", "twitter": "None", "instagram": "None", "facebook": "None", "youtube": "None", "website": "None", "summary": "None", "logo": "None", "latitude": 45.42177300000006, "longitude": -75.69115999999994}, "855037081RR0001": {"name": "NATIONAL ASSOCIATION OF TEACHERS OF SINGING -- VANCOUVER CHAPTER", "designationCode": "C", "categoryCode": "22", "address": "1075 LILLOOET ROAD", "city": "NORTH VANCOUVER", "province": "BC", "country": "CA", "postalCode": "V7J3H7", "twitter": "None", "instagram": "None", "facebook": "None", "youtube": "None", "website": "None", "summary": "None", "logo": "None", "latitude": 49.31636543108598, "longitude": -123.02406505860107}, "886278381RR0001": {"name": "NATIONAL ASSOCIATION OF TEACHERS OF SINGING/NATIONAL CAPITAL", "designationCode": "C", "categoryCode": "22", "address": "28 MELVILLE RD", "city": "ARNPRIOR", "province": "ON", "country": "CA", "postalCode": "K7S3Z8", "twitter": "None", "instagram": "None", "facebook": "None", "youtube": "None", "website": "None", "summary": "None", "logo": "None", "latitude": 45.43123848739095, "longitude": -76.34387989826314}, "891755241RR0001": {"name": "NATIONAL ASSOCIATION OF TEACHERS OF SINGING, ONTARIO CHAPTER", "designationCode": "C", "categoryCode": "21", "address": "32 CLARENCE ST.               P.O. BOX 83", "city": "QUEENSTON", "province": "ON", "country": "CA", "postalCode": "L0S1L0", "twitter": "None", "instagram": "None", "facebook": "None", "youtube": "None", "website": "None", "summary": "None", "logo": "None", "latitude": 43.16278204469382, "longitude": -79.05323785873388}, "140835885RR0001": {"name": "NATIONAL ASSOCIATION OF WOMEN AND THE LAW CHARITABLE TRUST FOR RESEARCH AND EDUCATION", "designationCode": "C", "categoryCode": "21", "address": "2339 OGILVIE RD               PO BOX 46008", "city": "GLOUCESTER", "province": "ON", "country": "CA", "postalCode": "K1J9M7", "twitter": "None", "instagram": "None", "facebook": "None", "youtube": "None", "website": "None", "summary": "None", "logo": "None", "latitude": 45.45211383845013, "longitude": -75.59683716691598}, "873218663RR0001": {"name": "NATIONAL CAPITAL ABLE SAIL ASSOCIATION", "designationCode": "C", "categoryCode": "09", "address": "728 FIELDING DR", "city": "OTTAWA", "province": "ON", "country": "CA", "postalCode": "K1V7G5", "twitter": "None", "instagram": "None", "facebook": "None", "youtube": "None", "website": "None", "summary": "None", "logo": "None", "latitude": 45.36109796973293, "longitude": -75.6788366740147}, "896825296RR0001": {"name": "NATIONAL CAPITAL AVIATION INTERFAITH MINISTRIES SOCIETY", "designationCode": "C", "categoryCode": "47", "address": "1605-1000 AIRPORT PARKWAY PVT", "city": "OTTAWA", "province": "ON", "country": "CA", "postalCode": "K1V9B4", "twitter": "None", "instagram": "None", "facebook": "None", "youtube": "None", "website": "None", "summary": "None", "logo": "None", "latitude": 45.32321660854539, "longitude": -75.66781175042685}, "119051480RR0001": {"name": "NATIONAL CAPITAL CHILDREN'S ONCOLOGY CARE INC./SOINS ONCOL POUR LES ENFANTS DE LA CAPITALE NATIONALE INC.", "designationCode": "C", "categoryCode": "01", "address": "407 SMYTH ROAD", "city": "OTTAWA", "province": "ON", "country": "CA", "postalCode": "K1H8M8", "twitter": "None", "instagram": "None", "facebook": "None", "youtube": "None", "website": "None", "summary": "None", "logo": "None", "latitude": 45.39912462396022, "longitude": -75.65247427594079}, "125898304RR0001": {"name": "NATIONAL CAPITAL OPERA SOCIETY (LA SOCIETE D'OPERA DE LA CAPITALE NATIONALE)", "designationCode": "C", "categoryCode": "22", "address": "20 LEONARD AVE", "city": "OTTAWA", "province": "ON", "country": "CA", "postalCode": "K1S4T7", "twitter": "None", "instagram": "None", "facebook": "None", "youtube": "None", "website": "None", "summary": "None", "logo": "None", "latitude": 45.39353137079467, "longitude": -75.68938667320664}, "819207945RR0001": {"name": "NATIONAL CAPITAL SKIN-DISEASE FOUNDATION", "designationCode": "C", "categoryCode": "11", "address": "737 PARKDALE AVE              ROOM 10  GROUND EAST", "city": "OTTAWA", "province": "ON", "country": "CA", "postalCode": "K1Y1J8", "twitter": "None", "instagram": "None", "facebook": "None", "youtube": "None", "website": "None", "summary": "None", "logo": "None", "latitude": 45.39213339259588, "longitude": -75.72385921838887}, "119051530RR0001": {"name": "NATIONAL CAPITAL SPORTS COUNCIL OF THE DISABLED INC./LE CONSEIL DES SPORTS POUR LES PERSONNES HANDICAPEES DE LA CAPITALENATIONALE INC.", "designationCode": "C", "categoryCode": "56", "address": "728 FIELDING DR", "city": "OTTAWA", "province": "ON", "country": "CA", "postalCode": "K1V7G5", "twitter": "None", "instagram": "None", "facebook": "None", "youtube": "None", "website": "None", "summary": "None", "logo": "None", "latitude": 45.36109796973293, "longitude": -75.6788366740147}, "870443249RR0001": {"name": "NATIONAL CATHOLIC BROADCASTING COUNCIL", "designationCode": "C", "categoryCode": "39", "address": "200 - 5762 HIGHWAY 7 E", "city": "MARKHAM", "province": "ON", "country": "CA", "postalCode": "L3P1A8", "twitter": "None", "instagram": "None", "facebook": "None", "youtube": "None", "website": "None", "summary": "None", "logo": "None", "latitude": 43.87165419358286, "longitude": -79.26653107417114}, "878183706RR0001": {"name": "NATIONAL CHRISTIAN BRAODCASTING CORPORATION", "designationCode": "C", "categoryCode": "47", "address": "802 - 3525 KARIYA DR", "city": "MISSISSAUGA", "province": "ON", "country": "CA", "postalCode": "L5B0C2", "twitter": "None", "instagram": "None", "facebook": "None", "youtube": "None", "website": "None", "summary": "None", "logo": "None"}, "892657966RR0001": {"name": "NATIONAL CHRISTIAN TELEVISION", "designationCode": "C", "categoryCode": "47", "address": "16293 104 AVENUE", "city": "SURREY", "province": "BC", "country": "CA", "postalCode": "V4N1Z7", "twitter": "None", "instagram": "None", "facebook": "None", "youtube": "None", "website": "None", "summary": "None", "logo": "None", "latitude": 49.19159902347501, "longitude": -122.77007446438485}, "119051563RR0001": {"name": "NATIONAL COMMITTEE CULTURAL-EDUCATIONAL PROJECT 20000", "designationCode": "C", "categoryCode": "21", "address": "455 HABKIRK DR", "city": "REGINA", "province": "SK", "country": "CA", "postalCode": "S4S6B2", "twitter": "None", "instagram": "None", "facebook": "None", "youtube": "None", "website": "None", "summary": "None", "logo": "None", "latitude": 50.40664050043269, "longitude": -104.6377832216227}, "888117462RR0001": {"name": "NATIONAL CONGRESS OF ITALIAN CANADIANS - EDMONTON DISTRICT - CHARITABLE FOUNDATION", "designationCode": "C", "categoryCode": "09", "address": "10220=82ND STREET", "city": "EDMONTON", "province": "AB", "country": "CA", "postalCode": "T6A3M3", "twitter": "None", "instagram": "None", "facebook": "None", "youtube": "None", "website": "None", "summary": "None", "logo": "None", "latitude": 53.54375400000001, "longitude": -113.45407871818891}, "107761710RR0001": {"name": "NATIONAL COUNCIL OF JEWISH WOMEN OF CANADA", "designationCode": "C", "categoryCode": "03", "address": "4700 BATHURST ST", "city": "NORTH YORK", "province": "ON", "country": "CA", "postalCode": "M2R1W8", "twitter": "None", "instagram": "None", "facebook": "None", "youtube": "None", "website": "None", "summary": "None", "logo": "None", "latitude": 43.76608854870453, "longitude": -79.44108619265369}, "119051654RR0001": {"name": "NATIONAL COUNCIL OF JEWISH WOMEN OF CANADA - EDMONTON SECTION", "designationCode": "C", "categoryCode": "05", "address": "402 ORMSBY RD W NW", "city": "EDMONTON", "province": "AB", "country": "CA", "postalCode": "T5T5P4", "twitter": "None", "instagram": "None", "facebook": "None", "youtube": "None", "website": "None", "summary": "None", "logo": "None", "latitude": 53.502183, "longitude": -113.65014772150714}, "107761744RR0001": {"name": "NATIONAL COUNCIL OF JEWISH WOMEN OF CANADA - VANCOUVER SECTION", "designationCode": "C", "categoryCode": "05", "address": "302-950 WEST 41ST AVE", "city": "VANCOUVER", "province": "BC", "country": "CA", "postalCode": "V5Z2N7", "twitter": "None", "instagram": "None", "facebook": "None", "youtube": "None", "website": "None", "summary": "None", "logo": "None", "latitude": 49.23387050620376, "longitude": -123.12594479822836}, "107761728RR0001": {"name": "NATIONAL COUNCIL OF JEWISH WOMEN OF CANADA WINNIPEG SECTION INC.", "designationCode": "C", "categoryCode": "09", "address": "620 BROCK ST", "city": "WINNIPEG", "province": "MB", "country": "CA", "postalCode": "R3N0Z4", "twitter": "None", "instagram": "None", "facebook": "None", "youtube": "None", "website": "None", "summary": "None", "logo": "None", "latitude": 49.85961075797798, "longitude": -97.18888041837401}, "107761736RR0001": {"name": "NATIONAL COUNCIL OF JEWISH WOMEN OF CANADA, TORONTO SECTION", "designationCode": "C", "categoryCode": "03", "address": "4700 BATHURST ST.", "city": "TORONTO", "province": "ON", "country": "CA", "postalCode": "M2R1W8", "twitter": "None", "instagram": "None", "facebook": "None", "youtube": "None", "website": "None", "summary": "None", "logo": "None", "latitude": 43.76608854870453, "longitude": -79.44108619265369}, "888285046RR0001": {"name": "NATIONAL COUNCIL OF WOMEN OF CANADA DEVELOPMENT ORGANIZATION", "designationCode": "C", "categoryCode": "09", "address": "4705 AV BELMORE", "city": "MONTREAL", "province": "QC", "country": "CA", "postalCode": "H4B2C1", "twitter": "None", "instagram": "None", "facebook": "None", "youtube": "None", "website": "None", "summary": "None", "logo": "None", "latitude": 45.46111656010149, "longitude": -73.64265119357732}, "119051696RR0001": {"name": "NATIONAL COUNCIL ON CANADA-ARAB RELATIONS CONSEIL NATIONAL DES RELATIONS CANADA-ARAB", "designationCode": "C", "categoryCode": "29", "address": "116 PROMENADE DU PORTAGE", "city": "GATINEAU", "province": "QC", "country": "CA", "postalCode": "J8X2K1", "twitter": "None", "instagram": "None", "facebook": "None", "youtube": "None", "website": "None", "summary": "None", "logo": "None", "latitude": 45.42540315901107, "longitude": -75.71713460309319}, "121283659RR0001": {"name": "NATIONAL DOUKHOBOUR HERITAGE VILLAGE INC.", "designationCode": "C", "categoryCode": "50", "address": "P.O. BOX", "city": "VEREGIN", "province": "SK", "country": "CA", "postalCode": "S0A4H0", "twitter": "None", "instagram": "None", "facebook": "None", "youtube": "None", "website": "None", "summary": "None", "logo": "None", "latitude": 51.342398990315594, "longitude": -102.10042949656935}, "107761975RR0001": {"name": "NATIONAL EDUCATIONAL ASSOCIATION OF DISABLED STUDENTS (NEADS)", "designationCode": "C", "categoryCode": "21", "address": "ROOM 426 UNICENTRE            CARLETON UNIVERSITY", "city": "OTTAWA", "province": "ON", "country": "CA", "postalCode": "K1S5B6", "twitter": "None", "instagram": "None", "facebook": "None", "youtube": "None", "website": "None", "summary": "None", "logo": "None", "latitude": 45.38353007487125, "longitude": -75.69717003289185}, "869648147RR0001": {"name": "NATIONAL ENVIRONMENTAL TREASURE", "designationCode": "A", "categoryCode": "03", "address": "202-174 STANLEY AVENUE", "city": "OTTAWA", "province": "ON", "country": "CA", "postalCode": "K1M1P1", "twitter": "None", "instagram": "None", "facebook": "None", "youtube": "None", "website": "None", "summary": "None", "logo": "None", "latitude": 45.43969088095089, "longitude": -75.68701228905311}, "882622368RR0001": {"name": "NATIONAL FARMERS FOUNDATION", "designationCode": "C", "categoryCode": "29", "address": "146F CLINTON STREET", "city": "TORONTO", "province": "ON", "country": "CA", "postalCode": "M6G2Y3", "twitter": "None", "instagram": "None", "facebook": "None", "youtube": "None", "website": "None", "summary": "None", "logo": "None", "latitude": 43.6578781442458, "longitude": -79.41496640319026}, "878580240RR0001": {"name": "NATIONAL GALLERY OF CANADA FOUNDATION/FONDATION DU MUS\u00c9E DES BEAUX-ARTS DU CANADA", "designationCode": "A", "categoryCode": "21", "address": "380 SUSSEX DR", "city": "OTTAWA", "province": "ON", "country": "CA", "postalCode": "K1N9N4", "twitter": "None", "instagram": "None", "facebook": "None", "youtube": "None", "website": "None", "summary": "None", "logo": "None", "latitude": 45.43097060724813, "longitude": -75.69808865895281}, "891299745RR0001": {"name": "NATIONAL GAUCHER FOUNDATION OF CANADA", "designationCode": "A", "categoryCode": "13", "address": "83 WINNEGREEN CRT", "city": "OTTAWA", "province": "ON", "country": "CA", "postalCode": "K1G5S3", "twitter": "None", "instagram": "None", "facebook": "None", "youtube": "None", "website": "None", "summary": "None", "logo": "None", "latitude": 45.37425035111648, "longitude": -75.60363711532686}, "859616898RR0001": {"name": "NATIONAL HOUSE OF PRAYER - MAISON NATIONALE DE PRI\u00c8RE", "designationCode": "C", "categoryCode": "39", "address": "17 MYRAND STREET", "city": "OTTAWA", "province": "ON", "country": "CA", "postalCode": "K1N5N7", "twitter": "None", "instagram": "None", "facebook": "None", "youtube": "None", "website": "None", "summary": "None", "logo": "None", "latitude": 45.434020315857744, "longitude": -75.6829614543539}, "119051795RR0001": {"name": "NATIONAL INDIAN BROTHERHOOD TRUST FUND", "designationCode": "C", "categoryCode": "59", "address": "167 INTERNATIONAL ROAD        UNIT 5", "city": "AKWESASNE", "province": "ON", "country": "CA", "postalCode": "K6H0G5", "twitter": "None", "instagram": "None", "facebook": "None", "youtube": "None", "website": "None", "summary": "None", "logo": "None", "latitude": 45.00013125672043, "longitude": -74.74037822127015}, "893125369RR0001": {"name": "NATIONAL INDIGENOUS ECONOMIC EDUCATION FUND", "designationCode": "C", "categoryCode": "21", "address": "9635 45TH AVENUE", "city": "EDMONTON", "province": "AB", "country": "CA", "postalCode": "T6E5Z8", "twitter": "None", "instagram": "None", "facebook": "None", "youtube": "None", "website": "None", "summary": "None", "logo": "None", "latitude": 53.483050178657635, "longitude": -113.47826042854764}, "130089980RR0001": {"name": "NATIONAL JUDICIAL INSTITUTE/INSTITUT NATIONAL DE LA MAGISTRATURE", "designationCode": "C", "categoryCode": "20", "address": "250 ALBERT ST.                4TH FLOOR", "city": "OTTAWA", "province": "ON", "country": "CA", "postalCode": "K1P6M1", "twitter": "None", "instagram": "None", "facebook": "None", "youtube": "None", "website": "None", "summary": "None", "logo": "None", "latitude": 45.41978571299571, "longitude": -75.70060051289751}, "865118293RR0001": {"name": "NATIONAL JUNIOR GOLF ACADEMY", "designationCode": "C", "categoryCode": "09", "address": "2432 TREVOR DRIVE", "city": "OAKVILLE", "province": "ON", "country": "CA", "postalCode": "L6L5C5", "twitter": "None", "instagram": "None", "facebook": "None", "youtube": "None", "website": "None", "summary": "None", "logo": "None", "latitude": 43.40300146543376, "longitude": -79.72364374756195}, "107762163RR0001": {"name": "NATIONAL MAGAZINE AWARDS FOUNDATION", "designationCode": "C", "categoryCode": "22", "address": "7525 ISLAND HWY S", "city": "FANNY BAY", "province": "BC", "country": "CA", "postalCode": "V0R1W0", "twitter": "None", "instagram": "None", "facebook": "None", "youtube": "None", "website": "None", "summary": "None", "logo": "None", "latitude": 49.49875132579671, "longitude": -124.82346140369191}, "891833642RR0001": {"name": "NATIONAL ME/FM ACTION NETWORK", "designationCode": "C", "categoryCode": "19", "address": "512-33 BANNER ROAD", "city": "OTTAWA", "province": "ON", "country": "CA", "postalCode": "K2H8V7", "twitter": "None", "instagram": "None", "facebook": "None", "youtube": "None", "website": "None", "summary": "None", "logo": "None", "latitude": 45.332366527121756, "longitude": -75.78697122300768}, "136407574RR0001": {"name": "NATIONAL MUSIC CENTRE", "designationCode": "C", "categoryCode": "22", "address": "300 - 851 4 ST SE", "city": "CALGARY", "province": "AB", "country": "CA", "postalCode": "T2G1P2", "twitter": "None", "instagram": "None", "facebook": "None", "youtube": "None", "website": "None", "summary": "None", "logo": "None", "latitude": 51.04486478963577, "longitude": -114.05327470115613}, "119051894RR0001": {"name": "NATIONAL RAILWAY HISTORICAL SOCIETY - BRITISH COLUMBIA CHAPTER", "designationCode": "C", "categoryCode": "50", "address": "P.O. BOX 33763, STATION D", "city": "VANCOUVER", "province": "BC", "country": "CA", "postalCode": "V6J4L6", "twitter": "None", "instagram": "None", "facebook": "None", "youtube": "None", "website": "None", "summary": "None", "logo": "None", "latitude": 49.26077700000006, "longitude": -123.14626099999992}, "107762353RR0001": {"name": "NATIONAL SANITARIUM ASSOCIATION", "designationCode": "C", "categoryCode": "10", "address": "330 UNIVERSITY AVE            11TH FLOOR", "city": "TORONTO", "province": "ON", "country": "CA", "postalCode": "M5G1R8", "twitter": "None", "instagram": "None", "facebook": "None", "youtube": "None", "website": "None", "summary": "None", "logo": "None", "latitude": 43.651748965577966, "longitude": -79.3872356100754}, "103836722RR0001": {"name": "NATIONAL SCREEN INSTITUTE - CANADA L'INSTITUT NATIONAL DES ARTS DE L'ECRAN - CANADA", "designationCode": "C", "categoryCode": "22", "address": "SUITE 400-141 BANNATYNE AVE.", "city": "WINNIPEG", "province": "MB", "country": "CA", "postalCode": "R3B0R3", "twitter": "None", "instagram": "None", "facebook": "None", "youtube": "None", "website": "None", "summary": "None", "logo": "None", "latitude": 49.89751315072985, "longitude": -97.13615349818232}, "898029228RR0001": {"name": "NATIONAL SERVICE DOG TRAINING CENTRE INC.", "designationCode": "C", "categoryCode": "01", "address": "1286 CEDAR CREEK ROAD", "city": "CAMBRIDGE", "province": "ON", "country": "CA", "postalCode": "N1R5S5", "twitter": "None", "instagram": "None", "facebook": "None", "youtube": "None", "website": "None", "summary": "None", "logo": "None", "latitude": 43.34664030879597, "longitude": -80.35859982284799}, "119051910RR0001": {"name": "NATIONAL SHEVCHENKO MUSICAL ENSEMBLE GUILD OF CANADA", "designationCode": "C", "categoryCode": "22", "address": "626 BATHURST ST", "city": "TORONTO", "province": "ON", "country": "CA", "postalCode": "M5S2R1", "twitter": "None", "instagram": "None", "facebook": "None", "youtube": "None", "website": "None", "summary": "None", "logo": "None", "latitude": 43.66046648681402, "longitude": -79.40933660909445}, "119051936RR0001": {"name": "NATIONAL SKI ACADEMY / COLLINGWOOD", "designationCode": "C", "categoryCode": "20", "address": "200 OAK STREET", "city": "COLLINGWOOD", "province": "ON", "country": "CA", "postalCode": "L9Y3Z4", "twitter": "None", "instagram": "None", "facebook": "None", "youtube": "None", "website": "None", "summary": "None", "logo": "None", "latitude": 44.49716819382526, "longitude": -80.22408768596894}, "891550147RR0001": {"name": "NATIONAL SOCIETY OF HOPE", "designationCode": "C", "categoryCode": "09", "address": "#101-2055 BENVOULIN COURT", "city": "KELOWNA", "province": "BC", "country": "CA", "postalCode": "V1W2C7", "twitter": "None", "instagram": "None", "facebook": "None", "youtube": "None", "website": "None", "summary": "None", "logo": "None", "latitude": 49.87698402692022, "longitude": -119.4394028958972}, "119051944RR0001": {"name": "NATIONAL SPIRITUAL ASSEMBLY OF THE BAHA'IS OF CANADA", "designationCode": "C", "categoryCode": "33", "address": "7200 LESLIE STREET", "city": "THORNHILL", "province": "ON", "country": "CA", "postalCode": "L3T6L8", "twitter": "None", "instagram": "None", "facebook": "None", "youtube": "None", "website": "None", "summary": "None", "logo": "None", "latitude": 43.81241625284208, "longitude": -79.37417860632449}, "119051969RR0001": {"name": "NATIONAL STEEL CAR LIMITED EMPLOYEES CHARITABLE DONATION FUND", "designationCode": "B", "categoryCode": "75", "address": "PO BOX 2450 STN LCD 1", "city": "HAMILTON", "province": "ON", "country": "CA", "postalCode": "L8N3J4", "twitter": "None", "instagram": "None", "facebook": "None", "youtube": "None", "website": "None", "summary": "None", "logo": "None", "latitude": 43.261962000000054, "longitude": -79.88800399999994}, "119237477RR0001": {"name": "NATIONAL TRUST FOR CANADA / FIDUCIE NATIONALE DU CANADA", "designationCode": "C", "categoryCode": "52", "address": "190 BRONSON AVENUE", "city": "OTTAWA", "province": "ON", "country": "CA", "postalCode": "K1R6H4", "twitter": "None", "instagram": "None", "facebook": "None", "youtube": "None", "website": "None", "summary": "None", "logo": "None", "latitude": 45.414188528997684, "longitude": -75.70737124482065}, "128029071RR0001": {"name": "NATIONAL YOUTH IN CARE NETWORK RESEAU NATIONAL DES JEUNES PRIS EN CHARGE", "designationCode": "C", "categoryCode": "09", "address": "96 - 223 MAIN ST", "city": "OTTAWA", "province": "ON", "country": "CA", "postalCode": "K1S1C4", "twitter": "None", "instagram": "None", "facebook": "None", "youtube": "None", "website": "None", "summary": "None", "logo": "None", "latitude": 45.408374558716496, "longitude": -75.67756136006155}, "107764557RR0001": {"name": "NATIONAL YOUTH ORCHESTRA ASSOCIATION OF CANADA", "designationCode": "C", "categoryCode": "22", "address": "500-59 ADELAIDE STREET EAST", "city": "TORONTO", "province": "ON", "country": "CA", "postalCode": "M5C1K6", "twitter": "None", "instagram": "None", "facebook": "None", "youtube": "None", "website": "None", "summary": "None", "logo": "None", "latitude": 43.65106129336214, "longitude": -79.3754558860496}, "860562735RR0001": {"name": "NATIONAL-ROSES-CANADA", "designationCode": "C", "categoryCode": "50", "address": "41 OUTER DRIVE", "city": "LONDON", "province": "ON", "country": "CA", "postalCode": "N6P1E1", "twitter": "None", "instagram": "None", "facebook": "None", "youtube": "None", "website": "None", "summary": "None", "logo": "None", "latitude": 42.90218301973552, "longitude": -81.28904827880999}, "857165740RR0001": {"name": "NATIONS CRY", "designationCode": "C", "categoryCode": "47", "address": "14022 30 AVE", "city": "SURREY", "province": "BC", "country": "CA", "postalCode": "V4P2N3", "twitter": "None", "instagram": "None", "facebook": "None", "youtube": "None", "website": "None", "summary": "None", "logo": "None", "latitude": 49.05659151067581, "longitude": -122.83366016472388}, "119051993RR0001": {"name": "NATIONSIDE PENTECOSTAL CHURCH", "designationCode": "C", "categoryCode": "36", "address": "BOX 292", "city": "CHESTERVILLE", "province": "ON", "country": "CA", "postalCode": "K0C1H0", "twitter": "None", "instagram": "None", "facebook": "None", "youtube": "None", "website": "None", "summary": "None", "logo": "None", "latitude": 45.103770000000054, "longitude": -75.23067999999995}, "119052009RR0001": {"name": "NATIVE ADDICTIONS SERVICES SOCIETY", "designationCode": "C", "categoryCode": "57", "address": "1231-34TH AVE NE", "city": "CALGARY", "province": "AB", "country": "CA", "postalCode": "T2E6N4", "twitter": "None", "instagram": "None", "facebook": "None", "youtube": "None", "website": "None", "summary": "None", "logo": "None", "latitude": 51.083516474032095, "longitude": -114.03158416763806}, "107764722RR0001": {"name": "NATIVE CANADIAN CENTRE OF TORONTO", "designationCode": "C", "categoryCode": "09", "address": "16 SPADINA RD", "city": "TORONTO", "province": "ON", "country": "CA", "postalCode": "M5R2S7", "twitter": "None", "instagram": "None", "facebook": "None", "youtube": "None", "website": "None", "summary": "None", "logo": "None", "latitude": 43.6682408948007, "longitude": -79.404514456056}, "131621765RR0001": {"name": "NATIVE CHILD AND FAMILY SERVICES OF TORONTO", "designationCode": "C", "categoryCode": "09", "address": "30 COLLEGE STREET", "city": "TORONTO", "province": "ON", "country": "CA", "postalCode": "M5G1K2", "twitter": "None", "instagram": "None", "facebook": "None", "youtube": "None", "website": "None", "summary": "None", "logo": "None", "latitude": 43.66111915794321, "longitude": -79.38441962268445}, "881617617RR0001": {"name": "NATIVE CHILDREN'S FOUNDATION OF CANADA INC.", "designationCode": "C", "categoryCode": "49", "address": "32 LAURENTIAN LANE", "city": "ORILLIA", "province": "ON", "country": "CA", "postalCode": "L3V7N8", "twitter": "None", "instagram": "None", "facebook": "None", "youtube": "None", "website": "None", "summary": "None", "logo": "None", "latitude": 44.60056113971084, "longitude": -79.44597214285866}, "107764763RR0001": {"name": "NATIVE CHRISTIAN FELLOWSHIP", "designationCode": "C", "categoryCode": "39", "address": "24 MACIVER ST", "city": "FORT MCMURRAY", "province": "AB", "country": "CA", "postalCode": "T9H1Z8", "twitter": "None", "instagram": "None", "facebook": "None", "youtube": "None", "website": "None", "summary": "None", "logo": "None", "latitude": 56.725212226210324, "longitude": -111.3675619534016}, "127757193RR0001": {"name": "NATIVE COMMUNICATION INC", "designationCode": "C", "categoryCode": "99", "address": "1507 INKSTER BLVD", "city": "WINNIPEG", "province": "MB", "country": "CA", "postalCode": "R2X1R2", "twitter": "None", "instagram": "None", "facebook": "None", "youtube": "None", "website": "None", "summary": "None", "logo": "None", "latitude": 49.944521910381255, "longitude": -97.17672528945714}, "131455875RR0001": {"name": "NATIVE COMMUNICATIONS SOCIETY (NORTHERN BROADCASTING)", "designationCode": "C", "categoryCode": "99", "address": "4562 QUEENSWAY DR             UNIT B", "city": "TERRACE", "province": "BC", "country": "CA", "postalCode": "V8G3X6", "twitter": "None", "instagram": "None", "facebook": "None", "youtube": "None", "website": "None", "summary": "None", "logo": "None", "latitude": 54.4939954782157, "longitude": -128.58348912184775}, "107764805RR0001": {"name": "NATIVE COMMUNICATIONS SOCIETY OF THE N.W.T.", "designationCode": "C", "categoryCode": "59", "address": "PO BOX 2193 STN MAIN", "city": "YELLOWKNIFE", "province": "NT", "country": "CA", "postalCode": "X1A2P6", "twitter": "None", "instagram": "None", "facebook": "None", "youtube": "None", "website": "None", "summary": "None", "logo": "None", "latitude": 62.45446200000005, "longitude": -114.37092349999993}, "119052090RR0001": {"name": "NATIVE COORDINATING COUNCIL", "designationCode": "C", "categoryCode": "09", "address": "118 12TH ST EAST", "city": "PRINCE ALBERT", "province": "SK", "country": "CA", "postalCode": "S6V1B6", "twitter": "None", "instagram": "None", "facebook": "None", "youtube": "None", "website": "None", "summary": "None", "logo": "None", "latitude": 53.20217647489746, "longitude": -105.750621}, "887358794RR0001": {"name": "NATIVE COUNCIL OF NOVA SCOTIA EDUCATION FUND", "designationCode": "C", "categoryCode": "21", "address": "P.O. BOX 1320", "city": "TRURO", "province": "NS", "country": "CA", "postalCode": "B2N5N2", "twitter": "None", "instagram": "None", "facebook": "None", "youtube": "None", "website": "None", "summary": "None", "logo": "None", "latitude": 45.36602700000006, "longitude": -63.289042999999936}}