{"810429977RR0001": {"name": "Shared Space Sudbury/Espace Partag\u00e9 Sudbury", "designationCode": "C", "categoryCode": "59", "address": "36 ELGIN ST", "city": "SUDBURY", "province": "ON", "country": "CA", "postalCode": "P3C5B4", "twitter": "None", "instagram": "None", "facebook": "None", "youtube": "None", "website": "None", "summary": "None", "logo": "None", "latitude": 46.493669607142095, "longitude": -80.99643066124845}, "890470362RR0001": {"name": "ShareLife Foundation", "designationCode": "B", "categoryCode": "45", "address": "41-25015 TWP RD 544A", "city": "STURGEON COUNTY", "province": "AB", "country": "CA", "postalCode": "T8T0B9", "twitter": "None", "instagram": "None", "facebook": "None", "youtube": "None", "website": "None", "summary": "None", "logo": "None", "latitude": 53.692757761556, "longitude": -113.55737945172817}, "827966771RR0001": {"name": "ShareWord Global", "designationCode": "C", "categoryCode": "49", "address": "501 IMPERIAL ROAD NORTH", "city": "GUELPH", "province": "ON", "country": "CA", "postalCode": "N1H7A2", "twitter": "None", "instagram": "None", "facebook": "None", "youtube": "None", "website": "None", "summary": "None", "logo": "None", "latitude": 43.53772651627306, "longitude": -80.29772292140377}, "868284514RR0001": {"name": "Sharika Foundation", "designationCode": "C", "categoryCode": "48", "address": "48 SMOOTHWATER TERR", "city": "MARKHAM", "province": "ON", "country": "CA", "postalCode": "L6B0E7", "twitter": "None", "instagram": "None", "facebook": "None", "youtube": "None", "website": "None", "summary": "None", "logo": "None", "latitude": 43.86449079739165, "longitude": -79.21745176299828}, "844895938RR0001": {"name": "Sharing the Burden.ca", "designationCode": "C", "categoryCode": "57", "address": "2 ROUGE STREET", "city": "MARKHAM", "province": "ON", "country": "CA", "postalCode": "L3P1K6", "twitter": "None", "instagram": "None", "facebook": "None", "youtube": "None", "website": "None", "summary": "None", "logo": "None", "latitude": 43.867305114086115, "longitude": -79.25798910006343}, "842243891RR0001": {"name": "Sharing Abundance Association", "designationCode": "C", "categoryCode": "09", "address": "3843 HOSKINS ROAD", "city": "NORTH VANCOUVER", "province": "BC", "country": "CA", "postalCode": "V7K2P1", "twitter": "None", "instagram": "None", "facebook": "None", "youtube": "None", "website": "None", "summary": "None", "logo": "None", "latitude": 49.34439948182236, "longitude": -123.02863303445068}, "818940165RR0001": {"name": "Shark Park Playground Committee", "designationCode": "C", "categoryCode": "56", "address": "5147 50 AVE", "city": "DRAYTON VALLEY", "province": "AB", "country": "CA", "postalCode": "T7A1J7", "twitter": "None", "instagram": "None", "facebook": "None", "youtube": "None", "website": "None", "summary": "None", "logo": "None", "latitude": 53.221472510098884, "longitude": -114.98058}, "817956519RR0001": {"name": "Sharon Baptist Church", "designationCode": "C", "categoryCode": "31", "address": "17072 96 AVE", "city": "SURREY", "province": "BC", "country": "CA", "postalCode": "V4N6H3", "twitter": "None", "instagram": "None", "facebook": "None", "youtube": "None", "website": "None", "summary": "None", "logo": "None", "latitude": 49.17697049235395, "longitude": -122.749263}, "795080498RR0001": {"name": "Shaunavon Food Bank Inc.", "designationCode": "C", "categoryCode": "09", "address": "PO BOX 81", "city": "SHAUNAVON", "province": "SK", "country": "CA", "postalCode": "S0N2M0", "twitter": "None", "instagram": "None", "facebook": "None", "youtube": "None", "website": "None", "summary": "None", "logo": "None", "latitude": 49.64645000000007, "longitude": -108.41961999999995}, "119147874RR0001": {"name": "Shaw Family Foundation", "designationCode": "B", "categoryCode": "03", "address": "140 FULLARTON STREET          SUITE 1800", "city": "LONDON", "province": "ON", "country": "CA", "postalCode": "N6A5P2", "twitter": "None", "instagram": "None", "facebook": "None", "youtube": "None", "website": "None", "summary": "None", "logo": "None", "latitude": 42.98509299030514, "longitude": -81.25208993104037}, "119147882RR0001": {"name": "Shaw Festival Theatre, Canada", "designationCode": "C", "categoryCode": "22", "address": "BOX 774 10 QUEENS PARADE", "city": "NIAGARA ON THE LAKE", "province": "ON", "country": "CA", "postalCode": "L0S1J0", "twitter": "None", "instagram": "None", "facebook": "None", "youtube": "None", "website": "None", "summary": "None", "logo": "None", "latitude": 43.252494687172025, "longitude": -79.06665443516573}, "841643711RR0001": {"name": "Shaw Woods Outdoor Education Centre Inc.", "designationCode": "C", "categoryCode": "29", "address": "337 MATHESON DR", "city": "PEMBROKE", "province": "ON", "country": "CA", "postalCode": "K8A8S5", "twitter": "None", "instagram": "None", "facebook": "None", "youtube": "None", "website": "None", "summary": "None", "logo": "None", "latitude": 45.820166157073714, "longitude": -77.08658081659893}, "847439304RR0001": {"name": "Shawna Goodman & Todd Sone Family Foundation / Fondation de la famille Shawna Goodman & Todd Sone", "designationCode": "B", "categoryCode": "03", "address": "611 ROYALMOUNT AVE            STE 100", "city": "MONTREAL", "province": "QC", "country": "CA", "postalCode": "H4P2T4", "twitter": "None", "instagram": "None", "facebook": "None", "youtube": "None", "website": "None", "summary": "None", "logo": "None", "latitude": 45.48809695377232, "longitude": -73.67435534288906}, "119288918RR0805": {"name": "Shawnessy Congregation of Jehovah's Witnesses, Calgary, Alberta", "designationCode": "C", "categoryCode": "61", "address": "208 EVERWILLOW GREEN SW", "city": "CALGARY", "province": "AB", "country": "CA", "postalCode": "T2Y4V9", "twitter": "None", "instagram": "None", "facebook": "None", "youtube": "None", "website": "None", "summary": "None", "logo": "None", "latitude": 50.91523091035259, "longitude": -114.10453355704306}, "815608351RR0001": {"name": "Sheba's Haven Rescue", "designationCode": "C", "categoryCode": "54", "address": "1830 SUNBURY ROAD             RR #2", "city": "INVERARY", "province": "ON", "country": "CA", "postalCode": "K0H1X0", "twitter": "None", "instagram": "None", "facebook": "None", "youtube": "None", "website": "None", "summary": "None", "logo": "None", "latitude": 44.39691864322781, "longitude": -76.34619300359253}, "119148013RR0001": {"name": "Shediac Bay Community Church", "designationCode": "C", "categoryCode": "31", "address": "28 ROY MOLLINS DRIVE", "city": "SHEDIAC", "province": "NB", "country": "CA", "postalCode": "E4P9B3", "twitter": "None", "instagram": "None", "facebook": "None", "youtube": "None", "website": "None", "summary": "None", "logo": "None", "latitude": 46.218966429022764, "longitude": -64.5663252651529}, "894199504RR0001": {"name": "Sheet Harbour & Area Ground Search & Rescue", "designationCode": "C", "categoryCode": "59", "address": "22835 HWY 7                   P.O. BOX 171", "city": "SHEET HARBOUR", "province": "NS", "country": "CA", "postalCode": "B0J3B0", "twitter": "None", "instagram": "None", "facebook": "None", "youtube": "None", "website": "None", "summary": "None", "logo": "None", "latitude": 44.91921626008411, "longitude": -62.52300458840666}, "864988340RR0001": {"name": "Sheet Harbour Sexual Health Centre Association", "designationCode": "C", "categoryCode": "11", "address": "SUITE 216                     22756 HIGHWAY #7", "city": "SHEET HARBOUR", "province": "NS", "country": "CA", "postalCode": "B0J3B0", "twitter": "None", "instagram": "None", "facebook": "None", "youtube": "None", "website": "None", "summary": "None", "logo": "None", "latitude": 44.91787763249491, "longitude": -62.52737131484814}, "761256122RR0001": {"name": "Shekinah Glory Community Outreach International Fellowship", "designationCode": "C", "categoryCode": "39", "address": "203-10 AJAX STREET,", "city": "GUELPH", "province": "ON", "country": "CA", "postalCode": "N1H7N6", "twitter": "None", "instagram": "None", "facebook": "None", "youtube": "None", "website": "None", "summary": "None", "logo": "None", "latitude": 43.53716569190387, "longitude": -80.27524319314463}, "775312721RR0001": {"name": "Shekinah Messianic Congregation", "designationCode": "C", "categoryCode": "39", "address": "PO BOX 23095 RPO CARLINGWOOD", "city": "OTTAWA", "province": "ON", "country": "CA", "postalCode": "K2A4E2", "twitter": "None", "instagram": "None", "facebook": "None", "youtube": "None", "website": "None", "summary": "None", "logo": "None", "latitude": 45.37620000000004, "longitude": -75.76874999999995}, "835257502RR0001": {"name": "Shekinah Miracle Ministries", "designationCode": "C", "categoryCode": "39", "address": "4389 HIGHWAY 11/17", "city": "KAKABEKA FALLS", "province": "ON", "country": "CA", "postalCode": "P7K0J1", "twitter": "None", "instagram": "None", "facebook": "None", "youtube": "None", "website": "None", "summary": "None", "logo": "None", "latitude": 48.38055199399994, "longitude": -89.57820735084823}, "814898037RR0001": {"name": "Shelbourne Community Kitchen Society", "designationCode": "C", "categoryCode": "09", "address": "3541 SHELBOURNE ST", "city": "VICTORIA", "province": "BC", "country": "CA", "postalCode": "V8P4G6", "twitter": "None", "instagram": "None", "facebook": "None", "youtube": "None", "website": "None", "summary": "None", "logo": "None", "latitude": 48.45655691035259, "longitude": -123.33299160335298}, "841395098RR0001": {"name": "Shelburne Longboat Society", "designationCode": "C", "categoryCode": "50", "address": "1822 SANDY POINT RD           RR 2", "city": "SHELBURNE", "province": "NS", "country": "CA", "postalCode": "B0T1W0", "twitter": "None", "instagram": "None", "facebook": "None", "youtube": "None", "website": "None", "summary": "None", "logo": "None", "latitude": 43.68954744711187, "longitude": -65.31007188732752}, "848238234RR0001": {"name": "Sheldon Chumir Foundation for Ethics in Leadership", "designationCode": "C", "categoryCode": "21", "address": "970, 105-12                   AVENUE S.E.", "city": "CALGARY", "province": "AB", "country": "CA", "postalCode": "T2G1A1", "twitter": "None", "instagram": "None", "facebook": "None", "youtube": "None", "website": "None", "summary": "None", "logo": "None", "latitude": 51.04136053621104, "longitude": -114.06274186372553}, "808528467RR0001": {"name": "Sheldon Gilmour Foundation", "designationCode": "B", "categoryCode": "05", "address": "3212 LAKE FRASER CRT SE", "city": "CALGARY", "province": "AB", "country": "CA", "postalCode": "T2J7H4", "twitter": "None", "instagram": "None", "facebook": "None", "youtube": "None", "website": "None", "summary": "None", "logo": "None", "latitude": 50.944514360102126, "longitude": -114.06718861973685}, "826793283RR0001": {"name": "Sheldon Kennedy Child Advocacy Centre Ltd.", "designationCode": "C", "categoryCode": "09", "address": "400, 3820-24 AVENUE NW", "city": "CALGARY", "province": "AB", "country": "CA", "postalCode": "T3B2X9", "twitter": "None", "instagram": "None", "facebook": "None", "youtube": "None", "website": "None", "summary": "None", "logo": "None", "latitude": 51.07445147100232, "longitude": -114.14194144463038}, "770666725RR0001": {"name": "Shell and Kay Maude Charitable Foundation", "designationCode": "B", "categoryCode": "03", "address": "PO BOX 2014", "city": "COCHRANE", "province": "AB", "country": "CA", "postalCode": "T4C1B8", "twitter": "None", "instagram": "None", "facebook": "None", "youtube": "None", "website": "None", "summary": "None", "logo": "None", "latitude": 51.19089900000006, "longitude": -114.46804249999994}, "133256123RR0001": {"name": "Shelldale Better Beginnings, Better Futures", "designationCode": "C", "categoryCode": "56", "address": "20 SHELLDALE CRES", "city": "GUELPH", "province": "ON", "country": "CA", "postalCode": "N1H1C8", "twitter": "None", "instagram": "None", "facebook": "None", "youtube": "None", "website": "None", "summary": "None", "logo": "None", "latitude": 43.545388497605416, "longitude": -80.27709036511051}, "852074483RR0001": {"name": "Shelley and Guy Scott Family Foundation", "designationCode": "B", "categoryCode": "03", "address": "417 - 11523 100 AVE NW", "city": "EDMONTON", "province": "AB", "country": "CA", "postalCode": "T5K0J8", "twitter": "None", "instagram": "None", "facebook": "None", "youtube": "None", "website": "None", "summary": "None", "logo": "None", "latitude": 53.53880753505719, "longitude": -113.52074230252755}, "805583762RR0001": {"name": "Shelly P Battram Charitable Foundation", "designationCode": "A", "categoryCode": "05", "address": "3005 - 500 DUPLEX AVE", "city": "TORONTO", "province": "ON", "country": "CA", "postalCode": "M4R1V6", "twitter": "None", "instagram": "None", "facebook": "None", "youtube": "None", "website": "None", "summary": "None", "logo": "None", "latitude": 43.709767208436745, "longitude": -79.40109135071245}, "838736924RR0001": {"name": "Shelter Them Poverty Relief", "designationCode": "C", "categoryCode": "09", "address": "19 SHENSTONE AVENUE", "city": "BRAMPTON", "province": "ON", "country": "CA", "postalCode": "L6Z2Y9", "twitter": "None", "instagram": "None", "facebook": "None", "youtube": "None", "website": "None", "summary": "None", "logo": "None", "latitude": 43.70893433556458, "longitude": -79.78542867456295}, "846283208RR0001": {"name": "Shelterbox Canada", "designationCode": "C", "categoryCode": "02", "address": "159 JANE STREET               OFFICE 2", "city": "TORONTO", "province": "ON", "country": "CA", "postalCode": "M6S3Y8", "twitter": "None", "instagram": "None", "facebook": "None", "youtube": "None", "website": "None", "summary": "None", "logo": "None", "latitude": 43.65357334554792, "longitude": -79.48616023437597}, "823103858RR0001": {"name": "Shelters International Disaster Response Society", "designationCode": "C", "categoryCode": "02", "address": "16 DOUGLAS AVE NE", "city": "LANGDON", "province": "AB", "country": "CA", "postalCode": "T0J1X1", "twitter": "None", "instagram": "None", "facebook": "None", "youtube": "None", "website": "None", "summary": "None", "logo": "None", "latitude": 50.97181347879262, "longitude": -113.668803}, "723917522RR0001": {"name": "Shenandoah Christian Music Camp of Ontario", "designationCode": "C", "categoryCode": "56", "address": "3745 HERRGOTT ROAD", "city": "HAWKESVILLE", "province": "ON", "country": "CA", "postalCode": "N0B1X0", "twitter": "None", "instagram": "None", "facebook": "None", "youtube": "None", "website": "None", "summary": "None", "logo": "None", "latitude": 43.566723733827715, "longitude": -80.64490476429728}, "839530680RR0001": {"name": "Shepherd of the Hills Lutheran Church (Airdrie)", "designationCode": "C", "categoryCode": "32", "address": "PO BOX 80071 DOWNTOWN PO", "city": "AIRDRIE", "province": "AB", "country": "CA", "postalCode": "T4B2V8", "twitter": "None", "instagram": "None", "facebook": "None", "youtube": "None", "website": "None", "summary": "None", "logo": "None", "latitude": 51.28868400000006, "longitude": -114.01344349999994}, "859168353RR0001": {"name": "Shepherd Shiloh Ministries Inc.", "designationCode": "C", "categoryCode": "39", "address": "11 CORRAL COURT", "city": "WHITBY", "province": "ON", "country": "CA", "postalCode": "L1N8E7", "twitter": "None", "instagram": "None", "facebook": "None", "youtube": "None", "website": "None", "summary": "None", "logo": "None", "latitude": 43.87780570716733, "longitude": -78.90947918858565}, "104831367RR0001": {"name": "Shepherd's Care Day Nursery Inc.", "designationCode": "C", "categoryCode": "01", "address": "1188 JEFFERSON AVENUE", "city": "WINNIPEG", "province": "MB", "country": "CA", "postalCode": "R2P0C7", "twitter": "None", "instagram": "None", "facebook": "None", "youtube": "None", "website": "None", "summary": "None", "logo": "None", "latitude": 49.95012686092693, "longitude": -97.16878035890676}, "119148583RR0001": {"name": "Sherbrooke Hussars' Association / Association des Sherbrooke Hussars", "designationCode": "C", "categoryCode": "50", "address": "315 WILLIAM ST", "city": "SHERBROOKE", "province": "QC", "country": "CA", "postalCode": "J1H4E8", "twitter": "None", "instagram": "None", "facebook": "None", "youtube": "None", "website": "None", "summary": "None", "logo": "None", "latitude": 45.40525018953796, "longitude": -71.89706579078387}, "802382010RR0001": {"name": "Sherbrooke Riverside Cemetery Association", "designationCode": "C", "categoryCode": "59", "address": "8229 HIGHWAY 7                PO BOX 18", "city": "SHERBROOKE", "province": "NS", "country": "CA", "postalCode": "B0J3C0", "twitter": "None", "instagram": "None", "facebook": "None", "youtube": "None", "website": "None", "summary": "None", "logo": "None", "latitude": 45.14556652067456, "longitude": -61.97745687981371}, "881933097RR0001": {"name": "Sherman Campus", "designationCode": "C", "categoryCode": "59", "address": "4600 BATHURST ST", "city": "NORTH YORK", "province": "ON", "country": "CA", "postalCode": "M2R3V2", "twitter": "None", "instagram": "None", "facebook": "None", "youtube": "None", "website": "None", "summary": "None", "logo": "None", "latitude": 43.764549213428396, "longitude": -79.4407190577642}, "813676186RR0001": {"name": "Sherman Family Foundation", "designationCode": "B", "categoryCode": "03", "address": "150 SIGNET DRIVE", "city": "NORTH YORK", "province": "ON", "country": "CA", "postalCode": "M9L1T9", "twitter": "None", "instagram": "None", "facebook": "None", "youtube": "None", "website": "None", "summary": "None", "logo": "None", "latitude": 43.7644214862371, "longitude": -79.54070713361912}, "834156556RR0001": {"name": "Sherry & Sean Bourne Family Charitable Foundation", "designationCode": "B", "categoryCode": "03", "address": "333 BAY STREET, SUITE 2400    BAY ADELAIDE CENTRE BOX 20", "city": "TORONTO", "province": "ON", "country": "CA", "postalCode": "M5H2T6", "twitter": "None", "instagram": "None", "facebook": "None", "youtube": "None", "website": "None", "summary": "None", "logo": "None", "latitude": 43.65015000000005, "longitude": -79.38079099999993}, "119288918RR0455": {"name": "Sherwood Heights Congregation of Jehovah's Witnesses, Sherwood Park, Alberta", "designationCode": "C", "categoryCode": "61", "address": "939 BIRCH AVE.", "city": "SHERWOOD PARK", "province": "AB", "country": "CA", "postalCode": "T8A1X6", "twitter": "None", "instagram": "None", "facebook": "None", "youtube": "None", "website": "None", "summary": "None", "logo": "None", "latitude": 53.513625518754544, "longitude": -113.310801}, "865764104RR0001": {"name": "Shevchenko Scientific Society of Canada", "designationCode": "C", "categoryCode": "21", "address": "516 THE KINGSWAY", "city": "ETOBICOKE", "province": "ON", "country": "CA", "postalCode": "M9A3W6", "twitter": "None", "instagram": "None", "facebook": "None", "youtube": "None", "website": "None", "summary": "None", "logo": "None", "latitude": 43.67378267441875, "longitude": -79.5481974328294}, "816343891RR0001": {"name": "Shiamak's Victory Arts Foundation", "designationCode": "C", "categoryCode": "56", "address": "2106 ST.ANDREWS AVENUE", "city": "NORTH VANCOUVER", "province": "BC", "country": "CA", "postalCode": "V7L3M5", "twitter": "None", "instagram": "None", "facebook": "None", "youtube": "None", "website": "None", "summary": "None", "logo": "None", "latitude": 49.32853074271452, "longitude": -123.0658813823072}, "808262471RR0001": {"name": "Shifra Homes Inc.", "designationCode": "C", "categoryCode": "09", "address": "3350 FAIRVIEW ST              SUITE 3-226B", "city": "BURLINGTON", "province": "ON", "country": "CA", "postalCode": "L7N3L5", "twitter": "None", "instagram": "None", "facebook": "None", "youtube": "None", "website": "None", "summary": "None", "logo": "None", "latitude": 43.354743739079176, "longitude": -79.78468411264382}, "773175492RR0001": {"name": "Shift Happens Coaching", "designationCode": "C", "categoryCode": "09", "address": "5555 ESCARPMENT SIDEROAD", "city": "CALEDON", "province": "ON", "country": "CA", "postalCode": "L7C0A9", "twitter": "None", "instagram": "None", "facebook": "None", "youtube": "None", "website": "None", "summary": "None", "logo": "None", "latitude": 43.89045570494562, "longitude": -79.91392265635668}, "801119314RR0001": {"name": "Shifting Growth Garden Society", "designationCode": "C", "categoryCode": "59", "address": "210 - 128 HASTINGS ST W", "city": "VANCOUVER", "province": "BC", "country": "CA", "postalCode": "V6B1G8", "twitter": "None", "instagram": "None", "facebook": "None", "youtube": "None", "website": "None", "summary": "None", "logo": "None", "latitude": 49.282042145290724, "longitude": -123.10798179037513}, "107406316RR0057": {"name": "Shiloh Community Church, Seeley's Bay, Ontario", "designationCode": "C", "categoryCode": "39", "address": "POST OFFICE BOX 269", "city": "SEELEY'S BAY", "province": "ON", "country": "CA", "postalCode": "K0H2N0", "twitter": "None", "instagram": "None", "facebook": "None", "youtube": "None", "website": "None", "summary": "None", "logo": "None", "latitude": 44.47601045333105, "longitude": -76.236505414248}, "847645231RR0001": {"name": "Shiloh Holiness Church", "designationCode": "C", "categoryCode": "39", "address": "1151 NORTH RIVER RD", "city": "OTTAWA", "province": "ON", "country": "CA", "postalCode": "K1K3W5", "twitter": "None", "instagram": "None", "facebook": "None", "youtube": "None", "website": "None", "summary": "None", "logo": "None", "latitude": 45.42101777687677, "longitude": -75.66423796381855}, "744172123RR0001": {"name": "Shiloh House Ministries Inc.", "designationCode": "B", "categoryCode": "39", "address": "306 ROWNTREE DRIVE,", "city": "HAMILTON", "province": "ON", "country": "CA", "postalCode": "L8W2P1", "twitter": "None", "instagram": "None", "facebook": "None", "youtube": "None", "website": "None", "summary": "None", "logo": "None", "latitude": 43.209884965577984, "longitude": -79.85771958309789}, "841763519RR0001": {"name": "Shiloh International Church Canada", "designationCode": "C", "categoryCode": "39", "address": "1018 WESTMOUNT AVENUE", "city": "MISSISSAUGA", "province": "ON", "country": "CA", "postalCode": "L5E1X2", "twitter": "None", "instagram": "None", "facebook": "None", "youtube": "None", "website": "None", "summary": "None", "logo": "None", "latitude": 43.57344361197999, "longitude": -79.5633399676841}, "835431438RR0001": {"name": "Shiloh Israel Children's Fund: Association of Canada", "designationCode": "C", "categoryCode": "09", "address": "101-999 BOW VALLEY TRAIL", "city": "CANMORE", "province": "AB", "country": "CA", "postalCode": "T1W1N4", "twitter": "None", "instagram": "None", "facebook": "None", "youtube": "None", "website": "None", "summary": "None", "logo": "None", "latitude": 51.09029390010948, "longitude": -115.35003079635338}, "834304156RR0001": {"name": "Shinah House Foundation", "designationCode": "C", "categoryCode": "11", "address": "424 7 ST S", "city": "LETHBRIDGE", "province": "AB", "country": "CA", "postalCode": "T1J2G6", "twitter": "None", "instagram": "None", "facebook": "None", "youtube": "None", "website": "None", "summary": "None", "logo": "None", "latitude": 49.694035262450704, "longitude": -112.83701608073575}, "835980772RR0001": {"name": "Shine on Chantelle Foundation Inc.", "designationCode": "C", "categoryCode": "11", "address": "3911 THAMES ROAD", "city": "REGINA", "province": "SK", "country": "CA", "postalCode": "S4V3A5", "twitter": "None", "instagram": "None", "facebook": "None", "youtube": "None", "website": "None", "summary": "None", "logo": "None", "latitude": 50.432400331420396, "longitude": -104.52688975719651}, "818173031RR0001": {"name": "Shine the Light Initiative Inc.", "designationCode": "C", "categoryCode": "11", "address": "146 PROVENCHER BLVD", "city": "WINNIPEG", "province": "MB", "country": "CA", "postalCode": "R2H0G3", "twitter": "None", "instagram": "None", "facebook": "None", "youtube": "None", "website": "None", "summary": "None", "logo": "None", "latitude": 49.891546918662485, "longitude": -97.12389648805478}, "891881005RR0001": {"name": "Shine Through the Rain Foundation", "designationCode": "C", "categoryCode": "11", "address": "107-16 ESNA PARK DRIVE", "city": "MARKHAM", "province": "ON", "country": "CA", "postalCode": "L3R5X1", "twitter": "None", "instagram": "None", "facebook": "None", "youtube": "None", "website": "None", "summary": "None", "logo": "None", "latitude": 43.825925057533055, "longitude": -79.34887779770877}, "746725696RR0001": {"name": "Shinimicas Cemetery Society", "designationCode": "C", "categoryCode": "59", "address": "34 HASTINGS CROSS ROAD", "city": "WARREN", "province": "NS", "country": "CA", "postalCode": "B4H3Y3", "twitter": "None", "instagram": "None", "facebook": "None", "youtube": "None", "website": "None", "summary": "None", "logo": "None", "latitude": 45.84413070670167, "longitude": -64.12523508203472}, "809315229RR0001": {"name": "Shining Arrow Ministries Grande Prairie", "designationCode": "C", "categoryCode": "43", "address": "9026 - 103 AVENUE", "city": "GRANDE PRAIRIE", "province": "AB", "country": "CA", "postalCode": "T8X1H4", "twitter": "None", "instagram": "None", "facebook": "None", "youtube": "None", "website": "None", "summary": "None", "logo": "None", "latitude": 55.17327708855088, "longitude": -118.76426156454487}, "843670753RR0001": {"name": "Shining Bright Ministries Corp.", "designationCode": "C", "categoryCode": "49", "address": "240 DUCK BAY RD", "city": "WAUBAUSHENE", "province": "ON", "country": "CA", "postalCode": "L0K2C0", "twitter": "None", "instagram": "None", "facebook": "None", "youtube": "None", "website": "None", "summary": "None", "logo": "None", "latitude": 44.76988648058256, "longitude": -79.70751564016773}, "827716044RR0001": {"name": "Shining Horizons Therapeutic Riding Association Inc.", "designationCode": "C", "categoryCode": "56", "address": "1680 RED HEAD RD", "city": "SAINT JOHN", "province": "NB", "country": "CA", "postalCode": "E2P1K4", "twitter": "None", "instagram": "None", "facebook": "None", "youtube": "None", "website": "None", "summary": "None", "logo": "None", "latitude": 45.23629559755327, "longitude": -65.99512670402198}, "849899000RR0001": {"name": "Ship Hector Society", "designationCode": "C", "categoryCode": "50", "address": "33 CALADH AVENUE              PO BOX 2015", "city": "PICTOU", "province": "NS", "country": "CA", "postalCode": "B0K1H0", "twitter": "None", "instagram": "None", "facebook": "None", "youtube": "None", "website": "None", "summary": "None", "logo": "None", "latitude": 45.67508859781307, "longitude": -62.70984639078996}, "836900837RR0001": {"name": "Shipwreck Preservation Society of Newfoundland and Labrador Inc.", "designationCode": "C", "categoryCode": "50", "address": "304 WINDGAP ROAD", "city": "FLATROCK", "province": "NL", "country": "CA", "postalCode": "A1K1C3", "twitter": "None", "instagram": "None", "facebook": "None", "youtube": "None", "website": "None", "summary": "None", "logo": "None", "latitude": 47.70115800000005, "longitude": -52.70142049999993}, "832418446RR0001": {"name": "Shir Chadash Community Synagogue / Synagogue communautaire Shir Chadash", "designationCode": "C", "categoryCode": "42", "address": "5369 CH QUEEN-MARY", "city": "MONTREAL", "province": "QC", "country": "CA", "postalCode": "H3X1V1", "twitter": "None", "instagram": "None", "facebook": "None", "youtube": "None", "website": "None", "summary": "None", "logo": "None", "latitude": 45.482481931732885, "longitude": -73.63025673968475}, "790273098RR0001": {"name": "Shireen & Edna Marcus Fund", "designationCode": "B", "categoryCode": "15", "address": "PO BOX 10085                  LCD PACIFIC CENTRE", "city": "VANCOUVER", "province": "BC", "country": "CA", "postalCode": "V7Y1B6", "twitter": "None", "instagram": "None", "facebook": "None", "youtube": "None", "website": "None", "summary": "None", "logo": "None", "latitude": 49.28299000000004, "longitude": -123.11890999999997}, "856620133RR0001": {"name": "Shiv Sewa Sangh Inc.", "designationCode": "C", "categoryCode": "48", "address": "2555 EGLINTON AVE E UNIT B", "city": "SCARBOROUGH", "province": "ON", "country": "CA", "postalCode": "M1K5J1", "twitter": "None", "instagram": "None", "facebook": "None", "youtube": "None", "website": "None", "summary": "None", "logo": "None", "latitude": 43.734660812626444, "longitude": -79.25743808491555}, "853883460RR0001": {"name": "Shiv-Shakti Kali Devi Mandir Hindu Association", "designationCode": "C", "categoryCode": "48", "address": "62 ONTARIO ST", "city": "GEORGETOWN", "province": "ON", "country": "CA", "postalCode": "L7G3L1", "twitter": "None", "instagram": "None", "facebook": "None", "youtube": "None", "website": "None", "summary": "None", "logo": "None", "latitude": 43.65835947879261, "longitude": -79.92759394615959}, "805964897RR0001": {"name": "Shiva Mandir and Cultural Organization Inc.", "designationCode": "C", "categoryCode": "48", "address": "2 GLANVIL CRESCENT,", "city": "SCARBOROUGH", "province": "ON", "country": "CA", "postalCode": "M1B4S1", "twitter": "None", "instagram": "None", "facebook": "None", "youtube": "None", "website": "None", "summary": "None", "logo": "None", "latitude": 43.8132754032548, "longitude": -79.22026057037326}, "830827903RR0001": {"name": "Shivtei Israel Messianic Congregation", "designationCode": "C", "categoryCode": "39", "address": "144 LUDLOWE STREET", "city": "OTTAWA", "province": "ON", "country": "CA", "postalCode": "K4A5C7", "twitter": "None", "instagram": "None", "facebook": "None", "youtube": "None", "website": "None", "summary": "None", "logo": "None", "latitude": 45.475533755467815, "longitude": -75.46323945602734}, "869344283RR0001": {"name": "Shkagamik-Kwe Health Centre", "designationCode": "C", "categoryCode": "11", "address": "161 APPLEGROVE ST", "city": "SUDBURY", "province": "ON", "country": "CA", "postalCode": "P3C1N2", "twitter": "None", "instagram": "None", "facebook": "None", "youtube": "None", "website": "None", "summary": "None", "logo": "None", "latitude": 46.49178729147169, "longitude": -81.00200213713052}, "831863238RR0001": {"name": "Shmilu and Sari Rosenberg Foundation / Fondation Shmilu and Sari Rosenberg", "designationCode": "B", "categoryCode": "03", "address": "4800 JEAN TALON STREET WEST   SUITE 401", "city": "MONTR\u00c9AL", "province": "QC", "country": "CA", "postalCode": "H4P1W9", "twitter": "None", "instagram": "None", "facebook": "None", "youtube": "None", "website": "None", "summary": "None", "logo": "None", "latitude": 45.49799272577765, "longitude": -73.64883999304644}, "893401364RR0001": {"name": "Shmuel Zahavy Cheder Chabad School", "designationCode": "C", "categoryCode": "20", "address": "202-900 ALNESS ST.", "city": "TORONTO", "province": "ON", "country": "CA", "postalCode": "M3J2H6", "twitter": "None", "instagram": "None", "facebook": "None", "youtube": "None", "website": "None", "summary": "None", "logo": "None", "latitude": 43.77966103107516, "longitude": -79.47569627829039}, "876771676RR0001": {"name": "Shoal Lake Community Foundation Inc.", "designationCode": "A", "categoryCode": "03", "address": "BOX 323", "city": "SHOAL LAKE", "province": "MB", "country": "CA", "postalCode": "R0J1Z0", "twitter": "None", "instagram": "None", "facebook": "None", "youtube": "None", "website": "None", "summary": "None", "logo": "None", "latitude": 50.437670000000026, "longitude": -100.59073999999998}, "890069578RR0001": {"name": "Shoal Lake Mounted Police Museum Inc.", "designationCode": "C", "categoryCode": "50", "address": "BOX 227", "city": "SHOAL LAKE", "province": "MB", "country": "CA", "postalCode": "R0J1Z0", "twitter": "None", "instagram": "None", "facebook": "None", "youtube": "None", "website": "None", "summary": "None", "logo": "None", "latitude": 50.437670000000026, "longitude": -100.59073999999998}, "818459521RR0001": {"name": "Shock Trauma Air Rescue Service Foundation", "designationCode": "A", "categoryCode": "03", "address": "1441 AVIATION PARK N.E        BOX 570", "city": "CALGARY", "province": "AB", "country": "CA", "postalCode": "T2E8M7", "twitter": "None", "instagram": "None", "facebook": "None", "youtube": "None", "website": "None", "summary": "None", "logo": "None", "latitude": 51.099969624052925, "longitude": -114.03055748645824}, "841846330RR0001": {"name": "Shoebank Canada", "designationCode": "C", "categoryCode": "09", "address": "1627 ELLIS ST", "city": "KELOWNA", "province": "BC", "country": "CA", "postalCode": "V1Y2A8", "twitter": "None", "instagram": "None", "facebook": "None", "youtube": "None", "website": "None", "summary": "None", "logo": "None", "latitude": 49.88494415150468, "longitude": -119.49345601276092}, "829329168RR0001": {"name": "Shoestring Opera", "designationCode": "C", "categoryCode": "22", "address": "61 THE KINGSWAY", "city": "TORONTO", "province": "ON", "country": "CA", "postalCode": "M8X2T3", "twitter": "None", "instagram": "None", "facebook": "None", "youtube": "None", "website": "None", "summary": "None", "logo": "None", "latitude": 43.65283640218695, "longitude": -79.5057082440995}, "107853715RR0001": {"name": "Shoreline Baptist Church", "designationCode": "C", "categoryCode": "31", "address": "910 GODERICH ST", "city": "PORT ELGIN", "province": "ON", "country": "CA", "postalCode": "N0H2C3", "twitter": "None", "instagram": "None", "facebook": "None", "youtube": "None", "website": "None", "summary": "None", "logo": "None", "latitude": 44.44305333253482, "longitude": -81.38346598173545}, "829587831RR0001": {"name": "Shoreline Family Church", "designationCode": "C", "categoryCode": "39", "address": "25-211 BUCKINGHAM ST", "city": "WINDSOR", "province": "ON", "country": "CA", "postalCode": "N8S2C5", "twitter": "None", "instagram": "None", "facebook": "None", "youtube": "None", "website": "None", "summary": "None", "logo": "None", "latitude": 42.3290115, "longitude": -82.97493975}, "853753853RR0001": {"name": "Shoreline Gathering Point Ministries", "designationCode": "C", "categoryCode": "09", "address": "699 RED CROW BLVD. WEST", "city": "LETHBRIDGE", "province": "AB", "country": "CA", "postalCode": "T1K7N1", "twitter": "None", "instagram": "None", "facebook": "None", "youtube": "None", "website": "None", "summary": "None", "logo": "None", "latitude": 49.68196128836064, "longitude": -112.8981868928961}, "853353613RR0001": {"name": "Shoresh Jewish Environmental Programs", "designationCode": "C", "categoryCode": "20", "address": "132 CEDRIC AVE", "city": "YORK", "province": "ON", "country": "CA", "postalCode": "M6C3X8", "twitter": "None", "instagram": "None", "facebook": "None", "youtube": "None", "website": "None", "summary": "None", "logo": "None", "latitude": 43.6876916544521, "longitude": -79.43677319291349}, "825118219RR0001": {"name": "Short Term International Medical Missions Abroad", "designationCode": "C", "categoryCode": "11", "address": "1299 RICHMOND RD", "city": "BURLINGTON", "province": "ON", "country": "CA", "postalCode": "L7S1K5", "twitter": "None", "instagram": "None", "facebook": "None", "youtube": "None", "website": "None", "summary": "None", "logo": "None", "latitude": 43.32639593617628, "longitude": -79.81070058286674}, "832288468RR0001": {"name": "Shree Jagannath Temple Canada", "designationCode": "C", "categoryCode": "48", "address": "2107 CODLIN CRESCENT", "city": "TORONTO", "province": "ON", "country": "CA", "postalCode": "M9W5K7", "twitter": "None", "instagram": "None", "facebook": "None", "youtube": "None", "website": "None", "summary": "None", "logo": "None", "latitude": 43.74939273270254, "longitude": -79.6360191751399}, "830357174RR0001": {"name": "Shree Krishna Maha Kali & Madurai Veeran Cultural Centre", "designationCode": "C", "categoryCode": "48", "address": "1217-123 BELLAMY RD. NORTH", "city": "SCARBOROUGH", "province": "ON", "country": "CA", "postalCode": "M1J2K9", "twitter": "None", "instagram": "None", "facebook": "None", "youtube": "None", "website": "None", "summary": "None", "logo": "None", "latitude": 43.747890790233114, "longitude": -79.23162846890688}, "839117934RR0001": {"name": "Shree Krishna Pranami Association of Canada", "designationCode": "C", "categoryCode": "39", "address": "124 EASTVALE DRIVE", "city": "MARKHAM", "province": "ON", "country": "CA", "postalCode": "L3S0B3", "twitter": "None", "instagram": "None", "facebook": "None", "youtube": "None", "website": "None", "summary": "None", "logo": "None", "latitude": 43.84440993337765, "longitude": -79.25037667557257}, "822364980RR0001": {"name": "Shri Durga Hanuman Religious & Cultural Society of B.C", "designationCode": "C", "categoryCode": "48", "address": "4655 SMITH AVE", "city": "BURNABY", "province": "BC", "country": "CA", "postalCode": "V5G2V9", "twitter": "None", "instagram": "None", "facebook": "None", "youtube": "None", "website": "None", "summary": "None", "logo": "None", "latitude": 49.243324099738075, "longitude": -123.01982894522986}, "889304606RR0001": {"name": "Shri Maha Kali Ammaa Mandir Hindu Association", "designationCode": "C", "categoryCode": "48", "address": "13 KENVIEW BLVD               UNIT 28", "city": "BRAMPTON", "province": "ON", "country": "CA", "postalCode": "L6T5K9", "twitter": "None", "instagram": "None", "facebook": "None", "youtube": "None", "website": "None", "summary": "None", "logo": "None", "latitude": 43.73599420508985, "longitude": -79.65099655179253}, "859570293RR0001": {"name": "Shri Sadguru Sai Baba Mandir Of Edmonton", "designationCode": "C", "categoryCode": "48", "address": "PO BOX 22559 RPO SOUTHBROOK", "city": "EDMONTON", "province": "AB", "country": "CA", "postalCode": "T6W0C3", "twitter": "None", "instagram": "None", "facebook": "None", "youtube": "None", "website": "None", "summary": "None", "logo": "None", "latitude": 53.427426000000054, "longitude": -113.57704249999993}, "839649001RR0001": {"name": "Shrimad Rajchandra Mission Dharampur (Canada)", "designationCode": "C", "categoryCode": "39", "address": "12 FERNCLIFF CRESCENT", "city": "MARKHAM", "province": "ON", "country": "CA", "postalCode": "L3S4N9", "twitter": "None", "instagram": "None", "facebook": "None", "youtube": "None", "website": "None", "summary": "None", "logo": "None", "latitude": 43.84017610687276, "longitude": -79.24535989967677}, "825299670RR0002": {"name": "Shriners of British Columbia & Yukon Child Services Society", "designationCode": "C", "categoryCode": "65", "address": "3550 WAYBURNE DR", "city": "BURNABY", "province": "BC", "country": "CA", "postalCode": "V5G3K9", "twitter": "None", "instagram": "None", "facebook": "None", "youtube": "None", "website": "None", "summary": "None", "logo": "None", "latitude": 49.2521901562411, "longitude": -122.99446259100372}, "119288918RR0047": {"name": "Shubenacadie Congregation of Jehovah's Witnesses, Shubenacadie, Nova Scotia", "designationCode": "C", "categoryCode": "61", "address": "12780 HIGHWAY 215  RR4", "city": "ADMIRAL ROCK", "province": "NS", "country": "CA", "postalCode": "B0N2H0", "twitter": "None", "instagram": "None", "facebook": "None", "youtube": "None", "website": "None", "summary": "None", "logo": "None", "latitude": 45.169405663558415, "longitude": -63.406398652925276}, "819410127RR0001": {"name": "Shuguy Ministries", "designationCode": "C", "categoryCode": "09", "address": "670 MORISON AVE", "city": "PARKSVILLE", "province": "BC", "country": "CA", "postalCode": "V9P1G3", "twitter": "None", "instagram": "None", "facebook": "None", "youtube": "None", "website": "None", "summary": "None", "logo": "None", "latitude": 49.32115754342439, "longitude": -124.3357515}, "829010511RR0001": {"name": "Shukhar Philanthropic Foundation", "designationCode": "B", "categoryCode": "09", "address": "3949 NITHSDALE STREET", "city": "BURNABY", "province": "BC", "country": "CA", "postalCode": "V5G1P5", "twitter": "None", "instagram": "None", "facebook": "None", "youtube": "None", "website": "None", "summary": "None", "logo": "None", "latitude": 49.25192377881, "longitude": -123.0166528477696}, "816167332RR0001": {"name": "Shukrana Foundation Inc.", "designationCode": "B", "categoryCode": "03", "address": "2080, SCHOOLMASTER CIRCLE", "city": "OAKVILLE", "province": "ON", "country": "CA", "postalCode": "L6M3A1", "twitter": "None", "instagram": "None", "facebook": "None", "youtube": "None", "website": "None", "summary": "None", "logo": "None", "latitude": 43.43234387454559, "longitude": -79.73664339451221}, "815691860RR0001": {"name": "Shumba Medical Society", "designationCode": "C", "categoryCode": "11", "address": "21 EDGEBANK CIRCLE NW", "city": "CALGARY", "province": "AB", "country": "CA", "postalCode": "T3A4R9", "twitter": "None", "instagram": "None", "facebook": "None", "youtube": "None", "website": "None", "summary": "None", "logo": "None", "latitude": 51.12942920206008, "longitude": -114.13931135319396}, "118918952RR0001": {"name": "Shuswap Community Church", "designationCode": "C", "categoryCode": "31", "address": "3151 6TH AVE NE", "city": "SALMON ARM", "province": "BC", "country": "CA", "postalCode": "V1E1J2", "twitter": "None", "instagram": "None", "facebook": "None", "youtube": "None", "website": "None", "summary": "None", "logo": "None", "latitude": 50.704040479369525, "longitude": -119.24881272300767}, "815102272RR0001": {"name": "Shuswap Hut and Trail Alliance Society", "designationCode": "C", "categoryCode": "56", "address": "141 SHUSWAP STREET            PO BOX 1531", "city": "SALMON ARM", "province": "BC", "country": "CA", "postalCode": "V1E4P6", "twitter": "None", "instagram": "None", "facebook": "None", "youtube": "None", "website": "None", "summary": "None", "logo": "None", "latitude": 50.700484055542525, "longitude": -119.28517591162199}, "841732886RR0001": {"name": "Shuswap Lifeboat Society", "designationCode": "C", "categoryCode": "59", "address": "PO BOX 661", "city": "SICAMOUS", "province": "BC", "country": "CA", "postalCode": "V0E2V0", "twitter": "None", "instagram": "None", "facebook": "None", "youtube": "None", "website": "None", "summary": "None", "logo": "None", "latitude": 50.81994638864104, "longitude": -119.68648050671356}, "871284444RR0001": {"name": "Shuswap Singers", "designationCode": "C", "categoryCode": "22", "address": "BOX 1515", "city": "SALMON ARM", "province": "BC", "country": "CA", "postalCode": "V1E4P6", "twitter": "None", "instagram": "None", "facebook": "None", "youtube": "None", "website": "None", "summary": "None", "logo": "None", "latitude": 50.70318000000006, "longitude": -119.26884049999992}, "856965066RR0001": {"name": "Shya and Debbie Finestone Family Foundation", "designationCode": "B", "categoryCode": "03", "address": "150, FAIRVIEW", "city": "DOLLARD-DES-ORMEAUX", "province": "QC", "country": "CA", "postalCode": "H9A1V7", "twitter": "None", "instagram": "None", "facebook": "None", "youtube": "None", "website": "None", "summary": "None", "logo": "None", "latitude": 45.49391902443872, "longitude": -73.82838625549645}}