{"743534695RR0001": {"name": "Iglesia Pentecostal Rios de Agua Viva de Montr\u00e9al", "designationCode": "C", "categoryCode": "39", "address": "12457 RUE LA GALISSONNIERE", "city": "MONTREAL", "province": "QC", "country": "CA", "postalCode": "H1C2E9", "twitter": "None", "instagram": "None", "facebook": "None", "youtube": "None", "website": "None", "summary": "None", "logo": "None", "latitude": 45.66457919346175, "longitude": -73.55177531805079}, "840568216RR0001": {"name": "Iglesia Pentecostal Senda De Salvacion", "designationCode": "C", "categoryCode": "39", "address": "212-90 CORDOVA AVE.", "city": "ETOBICOKE", "province": "ON", "country": "CA", "postalCode": "M9A2H8", "twitter": "None", "instagram": "None", "facebook": "None", "youtube": "None", "website": "None", "summary": "None", "logo": "None", "latitude": 43.64797285097227, "longitude": -79.52434905600478}, "899220685RR0001": {"name": "Iglesia Pentecostal Triunfantes en Cristo Inc.", "designationCode": "C", "categoryCode": "39", "address": "552 BANNING ST", "city": "WINNIPEG", "province": "MB", "country": "CA", "postalCode": "R3G2G1", "twitter": "None", "instagram": "None", "facebook": "None", "youtube": "None", "website": "None", "summary": "None", "logo": "None", "latitude": 49.89131329447747, "longitude": -97.17209431865636}, "826312480RR0001": {"name": "Iglesia Pentecostal Unida Emanuel Church of Edmonton", "designationCode": "C", "categoryCode": "39", "address": "24-4 GRANGE DR", "city": "ST ALBERT", "province": "AB", "country": "CA", "postalCode": "T8N3W9", "twitter": "None", "instagram": "None", "facebook": "None", "youtube": "None", "website": "None", "summary": "None", "logo": "None", "latitude": 53.6208268576087, "longitude": -113.61487121054286}, "850696808RR0001": {"name": "Iglesia Pentecostes Monte Horeb", "designationCode": "C", "categoryCode": "39", "address": "3001 DUNDAS STREET WEST,", "city": "TORONTO", "province": "ON", "country": "CA", "postalCode": "M6P1W4", "twitter": "None", "instagram": "None", "facebook": "None", "youtube": "None", "website": "None", "summary": "None", "logo": "None", "latitude": 43.665442492353954, "longitude": -79.46934252844942}, "890842743RR0001": {"name": "Iglesia Pentecostes:\"Jesus, El Buen Pastor\"", "designationCode": "C", "categoryCode": "36", "address": "3790 CANADA WAY               P.O. BOX 43076, CASCADE", "city": "BURNABY", "province": "BC", "country": "CA", "postalCode": "V5G1G4", "twitter": "None", "instagram": "None", "facebook": "None", "youtube": "None", "website": "None", "summary": "None", "logo": "None", "latitude": 49.25467854674261, "longitude": -123.0206625}, "818643231RR0001": {"name": "Iglesia Voz De Salvacion", "designationCode": "C", "categoryCode": "39", "address": "1151 NORTH RIVER RD", "city": "OTTAWA", "province": "ON", "country": "CA", "postalCode": "K1K3W5", "twitter": "None", "instagram": "None", "facebook": "None", "youtube": "None", "website": "None", "summary": "None", "logo": "None", "latitude": 45.42101777687677, "longitude": -75.66423796381855}, "875556524RR0001": {"name": "Iglesia: Pentecostal: Fuente de Agua Viva of Edmonton", "designationCode": "C", "categoryCode": "39", "address": "3408 - 28 STREET N.W.", "city": "EDMONTON", "province": "AB", "country": "CA", "postalCode": "T6T2A6", "twitter": "None", "instagram": "None", "facebook": "None", "youtube": "None", "website": "None", "summary": "None", "logo": "None", "latitude": 53.46600074825446, "longitude": -113.38393873316389}, "118966373RR0001": {"name": "Ignatius Jesuit Centre", "designationCode": "C", "categoryCode": "20", "address": "5420 HWY 6 NORTH", "city": "GUELPH", "province": "ON", "country": "CA", "postalCode": "N1H6J2", "twitter": "None", "instagram": "None", "facebook": "None", "youtube": "None", "website": "None", "summary": "None", "logo": "None", "latitude": 43.57296517735107, "longitude": -80.28245636726805}, "863743928RR0001": {"name": "Ignite Adult Learning Corporation", "designationCode": "C", "categoryCode": "20", "address": "103, 1112 WINNIPEG ST.", "city": "REGINA", "province": "SK", "country": "CA", "postalCode": "S4R1J6", "twitter": "None", "instagram": "None", "facebook": "None", "youtube": "None", "website": "None", "summary": "None", "logo": "None", "latitude": 50.46115509950385, "longitude": -104.59528077363004}, "849377825RR0001": {"name": "Ignite Christian Fellowship", "designationCode": "C", "categoryCode": "39", "address": "33 MACARTHUR AVE", "city": "CARLETON PLACE", "province": "ON", "country": "CA", "postalCode": "K7C2W1", "twitter": "None", "instagram": "None", "facebook": "None", "youtube": "None", "website": "None", "summary": "None", "logo": "None", "latitude": 45.136153199823255, "longitude": -76.14232638409503}, "714653524RR0001": {"name": "Ignite Life Ministries", "designationCode": "C", "categoryCode": "39", "address": "46-12036 66 AVE", "city": "SURREY", "province": "BC", "country": "CA", "postalCode": "V3W3M2", "twitter": "None", "instagram": "None", "facebook": "None", "youtube": "None", "website": "None", "summary": "None", "logo": "None", "latitude": 49.12301849956732, "longitude": -122.88946452844942}, "793968496RR0001": {"name": "Ignite The Spirit of Education Foundation Inc.", "designationCode": "B", "categoryCode": "21", "address": "5418 YONGE ST                 SUITE 912", "city": "TORONTO", "province": "ON", "country": "CA", "postalCode": "M2N6X4", "twitter": "None", "instagram": "None", "facebook": "None", "youtube": "None", "website": "None", "summary": "None", "logo": "None", "latitude": 43.77503014409339, "longitude": -79.41502937082332}, "785398520RR0001": {"name": "Ignite Women's Outreach", "designationCode": "C", "categoryCode": "47", "address": "2223 CAMERON LINE", "city": "ASPHODEL-NORWOOD", "province": "ON", "country": "CA", "postalCode": "K0L2B0", "twitter": "None", "instagram": "None", "facebook": "None", "youtube": "None", "website": "None", "summary": "None", "logo": "None", "latitude": 44.34019268958707, "longitude": -78.10242937126013}, "801172925RR0001": {"name": "Ignite Your Destiny International", "designationCode": "C", "categoryCode": "09", "address": "203 CONCORD ROAD", "city": "LONDON", "province": "ON", "country": "CA", "postalCode": "N6G3H9", "twitter": "None", "instagram": "None", "facebook": "None", "youtube": "None", "website": "None", "summary": "None", "logo": "None", "latitude": 42.997851733827716, "longitude": -81.30095430893284}, "141057869RR0001": {"name": "Ignite 21 Ministries, Inc.", "designationCode": "C", "categoryCode": "36", "address": "1466 LAWSON RD", "city": "LONDON", "province": "ON", "country": "CA", "postalCode": "N6G0E2", "twitter": "None", "instagram": "None", "facebook": "None", "youtube": "None", "website": "None", "summary": "None", "logo": "None", "latitude": 42.99579239482409, "longitude": -81.32106180865871}, "107396905RR0071": {"name": "Igreja do Evangelho Quadrangular de Toronto", "designationCode": "C", "categoryCode": "39", "address": "126 LONG ST", "city": "BRADFORD", "province": "ON", "country": "CA", "postalCode": "L3Z0R6", "twitter": "None", "instagram": "None", "facebook": "None", "youtube": "None", "website": "None", "summary": "None", "logo": "None", "latitude": 44.10067502628032, "longitude": -79.59625372887356}, "840971352RR0001": {"name": "Igreja Assemblia de Deus Ministerio Missao of Canada Inc.", "designationCode": "C", "categoryCode": "36", "address": "1567 KEELE STREET", "city": "TORONTO", "province": "ON", "country": "CA", "postalCode": "M6N3G1", "twitter": "None", "instagram": "None", "facebook": "None", "youtube": "None", "website": "None", "summary": "None", "logo": "None", "latitude": 43.681297440617364, "longitude": -79.47117786913505}, "801030602RR0001": {"name": "Ihnatowycz Family Foundation", "designationCode": "B", "categoryCode": "03", "address": "3515 - 40 KING ST W", "city": "TORONTO", "province": "ON", "country": "CA", "postalCode": "M5H3Y2", "twitter": "None", "instagram": "None", "facebook": "None", "youtube": "None", "website": "None", "summary": "None", "logo": "None", "latitude": 43.64813467004466, "longitude": -79.38254906728791}, "824631998RR0001": {"name": "Ihsan Heritage Foundation", "designationCode": "A", "categoryCode": "43", "address": "206 - 11125 107 AVE NW", "city": "EDMONTON", "province": "AB", "country": "CA", "postalCode": "T5H0X9", "twitter": "None", "instagram": "None", "facebook": "None", "youtube": "None", "website": "None", "summary": "None", "logo": "None", "latitude": 53.55136448124545, "longitude": -113.5134405}, "852193465RR0001": {"name": "Ikanawtiket Environmental Incorporated", "designationCode": "C", "categoryCode": "29", "address": "172 TRURO HEIGHTS ROAD", "city": "TRURO HEIGHTS", "province": "NS", "country": "CA", "postalCode": "B6L1X1", "twitter": "None", "instagram": "None", "facebook": "None", "youtube": "None", "website": "None", "summary": "None", "logo": "None", "latitude": 45.36025711296094, "longitude": -63.3203699740894}, "811664515RR0001": {"name": "Illuminating His Word to the Nations", "designationCode": "C", "categoryCode": "47", "address": "38 GRAHAM AVENUE SOUTH", "city": "HAMILTON", "province": "ON", "country": "CA", "postalCode": "L8K2M1", "twitter": "None", "instagram": "None", "facebook": "None", "youtube": "None", "website": "None", "summary": "None", "logo": "None", "latitude": 43.23974231279932, "longitude": -79.8156029525649}, "119288918RR1649": {"name": "Iloko Central Congregation of Jehovah's Witnesses, Montreal, Quebec", "designationCode": "C", "categoryCode": "61", "address": "11-3085 BEDFORD", "city": "MONTREAL", "province": "QC", "country": "CA", "postalCode": "H3S1G3", "twitter": "None", "instagram": "None", "facebook": "None", "youtube": "None", "website": "None", "summary": "None", "logo": "None", "latitude": 45.50819607383571, "longitude": -73.63347691162198}, "119288918RR1647": {"name": "Iloko West Congregation of Jehovah's Witnesses, Toronto, Ontario", "designationCode": "C", "categoryCode": "61", "address": "5 MAPLE LEAF DR", "city": "NORTH YORK", "province": "ON", "country": "CA", "postalCode": "M6L1N4", "twitter": "None", "instagram": "None", "facebook": "None", "youtube": "None", "website": "None", "summary": "None", "logo": "None", "latitude": 43.70940867773697, "longitude": -79.50452675116864}, "759505522RR0001": {"name": "Imagine Change Foundation", "designationCode": "C", "categoryCode": "20", "address": "1601 4TH E AVE", "city": "VANCOUVER", "province": "BC", "country": "CA", "postalCode": "V5N1J7", "twitter": "None", "instagram": "None", "facebook": "None", "youtube": "None", "website": "None", "summary": "None", "logo": "None", "latitude": 49.266890496537556, "longitude": -123.07023963918864}, "844160556RR0001": {"name": "Imagine Worldwide Society", "designationCode": "C", "categoryCode": "36", "address": "321 - 650 LEXINGTON DR", "city": "KELOWNA", "province": "BC", "country": "CA", "postalCode": "V1W3B6", "twitter": "None", "instagram": "None", "facebook": "None", "youtube": "None", "website": "None", "summary": "None", "logo": "None", "latitude": 49.83984933808498, "longitude": -119.48553832153644}, "847028909RR0001": {"name": "Imagine 1 Day International Foundation", "designationCode": "A", "categoryCode": "03", "address": "SUITE 600 - 21 WATER STREET", "city": "VANCOUVER", "province": "BC", "country": "CA", "postalCode": "V6B1A1", "twitter": "None", "instagram": "None", "facebook": "None", "youtube": "None", "website": "None", "summary": "None", "logo": "None", "latitude": 49.2835963183679, "longitude": -123.10471838314393}, "119283513RR0001": {"name": "ImagineAbility Inc.", "designationCode": "C", "categoryCode": "20", "address": "500 MADISON ST", "city": "WINNIPEG", "province": "MB", "country": "CA", "postalCode": "R3H0L4", "twitter": "None", "instagram": "None", "facebook": "None", "youtube": "None", "website": "None", "summary": "None", "logo": "None", "latitude": 49.89156245490218, "longitude": -97.20336529095675}, "811391705RR0001": {"name": "Imagining Church Fellowship", "designationCode": "C", "categoryCode": "39", "address": "PO BOX 22659 RPO SOUTHBROOK", "city": "EDMONTON", "province": "AB", "country": "CA", "postalCode": "T6W0C3", "twitter": "None", "instagram": "None", "facebook": "None", "youtube": "None", "website": "None", "summary": "None", "logo": "None", "latitude": 53.427426000000054, "longitude": -113.57704249999993}, "849438510RR0001": {"name": "Imam Abdul Razak Foundation", "designationCode": "C", "categoryCode": "09", "address": "100 COWDRAY COURT             SUITE 360", "city": "TORONTO", "province": "ON", "country": "CA", "postalCode": "M1S5C8", "twitter": "None", "instagram": "None", "facebook": "None", "youtube": "None", "website": "None", "summary": "None", "logo": "None", "latitude": 43.78070929283269, "longitude": -79.28639486539898}, "783651482RR0001": {"name": "Imam Ali Association of Calgary", "designationCode": "C", "categoryCode": "60", "address": "3610 50 AVE SE", "city": "CALGARY", "province": "AB", "country": "CA", "postalCode": "T2B3N9", "twitter": "None", "instagram": "None", "facebook": "None", "youtube": "None", "website": "None", "summary": "None", "logo": "None", "latitude": 51.008789457729456, "longitude": -113.98122369317329}, "843119108RR0001": {"name": "Imam Hossain Community Center", "designationCode": "C", "categoryCode": "60", "address": "323 DEERHIDE CRESCENT", "city": "NORTH YORK", "province": "ON", "country": "CA", "postalCode": "M9M2Z2", "twitter": "None", "instagram": "None", "facebook": "None", "youtube": "None", "website": "None", "summary": "None", "logo": "None", "latitude": 43.74764117845812, "longitude": -79.53399354498227}, "824889596RR0001": {"name": "Imam Hussein Islamic Society (IHIS)", "designationCode": "C", "categoryCode": "60", "address": "1159 GOODWIN CIR NW", "city": "EDMONTON", "province": "AB", "country": "CA", "postalCode": "T5T6W5", "twitter": "None", "instagram": "None", "facebook": "None", "youtube": "None", "website": "None", "summary": "None", "logo": "None", "latitude": 53.50018516763808, "longitude": -113.67580618154518}, "810357442RR0001": {"name": "Imam-E-Zamana Center", "designationCode": "C", "categoryCode": "60", "address": "636 WILSON AVE", "city": "NORTH YORK", "province": "ON", "country": "CA", "postalCode": "M3K1E1", "twitter": "None", "instagram": "None", "facebook": "None", "youtube": "None", "website": "None", "summary": "None", "logo": "None", "latitude": 43.73202082766799, "longitude": -79.46051585235692}, "834140048RR0001": {"name": "Imamia Medics International-Canada Inc.", "designationCode": "C", "categoryCode": "11", "address": "22 SHASTA DR", "city": "THORNHILL", "province": "ON", "country": "CA", "postalCode": "L4J1Z5", "twitter": "None", "instagram": "None", "facebook": "None", "youtube": "None", "website": "None", "summary": "None", "logo": "None", "latitude": 43.829031468492175, "longitude": -79.43081365684668}, "800228314RR0001": {"name": "Imani Orphan Care Foundation", "designationCode": "C", "categoryCode": "01", "address": "3308 BLOSSOM CRT", "city": "ABBOTSFORD", "province": "BC", "country": "CA", "postalCode": "V3G2Y5", "twitter": "None", "instagram": "None", "facebook": "None", "youtube": "None", "website": "None", "summary": "None", "logo": "None", "latitude": 49.06227015211483, "longitude": -122.23557940533226}, "837843150RR0001": {"name": "Imitating Christ Ministries", "designationCode": "C", "categoryCode": "39", "address": "12969 CRESCENT RD", "city": "SURREY", "province": "BC", "country": "CA", "postalCode": "V4P1J8", "twitter": "None", "instagram": "None", "facebook": "None", "youtube": "None", "website": "None", "summary": "None", "logo": "None", "latitude": 49.05468789733951, "longitude": -122.86269416657021}, "847900610RR0001": {"name": "Imladris Foundation", "designationCode": "B", "categoryCode": "03", "address": "1500 GEORGIA ST W             BOX 62, SUITE 1250", "city": "VANCOUVER", "province": "BC", "country": "CA", "postalCode": "V6G2Z6", "twitter": "None", "instagram": "None", "facebook": "None", "youtube": "None", "website": "None", "summary": "None", "logo": "None", "latitude": 49.29013479542975, "longitude": -123.1300069287031}, "119221380RR0009": {"name": "Immaculata Regional High School", "designationCode": "C", "categoryCode": "20", "address": "3665 BENVOULIN RD", "city": "KELOWNA", "province": "BC", "country": "CA", "postalCode": "V1N4M7", "twitter": "None", "instagram": "None", "facebook": "None", "youtube": "None", "website": "None", "summary": "None", "logo": "None", "latitude": 49.85056104631423, "longitude": -119.46776856721908}, "848623575RR0005": {"name": "Immaculate Conception Church", "designationCode": "C", "categoryCode": "38", "address": "386 ROGERS ST", "city": "PETERBOROUGH", "province": "ON", "country": "CA", "postalCode": "K9H1W7", "twitter": "None", "instagram": "None", "facebook": "None", "youtube": "None", "website": "None", "summary": "None", "logo": "None", "latitude": 44.30629990136829, "longitude": -78.30707562528215}, "107910259RR0057": {"name": "Immaculate Conception Parish", "designationCode": "C", "categoryCode": "38", "address": "2 RICHARDSON AVE", "city": "TORONTO", "province": "ON", "country": "CA", "postalCode": "M6M3R4", "twitter": "None", "instagram": "None", "facebook": "None", "youtube": "None", "website": "None", "summary": "None", "logo": "None", "latitude": 43.69127348681403, "longitude": -79.47167361630781}, "107910259RR0145": {"name": "Immaculate Conception Parish", "designationCode": "C", "categoryCode": "38", "address": "BOX 128", "city": "SUTTON WEST", "province": "ON", "country": "CA", "postalCode": "L0E1R0", "twitter": "None", "instagram": "None", "facebook": "None", "youtube": "None", "website": "None", "summary": "None", "logo": "None", "latitude": 44.33123400000005, "longitude": -79.33264549999993}, "107910259RR0174": {"name": "Immaculate Conception Parish", "designationCode": "C", "categoryCode": "38", "address": "1710 SCUGOG ST", "city": "PORT PERRY", "province": "ON", "country": "CA", "postalCode": "L9L1E2", "twitter": "None", "instagram": "None", "facebook": "None", "youtube": "None", "website": "None", "summary": "None", "logo": "None", "latitude": 44.098423861071446, "longitude": -78.95179013195747}, "107910259RR0203": {"name": "Immaculate Conception Parish", "designationCode": "C", "categoryCode": "38", "address": "300 ANSLEY GROVE ROAD", "city": "WOODBRIDGE", "province": "ON", "country": "CA", "postalCode": "L4L3W4", "twitter": "None", "instagram": "None", "facebook": "None", "youtube": "None", "website": "None", "summary": "None", "logo": "None", "latitude": 43.79717565944377, "longitude": -79.56307929967068}, "107910259RR0058": {"name": "Immaculate Heart of Mary Parish", "designationCode": "C", "categoryCode": "38", "address": "131 BIRCHMOUNT ROAD", "city": "SCARBOUROUGH", "province": "ON", "country": "CA", "postalCode": "M1N3J7", "twitter": "None", "instagram": "None", "facebook": "None", "youtube": "None", "website": "None", "summary": "None", "logo": "None", "latitude": 43.69631964669047, "longitude": -79.26365984176833}, "824955884RR0001": {"name": "Immanuel Assembly of God", "designationCode": "B", "categoryCode": "36", "address": "77 MOUNT FUJI CRESCENT", "city": "BRAMPTON", "province": "ON", "country": "CA", "postalCode": "L6R2L5", "twitter": "None", "instagram": "None", "facebook": "None", "youtube": "None", "website": "None", "summary": "None", "logo": "None", "latitude": 43.764912994460076, "longitude": -79.7257849099199}, "107503732RR0001": {"name": "Immanuel Family Church Inc.", "designationCode": "C", "categoryCode": "36", "address": "749 RTE 776", "city": "GRAND MANAN", "province": "NB", "country": "CA", "postalCode": "E5G3C4", "twitter": "None", "instagram": "None", "facebook": "None", "youtube": "None", "website": "None", "summary": "None", "logo": "None", "latitude": 44.71439331257293, "longitude": -66.74899100673123}, "736858127RR0001": {"name": "Immanuel Ministries International", "designationCode": "B", "categoryCode": "39", "address": "111-4064 LAWRENCE AVE EAST,", "city": "SCARBOROUGH", "province": "ON", "country": "CA", "postalCode": "M1E4V6", "twitter": "None", "instagram": "None", "facebook": "None", "youtube": "None", "website": "None", "summary": "None", "logo": "None", "latitude": 43.76979689384849, "longitude": -79.17993682405405}, "839309622RR0001": {"name": "Immanuel Retreat Ministries", "designationCode": "C", "categoryCode": "49", "address": "1141 5TH AVENUE NORTH EAST", "city": "MOOSE JAW", "province": "SK", "country": "CA", "postalCode": "S6H1K7", "twitter": "None", "instagram": "None", "facebook": "None", "youtube": "None", "website": "None", "summary": "None", "logo": "None", "latitude": 50.40153600000005, "longitude": -105.52165099999993}, "829481449RR0001": {"name": "Immanuel True Worshippers House of Prayer", "designationCode": "B", "categoryCode": "39", "address": "2102 - 15 MARTHA EATON WAY", "city": "NORTH YORK", "province": "ON", "country": "CA", "postalCode": "M6M5B5", "twitter": "None", "instagram": "None", "facebook": "None", "youtube": "None", "website": "None", "summary": "None", "logo": "None", "latitude": 43.69697382431698, "longitude": -79.4892666999439}, "876831769RR0001": {"name": "Immanuel Youth Mission Society", "designationCode": "C", "categoryCode": "47", "address": "4145 NORDIC DR", "city": "PRINCE GEORGE", "province": "BC", "country": "CA", "postalCode": "V2K3N8", "twitter": "None", "instagram": "None", "facebook": "None", "youtube": "None", "website": "None", "summary": "None", "logo": "None", "latitude": 54.00013075823778, "longitude": -122.7936364428127}, "837666825RR0001": {"name": "Immeubles Roc d'Or", "designationCode": "C", "categoryCode": "09", "address": "1300 CH SULLIVAN", "city": "VAL-D'OR", "province": "QC", "country": "CA", "postalCode": "J9P1L8", "twitter": "None", "instagram": "None", "facebook": "None", "youtube": "None", "website": "None", "summary": "None", "logo": "None", "latitude": 48.10550546436588, "longitude": -77.80057458243405}, "862367182RR0001": {"name": "Immigrant Access Fund Canada", "designationCode": "C", "categoryCode": "09", "address": "709 - 7015 MACLEOD TRAIL SW", "city": "CALGARY", "province": "AB", "country": "CA", "postalCode": "T2H2K6", "twitter": "None", "instagram": "None", "facebook": "None", "youtube": "None", "website": "None", "summary": "None", "logo": "None", "latitude": 50.99439991848855, "longitude": -114.0716953460148}, "107456907RR0001": {"name": "Immigrant Services - Guelph-Wellington Inc.", "designationCode": "C", "categoryCode": "09", "address": "102 - 104 DAWSON RD", "city": "GUELPH", "province": "ON", "country": "CA", "postalCode": "N1H1A6", "twitter": "None", "instagram": "None", "facebook": "None", "youtube": "None", "website": "None", "summary": "None", "logo": "None", "latitude": 43.550357494258535, "longitude": -80.28067911192173}, "107504052RR0001": {"name": "Immigrant Women's Association of Manitoba (IWAM), Incorporated", "designationCode": "C", "categoryCode": "59", "address": "108-424 LOGAN AVENUE", "city": "WINNIPEG", "province": "MB", "country": "CA", "postalCode": "R3A1C2", "twitter": "None", "instagram": "None", "facebook": "None", "youtube": "None", "website": "None", "summary": "None", "logo": "None", "latitude": 49.905185093513886, "longitude": -97.14398906454487}, "132518192RR0001": {"name": "Immigrants Working Centre (Hamilton)", "designationCode": "C", "categoryCode": "23", "address": "101 - 8 MAIN ST EAST", "city": "HAMILTON", "province": "ON", "country": "CA", "postalCode": "L8N1E8", "twitter": "None", "instagram": "None", "facebook": "None", "youtube": "None", "website": "None", "summary": "None", "logo": "None", "latitude": 43.255196991373, "longitude": -79.86910681155857}, "872760897RR0001": {"name": "Immunodeficiency Canada / Immunod\u00e9ficience Canada", "designationCode": "C", "categoryCode": "11", "address": "415 YONGE STREET              SUITE 1604", "city": "TORONTO", "province": "ON", "country": "CA", "postalCode": "M5B2E7", "twitter": "None", "instagram": "None", "facebook": "None", "youtube": "None", "website": "None", "summary": "None", "logo": "None", "latitude": 43.659678530122854, "longitude": -79.38233827958939}, "836391193RR0001": {"name": "Impact de la R\u00e9surrection", "designationCode": "C", "categoryCode": "39", "address": "444 ST. LAURENT BLVD", "city": "OTTAWA", "province": "ON", "country": "CA", "postalCode": "K1K2Z6", "twitter": "None", "instagram": "None", "facebook": "None", "youtube": "None", "website": "None", "summary": "None", "logo": "None", "latitude": 45.446144459605364, "longitude": -75.6497331687919}, "888924644RR0001": {"name": "Impact Canada Ministries Inc.", "designationCode": "C", "categoryCode": "47", "address": "2222 AVENUE C N", "city": "SASKATOON", "province": "SK", "country": "CA", "postalCode": "S7L6C3", "twitter": "None", "instagram": "None", "facebook": "None", "youtube": "None", "website": "None", "summary": "None", "logo": "None", "latitude": 52.16030518478071, "longitude": -106.6732090439705}, "832239248RR0001": {"name": "Impact Centre Chr\u00e9tien / Impact Christian Center", "designationCode": "C", "categoryCode": "39", "address": "2995 AVENUE MARIE-VICTORIN", "city": "MASCOUCHE", "province": "QC", "country": "CA", "postalCode": "J7K3Z8", "twitter": "None", "instagram": "None", "facebook": "None", "youtube": "None", "website": "None", "summary": "None", "logo": "None", "latitude": 45.75532422344039, "longitude": -73.59847401220502}, "805937612RR0001": {"name": "Impact Church - Kingston", "designationCode": "C", "categoryCode": "39", "address": "829 NORWEST RD, BOX 910", "city": "KINGSTON", "province": "ON", "country": "CA", "postalCode": "K7P2N3", "twitter": "None", "instagram": "None", "facebook": "None", "youtube": "None", "website": "None", "summary": "None", "logo": "None", "latitude": 44.2573784878819, "longitude": -76.57505002553522}, "850326000RR0001": {"name": "Impact Global Change", "designationCode": "B", "categoryCode": "09", "address": "502 - 132 COMMERCE PARK DR", "city": "BARRIE", "province": "ON", "country": "CA", "postalCode": "L4N0Z7", "twitter": "None", "instagram": "None", "facebook": "None", "youtube": "None", "website": "None", "summary": "None", "logo": "None", "latitude": 44.32399684205679, "longitude": -79.69233546113458}, "804315307RR0001": {"name": "Impact Guatemala Association", "designationCode": "C", "categoryCode": "47", "address": "24743 57B AVE", "city": "LANGLEY", "province": "BC", "country": "CA", "postalCode": "V2Z1H3", "twitter": "None", "instagram": "None", "facebook": "None", "youtube": "None", "website": "None", "summary": "None", "logo": "None", "latitude": 49.10728379516996, "longitude": -122.53887582295555}, "137901104RR0001": {"name": "Impact Life Church", "designationCode": "C", "categoryCode": "39", "address": "5833 53RD AVE", "city": "RED DEER", "province": "AB", "country": "CA", "postalCode": "T4N4L4", "twitter": "None", "instagram": "None", "facebook": "None", "youtube": "None", "website": "None", "summary": "None", "logo": "None", "latitude": 52.27796904302036, "longitude": -113.81822837826783}, "853042513RR0001": {"name": "Impact Lives Church", "designationCode": "C", "categoryCode": "39", "address": "1274 MARTIN GROVE RD", "city": "ETOBICOKE", "province": "ON", "country": "CA", "postalCode": "M9W4X3", "twitter": "None", "instagram": "None", "facebook": "None", "youtube": "None", "website": "None", "summary": "None", "logo": "None", "latitude": 43.708783097957294, "longitude": -79.57878297342558}, "867186546RR0001": {"name": "Impact Malawi", "designationCode": "C", "categoryCode": "49", "address": "PO BOX 1443 LCD MAIN", "city": "BROCKVILLE", "province": "ON", "country": "CA", "postalCode": "K6V5Y6", "twitter": "None", "instagram": "None", "facebook": "None", "youtube": "None", "website": "None", "summary": "None", "logo": "None", "latitude": 44.59037100000006, "longitude": -75.68301049999994}, "118894187RR0001": {"name": "Impact Performing Arts Association", "designationCode": "C", "categoryCode": "22", "address": "PO BOX 4121 STN SOUTH CRO", "city": "EDMONTON", "province": "AB", "country": "CA", "postalCode": "T6E4T2", "twitter": "None", "instagram": "None", "facebook": "None", "youtube": "None", "website": "None", "summary": "None", "logo": "None", "latitude": 53.499354000000054, "longitude": -113.46577549999994}, "823021894RR0001": {"name": "Impact Poverty Foundation", "designationCode": "A", "categoryCode": "03", "address": "44 HARDING ST", "city": "KITCHENER", "province": "ON", "country": "CA", "postalCode": "N2E4L4", "twitter": "None", "instagram": "None", "facebook": "None", "youtube": "None", "website": "None", "summary": "None", "logo": "None", "latitude": 43.40217006939231, "longitude": -80.49817563875595}, "842984650RR0001": {"name": "Impaktaid Society of Canada", "designationCode": "C", "categoryCode": "09", "address": "209 HIGH STREET, UNIT F", "city": "BRIDGEWATER", "province": "NS", "country": "CA", "postalCode": "B4V1W2", "twitter": "None", "instagram": "None", "facebook": "None", "youtube": "None", "website": "None", "summary": "None", "logo": "None", "latitude": 44.37452901275328, "longitude": -64.53125090371614}, "107504219RR0001": {"name": "Imperial & District Ambulance Inc.", "designationCode": "C", "categoryCode": "59", "address": "BOX 279", "city": "IMPERIAL", "province": "SK", "country": "CA", "postalCode": "S0G2J0", "twitter": "None", "instagram": "None", "facebook": "None", "youtube": "None", "website": "None", "summary": "None", "logo": "None", "latitude": 51.34433000000007, "longitude": -105.43451999999996}, "826590432RR0001": {"name": "In the Company of Friends Inc.", "designationCode": "C", "categoryCode": "11", "address": "402-3420 PEMBINA HIGHWAY", "city": "WINNIPEG", "province": "MB", "country": "CA", "postalCode": "R3V0A3", "twitter": "None", "instagram": "None", "facebook": "None", "youtube": "None", "website": "None", "summary": "None", "logo": "None", "latitude": 49.76954826034391, "longitude": -97.15658944160155}, "843010026RR0001": {"name": "In the Orchard Programming for the Arts", "designationCode": "C", "categoryCode": "09", "address": "70 PARKWAY", "city": "WELLAND", "province": "ON", "country": "CA", "postalCode": "L3C4C3", "twitter": "None", "instagram": "None", "facebook": "None", "youtube": "None", "website": "None", "summary": "None", "logo": "None", "latitude": 43.00100250764606, "longitude": -79.25570083236194}, "796720720RR0001": {"name": "In the Woods Animal Rescue Society", "designationCode": "C", "categoryCode": "54", "address": "BOX 134", "city": "NAMPA", "province": "AB", "country": "CA", "postalCode": "T0H2R0", "twitter": "None", "instagram": "None", "facebook": "None", "youtube": "None", "website": "None", "summary": "None", "logo": "None", "latitude": 56.03880000000004, "longitude": -117.13430999999997}, "832296412RR0001": {"name": "In Christ Alone Ministries", "designationCode": "C", "categoryCode": "39", "address": "71 BEN MACHREE DR", "city": "MISSISSAUGA", "province": "ON", "country": "CA", "postalCode": "L5H2S4", "twitter": "None", "instagram": "None", "facebook": "None", "youtube": "None", "website": "None", "summary": "None", "logo": "None", "latitude": 43.54060906549717, "longitude": -79.59021466775363}, "830226130RR0001": {"name": "In Christ We Live", "designationCode": "C", "categoryCode": "47", "address": "PO BOX 100", "city": "ST DAVIDS", "province": "ON", "country": "CA", "postalCode": "L0S1P0", "twitter": "None", "instagram": "None", "facebook": "None", "youtube": "None", "website": "None", "summary": "None", "logo": "None", "latitude": 43.12485443831538, "longitude": -79.22158421231498}, "828981118RR0001": {"name": "In Focus Film School Society", "designationCode": "C", "categoryCode": "22", "address": "648 13TH AVE E", "city": "VANCOUVER", "province": "BC", "country": "CA", "postalCode": "V5T2L1", "twitter": "None", "instagram": "None", "facebook": "None", "youtube": "None", "website": "None", "summary": "None", "logo": "None", "latitude": 49.25880954674261, "longitude": -123.08995252553522}, "832009237RR0001": {"name": "In His Footprints Ministries", "designationCode": "C", "categoryCode": "20", "address": "49 MARVIN AVENUE", "city": "BRANTFORD", "province": "ON", "country": "CA", "postalCode": "N3S3C3", "twitter": "None", "instagram": "None", "facebook": "None", "youtube": "None", "website": "None", "summary": "None", "logo": "None", "latitude": 43.137195906169005, "longitude": -80.22553206437199}, "108002395RR0001": {"name": "In His Service Ministries of Edmonton", "designationCode": "C", "categoryCode": "39", "address": "157 DEER RIDGE DR.", "city": "ST ALBERT", "province": "AB", "country": "CA", "postalCode": "T8N6G8", "twitter": "None", "instagram": "None", "facebook": "None", "youtube": "None", "website": "None", "summary": "None", "logo": "None", "latitude": 53.65518269499096, "longitude": -113.65633251361866}, "861750891RR0001": {"name": "In Touch Ministries Foundation Canada", "designationCode": "A", "categoryCode": "43", "address": "150 RIVIERA DRIVE", "city": "MARKHAM", "province": "ON", "country": "CA", "postalCode": "L3R5M1", "twitter": "None", "instagram": "None", "facebook": "None", "youtube": "None", "website": "None", "summary": "None", "logo": "None", "latitude": 43.833536107709484, "longitude": -79.3380809046971}, "107396905RR0066": {"name": "In-House Christian Foursquare Church", "designationCode": "C", "categoryCode": "39", "address": "15147 FRASER HWY", "city": "SURREY", "province": "BC", "country": "CA", "postalCode": "V3R3P2", "twitter": "None", "instagram": "None", "facebook": "None", "youtube": "None", "website": "None", "summary": "None", "logo": "None", "latitude": 49.16685469888611, "longitude": -122.80323091675788}, "816861454RR0001": {"name": "Incense Ministries Inc.", "designationCode": "C", "categoryCode": "39", "address": "10421 SHENANDOAH CRESENT,", "city": "WINDSOR", "province": "ON", "country": "CA", "postalCode": "N8R1B5", "twitter": "None", "instagram": "None", "facebook": "None", "youtube": "None", "website": "None", "summary": "None", "logo": "None", "latitude": 42.313096521207406, "longitude": -82.9123127231519}, "851449306RR0001": {"name": "Incite Foundation for the Arts", "designationCode": "B", "categoryCode": "23", "address": "50 MARKLAND STREET", "city": "HAMILTON", "province": "ON", "country": "CA", "postalCode": "L8P2J7", "twitter": "None", "instagram": "None", "facebook": "None", "youtube": "None", "website": "None", "summary": "None", "logo": "None", "latitude": 43.24848908523267, "longitude": -79.87512427226045}, "107449530RR0001": {"name": "Inclusion Advocacy SENB Inc. - Promotion de l'inclusion S.-E.N.-B. inc", "designationCode": "C", "categoryCode": "11", "address": "PO BOX 1715", "city": "MONCTON", "province": "NB", "country": "CA", "postalCode": "E1C9X5", "twitter": "None", "instagram": "None", "facebook": "None", "youtube": "None", "website": "None", "summary": "None", "logo": "None", "latitude": 46.08834900000005, "longitude": -64.77824149999994}, "106693625RR0001": {"name": "Inclusion Alberta Foundation", "designationCode": "A", "categoryCode": "13", "address": "11728 KINGSWAY AVENUE", "city": "EDMONTON", "province": "AB", "country": "CA", "postalCode": "T5G0X5", "twitter": "None", "instagram": "None", "facebook": "None", "youtube": "None", "website": "None", "summary": "None", "logo": "None", "latitude": 53.56690621039864, "longitude": -113.52172624920674}, "809248677RR0001": {"name": "Inclusion BC Foundation Society", "designationCode": "A", "categoryCode": "03", "address": "227 6TH ST", "city": "NEW WESTMINSTER", "province": "BC", "country": "CA", "postalCode": "V3L3A5", "twitter": "None", "instagram": "None", "facebook": "None", "youtube": "None", "website": "None", "summary": "None", "logo": "None", "latitude": 49.20811860010157, "longitude": -122.91388900986888}, "106812019RR0001": {"name": "Inclusion BC Society", "designationCode": "C", "categoryCode": "11", "address": "227 SIXTH ST", "city": "NEW WESTMINSTER", "province": "BC", "country": "CA", "postalCode": "V3L3A5", "twitter": "None", "instagram": "None", "facebook": "None", "youtube": "None", "website": "None", "summary": "None", "logo": "None", "latitude": 49.20811860010157, "longitude": -122.91388900986888}, "806922662RR0001": {"name": "Inclusion East Inc.", "designationCode": "C", "categoryCode": "09", "address": "364 CAMPBELL AVENUE           POST OFFICE BOX 563", "city": "MONTAGUE", "province": "PE", "country": "CA", "postalCode": "C0A1R0", "twitter": "None", "instagram": "None", "facebook": "None", "youtube": "None", "website": "None", "summary": "None", "logo": "None", "latitude": 46.170042171244745, "longitude": -62.64699438219163}, "107556276RR0001": {"name": "Inclusion Kamloops Society", "designationCode": "C", "categoryCode": "11", "address": "521 SEYMOUR STREET", "city": "KAMLOOPS", "province": "BC", "country": "CA", "postalCode": "V2C2G8", "twitter": "None", "instagram": "None", "facebook": "None", "youtube": "None", "website": "None", "summary": "None", "logo": "None", "latitude": 50.674918506780664, "longitude": -120.32883263488948}, "118886167RR0001": {"name": "Inclusion Parksville society", "designationCode": "C", "categoryCode": "11", "address": "PO BOX 578", "city": "PARKSVILLE", "province": "BC", "country": "CA", "postalCode": "V9P2G6", "twitter": "None", "instagram": "None", "facebook": "None", "youtube": "None", "website": "None", "summary": "None", "logo": "None", "latitude": 49.31968200000006, "longitude": -124.31365099999994}, "107854663RR0001": {"name": "Inclusion Powell River Society", "designationCode": "C", "categoryCode": "11", "address": "201-4675 MARINE AVE", "city": "POWELL RIVER", "province": "BC", "country": "CA", "postalCode": "V8A2L2", "twitter": "None", "instagram": "None", "facebook": "None", "youtube": "None", "website": "None", "summary": "None", "logo": "None", "latitude": 49.84180785753474, "longitude": -124.52822615253172}, "130845480RR0001": {"name": "Inclusion Regina Association Inc.", "designationCode": "C", "categoryCode": "11", "address": "2216 SMITH STREET", "city": "REGINA", "province": "SK", "country": "CA", "postalCode": "S4P2P4", "twitter": "None", "instagram": "None", "facebook": "None", "youtube": "None", "website": "None", "summary": "None", "logo": "None", "latitude": 50.44359625145711, "longitude": -104.61524313852482}, "106731961RR0001": {"name": "Inclusion Winnipeg Inc.", "designationCode": "C", "categoryCode": "11", "address": "1-120 MARYLAND STREET", "city": "WINNIPEG", "province": "MB", "country": "CA", "postalCode": "R3G1L1", "twitter": "None", "instagram": "None", "facebook": "None", "youtube": "None", "website": "None", "summary": "None", "logo": "None", "latitude": 49.88229750000001, "longitude": -97.16093325}, "821878915RR0001": {"name": "Inclusive Housing Corporation of Ingersoll", "designationCode": "C", "categoryCode": "09", "address": "148 THAMES ST S", "city": "INGERSOLL", "province": "ON", "country": "CA", "postalCode": "N5C2T4", "twitter": "None", "instagram": "None", "facebook": "None", "youtube": "None", "website": "None", "summary": "None", "logo": "None", "latitude": 43.03801468208248, "longitude": -80.88259766581908}, "839977972RR0001": {"name": "Incontra Vocal Ensemble", "designationCode": "C", "categoryCode": "22", "address": "21-80 LAWTON BLVD.", "city": "TORONTO", "province": "ON", "country": "CA", "postalCode": "M4V2A2", "twitter": "None", "instagram": "None", "facebook": "None", "youtube": "None", "website": "None", "summary": "None", "logo": "None", "latitude": 43.69273885261704, "longitude": -79.39656776729746}, "846720845RR0001": {"name": "Increasing Faith Fellowship", "designationCode": "C", "categoryCode": "39", "address": "1160 IROQUOIS CRESCENT,", "city": "WOODSTOCK", "province": "ON", "country": "CA", "postalCode": "N4T1C3", "twitter": "None", "instagram": "None", "facebook": "None", "youtube": "None", "website": "None", "summary": "None", "logo": "None", "latitude": 43.14996884263373, "longitude": -80.72913965777032}, "128337417RR0001": {"name": "Independent Media Arts Alliance", "designationCode": "C", "categoryCode": "81", "address": "4067 BOUL ST-LAURENT          SUITE 200A", "city": "MONTREAL", "province": "QC", "country": "CA", "postalCode": "H2W1Y7", "twitter": "None", "instagram": "None", "facebook": "None", "youtube": "None", "website": "None", "summary": "None", "logo": "None", "latitude": 45.51719115932819, "longitude": -73.5798487801663}, "836364257RR0001": {"name": "India Village Poverty Relief Fund", "designationCode": "B", "categoryCode": "01", "address": "92 KING STREET EAST,", "city": "BROCKVILLE", "province": "ON", "country": "CA", "postalCode": "K6V1B5", "twitter": "None", "instagram": "None", "facebook": "None", "youtube": "None", "website": "None", "summary": "None", "logo": "None", "latitude": 44.59252513517794, "longitude": -75.67964568194921}, "826702961RR0001": {"name": "Indian Buddhist Society Toronto Inc.", "designationCode": "C", "categoryCode": "35", "address": "17 FRED BLAND CRES", "city": "SCARBOROUGH", "province": "ON", "country": "CA", "postalCode": "M1J3L7", "twitter": "None", "instagram": "None", "facebook": "None", "youtube": "None", "website": "None", "summary": "None", "logo": "None", "latitude": 43.74258483484344, "longitude": -79.2389262053783}, "107505752RR0001": {"name": "Indian Metis Christian Fellowship, Inc.", "designationCode": "C", "categoryCode": "09", "address": "3131 DEWDNEY AVENUE", "city": "REGINA", "province": "SK", "country": "CA", "postalCode": "S4T0Y5", "twitter": "None", "instagram": "None", "facebook": "None", "youtube": "None", "website": "None", "summary": "None", "logo": "None", "latitude": 50.45505752842077, "longitude": -104.62639402553522}, "805222353RR0001": {"name": "Indian River Reptile Zoo", "designationCode": "C", "categoryCode": "50", "address": "1034 NORNABELL AVE", "city": "PETERBOROUGH", "province": "ON", "country": "CA", "postalCode": "K9K2S8", "twitter": "None", "instagram": "None", "facebook": "None", "youtube": "None", "website": "None", "summary": "None", "logo": "None", "latitude": 44.296669549829694, "longitude": -78.37773032108055}}