{"107010605RR0001": {"name": "DEEP RIVER AND DISTRICT HOSPITAL", "designationCode": "C", "categoryCode": "10", "address": "117 BANTING DRIVE", "city": "DEEP RIVER", "province": "ON", "country": "CA", "postalCode": "K0J1P0", "twitter": "None", "instagram": "None", "facebook": "None", "youtube": "None", "website": "None", "summary": "None", "logo": "None", "latitude": 46.09097384050365, "longitude": -77.47638320866473}, "133213181RR0001": {"name": "DEEP RIVER AND DISTRICT HOSPITAL AUXILLIARY", "designationCode": "A", "categoryCode": "19", "address": "P.O. BOX 1008", "city": "DEEP RIVER", "province": "ON", "country": "CA", "postalCode": "K0J1P0", "twitter": "None", "instagram": "None", "facebook": "None", "youtube": "None", "website": "None", "summary": "None", "logo": "None", "latitude": 46.10094229916361, "longitude": -77.48685137671198}, "890673395RR0001": {"name": "DEEP RIVER CHORAL GROUP", "designationCode": "C", "categoryCode": "22", "address": "POST OFFICE BOX 1450", "city": "DEEP RIVER", "province": "ON", "country": "CA", "postalCode": "K0J1P0", "twitter": "None", "instagram": "None", "facebook": "None", "youtube": "None", "website": "None", "summary": "None", "logo": "None"}, "107010597RR0001": {"name": "DEEP RIVER COMMUNITY CHURCH", "designationCode": "C", "categoryCode": "39", "address": "115 DEEP RIVER ROAD           P.O. BOX 1149", "city": "DEEP RIVER", "province": "ON", "country": "CA", "postalCode": "K0J1P0", "twitter": "None", "instagram": "None", "facebook": "None", "youtube": "None", "website": "None", "summary": "None", "logo": "None", "latitude": 46.099149477898585, "longitude": -77.49073625390994}, "118883669RR0001": {"name": "DEEP RIVER INSTRUMENTAL MUSIC ASSOCIATION", "designationCode": "C", "categoryCode": "22", "address": "PO BOX 1496", "city": "DEEP RIVER", "province": "ON", "country": "CA", "postalCode": "K0J1P0", "twitter": "None", "instagram": "None", "facebook": "None", "youtube": "None", "website": "None", "summary": "None", "logo": "None", "latitude": 46.10094229916361, "longitude": -77.48685137671198}, "885560169RR0001": {"name": "DEEP RIVER NURSERY SCHOOL", "designationCode": "C", "categoryCode": "20", "address": "1 BROCKHOUSE WAY", "city": "DEEP RIVER", "province": "ON", "country": "CA", "postalCode": "K0J1P0", "twitter": "None", "instagram": "None", "facebook": "None", "youtube": "None", "website": "None", "summary": "None", "logo": "None", "latitude": 46.10227617565949, "longitude": -77.4846279057067}, "870493004RR0001": {"name": "DEEP ROOTS MUSIC CO-OPERATIVE LIMITED", "designationCode": "C", "categoryCode": "22", "address": "ATTN: LESLIE DIXON            466A MAIN STREET", "city": "WOLFVILLE", "province": "NS", "country": "CA", "postalCode": "B4P1E2", "twitter": "None", "instagram": "None", "facebook": "None", "youtube": "None", "website": "None", "summary": "None", "logo": "None", "latitude": 45.09143598545118, "longitude": -64.36331186151511}, "890594146RR0001": {"name": "DEEP SOUTH PERSONAL CARE CORP", "designationCode": "C", "categoryCode": "01", "address": "PO BOX 150", "city": "PANGMAN", "province": "SK", "country": "CA", "postalCode": "S0C2C0", "twitter": "None", "instagram": "None", "facebook": "None", "youtube": "None", "website": "None", "summary": "None", "logo": "None", "latitude": 49.65007000000003, "longitude": -104.66778999999997}, "118883677RR0001": {"name": "DEEP SOUTH PIONEER MUSEUM", "designationCode": "C", "categoryCode": "50", "address": "BOX 185", "city": "OGEMA", "province": "SK", "country": "CA", "postalCode": "S0C1Y0", "twitter": "None", "instagram": "None", "facebook": "None", "youtube": "None", "website": "None", "summary": "None", "logo": "None", "latitude": 49.58337000000006, "longitude": -104.91778999999997}, "887543718RR0001": {"name": "DEEPER CHRISTIAN LIFE MINISTRY INC", "designationCode": "C", "categoryCode": "43", "address": "13430 - 33 STREET", "city": "EDMONTON", "province": "AB", "country": "CA", "postalCode": "T5A5C1", "twitter": "None", "instagram": "None", "facebook": "None", "youtube": "None", "website": "None", "summary": "None", "logo": "None", "latitude": 53.595648303912526, "longitude": -113.39260631311643}, "894365626RR0001": {"name": "DEEPER LOVE MINISTRIES INC.", "designationCode": "C", "categoryCode": "49", "address": "UPPER - 427 ACADEMY RD", "city": "WINNIPEG", "province": "MB", "country": "CA", "postalCode": "R3N0C2", "twitter": "None", "instagram": "None", "facebook": "None", "youtube": "None", "website": "None", "summary": "None", "logo": "None", "latitude": 49.873883446044026, "longitude": -97.185449085204}, "873624662RR0001": {"name": "DEER LAKE COMMUNITY LEARNING CENTRE", "designationCode": "C", "categoryCode": "21", "address": "44 TRANS CANADA HIGHWAY", "city": "DEER LAKE", "province": "NL", "country": "CA", "postalCode": "A8A2E4", "twitter": "None", "instagram": "None", "facebook": "None", "youtube": "None", "website": "None", "summary": "None", "logo": "None", "latitude": 49.18745891124803, "longitude": -57.428366865645096}, "119288918RR1688": {"name": "DEER LAKE CONGREGATION OF JEHOVAH'S WITNESSES, VANCOUVER, BRITISH COLUMBIA", "designationCode": "C", "categoryCode": "61", "address": "5535 SHORT ST", "city": "BURNABY", "province": "BC", "country": "CA", "postalCode": "V5J1M1", "twitter": "None", "instagram": "None", "facebook": "None", "youtube": "None", "website": "None", "summary": "None", "logo": "None", "latitude": 49.219964453257376, "longitude": -122.98442399999999}, "118883701RR0001": {"name": "DEER LAKE GOSPEL HALL", "designationCode": "C", "categoryCode": "39", "address": "654 DEER LAKE ROAD            RR 2", "city": "PORT SYDNEY", "province": "ON", "country": "CA", "postalCode": "P0B1L0", "twitter": "None", "instagram": "None", "facebook": "None", "youtube": "None", "website": "None", "summary": "None", "logo": "None", "latitude": 45.18735862724344, "longitude": -79.2597012709328}, "897577235RR0001": {"name": "DEER LAKE INTERDENOMINATIONAL CEMETERY COMMITTEE", "designationCode": "C", "categoryCode": "59", "address": "77A WIGHT'S RD", "city": "DEER LAKE", "province": "NL", "country": "CA", "postalCode": "A8A2J2", "twitter": "None", "instagram": "None", "facebook": "None", "youtube": "None", "website": "None", "summary": "None", "logo": "None", "latitude": 49.181421143326425, "longitude": -57.42773514643984}, "879404127RR0001": {"name": "DEER LAKE REGIONAL FOOD BANK", "designationCode": "C", "categoryCode": "09", "address": "18 SIXTH AVE.", "city": "DEER LAKE", "province": "NL", "country": "CA", "postalCode": "A8A2B4", "twitter": "None", "instagram": "None", "facebook": "None", "youtube": "None", "website": "None", "summary": "None", "logo": "None", "latitude": 49.17931857953029, "longitude": -57.41863644621711}, "118818491RR0065": {"name": "DEER LAKE SEVENTH-DAY ADVENTIST SCHOOL", "designationCode": "C", "categoryCode": "20", "address": "5550 GILPIN ST.", "city": "BURNABY", "province": "BC", "country": "CA", "postalCode": "V5G2H6", "twitter": "None", "instagram": "None", "facebook": "None", "youtube": "None", "website": "None", "summary": "None", "logo": "None", "latitude": 49.24174412805011, "longitude": -122.98321403200403}, "131569378RR0001": {"name": "DEER LAKE UNITED CHURCH", "designationCode": "C", "categoryCode": "44", "address": "5135 SPERLING AVENUE", "city": "BURNABY", "province": "BC", "country": "CA", "postalCode": "V5E2T2", "twitter": "None", "instagram": "None", "facebook": "None", "youtube": "None", "website": "None", "summary": "None", "logo": "None", "latitude": 49.238315413266776, "longitude": -122.96476208883935}, "892953969RR0001": {"name": "DEER LAKE VERA PERLIN ASSOCIATION FOR COMMUNITY LIVING", "designationCode": "C", "categoryCode": "20", "address": "26 MAIN DAM ROAD", "city": "DEER LAKE", "province": "NL", "country": "CA", "postalCode": "A8A1S2", "twitter": "None", "instagram": "None", "facebook": "None", "youtube": "None", "website": "None", "summary": "None", "logo": "None", "latitude": 49.16815611475231, "longitude": -57.424018171979654}, "136551082RR0001": {"name": "DEER LODGE FOUNDATION FOR GERIATRICS INC", "designationCode": "A", "categoryCode": "03", "address": "2109 PORTAGE AVENUE", "city": "WINNIPEG", "province": "MB", "country": "CA", "postalCode": "R3J0L3", "twitter": "None", "instagram": "None", "facebook": "None", "youtube": "None", "website": "None", "summary": "None", "logo": "None", "latitude": 49.877290418344415, "longitude": -97.23539480365272}, "119066454RR0001": {"name": "DEER MEADOWS CONGREGATION OF JEHOVAH'S WITNESSES OLDS, ALBERTA", "designationCode": "C", "categoryCode": "61", "address": "6220-53 STREET", "city": "OLDS", "province": "AB", "country": "CA", "postalCode": "T4H1L2", "twitter": "None", "instagram": "None", "facebook": "None", "youtube": "None", "website": "None", "summary": "None", "logo": "None", "latitude": 51.79125065667378, "longitude": -114.12640574202203}, "130198393RR0001": {"name": "DEER PARK ALLIANCE CHURCH", "designationCode": "C", "categoryCode": "39", "address": "2960 39 ST", "city": "RED DEER", "province": "AB", "country": "CA", "postalCode": "T4R2G2", "twitter": "None", "instagram": "None", "facebook": "None", "youtube": "None", "website": "None", "summary": "None", "logo": "None", "latitude": 52.25940449321934, "longitude": -113.76387}, "118883768RR0001": {"name": "DEER PARK EXTENDED PRIMARY EDUCATION PROGRAM", "designationCode": "C", "categoryCode": "20", "address": "23 FERNDALE AVE ROOM 105", "city": "TORONTO", "province": "ON", "country": "CA", "postalCode": "M4T2B4", "twitter": "None", "instagram": "None", "facebook": "None", "youtube": "None", "website": "None", "summary": "None", "logo": "None", "latitude": 43.68957853150785, "longitude": -79.39184689422376}, "107010886RR0001": {"name": "DEER PARK UNITED CHURCH", "designationCode": "C", "categoryCode": "44", "address": "77 DEERPOINT RD SE", "city": "CALGARY", "province": "AB", "country": "CA", "postalCode": "T2J6W5", "twitter": "None", "instagram": "None", "facebook": "None", "youtube": "None", "website": "None", "summary": "None", "logo": "None", "latitude": 50.92664398972821, "longitude": -114.02795782682202}, "118883776RR0001": {"name": "DEER PARK UNITED CHURCH", "designationCode": "C", "categoryCode": "44", "address": "26 DELISLE AVE", "city": "TORONTO", "province": "ON", "country": "CA", "postalCode": "M4V1S5", "twitter": "None", "instagram": "None", "facebook": "None", "youtube": "None", "website": "None", "summary": "None", "logo": "None", "latitude": 43.6888922240173, "longitude": -79.39576537942166}, "122008915RR0001": {"name": "DEER PARK VILLA INC", "designationCode": "C", "categoryCode": "01", "address": "BOX 646                       518 5TH AVE NE", "city": "ITUNA", "province": "SK", "country": "CA", "postalCode": "S0A1N0", "twitter": "None", "instagram": "None", "facebook": "None", "youtube": "None", "website": "None", "summary": "None", "logo": "None", "latitude": 51.17215609533196, "longitude": -103.48852182230982}, "888530896RR0001": {"name": "DEERFIELD CHARITABLE TRUST", "designationCode": "B", "categoryCode": "39", "address": "3425 2ND AVENUE SOUTH", "city": "LETHBRIDGE", "province": "AB", "country": "CA", "postalCode": "T1J4V1", "twitter": "None", "instagram": "None", "facebook": "None", "youtube": "None", "website": "None", "summary": "None", "logo": "None", "latitude": 49.696839530439966, "longitude": -112.78914308381903}, "894324193RR0001": {"name": "DEERSBROOK FOUNDATION", "designationCode": "B", "categoryCode": "43", "address": "2-1026 COOKE BLVD", "city": "BURLINGTON", "province": "ON", "country": "CA", "postalCode": "L7T4A8", "twitter": "None", "instagram": "None", "facebook": "None", "youtube": "None", "website": "None", "summary": "None", "logo": "None", "latitude": 43.308317757401056, "longitude": -79.85229179242864}, "119288918RR0997": {"name": "DEERVALLEY CONGREGATION OF JEHOVAH'S WITNESSES", "designationCode": "C", "categoryCode": "61", "address": "270 MIDPARK WAY S.E.", "city": "CALGARY", "province": "AB", "country": "CA", "postalCode": "T2X1J6", "twitter": "None", "instagram": "None", "facebook": "None", "youtube": "None", "website": "None", "summary": "None", "logo": "None", "latitude": 50.911105065497175, "longitude": -114.06420055886072}, "895451276RR0001": {"name": "DEERWOOD SOIL AND WATER MANAGEMENT ASSOCIATION", "designationCode": "C", "categoryCode": "59", "address": "BOX 339", "city": "MIAMI", "province": "MB", "country": "CA", "postalCode": "R0G1H0", "twitter": "None", "instagram": "None", "facebook": "None", "youtube": "None", "website": "None", "summary": "None", "logo": "None", "latitude": 49.37108000000006, "longitude": -98.24341999999996}, "891335945RR0001": {"name": "DEFENCE FOR CHILDREN INTERNATIONAL-CANADA (ANGLOPHONE SECTION)", "designationCode": "C", "categoryCode": "09", "address": "20 SPADINA RD", "city": "TORONTO", "province": "ON", "country": "CA", "postalCode": "M5R2S7", "twitter": "None", "instagram": "None", "facebook": "None", "youtube": "None", "website": "None", "summary": "None", "logo": "None", "latitude": 43.66860591312256, "longitude": -79.40465540830377}, "129905972RR0001": {"name": "DEFI JEUNESSE DU HAUT ST-MAURICE INC", "designationCode": "C", "categoryCode": "09", "address": "695 DESBIENS                  C.P. 262", "city": "LA TUQUE", "province": "QC", "country": "CA", "postalCode": "G9X3P2", "twitter": "None", "instagram": "None", "facebook": "None", "youtube": "None", "website": "None", "summary": "None", "logo": "None", "latitude": 47.43499721065842, "longitude": -72.7766133397482}, "118883800RR0001": {"name": "DEFI JEUNESSE QUEBEC INC/TEEN CHALLENGE QUEBEC INC.", "designationCode": "C", "categoryCode": "01", "address": "878, RANG ST-FRANCOIS", "city": "LOTBINIERE", "province": "QC", "country": "CA", "postalCode": "G0S1S0", "twitter": "None", "instagram": "None", "facebook": "None", "youtube": "None", "website": "None", "summary": "None", "logo": "None", "latitude": 46.579923721362896, "longitude": -71.93554374150243}, "891360349RR0001": {"name": "DEFI-CANCER INC", "designationCode": "C", "categoryCode": "09", "address": "1079 RUE BOLDUC", "city": "ROBERVAL", "province": "QC", "country": "CA", "postalCode": "G8H1V8", "twitter": "None", "instagram": "None", "facebook": "None", "youtube": "None", "website": "None", "summary": "None", "logo": "None", "latitude": 48.52384906243875, "longitude": -72.22290495920133}, "894353895RR0001": {"name": "DEFI-FAMILLE MATAWINIE", "designationCode": "C", "categoryCode": "09", "address": "244, RUE STE-LOUISE", "city": "ST-JEAN-DE-MATHA", "province": "QC", "country": "CA", "postalCode": "J0K2S0", "twitter": "None", "instagram": "None", "facebook": "None", "youtube": "None", "website": "None", "summary": "None", "logo": "None", "latitude": 46.23162888897232, "longitude": -73.5325424070057}, "121287767RR0001": {"name": "DEFINITELY SUPERIOR ART GALLERY OF THUNDER BAY", "designationCode": "C", "categoryCode": "22", "address": "PO BOX 21015                  RPO GRANDVIEW MALL", "city": "THUNDER BAY", "province": "ON", "country": "CA", "postalCode": "P7A8A7", "twitter": "None", "instagram": "None", "facebook": "None", "youtube": "None", "website": "None", "summary": "None", "logo": "None", "latitude": 48.53861700000006, "longitude": -89.04822649999993}, "892462359RR0001": {"name": "DEFIS-JEUNESSE SEPT-ILES", "designationCode": "C", "categoryCode": "09", "address": "101 RUE TORTELLIER", "city": "SEPT-\u00ceLES", "province": "QC", "country": "CA", "postalCode": "G4R3Z7", "twitter": "None", "instagram": "None", "facebook": "None", "youtube": "None", "website": "None", "summary": "None", "logo": "None", "latitude": 50.21681500473186, "longitude": -66.39179829476592}, "865712293RR0001": {"name": "DEHARVENG JUBILEE FOUNDATION INC.", "designationCode": "A", "categoryCode": "23", "address": "1 SUTTON WAY                  P.O. BOX 545", "city": "LABRADOR CITY", "province": "NL", "country": "CA", "postalCode": "A2V2L3", "twitter": "None", "instagram": "None", "facebook": "None", "youtube": "None", "website": "None", "summary": "None", "logo": "None", "latitude": 52.94349372077168, "longitude": -66.91338977922834}, "130173099RR0001": {"name": "DEHCHO DIVISIONAL BOARD OF EDUCATION", "designationCode": "C", "categoryCode": "20", "address": "P.O. BOX 376", "city": "FORT SIMPSON", "province": "NT", "country": "CA", "postalCode": "X0E0N0", "twitter": "None", "instagram": "None", "facebook": "None", "youtube": "None", "website": "None", "summary": "None", "logo": "None", "latitude": 61.866550000000075, "longitude": -121.36152999999996}, "101323392RR0001": {"name": "DEJA VU/SECOND HAND CLOTHING STORE INC.", "designationCode": "C", "categoryCode": "59", "address": "#5 9417 MAIN STREET", "city": "RICHIBUCTO", "province": "NB", "country": "CA", "postalCode": "E4W4B7", "twitter": "None", "instagram": "None", "facebook": "None", "youtube": "None", "website": "None", "summary": "None", "logo": "None", "latitude": 46.684913957016946, "longitude": -64.86177339695776}, "885484907RR0001": {"name": "DEJEUNER SCOLAIRE SUDBURY INC.", "designationCode": "C", "categoryCode": "09", "address": "1174 ST. JEROME ST", "city": "SUDBURY", "province": "ON", "country": "CA", "postalCode": "P3A2V9", "twitter": "None", "instagram": "None", "facebook": "None", "youtube": "None", "website": "None", "summary": "None", "logo": "None", "latitude": 46.5228971559813, "longitude": -80.98190369980972}, "810530550RR0001": {"name": "DELARA - INDIA ASSISTANCE SOCIETY", "designationCode": "B", "categoryCode": "09", "address": "2025 GRAVELEY ST", "city": "VANCOUVER", "province": "BC", "country": "CA", "postalCode": "V5L3B6", "twitter": "None", "instagram": "None", "facebook": "None", "youtube": "None", "website": "None", "summary": "None", "logo": "None", "latitude": 49.270500533181284, "longitude": -123.06318202553523}, "118883875RR0001": {"name": "DELBURNE AND DISTRICT AGRICULTURAL SOCIETY", "designationCode": "C", "categoryCode": "56", "address": "BOX 351", "city": "DELBURNE", "province": "AB", "country": "CA", "postalCode": "T0M0V0", "twitter": "None", "instagram": "None", "facebook": "None", "youtube": "None", "website": "None", "summary": "None", "logo": "None", "latitude": 52.19744000000003, "longitude": -113.23499999999996}, "107011322RR0001": {"name": "DELBURNE GOSPEL CHURCH", "designationCode": "C", "categoryCode": "39", "address": "BOX 456", "city": "DELBURNE", "province": "AB", "country": "CA", "postalCode": "T0M0V0", "twitter": "None", "instagram": "None", "facebook": "None", "youtube": "None", "website": "None", "summary": "None", "logo": "None", "latitude": 52.19744000000003, "longitude": -113.23499999999996}, "898414214RR0001": {"name": "DELBURNE NEIGHBORHOOD PLACE SOCIETY", "designationCode": "C", "categoryCode": "56", "address": "BOX 101", "city": "DELBURNE", "province": "AB", "country": "CA", "postalCode": "T0M0V0", "twitter": "None", "instagram": "None", "facebook": "None", "youtube": "None", "website": "None", "summary": "None", "logo": "None", "latitude": 52.19744000000003, "longitude": -113.23499999999996}, "118883891RR0001": {"name": "DELBURNE UNITED CHURCH", "designationCode": "C", "categoryCode": "44", "address": "BOX 433", "city": "DELBURNE", "province": "AB", "country": "CA", "postalCode": "T0M0V0", "twitter": "None", "instagram": "None", "facebook": "None", "youtube": "None", "website": "None", "summary": "None", "logo": "None", "latitude": 52.19744000000003, "longitude": -113.23499999999996}, "842684540RR0001": {"name": "DELCO CHARITABLE TRUST", "designationCode": "B", "categoryCode": "39", "address": "3425-2ND AVENUE SOUTH         MEYERS NORRIS PENNY", "city": "LETHBRIDGE", "province": "AB", "country": "CA", "postalCode": "T1J4V1", "twitter": "None", "instagram": "None", "facebook": "None", "youtube": "None", "website": "None", "summary": "None", "logo": "None", "latitude": 49.69686300000005, "longitude": -112.79001949999994}, "122807118RR0001": {"name": "DELHI CEMETERY COMPANY", "designationCode": "C", "categoryCode": "59", "address": "PO BOX 74", "city": "DELHI", "province": "ON", "country": "CA", "postalCode": "N4B2W8", "twitter": "None", "instagram": "None", "facebook": "None", "youtube": "None", "website": "None", "summary": "None", "logo": "None", "latitude": 42.85183200000006, "longitude": -80.49284449999993}, "865988364RR0001": {"name": "DELHI IMPERIAL PLACE COMMUNITY HEALTH CENTRE INC.", "designationCode": "C", "categoryCode": "11", "address": "105 MAIN ST", "city": "DELHI", "province": "ON", "country": "CA", "postalCode": "N4B2L8", "twitter": "None", "instagram": "None", "facebook": "None", "youtube": "None", "website": "None", "summary": "None", "logo": "None", "latitude": 42.85630435414624, "longitude": -80.49732172785511}, "118883925RR0001": {"name": "DELHI ROTARY CLUB - CHARITY", "designationCode": "C", "categoryCode": "65", "address": "148 CHURCH STREET WEST", "city": "DELHI", "province": "ON", "country": "CA", "postalCode": "N4B1W1", "twitter": "None", "instagram": "None", "facebook": "None", "youtube": "None", "website": "None", "summary": "None", "logo": "None", "latitude": 42.85477131611756, "longitude": -80.49883150528012}, "888339264RR0001": {"name": "DELHI SHARING PANTRY", "designationCode": "C", "categoryCode": "09", "address": "145 BARNARD CRES", "city": "DELHI", "province": "ON", "country": "CA", "postalCode": "N4B1Z5", "twitter": "None", "instagram": "None", "facebook": "None", "youtube": "None", "website": "None", "summary": "None", "logo": "None", "latitude": 42.85449472522939, "longitude": -80.50774484886612}, "888935996RR0001": {"name": "DELHI TOWNSHIP SENIOR CITIZENS CLUB INC", "designationCode": "C", "categoryCode": "56", "address": "418 QUEEN ST", "city": "DELHI", "province": "ON", "country": "CA", "postalCode": "N4B2L3", "twitter": "None", "instagram": "None", "facebook": "None", "youtube": "None", "website": "None", "summary": "None", "logo": "None", "latitude": 42.84913463336028, "longitude": -80.49757811102769}, "107011462RR0001": {"name": "DELHI UNITED CHURCH", "designationCode": "C", "categoryCode": "44", "address": "105 CHURCH ST W", "city": "DELHI", "province": "ON", "country": "CA", "postalCode": "N4B1V9", "twitter": "None", "instagram": "None", "facebook": "None", "youtube": "None", "website": "None", "summary": "None", "logo": "None", "latitude": 42.854394633388935, "longitude": -80.49755057894293}, "118883958RR0002": {"name": "DELIA AND DISTRICT SENIOR CITIZENS", "designationCode": "C", "categoryCode": "56", "address": "BOX 151                       LISA SKAANING", "city": "DELIA", "province": "AB", "country": "CA", "postalCode": "T0J0W0", "twitter": "None", "instagram": "None", "facebook": "None", "youtube": "None", "website": "None", "summary": "None", "logo": "None", "latitude": 51.633798000000056, "longitude": -112.37472349999993}, "107011488RR0001": {"name": "DELIA CHRISTIAN FELLOWSHIP", "designationCode": "C", "categoryCode": "39", "address": "BOX 333", "city": "DELIA", "province": "AB", "country": "CA", "postalCode": "T0J0W0", "twitter": "None", "instagram": "None", "facebook": "None", "youtube": "None", "website": "None", "summary": "None", "logo": "None", "latitude": 51.63343000000003, "longitude": -112.38513999999998}, "118883982RR0001": {"name": "DELIA HISTORICAL SOCIETY", "designationCode": "C", "categoryCode": "50", "address": "BOX 93", "city": "DELIA", "province": "AB", "country": "CA", "postalCode": "T0J0W0", "twitter": "None", "instagram": "None", "facebook": "None", "youtube": "None", "website": "None", "summary": "None", "logo": "None", "latitude": 51.63343000000003, "longitude": -112.38513999999998}, "108154576RR0001": {"name": "DELIA-CRAIGMYLE PASTORAL CHARGE", "designationCode": "C", "categoryCode": "44", "address": "BOX 5", "city": "DELIA", "province": "AB", "country": "CA", "postalCode": "T0J0W0", "twitter": "None", "instagram": "None", "facebook": "None", "youtube": "None", "website": "None", "summary": "None", "logo": "None", "latitude": 51.63343000000003, "longitude": -112.38513999999998}, "107011520RR0001": {"name": "DELISLE COMMUNITY CHAPEL", "designationCode": "C", "categoryCode": "39", "address": "PO BOX 369", "city": "DELISLE", "province": "SK", "country": "CA", "postalCode": "S0L0P0", "twitter": "None", "instagram": "None", "facebook": "None", "youtube": "None", "website": "None", "summary": "None", "logo": "None", "latitude": 51.92543000000006, "longitude": -107.12834999999995}, "118884006RR0001": {"name": "DELISLE-VANSCOY PASTORAL CHARGE", "designationCode": "C", "categoryCode": "44", "address": "PASTORAL CHARGE UNITED CHURCH BOX 98", "city": "DELISLE", "province": "SK", "country": "CA", "postalCode": "S0L0P0", "twitter": "None", "instagram": "None", "facebook": "None", "youtube": "None", "website": "None", "summary": "None", "logo": "None", "latitude": 51.92542500000006, "longitude": -107.12835349999993}, "890127178RR0001": {"name": "DELIVERANCE GOSPEL ASSEMBLY OF CALGARY", "designationCode": "C", "categoryCode": "39", "address": "204 DEER RIVER PLACE SE", "city": "CALGARY", "province": "AB", "country": "CA", "postalCode": "T2J6Y8", "twitter": "None", "instagram": "None", "facebook": "None", "youtube": "None", "website": "None", "summary": "None", "logo": "None", "latitude": 50.934037368861446, "longitude": -114.01007657729816}, "808422471RR0001": {"name": "DELIVERANCE IN CHRIST MINISTRIES", "designationCode": "C", "categoryCode": "43", "address": "70 LANYARD RD", "city": "TORONTO", "province": "ON", "country": "CA", "postalCode": "M9M1Y9", "twitter": "None", "instagram": "None", "facebook": "None", "youtube": "None", "website": "None", "summary": "None", "logo": "None", "latitude": 43.74696213240797, "longitude": -79.54543934569215}, "118884022RR0001": {"name": "DELIVERANCE OUTREACH CRUSADES", "designationCode": "C", "categoryCode": "47", "address": "203-10190 152A STREET", "city": "SURREY", "province": "BC", "country": "CA", "postalCode": "V3R1J7", "twitter": "None", "instagram": "None", "facebook": "None", "youtube": "None", "website": "None", "summary": "None", "logo": "None", "latitude": 49.18771741326677, "longitude": -122.79944944780438}, "886994029RR0001": {"name": "DELKATLA SANCTUARY SOCIETY", "designationCode": "C", "categoryCode": "54", "address": "BOX 246", "city": "MASSET", "province": "BC", "country": "CA", "postalCode": "V0T1M0", "twitter": "None", "instagram": "None", "facebook": "None", "youtube": "None", "website": "None", "summary": "None", "logo": "None", "latitude": 54.01182000000006, "longitude": -132.14781}, "118884030RR0001": {"name": "DELL CEMETERY INCORPORATED", "designationCode": "C", "categoryCode": "59", "address": "32 WILLOWDALE", "city": "SHERBROOKE", "province": "QC", "country": "CA", "postalCode": "J1M0B6", "twitter": "None", "instagram": "None", "facebook": "None", "youtube": "None", "website": "None", "summary": "None", "logo": "None", "latitude": 45.379788130157635, "longitude": -71.84987180737497}, "837968569RR0001": {"name": "DELLA TYRRELL MINISTRIES", "designationCode": "C", "categoryCode": "39", "address": "35 BROCK ST.                  APT L2", "city": "HAMILTON", "province": "ON", "country": "CA", "postalCode": "L8L4L7", "twitter": "None", "instagram": "None", "facebook": "None", "youtube": "None", "website": "None", "summary": "None", "logo": "None", "latitude": 43.27349913240799, "longitude": -79.85825462585845}, "118884055RR0001": {"name": "DELORAINE BORDER FESTIVAL", "designationCode": "C", "categoryCode": "22", "address": "BOX 495", "city": "DELORAINE", "province": "MB", "country": "CA", "postalCode": "R0M0M0", "twitter": "None", "instagram": "None", "facebook": "None", "youtube": "None", "website": "None", "summary": "None", "logo": "None", "latitude": 49.19157000000007, "longitude": -100.49399999999997}, "857492003RR0001": {"name": "DELORAINE HEALTH AUXILIARY", "designationCode": "A", "categoryCode": "03", "address": "P. O. BOX 804", "city": "DELORAINE", "province": "MB", "country": "CA", "postalCode": "R0M0M0", "twitter": "None", "instagram": "None", "facebook": "None", "youtube": "None", "website": "None", "summary": "None", "logo": "None", "latitude": 49.19157000000007, "longitude": -100.49399999999997}, "890951940RR0001": {"name": "DELTA ATHLETIC & RECREATIONAL SOCIETY", "designationCode": "C", "categoryCode": "56", "address": "PO BOX 46", "city": "DELTA", "province": "ON", "country": "CA", "postalCode": "K0E1G0", "twitter": "None", "instagram": "None", "facebook": "None", "youtube": "None", "website": "None", "summary": "None", "logo": "None", "latitude": 44.651154600171786, "longitude": -76.10330140930145}, "118884097RR0001": {"name": "DELTA BAPTIST CHURCH", "designationCode": "C", "categoryCode": "31", "address": "24 MAIN ST                    BOX 122", "city": "DELTA", "province": "ON", "country": "CA", "postalCode": "K0E1G0", "twitter": "None", "instagram": "None", "facebook": "None", "youtube": "None", "website": "None", "summary": "None", "logo": "None", "latitude": 44.608984926454454, "longitude": -76.12337192875185}, "118990258RR0001": {"name": "DELTA CHRISTIAN SCHOOL SOCIETY", "designationCode": "C", "categoryCode": "20", "address": "4789 53 ST", "city": "DELTA", "province": "BC", "country": "CA", "postalCode": "V4K2Y9", "twitter": "None", "instagram": "None", "facebook": "None", "youtube": "None", "website": "None", "summary": "None", "logo": "None", "latitude": 49.08949172745107, "longitude": -123.07593186738953}, "118883842RR0001": {"name": "DELTA COMMUNITY BAND SOCIETY", "designationCode": "C", "categoryCode": "22", "address": "322 - 5555 14 AVE", "city": "DELTA", "province": "BC", "country": "CA", "postalCode": "V4M3X1", "twitter": "None", "instagram": "None", "facebook": "None", "youtube": "None", "website": "None", "summary": "None", "logo": "None", "latitude": 49.028451165829814, "longitude": -123.06953670155593}, "869059394RR0001": {"name": "DELTA COMMUNITY LIVING FOUNDATION", "designationCode": "A", "categoryCode": "11", "address": "1, 3800-72ND STREET", "city": "DELTA", "province": "BC", "country": "CA", "postalCode": "V4K3N2", "twitter": "None", "instagram": "None", "facebook": "None", "youtube": "None", "website": "None", "summary": "None", "logo": "None", "latitude": 49.07081741901003, "longitude": -123.02414671254695}, "107011967RR0001": {"name": "DELTA COMMUNITY LIVING SOCIETY", "designationCode": "C", "categoryCode": "20", "address": "#1-3800 72ND STREET", "city": "DELTA", "province": "BC", "country": "CA", "postalCode": "V4K3N2", "twitter": "None", "instagram": "None", "facebook": "None", "youtube": "None", "website": "None", "summary": "None", "logo": "None", "latitude": 49.07081741901003, "longitude": -123.02414671254695}, "107012130RR0001": {"name": "DELTA COMMUNITY MUSIC SCHOOL SOCIETY", "designationCode": "C", "categoryCode": "22", "address": "4705 ARTHUR DR", "city": "DELTA", "province": "BC", "country": "CA", "postalCode": "V4K2X5", "twitter": "None", "instagram": "None", "facebook": "None", "youtube": "None", "website": "None", "summary": "None", "logo": "None", "latitude": 49.088368049188, "longitude": -123.08025011557528}, "119288918RR0799": {"name": "DELTA CONGREGATION OF JEHOVAH'S WITNESSES", "designationCode": "C", "categoryCode": "61", "address": "152 PARK ROW N.", "city": "HAMILTON", "province": "ON", "country": "CA", "postalCode": "L8H4E7", "twitter": "None", "instagram": "None", "facebook": "None", "youtube": "None", "website": "None", "summary": "None", "logo": "None", "latitude": 43.24639702247681, "longitude": -79.81498021215897}, "132433335RR0001": {"name": "DELTA FAMILY RESOURCE CENTRE", "designationCode": "C", "categoryCode": "09", "address": "2972 ISLINGTON AVENUE WEST    UNIT 5", "city": "TORONTO", "province": "ON", "country": "CA", "postalCode": "M9L2K6", "twitter": "None", "instagram": "None", "facebook": "None", "youtube": "None", "website": "None", "summary": "None", "logo": "None", "latitude": 43.75819292922271, "longitude": -79.57052093104038}, "138397740RR0001": {"name": "DELTA FARMLAND AND WILDLIFE TRUST", "designationCode": "C", "categoryCode": "59", "address": "205-4882 DELTA ST", "city": "DELTA", "province": "BC", "country": "CA", "postalCode": "V4K2T8", "twitter": "None", "instagram": "None", "facebook": "None", "youtube": "None", "website": "None", "summary": "None", "logo": "None", "latitude": 49.09160813073453, "longitude": -123.08631824060839}, "895934446RR0001": {"name": "DELTA FIRE FIGHTERS CHARITABLE SOCIETY", "designationCode": "A", "categoryCode": "03", "address": "11375-84TH AVE", "city": "DELTA", "province": "BC", "country": "CA", "postalCode": "V4C2L9", "twitter": "None", "instagram": "None", "facebook": "None", "youtube": "None", "website": "None", "summary": "None", "logo": "None", "latitude": 49.156045457152516, "longitude": -122.90769072300768}, "118884139RR0001": {"name": "DELTA FOUNDATION", "designationCode": "A", "categoryCode": "63", "address": "P.O.BOX 18527", "city": "DELTA", "province": "BC", "country": "CA", "postalCode": "V4K4V7", "twitter": "None", "instagram": "None", "facebook": "None", "youtube": "None", "website": "None", "summary": "None", "logo": "None", "latitude": 49.08485400000005, "longitude": -123.05969449999994}, "886913912RR0001": {"name": "DELTA FRIENDS OF THE LIBRARY", "designationCode": "A", "categoryCode": "53", "address": "4607 55A ST", "city": "DELTA", "province": "BC", "country": "CA", "postalCode": "V4K3T2", "twitter": "None", "instagram": "None", "facebook": "None", "youtube": "None", "website": "None", "summary": "None", "logo": "None", "latitude": 49.08666536081137, "longitude": -123.07011548669846}, "132728536RR0001": {"name": "DELTA HOSPICE SOCIETY", "designationCode": "C", "categoryCode": "11", "address": "4631 CLARENCE TAYLOR CRES", "city": "DELTA", "province": "BC", "country": "CA", "postalCode": "V4K4L8", "twitter": "None", "instagram": "None", "facebook": "None", "youtube": "None", "website": "None", "summary": "None", "logo": "None", "latitude": 49.086921820074245, "longitude": -123.05970277837332}, "129844114RR0001": {"name": "DELTA HOSPITAL AND COMMUNITY HEALTH FOUNDATION", "designationCode": "A", "categoryCode": "03", "address": "5800 MOUNTAIN VIEW BLVD", "city": "DELTA", "province": "BC", "country": "CA", "postalCode": "V4K3V6", "twitter": "None", "instagram": "None", "facebook": "None", "youtube": "None", "website": "None", "summary": "None", "logo": "None", "latitude": 49.08454261485126, "longitude": -123.05990379406153}, "139525596RR0001": {"name": "DELTA HOSPITAL AUXILIARY SOCIETY", "designationCode": "A", "categoryCode": "13", "address": "5800 MOUNTAIN VIEW BLVD", "city": "DELTA", "province": "BC", "country": "CA", "postalCode": "V4K3V6", "twitter": "None", "instagram": "None", "facebook": "None", "youtube": "None", "website": "None", "summary": "None", "logo": "None", "latitude": 49.08454261485126, "longitude": -123.05990379406153}, "830308946RR0001": {"name": "DELTA KING PLACE HOUSING SOCIETY", "designationCode": "C", "categoryCode": "09", "address": "277 CITY CENTRE", "city": "KITIMAT", "province": "BC", "country": "CA", "postalCode": "V8C1T6", "twitter": "None", "instagram": "None", "facebook": "None", "youtube": "None", "website": "None", "summary": "None", "logo": "None", "latitude": 54.05307831653663, "longitude": -128.65522872540376}, "894949361RR0001": {"name": "DELTA LIFE SKILLS SOCIETY", "designationCode": "C", "categoryCode": "56", "address": "PO BOX 18625                  LADNER POSTAL OUTLET", "city": "DELTA", "province": "BC", "country": "CA", "postalCode": "V4K4V7", "twitter": "None", "instagram": "None", "facebook": "None", "youtube": "None", "website": "None", "summary": "None", "logo": "None", "latitude": 49.08485400000005, "longitude": -123.05969449999994}, "890214372RR0001": {"name": "DELTA MARINE RESCUE SOCIETY", "designationCode": "C", "categoryCode": "59", "address": "PO BOX 18008", "city": "DELTA", "province": "BC", "country": "CA", "postalCode": "V4L2M4", "twitter": "None", "instagram": "None", "facebook": "None", "youtube": "None", "website": "None", "summary": "None", "logo": "None", "latitude": 49.08485400000005, "longitude": -123.05969449999994}, "898162581RR0001": {"name": "DELTA MARSH BIRD OBSERVATORY INC", "designationCode": "C", "categoryCode": "54", "address": "38 WEST FERNWOOD AVE", "city": "WINNIPEG", "province": "MB", "country": "CA", "postalCode": "R2M1W6", "twitter": "None", "instagram": "None", "facebook": "None", "youtube": "None", "website": "None", "summary": "None", "logo": "None", "latitude": 49.84661819565478, "longitude": -97.11505120661906}, "107012171RR0001": {"name": "DELTA MUSEUM AND ARCHIVES SOCIETY", "designationCode": "C", "categoryCode": "50", "address": "4918 DELTA ST", "city": "DELTA", "province": "BC", "country": "CA", "postalCode": "V4K2V2", "twitter": "None", "instagram": "None", "facebook": "None", "youtube": "None", "website": "None", "summary": "None", "logo": "None", "latitude": 49.09228321455357, "longitude": -123.08700788271122}, "868013145RR0001": {"name": "DELTA MUSIC MAKERS COMMUNITY BAND SOCIETY", "designationCode": "C", "categoryCode": "22", "address": "328-5057-47A AVE", "city": "DELTA", "province": "BC", "country": "CA", "postalCode": "V4K1T9", "twitter": "None", "instagram": "None", "facebook": "None", "youtube": "None", "website": "None", "summary": "None", "logo": "None", "latitude": 49.08928648600596, "longitude": -123.08355}, "892079849RR0001": {"name": "DELTA NATURALISTS SOCIETY", "designationCode": "C", "categoryCode": "59", "address": "1215C 56 STREET               P.O. BOX 18044", "city": "DELTA", "province": "BC", "country": "CA", "postalCode": "V4L2M4", "twitter": "None", "instagram": "None", "facebook": "None", "youtube": "None", "website": "None", "summary": "None", "logo": "None", "latitude": 49.02498, "longitude": -123.06882028789933}, "127491710RR0001": {"name": "DELTA PENTECOSTAL TABERNACLE", "designationCode": "C", "categoryCode": "36", "address": "7696 112TH STREET", "city": "DELTA", "province": "BC", "country": "CA", "postalCode": "V4C4V8", "twitter": "None", "instagram": "None", "facebook": "None", "youtube": "None", "website": "None", "summary": "None", "logo": "None", "latitude": 49.14300541326679, "longitude": -122.9125784788222}, "864810866RR0001": {"name": "DELTA POLICE FOUNDATION", "designationCode": "A", "categoryCode": "59", "address": "6395 HOLLY PARK DRIVE", "city": "DELTA", "province": "BC", "country": "CA", "postalCode": "V4K4T2", "twitter": "None", "instagram": "None", "facebook": "None", "youtube": "None", "website": "None", "summary": "None", "logo": "None", "latitude": 49.08709446768411, "longitude": -123.046461}, "107012247RR0001": {"name": "DELTA UNITED CHURCH", "designationCode": "C", "categoryCode": "44", "address": "47 OTTAWA ST S", "city": "HAMILTON", "province": "ON", "country": "CA", "postalCode": "L8K2C9", "twitter": "None", "instagram": "None", "facebook": "None", "youtube": "None", "website": "None", "summary": "None", "logo": "None", "latitude": 43.24118139188649, "longitude": -79.82025768174766}, "871153185RR0001": {"name": "DELTA UNITED CHURCH", "designationCode": "C", "categoryCode": "44", "address": "36 KING ST                    BOX 148", "city": "DELTA", "province": "ON", "country": "CA", "postalCode": "K0E1G0", "twitter": "None", "instagram": "None", "facebook": "None", "youtube": "None", "website": "None", "summary": "None", "logo": "None", "latitude": 44.611428089250396, "longitude": -76.12181276797939}, "889368866RR0001": {"name": "DELTA VIEW VOLUNTEER SOCIETY", "designationCode": "C", "categoryCode": "19", "address": "9341 BURNS ROAD", "city": "DELTA", "province": "BC", "country": "CA", "postalCode": "V4K3N3", "twitter": "None", "instagram": "None", "facebook": "None", "youtube": "None", "website": "None", "summary": "None", "logo": "None"}, "119058998RR0001": {"name": "DELTA WATERFOWL FOUNDATION", "designationCode": "C", "categoryCode": "54", "address": "UNIT 22 62 SCURFIELD BLVD", "city": "WINNIPEG", "province": "MB", "country": "CA", "postalCode": "R3Y1M5", "twitter": "None", "instagram": "None", "facebook": "None", "youtube": "None", "website": "None", "summary": "None", "logo": "None", "latitude": 49.8182064767734, "longitude": -97.18715122730686}, "137761854RR0001": {"name": "DELTA WEST ACADEMY SOCIETY", "designationCode": "C", "categoryCode": "20", "address": "414 11A ST NE", "city": "CALGARY", "province": "AB", "country": "CA", "postalCode": "T2E4P3", "twitter": "None", "instagram": "None", "facebook": "None", "youtube": "None", "website": "None", "summary": "None", "logo": "None", "latitude": 51.055288658895506, "longitude": -114.0349973480294}, "877345108RR0001": {"name": "DELTA YOUTH SUPPORT LINE SOCIETY", "designationCode": "C", "categoryCode": "09", "address": "1308 56 ST", "city": "DELTA", "province": "BC", "country": "CA", "postalCode": "V4L2A4", "twitter": "None", "instagram": "None", "facebook": "None", "youtube": "None", "website": "None", "summary": "None", "logo": "None", "latitude": 49.026920712117544, "longitude": -123.06855271211755}, "118884170RR0002": {"name": "DELTASSIST FAMILY AND COMMUNITY SERVICES SOCIETY", "designationCode": "C", "categoryCode": "09", "address": "9097 120TH ST", "city": "DELTA", "province": "BC", "country": "CA", "postalCode": "V4C6R7", "twitter": "None", "instagram": "None", "facebook": "None", "youtube": "None", "website": "None", "summary": "None", "logo": "None", "latitude": 49.16820603136361, "longitude": -122.89040599448875}, "870352127RR0001": {"name": "DEMEURE AU COEUR DE MARIE", "designationCode": "C", "categoryCode": "09", "address": "9248 BOULEVARD DU CENTRE-HOSPITALIER", "city": "L\u00c9VIS", "province": "QC", "country": "CA", "postalCode": "G6X3M5", "twitter": "None", "instagram": "None", "facebook": "None", "youtube": "None", "website": "None", "summary": "None", "logo": "None", "latitude": 46.7240221357262, "longitude": -71.26015738856826}}