{"890277643RR0001": {"name": "THE GEORGE EDWARD AND ADA HERR TRUST FUND", "designationCode": "B", "categoryCode": "05", "address": "1402 - 1 KING ST W", "city": "HAMILTON", "province": "ON", "country": "CA", "postalCode": "L8P1A4", "twitter": "None", "instagram": "None", "facebook": "None", "youtube": "None", "website": "None", "summary": "None", "logo": "None", "latitude": 43.26019321073324, "longitude": -79.88135629363086}, "119234763RR0001": {"name": "THE GEORGE HERMAN MEMORIAL FOUNDATION", "designationCode": "C", "categoryCode": "03", "address": "158 MADISON AVENUE", "city": "TORONTO", "province": "ON", "country": "CA", "postalCode": "M5R2S5", "twitter": "None", "instagram": "None", "facebook": "None", "youtube": "None", "website": "None", "summary": "None", "logo": "None", "latitude": 43.67401393865778, "longitude": -79.40554396269243}, "132278847RR0001": {"name": "THE GEORGE HOFSTEDTER FAMILY FOUNDATION", "designationCode": "B", "categoryCode": "03", "address": "500-3625 DUFFERIN ST", "city": "DOWNSVIEW", "province": "ON", "country": "CA", "postalCode": "M3K1N4", "twitter": "None", "instagram": "None", "facebook": "None", "youtube": "None", "website": "None", "summary": "None", "logo": "None", "latitude": 43.73098330919264, "longitude": -79.45857671963213}, "105214563RR0001": {"name": "THE GEORGE HOGG FAMILY FOUNDATION", "designationCode": "B", "categoryCode": "03", "address": "10 - 410 AV VICTORIA", "city": "WESTMOUNT", "province": "QC", "country": "CA", "postalCode": "H3Y2R2", "twitter": "None", "instagram": "None", "facebook": "None", "youtube": "None", "website": "None", "summary": "None", "logo": "None", "latitude": 45.47916387731555, "longitude": -73.60389585082802}, "108082918RR0001": {"name": "THE GEORGE HULL CENTRE FOR CHILDREN AND FAMILIES", "designationCode": "C", "categoryCode": "11", "address": "81 THE EAST MALL              3RD FLOOR", "city": "ETOBICOKE", "province": "ON", "country": "CA", "postalCode": "M8Z5W3", "twitter": "None", "instagram": "None", "facebook": "None", "youtube": "None", "website": "None", "summary": "None", "logo": "None", "latitude": 43.61959616570483, "longitude": -79.54890431652157}, "888647740RR0001": {"name": "THE GEORGE HULL CENTRE FOUNDATION", "designationCode": "B", "categoryCode": "13", "address": "81 THE EAST MALL              3 FLOOR", "city": "ETOBICOKE", "province": "ON", "country": "CA", "postalCode": "M8Z5W3", "twitter": "None", "instagram": "None", "facebook": "None", "youtube": "None", "website": "None", "summary": "None", "logo": "None", "latitude": 43.61959616570483, "longitude": -79.54890431652157}, "858034473RR0001": {"name": "THE GEORGE KOHN FOUNDATION / LA FONDATION GEORGE KOHN", "designationCode": "B", "categoryCode": "03", "address": "180 SAUVE STREET WEST", "city": "MONTREAL", "province": "QC", "country": "CA", "postalCode": "H3L1Y8", "twitter": "None", "instagram": "None", "facebook": "None", "youtube": "None", "website": "None", "summary": "None", "logo": "None", "latitude": 45.544109636966944, "longitude": -73.66156096904042}, "874459027RR0001": {"name": "THE GEORGE KOSTIUK FAMILY PRIVATE FOUNDATION", "designationCode": "B", "categoryCode": "03", "address": "52 EDGEVALLEY DRIVE", "city": "ETOBICOKE", "province": "ON", "country": "CA", "postalCode": "M9A4P1", "twitter": "None", "instagram": "None", "facebook": "None", "youtube": "None", "website": "None", "summary": "None", "logo": "None", "latitude": 43.66958136052289, "longitude": -79.51802730434521}, "119234805RR0001": {"name": "THE GEORGE LUNAN FOUNDATION", "designationCode": "B", "categoryCode": "23", "address": "130 KING STREET WEST, 20TH FL", "city": "TORONTO", "province": "ON", "country": "CA", "postalCode": "M5X1K1", "twitter": "None", "instagram": "None", "facebook": "None", "youtube": "None", "website": "None", "summary": "None", "logo": "None", "latitude": 43.64798216515656, "longitude": -79.38336717805407}, "119234839RR0001": {"name": "THE GEORGE POLLARD SCHOLARSHIP FUND", "designationCode": "C", "categoryCode": "21", "address": "1871 WESTON ROAD", "city": "WESTON", "province": "ON", "country": "CA", "postalCode": "M9N1V9", "twitter": "None", "instagram": "None", "facebook": "None", "youtube": "None", "website": "None", "summary": "None", "logo": "None", "latitude": 43.699856520139534, "longitude": -79.5153306382077}, "130235591RR0001": {"name": "THE GEORGE PRINGLE MEMORIAL CAMP SOCIETY", "designationCode": "C", "categoryCode": "56", "address": "2520 WEST SHAWNIGAN LAKE RD", "city": "SHAWNIGAN LAKE", "province": "BC", "country": "CA", "postalCode": "V0R2W3", "twitter": "None", "instagram": "None", "facebook": "None", "youtube": "None", "website": "None", "summary": "None", "logo": "None", "latitude": 48.64602056409913, "longitude": -123.6589326071584}, "108082900RR0001": {"name": "THE GEORGE R. GARDINER MUSEUM OF CERAMIC ART", "designationCode": "C", "categoryCode": "50", "address": "111 QUEEN'S PARK", "city": "TORONTO", "province": "ON", "country": "CA", "postalCode": "M5S2C7", "twitter": "None", "instagram": "None", "facebook": "None", "youtube": "None", "website": "None", "summary": "None", "logo": "None", "latitude": 43.667926648075436, "longitude": -79.39375999636466}, "124377292RR0001": {"name": "THE GEORGE S. SYME SENIORS' CENTRE OF YORK", "designationCode": "C", "categoryCode": "56", "address": "33 PRITCHARD AVE", "city": "TORONTO", "province": "ON", "country": "CA", "postalCode": "M6N1T5", "twitter": "None", "instagram": "None", "facebook": "None", "youtube": "None", "website": "None", "summary": "None", "logo": "None", "latitude": 43.6703668859139, "longitude": -79.48891445392121}, "119234870RR0001": {"name": "THE GEORGE SPADY CENTRE SOCIETY", "designationCode": "C", "categoryCode": "57", "address": "SUITE 218, 10509-81 AVE", "city": "EDMONTON", "province": "AB", "country": "CA", "postalCode": "T6E1X7", "twitter": "None", "instagram": "None", "facebook": "None", "youtube": "None", "website": "None", "summary": "None", "logo": "None", "latitude": 53.5170304773503, "longitude": -113.50117180252755}, "892149402RR0001": {"name": "THE GEORGE W. WILSON AND TERESA MADELYN (MERRIAM) WILSON FOUNDATION", "designationCode": "B", "categoryCode": "03", "address": "3617 BARRINGTON ST", "city": "HALIFAX", "province": "NS", "country": "CA", "postalCode": "B3K2Y3", "twitter": "None", "instagram": "None", "facebook": "None", "youtube": "None", "website": "None", "summary": "None", "logo": "None", "latitude": 44.67226596145171, "longitude": -63.60470241574828}, "820012276RR0001": {"name": "THE GEORGETOWN HOSPITAL FOUNDATION", "designationCode": "A", "categoryCode": "13", "address": "1 PRINCESS ANNE DR", "city": "GEORGETOWN", "province": "ON", "country": "CA", "postalCode": "L7G2B8", "twitter": "None", "instagram": "None", "facebook": "None", "youtube": "None", "website": "None", "summary": "None", "logo": "None", "latitude": 43.644256322617736, "longitude": -79.93223459831167}, "860432632RR0001": {"name": "THE GEORGIAN BAY CLUB FOUNDATION", "designationCode": "A", "categoryCode": "03", "address": "BOX 40", "city": "COLLINGWOOD", "province": "ON", "country": "CA", "postalCode": "L9Y3Z4", "twitter": "None", "instagram": "None", "facebook": "None", "youtube": "None", "website": "None", "summary": "None", "logo": "None", "latitude": 44.49987600000006, "longitude": -80.21683249999994}, "119234912RR0001": {"name": "THE GEORGIAN BAY LUTHERAN CLUSTER", "designationCode": "C", "categoryCode": "49", "address": "RR#1 684138 SIDEROAD 30", "city": "HOLLAND CENTRE", "province": "ON", "country": "CA", "postalCode": "N0H1R0", "twitter": "None", "instagram": "None", "facebook": "None", "youtube": "None", "website": "None", "summary": "None", "logo": "None", "latitude": 44.4225436216439, "longitude": -80.75969322474687}, "131958811RR0001": {"name": "THE GEORGIAN BAY TRUST FOUNDATION, INC", "designationCode": "C", "categoryCode": "52", "address": "1000 - 120 EGLINTON AVE E", "city": "TORONTO", "province": "ON", "country": "CA", "postalCode": "M4P1E2", "twitter": "None", "instagram": "None", "facebook": "None", "youtube": "None", "website": "None", "summary": "None", "logo": "None", "latitude": 43.7089009100495, "longitude": -79.38780176683875}, "131195372RR0001": {"name": "THE GEORGIAN COLLEGE FOUNDATION", "designationCode": "A", "categoryCode": "23", "address": "ONE GEORGIAN DRIVE", "city": "BARRIE", "province": "ON", "country": "CA", "postalCode": "L4M3X9", "twitter": "None", "instagram": "None", "facebook": "None", "youtube": "None", "website": "None", "summary": "None", "logo": "None", "latitude": 44.416513395458765, "longitude": -79.66055155257511}, "118937283RR0001": {"name": "THE GEORGIAN COLLEGE OF APPLIED ARTS AND TECHNOLOGY", "designationCode": "C", "categoryCode": "22", "address": "1 GEORGIAN DRIVE", "city": "BARRIE", "province": "ON", "country": "CA", "postalCode": "L4M3X9", "twitter": "None", "instagram": "None", "facebook": "None", "youtube": "None", "website": "None", "summary": "None", "logo": "None", "latitude": 44.41213464975601, "longitude": -79.67331589361835}, "119234946RR0001": {"name": "THE GEORGINA FOUNDATION", "designationCode": "B", "categoryCode": "03", "address": "276 ELLERSLIE AVENUE", "city": "WILLOWDALE", "province": "ON", "country": "CA", "postalCode": "M2R1B7", "twitter": "None", "instagram": "None", "facebook": "None", "youtube": "None", "website": "None", "summary": "None", "logo": "None", "latitude": 43.7685161579432, "longitude": -79.42712003886541}, "119234953RR0001": {"name": "THE GEORGINA PUBLIC LIBRARY BOARD", "designationCode": "C", "categoryCode": "50", "address": "90 WEXFORD DR.", "city": "KESWICK", "province": "ON", "country": "CA", "postalCode": "L4P3P7", "twitter": "None", "instagram": "None", "facebook": "None", "youtube": "None", "website": "None", "summary": "None", "logo": "None", "latitude": 44.24039582574756, "longitude": -79.45108988559238}, "895140556RR0001": {"name": "THE GERALD HARDY MEMORIAL SOCIETY", "designationCode": "C", "categoryCode": "09", "address": "PO BOX 131                    22657 HWY #7", "city": "SHEET HARBOUR", "province": "NS", "country": "CA", "postalCode": "B0J3B0", "twitter": "None", "instagram": "None", "facebook": "None", "youtube": "None", "website": "None", "summary": "None", "logo": "None", "latitude": 44.91935952680465, "longitude": -62.532715816925595}, "132516139RR0001": {"name": "THE GERALD MCDOUGALL MEMORIAL FOUNDATION INC", "designationCode": "C", "categoryCode": "21", "address": "98 MONCK AVENUE,", "city": "WINNIPEG", "province": "MB", "country": "CA", "postalCode": "R2H1W9", "twitter": "None", "instagram": "None", "facebook": "None", "youtube": "None", "website": "None", "summary": "None", "logo": "None", "latitude": 49.87453320843673, "longitude": -97.12447811584646}, "138445580RR0001": {"name": "THE GERALD SCHWARTZ & HEATHER REISMAN FOUNDATION", "designationCode": "B", "categoryCode": "03", "address": "161 BAY ST PO BOX 700 49TH FL", "city": "TORONTO", "province": "ON", "country": "CA", "postalCode": "M5J2S1", "twitter": "None", "instagram": "None", "facebook": "None", "youtube": "None", "website": "None", "summary": "None", "logo": "None", "latitude": 43.64640116209816, "longitude": -79.3792674731667}, "899827745RR0001": {"name": "THE GERARD AND RICHARD CAYER CHARITABLE FOUNDATION INC", "designationCode": "B", "categoryCode": "03", "address": "H12 PRARIE OASIS COURT", "city": "MOOSEJAW", "province": "SK", "country": "CA", "postalCode": "S6J1C6", "twitter": "None", "instagram": "None", "facebook": "None", "youtube": "None", "website": "None", "summary": "None", "logo": "None", "latitude": 50.40548700000005, "longitude": -105.51030649999993}, "890316441RR0001": {"name": "THE GERMAN BILINGUAL ASSOCIATION OF THE COUNTY OF STRATHCONA", "designationCode": "C", "categoryCode": "21", "address": "73 MAIN BLVD", "city": "SHERWOOD PARK", "province": "AB", "country": "CA", "postalCode": "T8A0R1", "twitter": "None", "instagram": "None", "facebook": "None", "youtube": "None", "website": "None", "summary": "None", "logo": "None", "latitude": 53.53675636612012, "longitude": -113.30642599581641}, "874535701RR0001": {"name": "THE GERMAN OLD COLONY MENNONITE CHURCH", "designationCode": "C", "categoryCode": "34", "address": "6 MUSTANG BAY", "city": "WINKLER", "province": "MB", "country": "CA", "postalCode": "R6W0A4", "twitter": "None", "instagram": "None", "facebook": "None", "youtube": "None", "website": "None", "summary": "None", "logo": "None", "latitude": 49.16596050000001, "longitude": -97.94311199999999}, "119235000RR0001": {"name": "THE GERMAN-CANADIAN STUDIES FOUNDATION, INC", "designationCode": "A", "categoryCode": "21", "address": "2000-ONE LOMBARD PLACE", "city": "WINNIPEG", "province": "MB", "country": "CA", "postalCode": "R3B0X3", "twitter": "None", "instagram": "None", "facebook": "None", "youtube": "None", "website": "None", "summary": "None", "logo": "None", "latitude": 49.89608549999999, "longitude": -97.13498849999999}, "868348749RR0001": {"name": "THE GERMANTOWN BAPTIST CEMETERY TRUST", "designationCode": "C", "categoryCode": "59", "address": "6621 RT 114", "city": "GERMANTOWN", "province": "NB", "country": "CA", "postalCode": "E4H2J4", "twitter": "None", "instagram": "None", "facebook": "None", "youtube": "None", "website": "None", "summary": "None", "logo": "None", "latitude": 45.670730515136725, "longitude": -64.81338516216876}, "881777569RR0001": {"name": "THE GERRY & NANCY PENCER BRAIN TRUST", "designationCode": "B", "categoryCode": "11", "address": "12 - 411 CONFEDERATION PKY", "city": "CONCORD", "province": "ON", "country": "CA", "postalCode": "L4K0A8", "twitter": "None", "instagram": "None", "facebook": "None", "youtube": "None", "website": "None", "summary": "None", "logo": "None", "latitude": 43.833302917825755, "longitude": -79.49184882809143}, "119235042RR0001": {"name": "THE GERSHON ISKOWITZ FOUNDATION", "designationCode": "B", "categoryCode": "23", "address": "19 WHITEROCK DRIVE", "city": "SCARBOROUGH", "province": "ON", "country": "CA", "postalCode": "M1C3N3", "twitter": "None", "instagram": "None", "facebook": "None", "youtube": "None", "website": "None", "summary": "None", "logo": "None", "latitude": 43.78300286037865, "longitude": -79.13587570246412}, "893365163RR0001": {"name": "THE GERTNER FAMILY CHARITABLE FOUNDATION", "designationCode": "B", "categoryCode": "05", "address": "UNIT 13-1170 SHEPPARD AVE WEST", "city": "NORTH YORK", "province": "ON", "country": "CA", "postalCode": "M3K2A3", "twitter": "None", "instagram": "None", "facebook": "None", "youtube": "None", "website": "None", "summary": "None", "logo": "None", "latitude": 43.75439857574398, "longitude": -79.4799197125512}, "135731768RR0001": {"name": "THE GERTRUDE COTTON CHARITABLE TRUST", "designationCode": "B", "categoryCode": "25", "address": "275 DUNDAS STREET             11TH FLOOR", "city": "LONDON", "province": "ON", "country": "CA", "postalCode": "N6B3L1", "twitter": "None", "instagram": "None", "facebook": "None", "youtube": "None", "website": "None", "summary": "None", "logo": "None", "latitude": 42.985045049656804, "longitude": -81.24474432471588}, "830863924RR0001": {"name": "THE GIAMPAOLO FOUNDATION/FONDATION GIAMPAOLO", "designationCode": "B", "categoryCode": "03", "address": "850 INTERMODAL DR.", "city": "BRAMPTON", "province": "ON", "country": "CA", "postalCode": "L6T0B5", "twitter": "None", "instagram": "None", "facebook": "None", "youtube": "None", "website": "None", "summary": "None", "logo": "None"}, "107431231RR0001": {"name": "THE GIANT MACASKILL HEIRS ASSOCIATION", "designationCode": "C", "categoryCode": "50", "address": "PO BOX 41", "city": "ENGLISHTOWN", "province": "NS", "country": "CA", "postalCode": "B0C1H0", "twitter": "None", "instagram": "None", "facebook": "None", "youtube": "None", "website": "None", "summary": "None", "logo": "None", "latitude": 46.28038000000004, "longitude": -60.54481999999996}, "895400927RR0001": {"name": "THE GIANT'S RIB DISCOVERY CENTRE", "designationCode": "C", "categoryCode": "50", "address": "PO BOX 1469", "city": "WATERDOWN", "province": "ON", "country": "CA", "postalCode": "L0R2H0", "twitter": "None", "instagram": "None", "facebook": "None", "youtube": "None", "website": "None", "summary": "None", "logo": "None"}, "895318541RR0001": {"name": "THE GIBBONS-DALEY FOUNDATION", "designationCode": "A", "categoryCode": "01", "address": "5140 YONGE STREET,            SUITE 1700", "city": "TORONTO", "province": "ON", "country": "CA", "postalCode": "M2N6L7", "twitter": "None", "instagram": "None", "facebook": "None", "youtube": "None", "website": "None", "summary": "None", "logo": "None", "latitude": 43.76854546488549, "longitude": -79.41274871818891}, "898472519RR0001": {"name": "THE GIBSON CULTURAL CENTRE CORPORATION", "designationCode": "A", "categoryCode": "56", "address": "63 TUPPER ST W", "city": "ALLISTON", "province": "ON", "country": "CA", "postalCode": "L9R1E4", "twitter": "None", "instagram": "None", "facebook": "None", "youtube": "None", "website": "None", "summary": "None", "logo": "None", "latitude": 44.149057827630095, "longitude": -79.87071703774025}, "108082991RR0001": {"name": "THE GIDEONS INTERNATIONAL IN CANADA", "designationCode": "C", "categoryCode": "47", "address": "501 IMPERIAL RD N             P.O.BOX:3619", "city": "GUELPH", "province": "ON", "country": "CA", "postalCode": "N1H7A2", "twitter": "None", "instagram": "None", "facebook": "None", "youtube": "None", "website": "None", "summary": "None", "logo": "None", "latitude": 43.53772651627306, "longitude": -80.29772292140377}, "807691126RR0001": {"name": "THE GIFT OF GIVING BACK", "designationCode": "C", "categoryCode": "03", "address": "4132 STONEBRIDGE CRESCENT,", "city": "BURLINGTON", "province": "ON", "country": "CA", "postalCode": "L7M4N3", "twitter": "None", "instagram": "None", "facebook": "None", "youtube": "None", "website": "None", "summary": "None", "logo": "None", "latitude": 43.3941626791506, "longitude": -79.8060355375091}, "122517733RR0001": {"name": "THE GILBERT & SULLIVAN SOCIETY OF WINNIPEG INC", "designationCode": "C", "categoryCode": "22", "address": "375 HARGRAVE ST", "city": "WINNIPEG", "province": "MB", "country": "CA", "postalCode": "R3B2K2", "twitter": "None", "instagram": "None", "facebook": "None", "youtube": "None", "website": "None", "summary": "None", "logo": "None", "latitude": 49.89569455482136, "longitude": -97.14600111293227}, "119235083RR0001": {"name": "THE GILBERT AND SULLIVAN SOCIETY TORONTO BRANCH", "designationCode": "C", "categoryCode": "22", "address": "602 - 80 FRONT ST E", "city": "TORONTO", "province": "ON", "country": "CA", "postalCode": "M5E1T4", "twitter": "None", "instagram": "None", "facebook": "None", "youtube": "None", "website": "None", "summary": "None", "logo": "None", "latitude": 43.64906329479457, "longitude": -79.37255350308708}, "119235091RR0001": {"name": "THE GILBERT AND SULLIVAN SOCIETY, WATERLOOREGIONAL BRANCH", "designationCode": "C", "categoryCode": "22", "address": "58 AHRENS ST. W.", "city": "KITCHENER", "province": "ON", "country": "CA", "postalCode": "N2H4B7", "twitter": "None", "instagram": "None", "facebook": "None", "youtube": "None", "website": "None", "summary": "None", "logo": "None", "latitude": 43.45453028700431, "longitude": -80.48928045363276}, "105214779RR0001": {"name": "THE GILBERT GOODMAN FAMILY FOUNDATION", "designationCode": "B", "categoryCode": "03", "address": "30 ALEXANDRA WOOD", "city": "TORONTO", "province": "ON", "country": "CA", "postalCode": "M5N2S1", "twitter": "None", "instagram": "None", "facebook": "None", "youtube": "None", "website": "None", "summary": "None", "logo": "None", "latitude": 43.71203495862442, "longitude": -79.4241871439205}, "890592777RR0001": {"name": "THE GILBY AGRICULTURAL SOCIETY", "designationCode": "C", "categoryCode": "56", "address": "BOX 456", "city": "ECKVILLE", "province": "AB", "country": "CA", "postalCode": "T0M0X0", "twitter": "None", "instagram": "None", "facebook": "None", "youtube": "None", "website": "None", "summary": "None", "logo": "None", "latitude": 52.359560000000045, "longitude": -114.36145999999997}, "125088054RR0001": {"name": "THE GILES SCHOOL", "designationCode": "C", "categoryCode": "20", "address": "80 SCARSDALE ROAD", "city": "TORONTO", "province": "ON", "country": "CA", "postalCode": "M3B2R7", "twitter": "None", "instagram": "None", "facebook": "None", "youtube": "None", "website": "None", "summary": "None", "logo": "None", "latitude": 43.750399998326564, "longitude": -79.35517624164666}, "140815127RR0001": {"name": "THE GIMBEL EYE FOUNDATION", "designationCode": "B", "categoryCode": "11", "address": "450-4935 40 AVE NW", "city": "CALGARY", "province": "AB", "country": "CA", "postalCode": "T3A2N1", "twitter": "None", "instagram": "None", "facebook": "None", "youtube": "None", "website": "None", "summary": "None", "logo": "None", "latitude": 51.0881805, "longitude": -114.15798899999999}, "888528643RR0001": {"name": "THE GITKSAN-WET'SUWET'EN EDUCATION SOCIETY", "designationCode": "C", "categoryCode": "21", "address": "PO BOX 418", "city": "HAZELTON", "province": "BC", "country": "CA", "postalCode": "V0J1Y0", "twitter": "None", "instagram": "None", "facebook": "None", "youtube": "None", "website": "None", "summary": "None", "logo": "None", "latitude": 55.2675692820996, "longitude": -127.62287325854736}, "119239994RR0001": {"name": "THE GITTA NISHUMA FOUNDATION", "designationCode": "B", "categoryCode": "03", "address": "601 - 175 BLOOR ST E", "city": "TORONTO", "province": "ON", "country": "CA", "postalCode": "M4W3R8", "twitter": "None", "instagram": "None", "facebook": "None", "youtube": "None", "website": "None", "summary": "None", "logo": "None", "latitude": 43.67244585876691, "longitude": -79.37634608562912}, "896499464RR0001": {"name": "THE GIV3 FOUNDATION / LA FONDATION DONN3", "designationCode": "B", "categoryCode": "03", "address": "1600-1000 RUE SHERBROOKE O", "city": "MONTR\u00c9AL", "province": "QC", "country": "CA", "postalCode": "H3A3G4", "twitter": "None", "instagram": "None", "facebook": "None", "youtube": "None", "website": "None", "summary": "None", "logo": "None", "latitude": 45.50420051526984, "longitude": -73.57425178965626}, "810937888RR0001": {"name": "THE GLADES BAPTIST CHURCH AND CEMETERY INC.", "designationCode": "C", "categoryCode": "31", "address": "588 SANITORIUM ROAD           POST OFFICE BOX 5", "city": "THE GLADES", "province": "NB", "country": "CA", "postalCode": "E4J1X5", "twitter": "None", "instagram": "None", "facebook": "None", "youtube": "None", "website": "None", "summary": "None", "logo": "None", "latitude": 45.95311024246528, "longitude": -65.07810083742513}, "131485716RR0001": {"name": "THE GLADSTONE COMMUNITY SPORTS ASSOCIATION", "designationCode": "C", "categoryCode": "56", "address": "RR#1", "city": "BAWLF", "province": "AB", "country": "CA", "postalCode": "T0B0J0", "twitter": "None", "instagram": "None", "facebook": "None", "youtube": "None", "website": "None", "summary": "None", "logo": "None", "latitude": 52.92010000000005, "longitude": -112.46667999999994}, "805192549RR0001": {"name": "THE GLBA FOUNDATION", "designationCode": "C", "categoryCode": "21", "address": "247-280 NELSON STREET", "city": "VANCOUVER", "province": "BC", "country": "CA", "postalCode": "V6B2E2", "twitter": "None", "instagram": "None", "facebook": "None", "youtube": "None", "website": "None", "summary": "None", "logo": "None", "latitude": 49.276435559835775, "longitude": -123.11879061653781}, "105215024RR0001": {"name": "THE GLEBE CENTRE INCORPORATED", "designationCode": "C", "categoryCode": "01", "address": "77 MONK STREET", "city": "OTTAWA", "province": "ON", "country": "CA", "postalCode": "K1S5A7", "twitter": "None", "instagram": "None", "facebook": "None", "youtube": "None", "website": "None", "summary": "None", "logo": "None", "latitude": 45.39838174078128, "longitude": -75.6866001193089}, "119235190RR0001": {"name": "THE GLEICHEN AND DISTRICT AGRICULTURAL SOCIETY", "designationCode": "C", "categoryCode": "56", "address": "P.O. BOX 460", "city": "GLEICHEN", "province": "AB", "country": "CA", "postalCode": "T0J1N0", "twitter": "None", "instagram": "None", "facebook": "None", "youtube": "None", "website": "None", "summary": "None", "logo": "None", "latitude": 50.86703498834985, "longitude": -113.05614014000167}, "119235208RR0001": {"name": "THE GLEICHEN-CLUNY UNITED FUND", "designationCode": "A", "categoryCode": "03", "address": "BOX 9", "city": "GLEICHEN", "province": "AB", "country": "CA", "postalCode": "T0J1N0", "twitter": "None", "instagram": "None", "facebook": "None", "youtube": "None", "website": "None", "summary": "None", "logo": "None", "latitude": 50.86703498834985, "longitude": -113.05614014000167}, "119235257RR0001": {"name": "THE GLEN SUTTON CEMETERY", "designationCode": "C", "categoryCode": "59", "address": "787 CH BURNETT", "city": "SUTTON", "province": "QC", "country": "CA", "postalCode": "J0E2K0", "twitter": "None", "instagram": "None", "facebook": "None", "youtube": "None", "website": "None", "summary": "None", "logo": "None", "latitude": 45.03680582041673, "longitude": -72.51531378628314}, "120653670RR0001": {"name": "THE GLENBORO AREA FOUNDATION INC", "designationCode": "A", "categoryCode": "53", "address": "PO BOX 147", "city": "GLENBORO", "province": "MB", "country": "CA", "postalCode": "R0K0X0", "twitter": "None", "instagram": "None", "facebook": "None", "youtube": "None", "website": "None", "summary": "None", "logo": "None", "latitude": 49.55755000000005, "longitude": -99.29090999999994}, "137698536RR0001": {"name": "THE GLENFIR SCHOOL SOCIETY", "designationCode": "C", "categoryCode": "20", "address": "PO BOX 1800", "city": "SUMMERLAND", "province": "BC", "country": "CA", "postalCode": "V0H1Z0", "twitter": "None", "instagram": "None", "facebook": "None", "youtube": "None", "website": "None", "summary": "None", "logo": "None", "latitude": 49.60131900000006, "longitude": -119.67899299999993}, "107436388RR0001": {"name": "THE GLENGARRY INTER-AGENCY GROUP INC.", "designationCode": "C", "categoryCode": "01", "address": "3525 COUNTY ROAD 34 SOUTH", "city": "ALEXANDRIA", "province": "ON", "country": "CA", "postalCode": "K0C1A0", "twitter": "None", "instagram": "None", "facebook": "None", "youtube": "None", "website": "None", "summary": "None", "logo": "None", "latitude": 45.29235356825878, "longitude": -74.62508320537533}, "108083072RR0001": {"name": "THE GLENHYRST ART GALLERY OF BRANT INCORPORATED", "designationCode": "C", "categoryCode": "50", "address": "20 AVA ROAD", "city": "BRANTFORD", "province": "ON", "country": "CA", "postalCode": "N3T5G9", "twitter": "None", "instagram": "None", "facebook": "None", "youtube": "None", "website": "None", "summary": "None", "logo": "None", "latitude": 43.156840506374635, "longitude": -80.28673418712786}, "838039667RR0001": {"name": "THE GLENN AND AMEL CHAMANDY FAMILY FOUNDATION / LA FONDATION FAMILIALE GLENN ET AMEL CHAMANDY", "designationCode": "B", "categoryCode": "03", "address": "600 DE MAISONNEUVE BLVD. WEST 33RD FLOOR", "city": "MONTREAL", "province": "QC", "country": "CA", "postalCode": "H3A3J2", "twitter": "None", "instagram": "None", "facebook": "None", "youtube": "None", "website": "None", "summary": "None", "logo": "None", "latitude": 45.50425726005544, "longitude": -73.57131520869652}, "131890410RR0001": {"name": "THE GLENN GOULD FOUNDATION/LA FONDATION GLENN GOULD", "designationCode": "C", "categoryCode": "22", "address": "1401-69 YONGE STREET", "city": "TORONTO", "province": "ON", "country": "CA", "postalCode": "M5E1K3", "twitter": "None", "instagram": "None", "facebook": "None", "youtube": "None", "website": "None", "summary": "None", "logo": "None", "latitude": 43.64884364086209, "longitude": -79.37772048193794}, "886842335RR0001": {"name": "THE GLENSHIEL HOUSING SOCIETY", "designationCode": "C", "categoryCode": "09", "address": "606 DOUGLAS STREET", "city": "VICTORIA", "province": "BC", "country": "CA", "postalCode": "V8V2P8", "twitter": "None", "instagram": "None", "facebook": "None", "youtube": "None", "website": "None", "summary": "None", "logo": "None", "latitude": 48.419675626378044, "longitude": -123.36624950530879}, "119235281RR0001": {"name": "THE GLENWOOD CEMETERY COMPANY, OF THE TOWN OF PICTON", "designationCode": "C", "categoryCode": "59", "address": "47 FERGUSON STREET", "city": "PICTON", "province": "ON", "country": "CA", "postalCode": "K0K2T0", "twitter": "None", "instagram": "None", "facebook": "None", "youtube": "None", "website": "None", "summary": "None", "logo": "None", "latitude": 44.003279476916866, "longitude": -77.14582361793998}, "869928424RR0001": {"name": "THE GLOBAL VILLAGE PRESBYTERIAN CHURCH", "designationCode": "C", "categoryCode": "39", "address": "43 FOREST GROVE DRIVE", "city": "NORTH YORK", "province": "ON", "country": "CA", "postalCode": "M2K1Z4", "twitter": "None", "instagram": "None", "facebook": "None", "youtube": "None", "website": "None", "summary": "None", "logo": "None", "latitude": 43.77963713347583, "longitude": -79.37905981308778}, "860578772RR0001": {"name": "THE GLOBAL YOUTH EDUCATION NETWORK SOCIETY", "designationCode": "C", "categoryCode": "21", "address": "520-700 PENDER ST. W.", "city": "VANCOUVER", "province": "BC", "country": "CA", "postalCode": "V6C1G8", "twitter": "None", "instagram": "None", "facebook": "None", "youtube": "None", "website": "None", "summary": "None", "logo": "None", "latitude": 49.28475671218765, "longitude": -123.11502780979822}, "118940444RR0001": {"name": "THE GLORIA DEI CHORALE SOCIETY", "designationCode": "C", "categoryCode": "22", "address": "8255 - 13TH AVENUE", "city": "BURNABY", "province": "BC", "country": "CA", "postalCode": "V3N2G6", "twitter": "None", "instagram": "None", "facebook": "None", "youtube": "None", "website": "None", "summary": "None", "logo": "None", "latitude": 49.22655971469779, "longitude": -122.92069758078927}, "132985649RR0001": {"name": "THE GLOUCESTER COMMUNITY CONCERT BAND / L'ORCHESTRE COMMUNAUTAIRE DE GLOUCESTER INC", "designationCode": "C", "categoryCode": "22", "address": "245 CENTRUM BLVD.             SUITE 260, BOX.9", "city": "OTTAWA", "province": "ON", "country": "CA", "postalCode": "K1E0A1", "twitter": "None", "instagram": "None", "facebook": "None", "youtube": "None", "website": "None", "summary": "None", "logo": "None", "latitude": 45.480353560678395, "longitude": -75.51103315378826}, "119235315RR0001": {"name": "THE GOAN CHARITABLE ORGANIZATION", "designationCode": "C", "categoryCode": "09", "address": "4021 LOYALIST DR.", "city": "MISSISSAUGA", "province": "ON", "country": "CA", "postalCode": "L5L3Y6", "twitter": "None", "instagram": "None", "facebook": "None", "youtube": "None", "website": "None", "summary": "None", "logo": "None", "latitude": 43.53339098003336, "longitude": -79.70440551537901}, "868940495RR0001": {"name": "THE GODFREY FAMILY FOUNDATION", "designationCode": "B", "categoryCode": "05", "address": "50 YORKVILLE AVENUE           SUITE 4703", "city": "TORONTO", "province": "ON", "country": "CA", "postalCode": "M4W0A3", "twitter": "None", "instagram": "None", "facebook": "None", "youtube": "None", "website": "None", "summary": "None", "logo": "None", "latitude": 43.67152917236992, "longitude": -79.38944756869982}, "708264726RR0001": {"name": "THE GOLDBERG FAMILY FOUNDATION", "designationCode": "B", "categoryCode": "03", "address": "620 WILSON AVENUE, 401", "city": "TORONTO", "province": "ON", "country": "CA", "postalCode": "M3K1Z3", "twitter": "None", "instagram": "None", "facebook": "None", "youtube": "None", "website": "None", "summary": "None", "logo": "None", "latitude": 43.73199250100961, "longitude": -79.46002264071787}, "896283777RR0001": {"name": "THE GOLDEN HILLS REGIONAL DIVISION NO. 15", "designationCode": "C", "categoryCode": "21", "address": "435A HIGHWAY #1", "city": "STRATHMORE", "province": "AB", "country": "CA", "postalCode": "T1P1J4", "twitter": "None", "instagram": "None", "facebook": "None", "youtube": "None", "website": "None", "summary": "None", "logo": "None", "latitude": 51.03675982960103, "longitude": -113.40037432960101}, "130264955RR0001": {"name": "THE GOLDEN HORSESHOE DISABLED SPORTS ASSOCIATION", "designationCode": "C", "categoryCode": "56", "address": "407 WILLIS DRIVE", "city": "OAKVILLE", "province": "ON", "country": "CA", "postalCode": "L6L4T9", "twitter": "None", "instagram": "None", "facebook": "None", "youtube": "None", "website": "None", "summary": "None", "logo": "None", "latitude": 43.42452399446009, "longitude": -79.69784555202274}, "137407904RR0001": {"name": "THE GOLDEN HOSPITAL AUXILIARY", "designationCode": "C", "categoryCode": "19", "address": "946 JACOB RD.", "city": "GOLDEN", "province": "BC", "country": "CA", "postalCode": "V0A1H2", "twitter": "None", "instagram": "None", "facebook": "None", "youtube": "None", "website": "None", "summary": "None", "logo": "None", "latitude": 51.238912314054346, "longitude": -116.92751127342812}, "107020323RR0022": {"name": "THE GOLDEN VALLEY CHURCH", "designationCode": "C", "categoryCode": "30", "address": "171 CADILLAC AVENUE", "city": "VAL D'OR", "province": "QC", "country": "CA", "postalCode": "J9P2J3", "twitter": "None", "instagram": "None", "facebook": "None", "youtube": "None", "website": "None", "summary": "None", "logo": "None", "latitude": 48.09613360534356, "longitude": -77.77721607963544}, "889633392RR0001": {"name": "THE GOLDEN YEARS, TOWN & COUNTRY CLUB", "designationCode": "C", "categoryCode": "56", "address": "BOX 414", "city": "BEISEKER", "province": "AB", "country": "CA", "postalCode": "T0M0G0", "twitter": "None", "instagram": "None", "facebook": "None", "youtube": "None", "website": "None", "summary": "None", "logo": "None", "latitude": 51.386990000000026, "longitude": -113.52201999999994}, "884840125RR0001": {"name": "THE GOLF MANAGEMENT INSTITUTE OF CANADA", "designationCode": "C", "categoryCode": "20", "address": "1333 DORVAL DRIVE", "city": "OAKVILLE", "province": "ON", "country": "CA", "postalCode": "L6J4Z3", "twitter": "None", "instagram": "None", "facebook": "None", "youtube": "None", "website": "None", "summary": "None", "logo": "None", "latitude": 43.448675594826774, "longitude": -79.712953023848}, "866258742RR0001": {"name": "THE GONZAGA FOUNDATION", "designationCode": "C", "categoryCode": "01", "address": "4297 SUNSET BOULEVARD", "city": "NORTH VANCOUVER", "province": "BC", "country": "CA", "postalCode": "V7R3Y7", "twitter": "None", "instagram": "None", "facebook": "None", "youtube": "None", "website": "None", "summary": "None", "logo": "None", "latitude": 49.34883487953726, "longitude": -123.10572077993517}, "891534018RR0001": {"name": "THE GOOD DOERS CHARITY LIBRARY SOCIETY", "designationCode": "C", "categoryCode": "50", "address": "14 SIGNATURE CL SW", "city": "CALGARY", "province": "AB", "country": "CA", "postalCode": "T3H2V7", "twitter": "None", "instagram": "None", "facebook": "None", "youtube": "None", "website": "None", "summary": "None", "logo": "None", "latitude": 51.034501341104516, "longitude": -114.17097834802941}, "118941269RR0001": {"name": "THE GOOD NEIGHBOURS' CLUB", "designationCode": "C", "categoryCode": "09", "address": "170 JARVIS STREET", "city": "TORONTO", "province": "ON", "country": "CA", "postalCode": "M5B2B7", "twitter": "None", "instagram": "None", "facebook": "None", "youtube": "None", "website": "None", "summary": "None", "logo": "None", "latitude": 43.655609829303515, "longitude": -79.37403433891146}, "108083197RR0001": {"name": "THE GOOD NEWS BROADCASTING ASSOCIATION OF CANADA", "designationCode": "C", "categoryCode": "43", "address": "31087A PEARDONVILLE RD", "city": "ABBOTSFORD", "province": "BC", "country": "CA", "postalCode": "V2T6K4", "twitter": "None", "instagram": "None", "facebook": "None", "youtube": "None", "website": "None", "summary": "None", "logo": "None", "latitude": 49.046076339408316, "longitude": -122.36293095419128}, "845854074RR0001": {"name": "THE GOOD NEWS CHRISTIAN MINISTRIES", "designationCode": "C", "categoryCode": "39", "address": "96 PHEASANT RUN DR", "city": "NEPEAN", "province": "ON", "country": "CA", "postalCode": "K2J2R5", "twitter": "None", "instagram": "None", "facebook": "None", "youtube": "None", "website": "None", "summary": "None", "logo": "None", "latitude": 45.27638074799465, "longitude": -75.77750069980972}, "897696829RR0001": {"name": "THE GOOD SAMARITAN FOOD BANK", "designationCode": "C", "categoryCode": "09", "address": "1345 AROOSTOOK ROAD", "city": "PERTH ANDOVER", "province": "NB", "country": "CA", "postalCode": "E7H1A7", "twitter": "None", "instagram": "None", "facebook": "None", "youtube": "None", "website": "None", "summary": "None", "logo": "None", "latitude": 46.755191819031744, "longitude": -67.69791638804867}, "857641872RR0001": {"name": "THE GOOD SAMARITAN INN", "designationCode": "C", "categoryCode": "01", "address": "137 GOLDEN AVENUE", "city": "SOUTH PORCUPINE", "province": "ON", "country": "CA", "postalCode": "P0N1H0", "twitter": "None", "instagram": "None", "facebook": "None", "youtube": "None", "website": "None", "summary": "None", "logo": "None", "latitude": 48.4771635163309, "longitude": -81.20741984595864}, "119235430RR0001": {"name": "THE GOOD SAMARITAN RELIEF FUND", "designationCode": "B", "categoryCode": "09", "address": "2140 CHEMIN MCGILL", "city": "SAINTE-JULIENNE", "province": "QC", "country": "CA", "postalCode": "J0K2T0", "twitter": "None", "instagram": "None", "facebook": "None", "youtube": "None", "website": "None", "summary": "None", "logo": "None"}, "107439754RR0002": {"name": "THE GOOD SAMARITAN SOCIETY (A LUTHERAN SOCIAL SERVICE ORGANIZATION)", "designationCode": "C", "categoryCode": "09", "address": "8861 75 ST", "city": "EDMONTON", "province": "AB", "country": "CA", "postalCode": "T6C4G8", "twitter": "None", "instagram": "None", "facebook": "None", "youtube": "None", "website": "None", "summary": "None", "logo": "None", "latitude": 53.52384599999999, "longitude": -113.44278430287426}, "119235448RR0001": {"name": "THE GOOD SHEPHERD COMMUNITY CHURCH OF CALGARY (MORAVIAN)", "designationCode": "C", "categoryCode": "39", "address": "6311 NORFOLK DRIVE NORTHWEST", "city": "CALGARY", "province": "AB", "country": "CA", "postalCode": "T2K5J8", "twitter": "None", "instagram": "None", "facebook": "None", "youtube": "None", "website": "None", "summary": "None", "logo": "None", "latitude": 51.109535724392664, "longitude": -114.07696172635455}, "858511207RR0001": {"name": "THE GOOD SHEPHERD FELLOWSHIP", "designationCode": "C", "categoryCode": "39", "address": "207 ELM ST", "city": "WEST LORNE", "province": "ON", "country": "CA", "postalCode": "N0L2P0", "twitter": "None", "instagram": "None", "facebook": "None", "youtube": "None", "website": "None", "summary": "None", "logo": "None", "latitude": 42.599634001283874, "longitude": -81.60920483574242}, "864306022RR0001": {"name": "THE GOOD SHEPHERD FOOD BANK OF ALLISTON INC.", "designationCode": "C", "categoryCode": "09", "address": "PO BOX 71", "city": "ALLISTON", "province": "ON", "country": "CA", "postalCode": "L9R1T9", "twitter": "None", "instagram": "None", "facebook": "None", "youtube": "None", "website": "None", "summary": "None", "logo": "None", "latitude": 44.15432100000005, "longitude": -79.86752449999993}, "893180372RR0001": {"name": "THE GOODALE FOUNDATION", "designationCode": "B", "categoryCode": "22", "address": "401 BAY ST, SUITE 3100        P.O. BOX 49", "city": "TORONTO", "province": "ON", "country": "CA", "postalCode": "M5H2Y4", "twitter": "None", "instagram": "None", "facebook": "None", "youtube": "None", "website": "None", "summary": "None", "logo": "None", "latitude": 43.651658304201, "longitude": -79.38148850259707}, "865658207RR0001": {"name": "THE GORDON AND DONNA FEENEY FAMILY FOUNDATION", "designationCode": "B", "categoryCode": "03", "address": "270 THE KINGSWAY              P.O. BOX 74569", "city": "TORONTO", "province": "ON", "country": "CA", "postalCode": "M9A3T0", "twitter": "None", "instagram": "None", "facebook": "None", "youtube": "None", "website": "None", "summary": "None", "logo": "None", "latitude": 43.661939690518906, "longitude": -79.51889572017946}, "824681670RR0001": {"name": "THE GORDON AND LORRAINE GIBSON FAMILY FOUNDATION", "designationCode": "B", "categoryCode": "03", "address": "9 FOREST GLEN CRES", "city": "NORTH YORK", "province": "ON", "country": "CA", "postalCode": "M4N2E7", "twitter": "None", "instagram": "None", "facebook": "None", "youtube": "None", "website": "None", "summary": "None", "logo": "None", "latitude": 43.73592015179769, "longitude": -79.40238600776162}, "866075658RR0001": {"name": "THE GORDON AND MARION SMITH FOUNDATION FOR YOUNG ARTISTS", "designationCode": "A", "categoryCode": "22", "address": "2121 LONSDALE AVE", "city": "NORTH VANCOUVER", "province": "BC", "country": "CA", "postalCode": "V7M2K6", "twitter": "None", "instagram": "None", "facebook": "None", "youtube": "None", "website": "None", "summary": "None", "logo": "None", "latitude": 49.32853802914844, "longitude": -123.07225095612553}, "889134771RR0001": {"name": "THE GORDON AUXILIARY OF CAVEN PRESBYTERIAN CHURCH", "designationCode": "A", "categoryCode": "49", "address": "68 MAIN STREET", "city": "EXETER", "province": "ON", "country": "CA", "postalCode": "N0M1S1", "twitter": "None", "instagram": "None", "facebook": "None", "youtube": "None", "website": "None", "summary": "None", "logo": "None", "latitude": 43.354614310577624, "longitude": -81.48204653035398}, "890302979RR0001": {"name": "THE GORDON C WALLIS PIANO COMPETITION", "designationCode": "B", "categoryCode": "22", "address": "45 MARTIN ST.", "city": "REGINA", "province": "SK", "country": "CA", "postalCode": "S4S3W4", "twitter": "None", "instagram": "None", "facebook": "None", "youtube": "None", "website": "None", "summary": "None", "logo": "None", "latitude": 50.42079989174227, "longitude": -104.59727936245612}, "119235505RR0001": {"name": "THE GORDON FOUNDATION", "designationCode": "B", "categoryCode": "05", "address": "1722 WESTWOOD AVENUE", "city": "SARNIA", "province": "ON", "country": "CA", "postalCode": "N7V4E3", "twitter": "None", "instagram": "None", "facebook": "None", "youtube": "None", "website": "None", "summary": "None", "logo": "None", "latitude": 43.01471051095742, "longitude": -82.37300470197324}, "865769749RR0001": {"name": "THE GORDON LINKLETTER FAMILY FUND", "designationCode": "B", "categoryCode": "03", "address": "SUITE 117                     5-420 ERB STREET WEST", "city": "WATERLOO", "province": "ON", "country": "CA", "postalCode": "N2L6K6", "twitter": "None", "instagram": "None", "facebook": "None", "youtube": "None", "website": "None", "summary": "None", "logo": "None", "latitude": 43.452688564573556, "longitude": -80.55288215087407}}