{"892174111RR0001": {"name": "2051 19TH ALBERTA DRAGOONS CADET CORP. PARENTS' COMMITTEE", "designationCode": "B", "categoryCode": "29", "address": "PO BOX 34036 RPO KINGSWAY MALL", "city": "EDMONTON", "province": "AB", "country": "CA", "postalCode": "T5G3G4", "twitter": "None", "instagram": "None", "facebook": "None", "youtube": "None", "website": "None", "summary": "None", "logo": "None", "latitude": 53.56275000000005, "longitude": -113.50697999999994}, "828894014RR0001": {"name": "21C Hope Korean Methodist Church", "designationCode": "C", "categoryCode": "39", "address": "H102 - 2911 BAYVIEW AVE", "city": "NORTH YORK", "province": "ON", "country": "CA", "postalCode": "M2K1E8", "twitter": "None", "instagram": "None", "facebook": "None", "youtube": "None", "website": "None", "summary": "None", "logo": "None", "latitude": 43.77027417488008, "longitude": -79.38882414172934}, "804941292RR0001": {"name": "211 British Columbia Services Society", "designationCode": "C", "categoryCode": "59", "address": "203 - 3102 MAIN ST", "city": "VANCOUVER", "province": "BC", "country": "CA", "postalCode": "V5T3G7", "twitter": "None", "instagram": "None", "facebook": "None", "youtube": "None", "website": "None", "summary": "None", "logo": "None", "latitude": 49.257205292255776, "longitude": -123.10116061876066}, "123613523RR0075": {"name": "211 Ottawa-Kiwanis Air Cadet Squadron Sponsoring Committee", "designationCode": "C", "categoryCode": "29", "address": "P.O. BOX 23097", "city": "OTTAWA", "province": "ON", "country": "CA", "postalCode": "K2A4E2", "twitter": "None", "instagram": "None", "facebook": "None", "youtube": "None", "website": "None", "summary": "None", "logo": "None", "latitude": 45.42177300000006, "longitude": -75.69115999999994}, "865859466RR0001": {"name": "22 Red Knight Squadron Sponsoring Committee", "designationCode": "C", "categoryCode": "29", "address": "PO BOX 116", "city": "POWELL RIVER", "province": "BC", "country": "CA", "postalCode": "V8A4Z5", "twitter": "None", "instagram": "None", "facebook": "None", "youtube": "None", "website": "None", "summary": "None", "logo": "None", "latitude": 49.835904000000056, "longitude": -124.52381449999993}, "826585168RR0001": {"name": "221 A Artist Run Centre Society", "designationCode": "C", "categoryCode": "22", "address": "100-221 E. GEORGIA STREET", "city": "VANCOUVER", "province": "BC", "country": "CA", "postalCode": "V6A1Z6", "twitter": "None", "instagram": "None", "facebook": "None", "youtube": "None", "website": "None", "summary": "None", "logo": "None", "latitude": 49.278544478792604, "longitude": -123.09884155536962}, "871902110RR0001": {"name": "223 RED LION SQUADRON COMMITTEE", "designationCode": "C", "categoryCode": "29", "address": "P.O. BOX 1171", "city": "VERNON", "province": "BC", "country": "CA", "postalCode": "V1T6N4", "twitter": "None", "instagram": "None", "facebook": "None", "youtube": "None", "website": "None", "summary": "None", "logo": "None", "latitude": 50.26567200000005, "longitude": -119.27378149999993}, "130387665RR0090": {"name": "23 Optimist Royal Canadian Air Cadets Squadron Sponsoring Committee", "designationCode": "C", "categoryCode": "29", "address": "8 NAPIER STREET               P.O. BOX 1718", "city": "ST. CATHARINES", "province": "ON", "country": "CA", "postalCode": "L2R7K1", "twitter": "None", "instagram": "None", "facebook": "None", "youtube": "None", "website": "None", "summary": "None", "logo": "None", "latitude": 43.162959132667794, "longitude": -79.25216626934626}, "893301846RR0001": {"name": "239 ROYAL CANADIAN AIR CADET SQUADRON SPONSORING ASSOCIATION", "designationCode": "C", "categoryCode": "29", "address": "PO BOX 1359 STN MAIN", "city": "BROOKS", "province": "AB", "country": "CA", "postalCode": "T1R1C3", "twitter": "None", "instagram": "None", "facebook": "None", "youtube": "None", "website": "None", "summary": "None", "logo": "None", "latitude": 50.56584900000006, "longitude": -111.89848399999994}, "868325895RR0001": {"name": "24 HOUR RELAY FOR THE KIDS SOCIETY", "designationCode": "A", "categoryCode": "03", "address": "3981 OAK STREET", "city": "VANCOUVER", "province": "BC", "country": "CA", "postalCode": "V6H4H5", "twitter": "None", "instagram": "None", "facebook": "None", "youtube": "None", "website": "None", "summary": "None", "logo": "None", "latitude": 49.25013370191587, "longitude": -123.12757204555918}, "891025348RR0001": {"name": "24 SQUADRON AIR CADET ASSOCIATION", "designationCode": "C", "categoryCode": "29", "address": "4402-55 STREET", "city": "RED DEER", "province": "AB", "country": "CA", "postalCode": "T4N2H1", "twitter": "None", "instagram": "None", "facebook": "None", "youtube": "None", "website": "None", "summary": "None", "logo": "None", "latitude": 52.27398044936225, "longitude": -113.7960214730798}, "861091783RR0001": {"name": "24-7 PRAYER CANADA INCORPORATED", "designationCode": "C", "categoryCode": "47", "address": "522 CORDOVA ST E", "city": "VANCOUVER", "province": "BC", "country": "CA", "postalCode": "V6A1L7", "twitter": "None", "instagram": "None", "facebook": "None", "youtube": "None", "website": "None", "summary": "None", "logo": "None", "latitude": 49.282127488458826, "longitude": -123.09279244463039}, "119310381RR0001": {"name": "25 (TORONTO) MEDICAL COMPANY UNIT FUND", "designationCode": "C", "categoryCode": "51", "address": "130 QUEEN STREET EAST         MOSS PARK ARMOURY", "city": "TORONTO", "province": "ON", "country": "CA", "postalCode": "M5A1R9", "twitter": "None", "instagram": "None", "facebook": "None", "youtube": "None", "website": "None", "summary": "None", "logo": "None", "latitude": 43.65378600000005, "longitude": -79.37304649999993}, "119310373RR0001": {"name": "25TH STREET THEATRE CENTRE INC", "designationCode": "C", "categoryCode": "22", "address": "209 - 220 20TH ST W", "city": "SASKATOON", "province": "SK", "country": "CA", "postalCode": "S7M0W9", "twitter": "None", "instagram": "None", "facebook": "None", "youtube": "None", "website": "None", "summary": "None", "logo": "None", "latitude": 52.126127999999994, "longitude": -106.67271149999999}, "874927908RR0001": {"name": "2562 ARMY CADET PARENT SOCIETY", "designationCode": "C", "categoryCode": "29", "address": "60A LEGION ROAD", "city": "CONCEPTION BAY SOUTH", "province": "NL", "country": "CA", "postalCode": "A1X6Y7", "twitter": "None", "instagram": "None", "facebook": "None", "youtube": "None", "website": "None", "summary": "None", "logo": "None", "latitude": 47.48973115213128, "longitude": -53.02486571536404}, "861812931RR0001": {"name": "257 RCACS PARENT COMMITTEE", "designationCode": "C", "categoryCode": "29", "address": "PO BOX 1253", "city": "LADYSMITH", "province": "BC", "country": "CA", "postalCode": "V9G1A8", "twitter": "None", "instagram": "None", "facebook": "None", "youtube": "None", "website": "None", "summary": "None", "logo": "None", "latitude": 48.99822900000005, "longitude": -123.82257049999993}, "119310415RR0001": {"name": "26 FIELD ARTILLERY ASSOCIATION INC", "designationCode": "C", "categoryCode": "51", "address": "205 MARQUIS DRIVE", "city": "BRANDON", "province": "MB", "country": "CA", "postalCode": "R7B3M7", "twitter": "None", "instagram": "None", "facebook": "None", "youtube": "None", "website": "None", "summary": "None", "logo": "None", "latitude": 49.821820543712846, "longitude": -99.97825856477601}, "832175699RR0001": {"name": "2618 Royal Canadian Army Cadet Corps Sponsoring Committee", "designationCode": "C", "categoryCode": "29", "address": "PO BOX 837", "city": "PRINCE GEORGE", "province": "BC", "country": "CA", "postalCode": "V2L4T7", "twitter": "None", "instagram": "None", "facebook": "None", "youtube": "None", "website": "None", "summary": "None", "logo": "None", "latitude": 53.91241800000006, "longitude": -122.74463149999994}, "836487488RR0001": {"name": "2641 Northwood Terrace Incorporated", "designationCode": "C", "categoryCode": "59", "address": "130 EILEEN STUBBS AVE.        SUITE 1 SOUTH", "city": "DARTMOUTH", "province": "NS", "country": "CA", "postalCode": "B3B2C4", "twitter": "None", "instagram": "None", "facebook": "None", "youtube": "None", "website": "None", "summary": "None", "logo": "None", "latitude": 44.696168736223235, "longitude": -63.57295919654976}, "130387665RR0014": {"name": "27 (City of London) RC (Air) Cadet Sqn.", "designationCode": "C", "categoryCode": "29", "address": "1760 ALDERSBROOK RD", "city": "LONDON", "province": "ON", "country": "CA", "postalCode": "N6G3E4", "twitter": "None", "instagram": "None", "facebook": "None", "youtube": "None", "website": "None", "summary": "None", "logo": "None", "latitude": 43.01349886733223, "longitude": -81.32137383484344}, "898846217RR0001": {"name": "2890 PARENT SUPPORT SOCIETY OF SLAVE LAKE", "designationCode": "C", "categoryCode": "29", "address": "BOX 736", "city": "SLAVE LAKE", "province": "AB", "country": "CA", "postalCode": "T0G2A0", "twitter": "None", "instagram": "None", "facebook": "None", "youtube": "None", "website": "None", "summary": "None", "logo": "None", "latitude": 55.28284800000006, "longitude": -114.77156299999993}, "130387665RR0084": {"name": "291 Blenheim Bomber Squadron Royal Canadian Air Cadets Sponsoring Committee", "designationCode": "C", "categoryCode": "29", "address": "594 PARK AVE WEST", "city": "CHATHAM", "province": "ON", "country": "CA", "postalCode": "N7M1X2", "twitter": "None", "instagram": "None", "facebook": "None", "youtube": "None", "website": "None", "summary": "None", "logo": "None", "latitude": 42.38449060808485, "longitude": -82.19515685648351}, "130387665RR0097": {"name": "294 Chatham-Kinsmen Royal Canadian Air Cadets Squadron Sponsoring Committee", "designationCode": "C", "categoryCode": "29", "address": "193 ST. CLAIR STREET", "city": "CHATHAM", "province": "ON", "country": "CA", "postalCode": "N7L3J4", "twitter": "None", "instagram": "None", "facebook": "None", "youtube": "None", "website": "None", "summary": "None", "logo": "None", "latitude": 42.410525615326875, "longitude": -82.19430403468182}, "130387665RR0015": {"name": "296 City of Cambridge Squadron, Royal Canadian Air Cadets, Squadron Sponsoring Committee", "designationCode": "C", "categoryCode": "29", "address": "PO BOX 1733 STN GALT", "city": "CAMBRIDGE", "province": "ON", "country": "CA", "postalCode": "N1R7G8", "twitter": "None", "instagram": "None", "facebook": "None", "youtube": "None", "website": "None", "summary": "None", "logo": "None", "latitude": 43.37412947066547, "longitude": -80.30553925358247}, "895494227RR0001": {"name": "3 CM (CROSS CULTURAL CHRISTIAN MISSIONS SOCIETY)", "designationCode": "C", "categoryCode": "47", "address": "16 WEST MOORE PLACE", "city": "COCHRANE", "province": "AB", "country": "CA", "postalCode": "T4C1M7", "twitter": "None", "instagram": "None", "facebook": "None", "youtube": "None", "website": "None", "summary": "None", "logo": "None", "latitude": 51.19328047403208, "longitude": -114.49994296684739}, "819682246RR0001": {"name": "3:Sixteen Incorporated", "designationCode": "C", "categoryCode": "57", "address": "PO BOX 39", "city": "CREMONA", "province": "AB", "country": "CA", "postalCode": "T0M0R0", "twitter": "None", "instagram": "None", "facebook": "None", "youtube": "None", "website": "None", "summary": "None", "logo": "None", "latitude": 51.55010000000004, "longitude": -114.48530999999997}, "859394629RR0001": {"name": "3e batterie d'artillerie de campagne de Montr\u00e9al / 3rd (Montr\u00e9al) Field Battery of Artillery", "designationCode": "C", "categoryCode": "51", "address": "4185 CH DE LA C\u00d4TE-DES-NEIGES", "city": "MONTR\u00c9AL", "province": "QC", "country": "CA", "postalCode": "H3H1X2", "twitter": "None", "instagram": "None", "facebook": "None", "youtube": "None", "website": "None", "summary": "None", "logo": "None", "latitude": 45.49532722127599, "longitude": -73.60259531781963}, "108236522RR0001": {"name": "3H CRAFTWORKS SOCIETY", "designationCode": "C", "categoryCode": "09", "address": "340 - 1275 VENABLES ST", "city": "VANCOUVER", "province": "BC", "country": "CA", "postalCode": "V6A2E4", "twitter": "None", "instagram": "None", "facebook": "None", "youtube": "None", "website": "None", "summary": "None", "logo": "None", "latitude": 49.276857453377126, "longitude": -123.07770682772468}, "126456078RR0001": {"name": "3HO FOUNDATION SOCIETY", "designationCode": "A", "categoryCode": "19", "address": "2662 W 4TH AVE", "city": "VANCOUVER", "province": "BC", "country": "CA", "postalCode": "V6R1P7", "twitter": "None", "instagram": "None", "facebook": "None", "youtube": "None", "website": "None", "summary": "None", "logo": "None", "latitude": 49.26823662652807, "longitude": -123.1656451180474}, "806145280RR0001": {"name": "33 CER Foundation", "designationCode": "C", "categoryCode": "50", "address": "93 MCLENNAN WAY", "city": "KANATA", "province": "ON", "country": "CA", "postalCode": "K2L2T3", "twitter": "None", "instagram": "None", "facebook": "None", "youtube": "None", "website": "None", "summary": "None", "logo": "None", "latitude": 45.29667631528082, "longitude": -75.89218180350849}, "886555077RR0001": {"name": "33E GROUPE SCOUT ST-DONAT INC.", "designationCode": "C", "categoryCode": "29", "address": "3025, RUE DESAUTELS", "city": "MONTREAL", "province": "QC", "country": "CA", "postalCode": "H1N3B8", "twitter": "None", "instagram": "None", "facebook": "None", "youtube": "None", "website": "None", "summary": "None", "logo": "None", "latitude": 45.5835228259853, "longitude": -73.53948443935026}, "130387665RR0078": {"name": "330 Danforth Tech Sqn R.C (Air) Sponsoring Committee", "designationCode": "C", "categoryCode": "29", "address": "PO BOX 30062, WOODBINE HEIGHTSPOSTAL OUTLET 1500 WOODBINE AV", "city": "TORONTO", "province": "ON", "country": "CA", "postalCode": "M4C5J2", "twitter": "None", "instagram": "None", "facebook": "None", "youtube": "None", "website": "None", "summary": "None", "logo": "None", "latitude": 43.699334218420056, "longitude": -79.31870553834581}, "125593657RR0288": {"name": "334 Oromocto Squadron, Royal Canadian Air Cadets", "designationCode": "C", "categoryCode": "29", "address": "POST OFFICE BOX 20143", "city": "OROMOCTON", "province": "NB", "country": "CA", "postalCode": "E2V2R6", "twitter": "None", "instagram": "None", "facebook": "None", "youtube": "None", "website": "None", "summary": "None", "logo": "None", "latitude": 45.84368400000005, "longitude": -66.48019099999993}, "891431264RR0001": {"name": "340715 ALBERTA SOCIETY", "designationCode": "C", "categoryCode": "13", "address": "9609-123 AVE", "city": "GRANDE PRAIRIE", "province": "AB", "country": "CA", "postalCode": "T8V6P6", "twitter": "None", "instagram": "None", "facebook": "None", "youtube": "None", "website": "None", "summary": "None", "logo": "None", "latitude": 55.19232052510254, "longitude": -118.78293463780366}, "130387665RR0060": {"name": "351 SILVER STAR AIR CADET SQUADRON", "designationCode": "C", "categoryCode": "29", "address": "5694 HWY 7, UNIT 4            PO BOX 132", "city": "MARKHAM", "province": "ON", "country": "CA", "postalCode": "L3P0E4", "twitter": "None", "instagram": "None", "facebook": "None", "youtube": "None", "website": "None", "summary": "None", "logo": "None", "latitude": 43.87119429489665, "longitude": -79.26849823775547}, "872731351RR0001": {"name": "3545261 Canada Fondation", "designationCode": "C", "categoryCode": "09", "address": "222 HENRI BOURASSA EST        SUITE 39", "city": "MONTREAL", "province": "QC", "country": "CA", "postalCode": "H3L1B9", "twitter": "None", "instagram": "None", "facebook": "None", "youtube": "None", "website": "None", "summary": "None", "logo": "None", "latitude": 45.552313257833745, "longitude": -73.66965137313194}, "834693434RR0001": {"name": "36 (Nfld) Service Battalion Association", "designationCode": "C", "categoryCode": "21", "address": "240 CANADA DRIVE", "city": "ST. JOHN'S", "province": "NL", "country": "CA", "postalCode": "A1E4A4", "twitter": "None", "instagram": "None", "facebook": "None", "youtube": "None", "website": "None", "summary": "None", "logo": "None", "latitude": 47.52628470220432, "longitude": -52.77573202651617}, "812772788RR0001": {"name": "360 Stand Inc.", "designationCode": "C", "categoryCode": "20", "address": "PO BOX 1324 STN MAIN", "city": "SAINT JOHN", "province": "NB", "country": "CA", "postalCode": "E2L4H8", "twitter": "None", "instagram": "None", "facebook": "None", "youtube": "None", "website": "None", "summary": "None", "logo": "None", "latitude": 45.274774384642015, "longitude": -66.0653109102771}, "897036620RR0001": {"name": "360Kids Support Services", "designationCode": "C", "categoryCode": "09", "address": "C - 10415 YONGE ST", "city": "RICHMOND HILL", "province": "ON", "country": "CA", "postalCode": "L4C0Z3", "twitter": "None", "instagram": "None", "facebook": "None", "youtube": "None", "website": "None", "summary": "None", "logo": "None", "latitude": 43.88131064446877, "longitude": -79.43953581066452}, "130387665RR0025": {"name": "364 Lancaster Squadron Sponsoring Committee", "designationCode": "C", "categoryCode": "29", "address": "2600 AIRPORT RD", "city": "WINDSOR", "province": "ON", "country": "CA", "postalCode": "N8V1A1", "twitter": "None", "instagram": "None", "facebook": "None", "youtube": "None", "website": "None", "summary": "None", "logo": "None", "latitude": 42.268323203628604, "longitude": -82.96827279139808}, "818405581RR0001": {"name": "365Give Society", "designationCode": "C", "categoryCode": "21", "address": "1135 KEITH ROAD", "city": "WEST VANCOUVER", "province": "BC", "country": "CA", "postalCode": "V7T2M7", "twitter": "None", "instagram": "None", "facebook": "None", "youtube": "None", "website": "None", "summary": "None", "logo": "None", "latitude": 49.32838450822297, "longitude": -123.14709883804609}, "130387665RR0095": {"name": "379 Glengarry Mustangs Royal Canadian Air Cadets Squadron Sponsoring Committee", "designationCode": "C", "categoryCode": "29", "address": "236  MAIN STREET SOUTH        POST OFFICE BOX 1082", "city": "ALEXANDRIA", "province": "ON", "country": "CA", "postalCode": "K0C1A0", "twitter": "None", "instagram": "None", "facebook": "None", "youtube": "None", "website": "None", "summary": "None", "logo": "None", "latitude": 45.30483858090486, "longitude": -74.63151646947311}, "895737716RR0001": {"name": "3858278 Canada Foundation", "designationCode": "A", "categoryCode": "43", "address": "314-180 SHAW STREET", "city": "TORONTO", "province": "ON", "country": "CA", "postalCode": "M6J2W5", "twitter": "None", "instagram": "None", "facebook": "None", "youtube": "None", "website": "None", "summary": "None", "logo": "None"}, "888078425RR0001": {"name": "3885136 MANITOBA ASSOCIATION INC.", "designationCode": "C", "categoryCode": "09", "address": "1325 ERIN STREET", "city": "WINNIPEG", "province": "MB", "country": "CA", "postalCode": "R3E3R6", "twitter": "None", "instagram": "None", "facebook": "None", "youtube": "None", "website": "None", "summary": "None", "logo": "None", "latitude": 49.898788596168295, "longitude": -97.1839816807667}, "865415632RR0001": {"name": "389 MAIN STREET HERITAGE CORPORATION", "designationCode": "C", "categoryCode": "52", "address": "389 MAIN ST", "city": "WINNIPEG", "province": "MB", "country": "CA", "postalCode": "R3B1A6", "twitter": "None", "instagram": "None", "facebook": "None", "youtube": "None", "website": "None", "summary": "None", "logo": "None", "latitude": 49.89624063895752, "longitude": -97.13852368440206}, "877626028RR0001": {"name": "3925260 MANITOBA ASSOCIATION INC", "designationCode": "C", "categoryCode": "21", "address": "75 TERRACON PL", "city": "WINNIPEG", "province": "MB", "country": "CA", "postalCode": "R2J4B3", "twitter": "None", "instagram": "None", "facebook": "None", "youtube": "None", "website": "None", "summary": "None", "logo": "None", "latitude": 49.88882220052307, "longitude": -97.05975404552811}, "132314188RR0002": {"name": "396 SQUADRON ROYAL CANADIAN AIR CADET SPONSORING COMMITTEE", "designationCode": "C", "categoryCode": "29", "address": "P.O. BOX 21030                SPRUCELAND RPO", "city": "PRINCE GEORGE", "province": "BC", "country": "CA", "postalCode": "V2M7A5", "twitter": "None", "instagram": "None", "facebook": "None", "youtube": "None", "website": "None", "summary": "None", "logo": "None", "latitude": 53.912270000000035, "longitude": -122.78225999999995}, "721090694RR0001": {"name": "4 the Kids Foundation", "designationCode": "B", "categoryCode": "03", "address": "155 QUEEN STREET EAST", "city": "MISSISSAUGA", "province": "ON", "country": "CA", "postalCode": "L5G1N2", "twitter": "None", "instagram": "None", "facebook": "None", "youtube": "None", "website": "None", "summary": "None", "logo": "None", "latitude": 43.56092425561203, "longitude": -79.58131070217566}, "844442350RR0001": {"name": "4 HIS Ministry", "designationCode": "C", "categoryCode": "49", "address": "248 CHRISTOPHER STREET", "city": "STAYNER", "province": "ON", "country": "CA", "postalCode": "L0M1S0", "twitter": "None", "instagram": "None", "facebook": "None", "youtube": "None", "website": "None", "summary": "None", "logo": "None", "latitude": 44.414360139621344, "longitude": -80.08790665543304}, "873827190RR0001": {"name": "4 WING MILITARY FAMILY RESOURCE CENTRE SOCIETY", "designationCode": "C", "categoryCode": "09", "address": "P. O. BOX 5260                STATION FORCES", "city": "COLD LAKE", "province": "AB", "country": "CA", "postalCode": "T9M2C3", "twitter": "None", "instagram": "None", "facebook": "None", "youtube": "None", "website": "None", "summary": "None", "logo": "None", "latitude": 54.46502700000005, "longitude": -110.17379149999994}, "887651024RR0001": {"name": "4-C'S FOUNDATION", "designationCode": "B", "categoryCode": "23", "address": "PO BOX 31119 RPO GLADSTONE", "city": "HALIFAX", "province": "NS", "country": "CA", "postalCode": "B3K5T9", "twitter": "None", "instagram": "None", "facebook": "None", "youtube": "None", "website": "None", "summary": "None", "logo": "None", "latitude": 44.65368668731068, "longitude": -63.59844402681182}, "886318807RR0001": {"name": "4-H British Columbia Foundation", "designationCode": "A", "categoryCode": "23", "address": "2743-30 STREET", "city": "VERNON", "province": "BC", "country": "CA", "postalCode": "V1T5C6", "twitter": "None", "instagram": "None", "facebook": "None", "youtube": "None", "website": "None", "summary": "None", "logo": "None", "latitude": 50.26164364457326, "longitude": -119.27065172440145}, "108238130RR0001": {"name": "4-H FOUNDATION OF ALBERTA", "designationCode": "C", "categoryCode": "56", "address": "RR 1", "city": "WESTEROSE", "province": "AB", "country": "CA", "postalCode": "T0C2V0", "twitter": "None", "instagram": "None", "facebook": "None", "youtube": "None", "website": "None", "summary": "None", "logo": "None", "latitude": 52.95977000000005, "longitude": -114.02483999999998}, "888755790RR0001": {"name": "4-H MEMORIAL BURSARY", "designationCode": "C", "categoryCode": "21", "address": "510 - 9TH ST NW", "city": "PORTAGE LA PRAIRIE", "province": "MB", "country": "CA", "postalCode": "R1N2P6", "twitter": "None", "instagram": "None", "facebook": "None", "youtube": "None", "website": "None", "summary": "None", "logo": "None", "latitude": 49.9814440418107, "longitude": -98.30162739665612}, "795837491RR0001": {"name": "4th Wall Music", "designationCode": "C", "categoryCode": "22", "address": "1191 KILDARE RD,", "city": "WINDSOR", "province": "ON", "country": "CA", "postalCode": "N8Y3H6", "twitter": "None", "instagram": "None", "facebook": "None", "youtube": "None", "website": "None", "summary": "None", "logo": "None", "latitude": 42.31460869802071, "longitude": -83.00801819750112}, "811227982RR0001": {"name": "4Grow", "designationCode": "C", "categoryCode": "09", "address": "2885 JANE STREET, UNIT 4", "city": "TORONTO", "province": "ON", "country": "CA", "postalCode": "M3N2J6", "twitter": "None", "instagram": "None", "facebook": "None", "youtube": "None", "website": "None", "summary": "None", "logo": "None", "latitude": 43.751709937788995, "longitude": -79.51621792843336}, "898870530RR0001": {"name": "4R'S EDUCATION CENTRE (SOC.)", "designationCode": "C", "categoryCode": "20", "address": "581 MCPHEE AVE", "city": "COURTENAY", "province": "BC", "country": "CA", "postalCode": "V9N2Z7", "twitter": "None", "instagram": "None", "facebook": "None", "youtube": "None", "website": "None", "summary": "None", "logo": "None", "latitude": 49.68729472522938, "longitude": -125.0055831319753}, "137622866RR0001": {"name": "4TH LINE THEATRE COMPANY OF PETERBOROUGH", "designationCode": "C", "categoryCode": "22", "address": "PO BOX 403", "city": "MILLBROOK", "province": "ON", "country": "CA", "postalCode": "L0A1G0", "twitter": "None", "instagram": "None", "facebook": "None", "youtube": "None", "website": "None", "summary": "None", "logo": "None", "latitude": 44.12605200000006, "longitude": -78.43440499999993}, "131738361RR0001": {"name": "40 MILE CHRISTIAN EDUCATION SOCIETY", "designationCode": "C", "categoryCode": "20", "address": "BOX 10370", "city": "BOW ISLAND", "province": "AB", "country": "CA", "postalCode": "T0K0G0", "twitter": "None", "instagram": "None", "facebook": "None", "youtube": "None", "website": "None", "summary": "None", "logo": "None", "latitude": 49.502780370958696, "longitude": -111.79166408625858}, "119310639RR0001": {"name": "411 SENIORS CENTRE SOCIETY (1977)", "designationCode": "C", "categoryCode": "09", "address": "704-333 TERMINAL AVE", "city": "VANCOUVER", "province": "BC", "country": "CA", "postalCode": "V6A4C1", "twitter": "None", "instagram": "None", "facebook": "None", "youtube": "None", "website": "None", "summary": "None", "logo": "None", "latitude": 49.2722023183679, "longitude": -123.09579891159332}, "118932813RR0001": {"name": "416 COMMUNITY SUPPORT FOR WOMEN", "designationCode": "C", "categoryCode": "01", "address": "416 DUNDAS STREET EAST", "city": "TORONTO", "province": "ON", "country": "CA", "postalCode": "M5A2A8", "twitter": "None", "instagram": "None", "facebook": "None", "youtube": "None", "website": "None", "summary": "None", "logo": "None", "latitude": 43.65924620511851, "longitude": -79.36698823633789}, "130672934RR0001": {"name": "43 HOUSING SOCIETY", "designationCode": "C", "categoryCode": "09", "address": "200-25 KING EDWARD ST", "city": "COQUITLAM", "province": "BC", "country": "CA", "postalCode": "V3K4S8", "twitter": "None", "instagram": "None", "facebook": "None", "youtube": "None", "website": "None", "summary": "None", "logo": "None", "latitude": 49.23147071134628, "longitude": -122.8614347901049}, "808885412RR0001": {"name": "44 SARNIA IMPERIAL SQUADRON SPONSORING COMMITTEE", "designationCode": "C", "categoryCode": "29", "address": "333 TALFOURD STREET", "city": "SARNIA", "province": "ON", "country": "CA", "postalCode": "N7T1P7", "twitter": "None", "instagram": "None", "facebook": "None", "youtube": "None", "website": "None", "summary": "None", "logo": "None", "latitude": 42.96641690991274, "longitude": -82.39809919612028}, "130915499RR0001": {"name": "442534 ONTARIO INCORPORATED", "designationCode": "C", "categoryCode": "01", "address": "25 JOHN ST W", "city": "OSHAWA", "province": "ON", "country": "CA", "postalCode": "L1H8J5", "twitter": "None", "instagram": "None", "facebook": "None", "youtube": "None", "website": "None", "summary": "None", "logo": "None", "latitude": 43.8938178087313, "longitude": -78.86310600830988}, "835423716RR0001": {"name": "45e groupe scout et guide de Saint-Yves", "designationCode": "C", "categoryCode": "29", "address": "2470 RUE TRIQUET", "city": "QU\u00c9BEC", "province": "QC", "country": "CA", "postalCode": "G1W1E2", "twitter": "None", "instagram": "None", "facebook": "None", "youtube": "None", "website": "None", "summary": "None", "logo": "None", "latitude": 46.77225388680793, "longitude": -71.2730662186216}, "865554257RR0001": {"name": "4550315 MANITOBA ASSOCIATION INC.", "designationCode": "C", "categoryCode": "01", "address": "BOX 540", "city": "TREHERNE", "province": "MB", "country": "CA", "postalCode": "R0G2V0", "twitter": "None", "instagram": "None", "facebook": "None", "youtube": "None", "website": "None", "summary": "None", "logo": "None", "latitude": 49.635710000000074, "longitude": -98.69734999999997}, "863024444RR0001": {"name": "4606095 MANITOBA ASSOCIATION INC.", "designationCode": "C", "categoryCode": "39", "address": "81 HENDERSON HWY", "city": "WINNIPEG", "province": "MB", "country": "CA", "postalCode": "R2L1L2", "twitter": "None", "instagram": "None", "facebook": "None", "youtube": "None", "website": "None", "summary": "None", "logo": "None", "latitude": 49.91028142907847, "longitude": -97.11775461806816}, "106864242RR0006": {"name": "47th Street Church of God", "designationCode": "C", "categoryCode": "39", "address": "5227 47 STREET", "city": "BARRHEAD", "province": "AB", "country": "CA", "postalCode": "T7N1H3", "twitter": "None", "instagram": "None", "facebook": "None", "youtube": "None", "website": "None", "summary": "None", "logo": "None", "latitude": 54.12264300000001, "longitude": -114.39711360346855}, "812184349RR0001": {"name": "479 Foundation", "designationCode": "B", "categoryCode": "03", "address": "34 ALEXANDRA WOOD", "city": "TORONTO", "province": "ON", "country": "CA", "postalCode": "M5N2S1", "twitter": "None", "instagram": "None", "facebook": "None", "youtube": "None", "website": "None", "summary": "None", "logo": "None", "latitude": 43.712225351087845, "longitude": -79.42442861353784}, "132129495RR0001": {"name": "48TH HIGHLANDERS TRUSTS,", "designationCode": "C", "categoryCode": "55", "address": "BOX 762                       169 JOHN ST. WEST", "city": "NIAGARA ON THE LAKE", "province": "ON", "country": "CA", "postalCode": "L0S1J0", "twitter": "None", "instagram": "None", "facebook": "None", "youtube": "None", "website": "None", "summary": "None", "logo": "None", "latitude": 43.25067283847878, "longitude": -79.0825005113683}, "889263265RR0001": {"name": "5 HV CLUB (HERATAGE HELP HEALTH HOPE HAPPINESS AND VOICE)", "designationCode": "C", "categoryCode": "56", "address": "BOX 47", "city": "HYLO", "province": "AB", "country": "CA", "postalCode": "T0A1Z0", "twitter": "None", "instagram": "None", "facebook": "None", "youtube": "None", "website": "None", "summary": "None", "logo": "None", "latitude": 54.67479000000003, "longitude": -112.20772999999997}, "889280103RR0001": {"name": "5 STONES CHURCH", "designationCode": "C", "categoryCode": "39", "address": "612 COLUMBIA ST", "city": "NEW WESTMINSTER", "province": "BC", "country": "CA", "postalCode": "V3M1A5", "twitter": "None", "instagram": "None", "facebook": "None", "youtube": "None", "website": "None", "summary": "None", "logo": "None", "latitude": 49.202968324298645, "longitude": -122.90814928947685}, "855378477RR0001": {"name": "5-PENNY NEW MUSIC CONCERTS", "designationCode": "C", "categoryCode": "22", "address": "439 KAIREEN ST", "city": "SUDBURY", "province": "ON", "country": "CA", "postalCode": "P3E5T3", "twitter": "None", "instagram": "None", "facebook": "None", "youtube": "None", "website": "None", "summary": "None", "logo": "None", "latitude": 46.44687194806417, "longitude": -80.98249653367222}, "863170395RR0001": {"name": "5EME GROUPE SCOUTS ST-JEAN-SUR-RICHELIEU INC", "designationCode": "C", "categoryCode": "29", "address": "885 RUE PLAZA", "city": "SAINT-JEAN-SUR-RICHELIEU", "province": "QC", "country": "CA", "postalCode": "J3B8P8", "twitter": "None", "instagram": "None", "facebook": "None", "youtube": "None", "website": "None", "summary": "None", "logo": "None", "latitude": 45.30799633334289, "longitude": -73.29736785071245}, "890765845RR0001": {"name": "5T6 CIVILS SCHOLARSHIP FUND, THE", "designationCode": "C", "categoryCode": "21", "address": "54 ABERFOYLE MILL CRES", "city": "PUSLINCH", "province": "ON", "country": "CA", "postalCode": "N0B2J0", "twitter": "None", "instagram": "None", "facebook": "None", "youtube": "None", "website": "None", "summary": "None", "logo": "None", "latitude": 43.469493655822916, "longitude": -80.14129840907543}, "842385940RR0001": {"name": "5101026 MANITOBA ASSOCIATION INC.", "designationCode": "C", "categoryCode": "11", "address": "524 MAIN STREET, P.O. BOX 268", "city": "SWAN RIVER", "province": "MB", "country": "CA", "postalCode": "R0L1Z0", "twitter": "None", "instagram": "None", "facebook": "None", "youtube": "None", "website": "None", "summary": "None", "logo": "None", "latitude": 52.105233874998206, "longitude": -101.27019602940605}, "832344147RR0001": {"name": "5144175 MANITOBA ASSOCIATION INC", "designationCode": "C", "categoryCode": "56", "address": "BOX 114", "city": "BLUMENORT", "province": "MB", "country": "CA", "postalCode": "R0A0C0", "twitter": "None", "instagram": "None", "facebook": "None", "youtube": "None", "website": "None", "summary": "None", "logo": "None", "latitude": 49.604250000000036, "longitude": -96.69016999999997}, "825484744RR0001": {"name": "5169268 MANITOBA ASSOCIATION INC.", "designationCode": "C", "categoryCode": "09", "address": "300-245 MCDERMOT AVE", "city": "WINNIPEG", "province": "MB", "country": "CA", "postalCode": "R3B0S6", "twitter": "None", "instagram": "None", "facebook": "None", "youtube": "None", "website": "None", "summary": "None", "logo": "None", "latitude": 49.897426902590986, "longitude": -97.14132111128748}, "119310761RR0001": {"name": "519 CHURCH STREET COMMUNITY CENTRE", "designationCode": "C", "categoryCode": "56", "address": "519 CHURCH ST", "city": "TORONTO", "province": "ON", "country": "CA", "postalCode": "M4Y2C9", "twitter": "None", "instagram": "None", "facebook": "None", "youtube": "None", "website": "None", "summary": "None", "logo": "None", "latitude": 43.66647578296492, "longitude": -79.38122714568085}, "130387665RR0094": {"name": "532 Maitland Royal Canadian Air Cadets Squadron Sponsoring Committee", "designationCode": "C", "categoryCode": "29", "address": "P.O. BOX 154", "city": "GODERICH", "province": "ON", "country": "CA", "postalCode": "N7A3Z2", "twitter": "None", "instagram": "None", "facebook": "None", "youtube": "None", "website": "None", "summary": "None", "logo": "None", "latitude": 43.74263400000005, "longitude": -81.70775449999994}, "130387665RR0082": {"name": "547 \"Canuck\" North Bay Squadron R.C. (Air) Cadets SponsoringCommittee", "designationCode": "C", "categoryCode": "29", "address": "406 FIRST AVE. WEST", "city": "NORTH BAY", "province": "ON", "country": "CA", "postalCode": "P1B3C4", "twitter": "None", "instagram": "None", "facebook": "None", "youtube": "None", "website": "None", "summary": "None", "logo": "None", "latitude": 46.316438580904844, "longitude": -79.4645642541984}, "860187780RR0001": {"name": "552 KEY CITY SPONSORING COMMITTEE SOCIETY", "designationCode": "C", "categoryCode": "29", "address": "P.O. BOX 105", "city": "CRANBROOK", "province": "BC", "country": "CA", "postalCode": "V1C4H6", "twitter": "None", "instagram": "None", "facebook": "None", "youtube": "None", "website": "None", "summary": "None", "logo": "None", "latitude": 49.513515000000055, "longitude": -115.76875399999994}, "836488486RR0001": {"name": "5534 Almon Street Incorporated", "designationCode": "C", "categoryCode": "59", "address": "130 EILEEN STUBBS AVENUE      SUITE 1 SOUTH", "city": "DARTMOUTH", "province": "NS", "country": "CA", "postalCode": "B3B2C4", "twitter": "None", "instagram": "None", "facebook": "None", "youtube": "None", "website": "None", "summary": "None", "logo": "None", "latitude": 44.696168736223235, "longitude": -63.57295919654976}, "897466504RR0001": {"name": "561 OSPREY SPONSORING COMMITTEE", "designationCode": "C", "categoryCode": "29", "address": "PO BOX 896 STN MAIN", "city": "NELSON", "province": "BC", "country": "CA", "postalCode": "V1L6A5", "twitter": "None", "instagram": "None", "facebook": "None", "youtube": "None", "website": "None", "summary": "None", "logo": "None", "latitude": 49.49754900000005, "longitude": -117.28882249999992}, "125593657RR0124": {"name": "566 CANORA AIR CADET SQUADRON (CIVILAN SPONSORING COMMITTEE)", "designationCode": "C", "categoryCode": "29", "address": "PO BOX 1765", "city": "CANORA", "province": "SK", "country": "CA", "postalCode": "S0A0L0", "twitter": "None", "instagram": "None", "facebook": "None", "youtube": "None", "website": "None", "summary": "None", "logo": "None", "latitude": 51.62535661313478, "longitude": -102.4443087080291}, "892887969RR0001": {"name": "568388 ALBERTA SOCIETY", "designationCode": "C", "categoryCode": "09", "address": "BOX 1590", "city": "GRANDE CACHE", "province": "AB", "country": "CA", "postalCode": "T0E0Y0", "twitter": "None", "instagram": "None", "facebook": "None", "youtube": "None", "website": "None", "summary": "None", "logo": "None", "latitude": 53.888100000000065, "longitude": -119.11633999999998}, "132378852RR0001": {"name": "58 Legion Court Inc.", "designationCode": "C", "categoryCode": "09", "address": "6 HOVEY ROAD                  P O BOX 13", "city": "QUISPAMSIS", "province": "NB", "country": "CA", "postalCode": "E2E3W2", "twitter": "None", "instagram": "None", "facebook": "None", "youtube": "None", "website": "None", "summary": "None", "logo": "None", "latitude": 45.41685631701158, "longitude": -65.959181691645}, "130387665RR0092": {"name": "599 Escadron Marc Garneau Royal Canadian Air Cadets Comit\u00e9 Repondant", "designationCode": "C", "categoryCode": "29", "address": "1248 BLACKMAPLE DRIVE", "city": "LONDON", "province": "ON", "country": "CA", "postalCode": "N5Y5V4", "twitter": "None", "instagram": "None", "facebook": "None", "youtube": "None", "website": "None", "summary": "None", "logo": "None", "latitude": 43.02964900473187, "longitude": -81.22512957744239}, "896380722RR0001": {"name": "6 FIELD ENGINEER SQUADRON MUSEUM ASSOCIATION", "designationCode": "C", "categoryCode": "50", "address": "1513 FORBES AVE", "city": "NORTH VANCOUVER", "province": "BC", "country": "CA", "postalCode": "V7M2Y4", "twitter": "None", "instagram": "None", "facebook": "None", "youtube": "None", "website": "None", "summary": "None", "logo": "None", "latitude": 49.322374466919584, "longitude": -123.08481400814921}, "119310829RR0001": {"name": "6E JOUR INC", "designationCode": "C", "categoryCode": "09", "address": "232 RUE FERE", "city": "ST-EUSTACHE", "province": "QC", "country": "CA", "postalCode": "J7R2T8", "twitter": "None", "instagram": "None", "facebook": "None", "youtube": "None", "website": "None", "summary": "None", "logo": "None", "latitude": 45.55674614042939, "longitude": -73.89902114697892}, "803342344RR0001": {"name": "60 MILLION GIRLS/ 60 MILLIONS DE FILLES", "designationCode": "A", "categoryCode": "03", "address": "5745 PLACE TURCOT", "city": "MONTREAL", "province": "QC", "country": "CA", "postalCode": "H4C1W1", "twitter": "None", "instagram": "None", "facebook": "None", "youtube": "None", "website": "None", "summary": "None", "logo": "None", "latitude": 45.46305743496418, "longitude": -73.60194726830706}, "125593657RR0119": {"name": "604 (MOOSE) ROYAL CANADIAN AIRCADET SQUADRON SPONSORING ASSOCIATION", "designationCode": "C", "categoryCode": "29", "address": "801-11 STREET S.W MEWATA", "city": "CALGARY", "province": "AB", "country": "CA", "postalCode": "T2P2C4", "twitter": "None", "instagram": "None", "facebook": "None", "youtube": "None", "website": "None", "summary": "None", "logo": "None", "latitude": 51.047158921086655, "longitude": -114.08861521083132}, "130387665RR0081": {"name": "608 Duke of Edinburgh Squadron R.C. (Air) Cadets Sponsoring Committee", "designationCode": "C", "categoryCode": "29", "address": "PO BOX 22022", "city": "BELLEVILLE", "province": "ON", "country": "CA", "postalCode": "K8N5V7", "twitter": "None", "instagram": "None", "facebook": "None", "youtube": "None", "website": "None", "summary": "None", "logo": "None", "latitude": 44.16104400000006, "longitude": -77.38183249999993}, "130387665RR0008": {"name": "611 HARVARD MARK 2 SQUADRON ROYAL CANADIAN AIR CADETS SPONSORING COMMITTEE", "designationCode": "C", "categoryCode": "29", "address": "305 QUEEN ST", "city": "DUNNVILLE", "province": "ON", "country": "CA", "postalCode": "N1A1J1", "twitter": "None", "instagram": "None", "facebook": "None", "youtube": "None", "website": "None", "summary": "None", "logo": "None", "latitude": 42.9023074899011, "longitude": -79.61483938911654}, "843182197RR0001": {"name": "614 Church", "designationCode": "C", "categoryCode": "34", "address": "2 OVERLEA BLVD", "city": "TORONTO", "province": "ON", "country": "CA", "postalCode": "M4H1P4", "twitter": "None", "instagram": "None", "facebook": "None", "youtube": "None", "website": "None", "summary": "None", "logo": "None", "latitude": 43.70240076493152, "longitude": -79.35266780353714}, "130387665RR0017": {"name": "618 Queen City Squadron Air Cadets Sponsoring Committee", "designationCode": "C", "categoryCode": "29", "address": "659 LAKE SHORE BLVD W", "city": "TORONTO", "province": "ON", "country": "CA", "postalCode": "M5V1A7", "twitter": "None", "instagram": "None", "facebook": "None", "youtube": "None", "website": "None", "summary": "None", "logo": "None", "latitude": 43.63564203481239, "longitude": -79.4034597462275}, "130387665RR0085": {"name": "62 Grimsby Phantom Squadron, Royal Canadian Air Cadets Sponsoring Committee", "designationCode": "C", "categoryCode": "29", "address": "PO BOX 30004, EAST MAIN PO    150 MAIN ST EAST", "city": "GRIMSBY", "province": "ON", "country": "CA", "postalCode": "L3M0A3", "twitter": "None", "instagram": "None", "facebook": "None", "youtube": "None", "website": "None", "summary": "None", "logo": "None", "latitude": 43.188138946938984, "longitude": -79.54462750571281}, "123613523RR0014": {"name": "630 ROTARY BEAUPORT", "designationCode": "C", "categoryCode": "29", "address": "CP 57568 CSP COURVILLE", "city": "QUEBEC", "province": "QC", "country": "CA", "postalCode": "G1C7W3", "twitter": "None", "instagram": "None", "facebook": "None", "youtube": "None", "website": "None", "summary": "None", "logo": "None", "latitude": 46.88185097135036, "longitude": -71.15825378088505}, "125593657RR0042": {"name": "650 VANIER SQUADRON, ROYAL CANADIAN AIR CADETS", "designationCode": "C", "categoryCode": "29", "address": "PO BOX 865 STN MAIN", "city": "MONCTON", "province": "NB", "country": "CA", "postalCode": "E1C8N6", "twitter": "None", "instagram": "None", "facebook": "None", "youtube": "None", "website": "None", "summary": "None", "logo": "None", "latitude": 46.08872243840578, "longitude": -64.77642630797114}, "828239020RR0001": {"name": "676 KITTYHAWK SPONSORING COMMITEE SOCIETY", "designationCode": "C", "categoryCode": "29", "address": "1979 DE HAVILLAND WAY", "city": "SIDNEY", "province": "BC", "country": "CA", "postalCode": "V8L5V5", "twitter": "None", "instagram": "None", "facebook": "None", "youtube": "None", "website": "None", "summary": "None", "logo": "None", "latitude": 48.64288508495254, "longitude": -123.41768423776772}}