{"139024889RR0001": {"name": "CYPRESS CHARITABLE TRUST", "designationCode": "B", "categoryCode": "39", "address": "PO BOX 98", "city": "MAPLE CREEK", "province": "SK", "country": "CA", "postalCode": "S0N1N0", "twitter": "None", "instagram": "None", "facebook": "None", "youtube": "None", "website": "None", "summary": "None", "logo": "None", "latitude": 49.91416000000004, "longitude": -109.46959999999996}, "106997620RR0001": {"name": "CYPRESS HILLS ABILITY CENTRE INC.", "designationCode": "C", "categoryCode": "11", "address": "BOX 579", "city": "SHAUNAVON", "province": "SK", "country": "CA", "postalCode": "S0N2M0", "twitter": "None", "instagram": "None", "facebook": "None", "youtube": "None", "website": "None", "summary": "None", "logo": "None", "latitude": 49.64645000000007, "longitude": -108.41961999999995}, "878034305RR0001": {"name": "CYPRESS RIVER DONOR'S CHOICE", "designationCode": "A", "categoryCode": "03", "address": "BOX 127", "city": "CYPRESS RIVER", "province": "MB", "country": "CA", "postalCode": "R0K0P0", "twitter": "None", "instagram": "None", "facebook": "None", "youtube": "None", "website": "None", "summary": "None", "logo": "None", "latitude": 50.04757803653237, "longitude": -99.55971609548558}, "118881341RR0001": {"name": "CYPRESS RIVER LODGE INC.", "designationCode": "C", "categoryCode": "01", "address": "PO BOX 168", "city": "CYPRESS RIVER", "province": "MB", "country": "CA", "postalCode": "R0K0P0", "twitter": "None", "instagram": "None", "facebook": "None", "youtube": "None", "website": "None", "summary": "None", "logo": "None", "latitude": 50.04757803653237, "longitude": -99.55971609548558}, "118881358RR0001": {"name": "CYPRESS RIVER SENIOR'S CENTRE INC.", "designationCode": "C", "categoryCode": "56", "address": "PO BOX 64", "city": "CYPRESS RIVER", "province": "MB", "country": "CA", "postalCode": "R0K0P0", "twitter": "None", "instagram": "None", "facebook": "None", "youtube": "None", "website": "None", "summary": "None", "logo": "None", "latitude": 50.04757803653237, "longitude": -99.55971609548558}, "127843134RR0001": {"name": "CYPRESS RIVER UNITED CHURCH", "designationCode": "C", "categoryCode": "44", "address": "BOX 147", "city": "CYPRESS RIVER", "province": "MB", "country": "CA", "postalCode": "R0K0P0", "twitter": "None", "instagram": "None", "facebook": "None", "youtube": "None", "website": "None", "summary": "None", "logo": "None", "latitude": 50.04757803653237, "longitude": -99.55971609548558}, "118881366RR0001": {"name": "CYPRESS VIEW FOUNDATION", "designationCode": "C", "categoryCode": "01", "address": "722 BASSETT CR. N.W.", "city": "MEDICINE HAT", "province": "AB", "country": "CA", "postalCode": "T1A7W8", "twitter": "None", "instagram": "None", "facebook": "None", "youtube": "None", "website": "None", "summary": "None", "logo": "None", "latitude": 50.04864858090485, "longitude": -110.69778679545841}, "118881374RR0001": {"name": "CYPRIOT CHARITABLE & EDUCATIONAL FOUNDATION OF TORONTO", "designationCode": "C", "categoryCode": "20", "address": "6 THORNCLIFFE PARK DR", "city": "TORONTO", "province": "ON", "country": "CA", "postalCode": "M4H1H1", "twitter": "None", "instagram": "None", "facebook": "None", "youtube": "None", "website": "None", "summary": "None", "logo": "None", "latitude": 43.70555452541967, "longitude": -79.35071895778769}, "106997810RR0001": {"name": "CYTHERA TRANSITION HOUSE SOCIETY", "designationCode": "C", "categoryCode": "09", "address": "22318 MCINTOSH AVE", "city": "MAPLE RIDGE", "province": "BC", "country": "CA", "postalCode": "V2X3C1", "twitter": "None", "instagram": "None", "facebook": "None", "youtube": "None", "website": "None", "summary": "None", "logo": "None", "latitude": 49.21939337948765, "longitude": -122.60395491977893}, "820693026RR0001": {"name": "CYWAL (Christian Youth Worldview and Leadership)", "designationCode": "C", "categoryCode": "47", "address": "10 STARDUST DRIVE", "city": "DORCHESTER", "province": "ON", "country": "CA", "postalCode": "N0L1G5", "twitter": "None", "instagram": "None", "facebook": "None", "youtube": "None", "website": "None", "summary": "None", "logo": "None", "latitude": 42.96179694699632, "longitude": -81.07228597732164}, "129856803RR0001": {"name": "CZAR AGRICULTURAL SOCIETY", "designationCode": "C", "categoryCode": "56", "address": "GENERAL DELIVERY", "city": "CZAR", "province": "AB", "country": "CA", "postalCode": "T0B0Z0", "twitter": "None", "instagram": "None", "facebook": "None", "youtube": "None", "website": "None", "summary": "None", "logo": "None", "latitude": 52.45548000000005, "longitude": -110.82824449999994}, "118881424RR0001": {"name": "CZAR MUNICIPAL LIBRARY", "designationCode": "C", "categoryCode": "50", "address": "P.O.BOX 127                   ATTN:TREASURER", "city": "CZAR", "province": "AB", "country": "CA", "postalCode": "T0B0Z0", "twitter": "None", "instagram": "None", "facebook": "None", "youtube": "None", "website": "None", "summary": "None", "logo": "None", "latitude": 52.45548000000005, "longitude": -110.82824449999994}, "892018847RR0001": {"name": "CZECH CATHOLIC MISSION OF ALBERTA", "designationCode": "C", "categoryCode": "38", "address": "#5,219 90 AVE SE", "city": "CALGARY", "province": "AB", "country": "CA", "postalCode": "T2J0A3", "twitter": "None", "instagram": "None", "facebook": "None", "youtube": "None", "website": "None", "summary": "None", "logo": "None", "latitude": 50.97219647013694, "longitude": -114.06713030682671}, "118881457RR0001": {"name": "CZECHOSLOVAK BAPTIST CONVENTION OF CANADA", "designationCode": "C", "categoryCode": "31", "address": "4099 15 SIDE RD. RR #2", "city": "ROCKWOOD", "province": "ON", "country": "CA", "postalCode": "N0B2K0", "twitter": "None", "instagram": "None", "facebook": "None", "youtube": "None", "website": "None", "summary": "None", "logo": "None", "latitude": 43.53869792100146, "longitude": -80.02134752114753}, "106998008RR0001": {"name": "CZECHOSLOVAK EVANGELICAL MISSION", "designationCode": "C", "categoryCode": "47", "address": "29 MISSISSAUGA RD N", "city": "MISSISSAUGA", "province": "ON", "country": "CA", "postalCode": "L5H2H7", "twitter": "None", "instagram": "None", "facebook": "None", "youtube": "None", "website": "None", "summary": "None", "logo": "None", "latitude": 43.54896848156256, "longitude": -79.59120716636866}, "865706428RR0001": {"name": "CZECHOSLOVAK SOCIETY OF ARTS AND SCIENCES OF ALBERTA TRUST FUND", "designationCode": "C", "categoryCode": "22", "address": "PO BOX 52140", "city": "EDMONTON", "province": "AB", "country": "CA", "postalCode": "T6G2T5", "twitter": "None", "instagram": "None", "facebook": "None", "youtube": "None", "website": "None", "summary": "None", "logo": "None", "latitude": 53.54623500000005, "longitude": -113.49037249999994}, "842372690RR0001": {"name": "C3 Church", "designationCode": "C", "categoryCode": "39", "address": "108 FIRST ST W                PO BOX 193", "city": "REVELSTOKE", "province": "BC", "country": "CA", "postalCode": "V0E2S0", "twitter": "None", "instagram": "None", "facebook": "None", "youtube": "None", "website": "None", "summary": "None", "logo": "None", "latitude": 50.999068528737865, "longitude": -118.195737906169}, "813011178RR0001": {"name": "C3 Church Calgary South East", "designationCode": "C", "categoryCode": "39", "address": "39 TARALEA GDNS NE", "city": "CALGARY", "province": "AB", "country": "CA", "postalCode": "T3J4W4", "twitter": "None", "instagram": "None", "facebook": "None", "youtube": "None", "website": "None", "summary": "None", "logo": "None", "latitude": 51.11662452899769, "longitude": -113.94527383236193}, "820012920RR0001": {"name": "C3 Church Saskatoon Inc.", "designationCode": "C", "categoryCode": "39", "address": "321 1ST ST. E", "city": "SASKATOON", "province": "SK", "country": "CA", "postalCode": "S7M1S1", "twitter": "None", "instagram": "None", "facebook": "None", "youtube": "None", "website": "None", "summary": "None", "logo": "None", "latitude": 52.10836847547982, "longitude": -106.66444609160796}, "814906301RR0001": {"name": "C3 Church 416 Inc", "designationCode": "C", "categoryCode": "39", "address": "1139 COLLEGE ST", "city": "TORONTO", "province": "ON", "country": "CA", "postalCode": "M6H1B5", "twitter": "None", "instagram": "None", "facebook": "None", "youtube": "None", "website": "None", "summary": "None", "logo": "None", "latitude": 43.65221981652157, "longitude": -79.43404654065444}, "127908986RR0001": {"name": "C3-CONSOLATA CANADA CLUB", "designationCode": "A", "categoryCode": "03", "address": "2671 ISLINGTON AVENUE", "city": "TORONTO", "province": "ON", "country": "CA", "postalCode": "M9V2X6", "twitter": "None", "instagram": "None", "facebook": "None", "youtube": "None", "website": "None", "summary": "None", "logo": "None", "latitude": 43.73917497475325, "longitude": -79.56614862207887}, "755869724RR0001": {"name": "C4C Canada / Canada C4C", "designationCode": "C", "categoryCode": "21", "address": "33 PRINCE ARTHUR AVE", "city": "TORONTO", "province": "ON", "country": "CA", "postalCode": "M5R1B2", "twitter": "None", "instagram": "None", "facebook": "None", "youtube": "None", "website": "None", "summary": "None", "logo": "None", "latitude": 43.669396834843454, "longitude": -79.39695826366211}, "856100599RR0001": {"name": "C4K = Cloth for Kids Inc.", "designationCode": "C", "categoryCode": "09", "address": "RR 1", "city": "GRANDORA", "province": "SK", "country": "CA", "postalCode": "S0K1V0", "twitter": "None", "instagram": "None", "facebook": "None", "youtube": "None", "website": "None", "summary": "None", "logo": "None", "latitude": 52.11045000000007, "longitude": -106.97959999999995}, "832562052RR0001": {"name": "D & G Estey Family Foundation", "designationCode": "B", "categoryCode": "05", "address": "202 ROXBOROUGH DRIVE", "city": "TORONTO", "province": "ON", "country": "CA", "postalCode": "M4W1X8", "twitter": "None", "instagram": "None", "facebook": "None", "youtube": "None", "website": "None", "summary": "None", "logo": "None", "latitude": 43.68414957230651, "longitude": -79.3688159153156}, "871235537RR0001": {"name": "D A R E CANADA (FUNDY) INC", "designationCode": "C", "categoryCode": "57", "address": "120 ASH BURN ROAD", "city": "SAINT JOHN", "province": "NB", "country": "CA", "postalCode": "E2J5E2", "twitter": "None", "instagram": "None", "facebook": "None", "youtube": "None", "website": "None", "summary": "None", "logo": "None", "latitude": 45.31113600000006, "longitude": -66.03679249999993}, "886970193RR0001": {"name": "D F PLETT HISTORICAL RESEARCH FOUNDATION INC", "designationCode": "B", "categoryCode": "21", "address": "515 PORTAGE AVENUE", "city": "WINNIPEG", "province": "MB", "country": "CA", "postalCode": "R3B2E9", "twitter": "None", "instagram": "None", "facebook": "None", "youtube": "None", "website": "None", "summary": "None", "logo": "None", "latitude": 49.89031476164195, "longitude": -97.15288240290808}, "118885029RR0001": {"name": "D GRANT BOWLBY MEMORIAL TRUST", "designationCode": "B", "categoryCode": "55", "address": "419 CAPILANO CENTRE           9945-50 STREET NW", "city": "EDMONTON", "province": "AB", "country": "CA", "postalCode": "T6A0L4", "twitter": "None", "instagram": "None", "facebook": "None", "youtube": "None", "website": "None", "summary": "None", "logo": "None", "latitude": 53.54020800000001, "longitude": -113.41809626623053}, "817409709RR0001": {"name": "D. Keith MacDonald Foundation", "designationCode": "B", "categoryCode": "03", "address": "101 - 2719 7 AVE NE", "city": "CALGARY", "province": "AB", "country": "CA", "postalCode": "T2A2L9", "twitter": "None", "instagram": "None", "facebook": "None", "youtube": "None", "website": "None", "summary": "None", "logo": "None", "latitude": 51.05854253231588, "longitude": -113.995332}, "845532654RR0001": {"name": "D.\u00c9.F.I. Mali", "designationCode": "C", "categoryCode": "20", "address": "5140 5E AV E", "city": "QUEBEC", "province": "QC", "country": "CA", "postalCode": "G1H3R6", "twitter": "None", "instagram": "None", "facebook": "None", "youtube": "None", "website": "None", "summary": "None", "logo": "None", "latitude": 46.84992141661367, "longitude": -71.2490317440995}, "891407413RR0001": {"name": "D.A.R.E. (DRUG ABUSE RESISTANCE EDUCATION) BRITISH COLUMBIA SOCIETY", "designationCode": "C", "categoryCode": "59", "address": "601-14200 GREEN TIMBERS WAY", "city": "SURREY", "province": "BC", "country": "CA", "postalCode": "V3T6P3", "twitter": "None", "instagram": "None", "facebook": "None", "youtube": "None", "website": "None", "summary": "None", "logo": "None", "latitude": 49.17934151163157, "longitude": -122.8301266552328}, "884003401RR0001": {"name": "D.A.R.E. (DRUG ABUSE RESISTANCE EDUCATION) WORKS FOOTHILLS SOCIETY", "designationCode": "C", "categoryCode": "57", "address": "PO BOX 1296", "city": "OKOTOKS", "province": "AB", "country": "CA", "postalCode": "T1S1B3", "twitter": "None", "instagram": "None", "facebook": "None", "youtube": "None", "website": "None", "summary": "None", "logo": "None", "latitude": 50.72589600000006, "longitude": -113.97494149999994}, "895560795RR0001": {"name": "D.A.S.C.H. FOUNDATION INC.", "designationCode": "A", "categoryCode": "03", "address": "117 VICTOR LEWIS DR.", "city": "WINNIPEG", "province": "MB", "country": "CA", "postalCode": "R3P1J6", "twitter": "None", "instagram": "None", "facebook": "None", "youtube": "None", "website": "None", "summary": "None", "logo": "None", "latitude": 49.84338918293016, "longitude": -97.18285302354467}, "865759492RR0001": {"name": "D.H. FALLE FAMILY FOUNDATION", "designationCode": "B", "categoryCode": "03", "address": "3 - 55 FLEMING DR", "city": "CAMBRIDGE", "province": "ON", "country": "CA", "postalCode": "N1T2A9", "twitter": "None", "instagram": "None", "facebook": "None", "youtube": "None", "website": "None", "summary": "None", "logo": "None", "latitude": 43.41203235027977, "longitude": -80.29397542079818}, "816707202RR0001": {"name": "D.M. Richards Foundation", "designationCode": "A", "categoryCode": "03", "address": "SUITE 1165                    5328 CALGARY TRAIL NW", "city": "EDMONTON", "province": "AB", "country": "CA", "postalCode": "T6H4J8", "twitter": "None", "instagram": "None", "facebook": "None", "youtube": "None", "website": "None", "summary": "None", "logo": "None", "latitude": 53.49123769080735, "longitude": -113.49539595798925}, "898907266RR0001": {"name": "D.S.R.F. DOWN SYNDROME RESEARCH FOUNDATION", "designationCode": "C", "categoryCode": "11", "address": "1409 SPERLING AVE", "city": "BURNABY", "province": "BC", "country": "CA", "postalCode": "V5B4J8", "twitter": "None", "instagram": "None", "facebook": "None", "youtube": "None", "website": "None", "summary": "None", "logo": "None", "latitude": 49.271319000000005, "longitude": -122.96467463990979}, "827822925RR0001": {"name": "D&W Divsion-Hatzoloh Service M\u00e9dical D'Urgence Benevole / D&W Division-Hatzoloh Volunteer EMS", "designationCode": "C", "categoryCode": "11", "address": "4893 AV CARLTON", "city": "MONTREAL", "province": "QC", "country": "CA", "postalCode": "H3W1G7", "twitter": "None", "instagram": "None", "facebook": "None", "youtube": "None", "website": "None", "summary": "None", "logo": "None", "latitude": 45.493821428818684, "longitude": -73.64089812894552}, "899912075RR0001": {"name": "D\u00e9clic Action", "designationCode": "C", "categoryCode": "57", "address": "600 AVE DE LA SORBONNE", "city": "LAVAL", "province": "QC", "country": "CA", "postalCode": "H7G4R5", "twitter": "None", "instagram": "None", "facebook": "None", "youtube": "None", "website": "None", "summary": "None", "logo": "None", "latitude": 45.579709248658475, "longitude": -73.68767734182565}, "803240845RR0001": {"name": "D\u00e9cor AdoNn\u00e9/ Room to ElderAdo", "designationCode": "C", "categoryCode": "09", "address": "5200, RUE DU S\u00c9PALE", "city": "TERREBONNE", "province": "QC", "country": "CA", "postalCode": "J7M2K3", "twitter": "None", "instagram": "None", "facebook": "None", "youtube": "None", "website": "None", "summary": "None", "logo": "None", "latitude": 45.81208356033264, "longitude": -73.78828494832398}, "840745731RR0001": {"name": "D\u00e9fi-Int\u00e9gration-D\u00e9veloppement-Accompagnement (DIDA)", "designationCode": "C", "categoryCode": "59", "address": "380 BOUL, DE LA ROCHELLE      SUITE#102", "city": "REPENTIGNY", "province": "QC", "country": "CA", "postalCode": "J6A5W2", "twitter": "None", "instagram": "None", "facebook": "None", "youtube": "None", "website": "None", "summary": "None", "logo": "None", "latitude": 45.74318018815296, "longitude": -73.46930842056705}, "804176170RR0001": {"name": "D\u00e9filons ensemble", "designationCode": "C", "categoryCode": "21", "address": "6 RUE HERMINA", "city": "SAINT-DONAT", "province": "QC", "country": "CA", "postalCode": "J0T2C0", "twitter": "None", "instagram": "None", "facebook": "None", "youtube": "None", "website": "None", "summary": "None", "logo": "None", "latitude": 46.318141186479544, "longitude": -74.20611893127152}, "852404086RR0001": {"name": "D\u00e9fis-Logis Lanaudi\u00e8re", "designationCode": "C", "categoryCode": "09", "address": "105 RUE MARIE-CURIE", "city": "SAINT-CHARLES-BORROMEE", "province": "QC", "country": "CA", "postalCode": "J6E0V2", "twitter": "None", "instagram": "None", "facebook": "None", "youtube": "None", "website": "None", "summary": "None", "logo": "None", "latitude": 46.03726800000001, "longitude": -73.455255}, "841826407RR0001": {"name": "D\u00e9pannage alimentaire Sainte-Anne-Des-Plaines", "designationCode": "C", "categoryCode": "09", "address": "C-154 BOUL. SAINTE-ANNE", "city": "STE-ANNE-DES-PLAINES", "province": "QC", "country": "CA", "postalCode": "J0N1H0", "twitter": "None", "instagram": "None", "facebook": "None", "youtube": "None", "website": "None", "summary": "None", "logo": "None", "latitude": 45.76501585643417, "longitude": -73.81206527812553}, "851367359RR0001": {"name": "D\u00e9veloppement Expertise et Solidarit\u00e9 Internationale (DESI)", "designationCode": "C", "categoryCode": "09", "address": "2330 NOTRE-DAME OUEST", "city": "MONTREAL", "province": "QC", "country": "CA", "postalCode": "H3J2Y2", "twitter": "None", "instagram": "None", "facebook": "None", "youtube": "None", "website": "None", "summary": "None", "logo": "None", "latitude": 45.483977704397354, "longitude": -73.57343716054028}, "120389218RR0001": {"name": "D\u00eeners St-Louis", "designationCode": "C", "categoryCode": "09", "address": "1818 RUE GILFORD", "city": "MONTREAL", "province": "QC", "country": "CA", "postalCode": "H2H1G5", "twitter": "None", "instagram": "None", "facebook": "None", "youtube": "None", "website": "None", "summary": "None", "logo": "None", "latitude": 45.534839364966295, "longitude": -73.57765817081206}, "118888833RR0001": {"name": "D-TROIS-PIERRES", "designationCode": "C", "categoryCode": "09", "address": "183 CHEMIN DU CAP ST- JACQUES", "city": "PIERREFONDS", "province": "QC", "country": "CA", "postalCode": "H9K1C6", "twitter": "None", "instagram": "None", "facebook": "None", "youtube": "None", "website": "None", "summary": "None", "logo": "None", "latitude": 45.467141804056766, "longitude": -73.9231564271739}, "142363878RR0001": {"name": "D\u00c9FI POLYTECK", "designationCode": "C", "categoryCode": "59", "address": "1255 BOULEVARD QUEEN-VICTORIA", "city": "SHERBROOKE", "province": "QC", "country": "CA", "postalCode": "J1J4N6", "twitter": "None", "instagram": "None", "facebook": "None", "youtube": "None", "website": "None", "summary": "None", "logo": "None", "latitude": 45.41877623610763, "longitude": -71.9074230204529}, "817411564RR0001": {"name": "D'arts et de R\u00eaves", "designationCode": "C", "categoryCode": "22", "address": "6A RUE PRINCIPALE S", "city": "SUTTON", "province": "QC", "country": "CA", "postalCode": "J0E2K0", "twitter": "None", "instagram": "None", "facebook": "None", "youtube": "None", "website": "None", "summary": "None", "logo": "None", "latitude": 45.106462944208445, "longitude": -72.61521621879338}, "118881994RR0001": {"name": "D'ANCONA CHARITABLE TRUST", "designationCode": "B", "categoryCode": "05", "address": "50 BRISBANE", "city": "DOWNSVIEW", "province": "ON", "country": "CA", "postalCode": "M3J2K2", "twitter": "None", "instagram": "None", "facebook": "None", "youtube": "None", "website": "None", "summary": "None", "logo": "None", "latitude": 43.77196112245333, "longitude": -79.47367805386907}, "861952828RR0001": {"name": "D'ARCY'S A.R.C. INC.", "designationCode": "C", "categoryCode": "54", "address": "730 CENTURY STREET            UNIT B", "city": "WINNIPEG", "province": "MB", "country": "CA", "postalCode": "R3H0M1", "twitter": "None", "instagram": "None", "facebook": "None", "youtube": "None", "website": "None", "summary": "None", "logo": "None", "latitude": 49.8997013782965, "longitude": -97.20272237694016}, "134251412RR0001": {"name": "D'HOMMES A HOMMES INC", "designationCode": "C", "categoryCode": "09", "address": "204 - 37 RUE NOTRE-DAME O", "city": "THETFORD MINES", "province": "QC", "country": "CA", "postalCode": "G6G1J1", "twitter": "None", "instagram": "None", "facebook": "None", "youtube": "None", "website": "None", "summary": "None", "logo": "None", "latitude": 46.08785312212363, "longitude": -71.30316086228751}, "129094801RR0001": {"name": "D'MAIN DE FEMMES", "designationCode": "C", "categoryCode": "09", "address": "77 ST-CHARLES", "city": "SALABERRY-DE-VALLEYFIELD", "province": "QC", "country": "CA", "postalCode": "J6S3Z9", "twitter": "None", "instagram": "None", "facebook": "None", "youtube": "None", "website": "None", "summary": "None", "logo": "None", "latitude": 45.26110701526344, "longitude": -74.12268643909046}, "864266325RR0001": {"name": "D'UN COUVERT A L'AUTRE", "designationCode": "C", "categoryCode": "09", "address": "780 RUE ST-JEAN", "city": "LONGUEUIL", "province": "QC", "country": "CA", "postalCode": "J4H2Y7", "twitter": "None", "instagram": "None", "facebook": "None", "youtube": "None", "website": "None", "summary": "None", "logo": "None", "latitude": 45.53281936329285, "longitude": -73.50012360312185}, "847623055RR0001": {"name": "Dads Against Dirty Air, Inc. (DADA)", "designationCode": "C", "categoryCode": "59", "address": "2181 VISTA DRIVE", "city": "BURLINGTON", "province": "ON", "country": "CA", "postalCode": "L7M3M3", "twitter": "None", "instagram": "None", "facebook": "None", "youtube": "None", "website": "None", "summary": "None", "logo": "None", "latitude": 43.38169121316861, "longitude": -79.82457267150454}, "826908782RR0001": {"name": "Daigle Family Foundation La Fondation Familiale Daigle", "designationCode": "B", "categoryCode": "03", "address": "476 MERCILLE AVENUE", "city": "SAINT-LAMBERT", "province": "QC", "country": "CA", "postalCode": "J4P2L5", "twitter": "None", "instagram": "None", "facebook": "None", "youtube": "None", "website": "None", "summary": "None", "logo": "None", "latitude": 45.50310682988042, "longitude": -73.51079378613892}, "838895183RR0001": {"name": "Dail Community of Canada", "designationCode": "C", "categoryCode": "39", "address": "1811-270 SCARLETT ROAD", "city": "TORONTO", "province": "ON", "country": "CA", "postalCode": "M6N4X7", "twitter": "None", "instagram": "None", "facebook": "None", "youtube": "None", "website": "None", "summary": "None", "logo": "None", "latitude": 43.67737219649152, "longitude": -79.50634886418689}, "135876050RR0001": {"name": "Dakelh & Quesnel Community Housing Society", "designationCode": "C", "categoryCode": "09", "address": "100-744 FRONT STREET", "city": "QUESNEL", "province": "BC", "country": "CA", "postalCode": "V2J2L1", "twitter": "None", "instagram": "None", "facebook": "None", "youtube": "None", "website": "None", "summary": "None", "logo": "None", "latitude": 52.98489339439666, "longitude": -122.49922753381645}, "860635887RR0001": {"name": "Dakota Community Church", "designationCode": "C", "categoryCode": "39", "address": "230 PROVENCHER BOULEVARD", "city": "WINNIPEG", "province": "MB", "country": "CA", "postalCode": "R2H0G5", "twitter": "None", "instagram": "None", "facebook": "None", "youtube": "None", "website": "None", "summary": "None", "logo": "None", "latitude": 49.892658874805385, "longitude": -97.1195344114491}, "841570518RR0001": {"name": "Dakota Community Historical Society", "designationCode": "C", "categoryCode": "56", "address": "R.R.#4 SITE 15 BOX 16", "city": "PONOKA", "province": "AB", "country": "CA", "postalCode": "T4J1R4", "twitter": "None", "instagram": "None", "facebook": "None", "youtube": "None", "website": "None", "summary": "None", "logo": "None", "latitude": 52.67526900000006, "longitude": -113.58076399999993}, "823439443RR0001": {"name": "Dakshana Canada", "designationCode": "C", "categoryCode": "20", "address": "79 WELLINGTON STREET WEST     SUITE 3000, TD CENTRE, BOX 270", "city": "TORONTO", "province": "ON", "country": "CA", "postalCode": "M5K1N2", "twitter": "None", "instagram": "None", "facebook": "None", "youtube": "None", "website": "None", "summary": "None", "logo": "None", "latitude": 43.64868300000006, "longitude": -79.38544399999994}, "803742774RR0001": {"name": "Dalcroze Canada", "designationCode": "C", "categoryCode": "22", "address": "80 - 915 INVERHOUSE DR", "city": "MISSISSAUGA", "province": "ON", "country": "CA", "postalCode": "L5J4B2", "twitter": "None", "instagram": "None", "facebook": "None", "youtube": "None", "website": "None", "summary": "None", "logo": "None", "latitude": 43.511788359455046, "longitude": -79.62549509178314}, "767600091RR0001": {"name": "Daleel Islamic Association", "designationCode": "C", "categoryCode": "60", "address": "PO BOX 22124 RPO THORNCLIFFE", "city": "TORONTO", "province": "ON", "country": "CA", "postalCode": "M4H1N9", "twitter": "None", "instagram": "None", "facebook": "None", "youtube": "None", "website": "None", "summary": "None", "logo": "None", "latitude": 43.701970000000074, "longitude": -79.33657999999997}, "892443367RR0001": {"name": "Dalhousie Haven of Hope Inc.", "designationCode": "C", "categoryCode": "11", "address": "446 VICTORIA STREET", "city": "DALHOUSIE", "province": "NB", "country": "CA", "postalCode": "E8C2S8", "twitter": "None", "instagram": "None", "facebook": "None", "youtube": "None", "website": "None", "summary": "None", "logo": "None", "latitude": 48.06407162663379, "longitude": -66.37992711830348}, "812076909RR0001": {"name": "Dalhousie Riverview Cemetery Co., Ltd.", "designationCode": "C", "categoryCode": "59", "address": "108 BAYBREEZE DRIVE", "city": "DALHOUSIE", "province": "NB", "country": "CA", "postalCode": "E8C1C9", "twitter": "None", "instagram": "None", "facebook": "None", "youtube": "None", "website": "None", "summary": "None", "logo": "None", "latitude": 48.049410194245105, "longitude": -66.38121731919729}, "118881705RR0001": {"name": "Dalhousie-New Mills Pastoral Charge", "designationCode": "C", "categoryCode": "44", "address": "123A BRUNSWICK ST", "city": "DALHOUSIE", "province": "NB", "country": "CA", "postalCode": "E8C1G6", "twitter": "None", "instagram": "None", "facebook": "None", "youtube": "None", "website": "None", "summary": "None", "logo": "None", "latitude": 48.064664445493655, "longitude": -66.37194636756675}, "855581252RR0001": {"name": "Dalit Freedom Network Canada Foundation", "designationCode": "A", "categoryCode": "03", "address": "P.O BOX 45645                 RPO SUNNYSIDE", "city": "SURREY", "province": "BC", "country": "CA", "postalCode": "V4A9N3", "twitter": "None", "instagram": "None", "facebook": "None", "youtube": "None", "website": "None", "summary": "None", "logo": "None", "latitude": 49.04577758735484, "longitude": -122.85084454245168}, "813460110RR0001": {"name": "Dalkeith Historical Society", "designationCode": "C", "categoryCode": "50", "address": "1851 DALKEITH ROAD", "city": "DALKEITH", "province": "ON", "country": "CA", "postalCode": "K0B1E0", "twitter": "None", "instagram": "None", "facebook": "None", "youtube": "None", "website": "None", "summary": "None", "logo": "None", "latitude": 45.447497486158284, "longitude": -74.57340728952109}, "804073922RR0001": {"name": "Damian Foundation", "designationCode": "B", "categoryCode": "05", "address": "13 HIDDEN VALLEY HTS NW", "city": "CALGARY", "province": "AB", "country": "CA", "postalCode": "T3A5G1", "twitter": "None", "instagram": "None", "facebook": "None", "youtube": "None", "website": "None", "summary": "None", "logo": "None", "latitude": 51.14625920260835, "longitude": -114.1073164005135}, "827586959RR0001": {"name": "Damiani Foundation", "designationCode": "B", "categoryCode": "03", "address": "228 DEER RUN COURT", "city": "WOODBRIDGE", "province": "ON", "country": "CA", "postalCode": "L4L9J4", "twitter": "None", "instagram": "None", "facebook": "None", "youtube": "None", "website": "None", "summary": "None", "logo": "None", "latitude": 43.818191969732915, "longitude": -79.58007617343779}, "841621154RR0001": {"name": "Dan Snook Trust Foundation", "designationCode": "B", "categoryCode": "57", "address": "128-280 NELSON STREET", "city": "VANCOUVER", "province": "BC", "country": "CA", "postalCode": "V6B2E2", "twitter": "None", "instagram": "None", "facebook": "None", "youtube": "None", "website": "None", "summary": "None", "logo": "None", "latitude": 49.276435559835775, "longitude": -123.11879061653781}, "837600402RR0001": {"name": "Dance Matters Dance Productions", "designationCode": "C", "categoryCode": "22", "address": "1749 DUNDAS ST E", "city": "TORONTO", "province": "ON", "country": "CA", "postalCode": "M4L1L9", "twitter": "None", "instagram": "None", "facebook": "None", "youtube": "None", "website": "None", "summary": "None", "logo": "None", "latitude": 43.66769249235396, "longitude": -79.32356088481735}, "810223347RR0001": {"name": "Dancers of Damelahamid Society", "designationCode": "C", "categoryCode": "22", "address": "200-100 PARK ROYAL SOUTH", "city": "WEST VANCOUVER", "province": "BC", "country": "CA", "postalCode": "V7T1A2", "twitter": "None", "instagram": "None", "facebook": "None", "youtube": "None", "website": "None", "summary": "None", "logo": "None", "latitude": 49.32396914400195, "longitude": -123.13839265177147}, "817521354RR0001": {"name": "Dancing with Parkinson's Inc.", "designationCode": "C", "categoryCode": "11", "address": "167 LISGAR ST", "city": "TORONTO", "province": "ON", "country": "CA", "postalCode": "M6J3G4", "twitter": "None", "instagram": "None", "facebook": "None", "youtube": "None", "website": "None", "summary": "None", "logo": "None", "latitude": 43.645229371083126, "longitude": -79.42437878155128}, "809052483RR0001": {"name": "Dandelion Dance", "designationCode": "C", "categoryCode": "22", "address": "2 - 179 WILBROD ST", "city": "OTTAWA", "province": "ON", "country": "CA", "postalCode": "K1N6L4", "twitter": "None", "instagram": "None", "facebook": "None", "youtube": "None", "website": "None", "summary": "None", "logo": "None", "latitude": 45.42581635971484, "longitude": -75.68480477228911}, "806257218RR0001": {"name": "Danforth Community Center", "designationCode": "C", "categoryCode": "60", "address": "3114 DANFORTH AVENUE", "city": "SCARBOROUGH", "province": "ON", "country": "CA", "postalCode": "M1L1B1", "twitter": "None", "instagram": "None", "facebook": "None", "youtube": "None", "website": "None", "summary": "None", "logo": "None", "latitude": 43.691477132408, "longitude": -79.28744045796057}, "805413424RR0001": {"name": "Danforth Islamic Centre", "designationCode": "C", "categoryCode": "60", "address": "3018A DANFORTH AVENUE", "city": "TORONTO", "province": "ON", "country": "CA", "postalCode": "M4C1M7", "twitter": "None", "instagram": "None", "facebook": "None", "youtube": "None", "website": "None", "summary": "None", "logo": "None", "latitude": 43.69083320737901, "longitude": -79.29042531701658}, "810538553RR0001": {"name": "Dania Home Society Residents Foundation", "designationCode": "A", "categoryCode": "03", "address": "4175 NORLAND AVENUE", "city": "BURNABY", "province": "BC", "country": "CA", "postalCode": "V5G3S7", "twitter": "None", "instagram": "None", "facebook": "None", "youtube": "None", "website": "None", "summary": "None", "logo": "None", "latitude": 49.24673068641311, "longitude": -122.9747960963413}, "833304025RR0001": {"name": "Daniel & Karen Chim Charitable Foundation", "designationCode": "B", "categoryCode": "03", "address": "7650 BIRCHMOUNT ROAD", "city": "MARKHAM", "province": "ON", "country": "CA", "postalCode": "L3R6B9", "twitter": "None", "instagram": "None", "facebook": "None", "youtube": "None", "website": "None", "summary": "None", "logo": "None", "latitude": 43.83840908130887, "longitude": -79.31984696927063}, "134668508RR0001": {"name": "Daniel L\u00e9veill\u00e9 nouvelle danse inc.", "designationCode": "C", "categoryCode": "22", "address": "302-2025 RUE PARTHENAIS", "city": "MONTR\u00c9AL", "province": "QC", "country": "CA", "postalCode": "H2K3T2", "twitter": "None", "instagram": "None", "facebook": "None", "youtube": "None", "website": "None", "summary": "None", "logo": "None", "latitude": 45.52993011936625, "longitude": -73.55707809420639}, "881849012RR0001": {"name": "Daniel Lapp's House of Music Society", "designationCode": "C", "categoryCode": "22", "address": "#407 345 MICHIGAN ST", "city": "VICTORIA", "province": "BC", "country": "CA", "postalCode": "V8V1R7", "twitter": "None", "instagram": "None", "facebook": "None", "youtube": "None", "website": "None", "summary": "None", "logo": "None", "latitude": 48.41809981845482, "longitude": -123.37559359564868}, "826476087RR0001": {"name": "Daniel Lovegrove Memorial Education Fund Society", "designationCode": "C", "categoryCode": "21", "address": "2418 GOSSET RD", "city": "WEST KELOWNA", "province": "BC", "country": "CA", "postalCode": "V4T1P4", "twitter": "None", "instagram": "None", "facebook": "None", "youtube": "None", "website": "None", "summary": "None", "logo": "None", "latitude": 49.832269522072785, "longitude": -119.62625344463038}, "892537556RR0001": {"name": "Danish Canadian National Museum", "designationCode": "C", "categoryCode": "50", "address": "BOX 92", "city": "SPRUCE VIEW", "province": "AB", "country": "CA", "postalCode": "T0M1V0", "twitter": "None", "instagram": "None", "facebook": "None", "youtube": "None", "website": "None", "summary": "None", "logo": "None", "latitude": 51.98923333840575, "longitude": -114.89338336150753}, "733246094RR0001": {"name": "Danish Lutheran Church of Toronto", "designationCode": "C", "categoryCode": "32", "address": "72 FINCH AVE WEST", "city": "TORONTO", "province": "ON", "country": "CA", "postalCode": "M2N2H4", "twitter": "None", "instagram": "None", "facebook": "None", "youtube": "None", "website": "None", "summary": "None", "logo": "None", "latitude": 43.77843419848207, "longitude": -79.42169840787108}, "820782126RR0001": {"name": "Danny's Backpack Foundation", "designationCode": "B", "categoryCode": "09", "address": "PO BOX 1529 STN MAIN", "city": "BRADFORD", "province": "ON", "country": "CA", "postalCode": "L3Z2B8", "twitter": "None", "instagram": "None", "facebook": "None", "youtube": "None", "website": "None", "summary": "None", "logo": "None", "latitude": 44.11482000000005, "longitude": -79.56249199999993}, "881700645RR0001": {"name": "Danse Carpe Diem", "designationCode": "C", "categoryCode": "22", "address": "412 - 2022 RUE SHERBROOKE E", "city": "MONTREAL", "province": "QC", "country": "CA", "postalCode": "H2K1B9", "twitter": "None", "instagram": "None", "facebook": "None", "youtube": "None", "website": "None", "summary": "None", "logo": "None", "latitude": 45.53400108533833, "longitude": -73.56199564861863}, "834776726RR0001": {"name": "Danse K par K", "designationCode": "C", "categoryCode": "22", "address": "1 - 580 RUE D'AIGUILLON", "city": "QUEBEC", "province": "QC", "country": "CA", "postalCode": "G1R1M3", "twitter": "None", "instagram": "None", "facebook": "None", "youtube": "None", "website": "None", "summary": "None", "logo": "None", "latitude": 46.81046443242537, "longitude": -71.2204852939292}, "846888881RR0001": {"name": "Dapper Jumpsuit Productions Youth Theatre Society", "designationCode": "C", "categoryCode": "22", "address": "1015 IRONWORK PASSAGE", "city": "VANCOUVER", "province": "BC", "country": "CA", "postalCode": "V6H3R4", "twitter": "None", "instagram": "None", "facebook": "None", "youtube": "None", "website": "None", "summary": "None", "logo": "None", "latitude": 49.267959479946455, "longitude": -123.12838044601536}, "808903447RR0001": {"name": "Daraja Foundation", "designationCode": "C", "categoryCode": "11", "address": "815 17TH AVENUE S.W           P.O. BOX 16012 LOWER MT. ROYAL", "city": "CALGARY", "province": "AB", "country": "CA", "postalCode": "T2T5H7", "twitter": "None", "instagram": "None", "facebook": "None", "youtube": "None", "website": "None", "summary": "None", "logo": "None"}, "816162242RR0001": {"name": "Dare to be You Foundation", "designationCode": "A", "categoryCode": "03", "address": "111 - 450 SPEEDVALE AVE W", "city": "GUELPH", "province": "ON", "country": "CA", "postalCode": "N1H7Y6", "twitter": "None", "instagram": "None", "facebook": "None", "youtube": "None", "website": "None", "summary": "None", "logo": "None", "latitude": 43.53976968021846, "longitude": -80.2937928196669}, "834066177RR0001": {"name": "Dare to Care Bully Prevention & Life Skills Inc.", "designationCode": "C", "categoryCode": "57", "address": "359 HAWKSTONE CLOSE NW", "city": "CALGARY", "province": "AB", "country": "CA", "postalCode": "T3G3P1", "twitter": "None", "instagram": "None", "facebook": "None", "youtube": "None", "website": "None", "summary": "None", "logo": "None", "latitude": 51.134190463788975, "longitude": -114.16981893435859}, "842462038RR0001": {"name": "Dare to Defend Foundation Inc.", "designationCode": "B", "categoryCode": "03", "address": "SUITE 230, 171 EAST LIBERTY ST", "city": "TORONTO", "province": "ON", "country": "CA", "postalCode": "M6K3P6", "twitter": "None", "instagram": "None", "facebook": "None", "youtube": "None", "website": "None", "summary": "None", "logo": "None", "latitude": 43.6387007176989, "longitude": -79.41761882543703}, "866666076RR0001": {"name": "Dartmouth Community Concert Association", "designationCode": "C", "categoryCode": "22", "address": "8 GREENWOOD DRIVE", "city": "DARTMOUTH", "province": "NS", "country": "CA", "postalCode": "B2W3S5", "twitter": "None", "instagram": "None", "facebook": "None", "youtube": "None", "website": "None", "summary": "None", "logo": "None", "latitude": 44.69020721622702, "longitude": -63.489028452132196}, "812173201RR0001": {"name": "Darul Khair Center, Stouffville", "designationCode": "C", "categoryCode": "60", "address": "6356 MAIN STREET", "city": "STOUFFVILLE", "province": "ON", "country": "CA", "postalCode": "L4A1G9", "twitter": "None", "instagram": "None", "facebook": "None", "youtube": "None", "website": "None", "summary": "None", "logo": "None", "latitude": 43.97196113630311, "longitude": -79.24415955718729}, "843832064RR0001": {"name": "Dattels Family Foundation (Canada)", "designationCode": "B", "categoryCode": "03", "address": "38 PRINCE ARTHUR AVENUE", "city": "TORONTO", "province": "ON", "country": "CA", "postalCode": "M5R1A9", "twitter": "None", "instagram": "None", "facebook": "None", "youtube": "None", "website": "None", "summary": "None", "logo": "None", "latitude": 43.66934217236993, "longitude": -79.39748571080266}, "832608822RR0001": {"name": "Daughters of Zelophehad", "designationCode": "B", "categoryCode": "23", "address": "PO BOX 1033", "city": "SUTTON WEST", "province": "ON", "country": "CA", "postalCode": "L0E1R0", "twitter": "None", "instagram": "None", "facebook": "None", "youtube": "None", "website": "None", "summary": "None", "logo": "None", "latitude": 44.33123400000005, "longitude": -79.33264549999993}, "834149791RR0001": {"name": "Dauphin Community Youth Ministry Foundation Incorporated", "designationCode": "C", "categoryCode": "49", "address": "POST OFFICE BOX 70            220 WHITMORE AVE W", "city": "DAUPHIN", "province": "MB", "country": "CA", "postalCode": "R7N2T9", "twitter": "None", "instagram": "None", "facebook": "None", "youtube": "None", "website": "None", "summary": "None", "logo": "None", "latitude": 51.14028352596792, "longitude": -100.06782076804821}, "827853326RR0001": {"name": "Dauphin Magical Horizons Day Care Center Inc.", "designationCode": "C", "categoryCode": "01", "address": "135 6TH AVE SW", "city": "DAUPHIN", "province": "MB", "country": "CA", "postalCode": "R7N1W1", "twitter": "None", "instagram": "None", "facebook": "None", "youtube": "None", "website": "None", "summary": "None", "logo": "None", "latitude": 51.14648859310985, "longitude": -100.05851287636325}, "832940134RR0001": {"name": "Dauphin New Life Centre Inc.", "designationCode": "C", "categoryCode": "39", "address": "404 MAIN STREET NORTH", "city": "DAUPHIN", "province": "MB", "country": "CA", "postalCode": "R7N1C8", "twitter": "None", "instagram": "None", "facebook": "None", "youtube": "None", "website": "None", "summary": "None", "logo": "None", "latitude": 51.152139578654484, "longitude": -100.04690293998543}, "815494463RR0001": {"name": "Daval Hospice", "designationCode": "C", "categoryCode": "01", "address": "2770 PORTAGE RD", "city": "NIAGARA FALLS", "province": "ON", "country": "CA", "postalCode": "L2J2J3", "twitter": "None", "instagram": "None", "facebook": "None", "youtube": "None", "website": "None", "summary": "None", "logo": "None", "latitude": 43.133243941976005, "longitude": -79.09491937604614}, "839003803RR0001": {"name": "Dave Smith Youth Treatment Centre Foundation", "designationCode": "A", "categoryCode": "03", "address": "112 WILLOWLEA RD", "city": "CARP", "province": "ON", "country": "CA", "postalCode": "K0A1L0", "twitter": "None", "instagram": "None", "facebook": "None", "youtube": "None", "website": "None", "summary": "None", "logo": "None", "latitude": 45.27383544217756, "longitude": -75.96259935936905}, "123698904RR0001": {"name": "Davenport-Perth Neighbourhood & Community Health Centre", "designationCode": "C", "categoryCode": "09", "address": "1900 DAVENPORT ROAD", "city": "TORONTO", "province": "ON", "country": "CA", "postalCode": "M6N1B7", "twitter": "None", "instagram": "None", "facebook": "None", "youtube": "None", "website": "None", "summary": "None", "logo": "None", "latitude": 43.670493384442, "longitude": -79.45469543617627}}