{"869965624RR0001": {"name": "RIVERS OF RESTORATION, INC", "designationCode": "C", "categoryCode": "39", "address": "7 BUENA VISTA AVE", "city": "SAINT JOHN", "province": "NB", "country": "CA", "postalCode": "E2M2S7", "twitter": "None", "instagram": "None", "facebook": "None", "youtube": "None", "website": "None", "summary": "None", "logo": "None", "latitude": 45.25328564807545, "longitude": -66.07866297114656}, "107898546RR0001": {"name": "RIVERS PASTORAL CHARGE", "designationCode": "C", "categoryCode": "44", "address": "PO BOX 10", "city": "RIVERS", "province": "MB", "country": "CA", "postalCode": "R0K1X0", "twitter": "None", "instagram": "None", "facebook": "None", "youtube": "None", "website": "None", "summary": "None", "logo": "None", "latitude": 49.55658299999999, "longitude": -99.0937665}, "862445442RR0001": {"name": "RIVERSIDE (ALBERTA) CHARITABLE TRUST", "designationCode": "B", "categoryCode": "39", "address": "3425 2ND AVE S", "city": "LETHBRIDGE", "province": "AB", "country": "CA", "postalCode": "T1J4V1", "twitter": "None", "instagram": "None", "facebook": "None", "youtube": "None", "website": "None", "summary": "None", "logo": "None", "latitude": 49.696839530439966, "longitude": -112.78914308381903}, "899557565RR0001": {"name": "RIVERSIDE ASSOCIATE REFORMED PRESBYTERIAN CHURCH", "designationCode": "C", "categoryCode": "39", "address": "6986 GORE RD RR 2", "city": "PUSLINCH", "province": "ON", "country": "CA", "postalCode": "N0B2J0", "twitter": "None", "instagram": "None", "facebook": "None", "youtube": "None", "website": "None", "summary": "None", "logo": "None", "latitude": 43.40258570416922, "longitude": -80.1736973668205}, "107898116RR0001": {"name": "RIVERSIDE BAPTIST CHURCH", "designationCode": "C", "categoryCode": "31", "address": "11 RIVERSIDE DRIVE", "city": "HUNTSVILLE", "province": "ON", "country": "CA", "postalCode": "P1H1R6", "twitter": "None", "instagram": "None", "facebook": "None", "youtube": "None", "website": "None", "summary": "None", "logo": "None", "latitude": 45.31130059391793, "longitude": -79.20680894587113}, "119120624RR0001": {"name": "RIVERSIDE BAPTIST CHURCH", "designationCode": "C", "categoryCode": "31", "address": "8300 LITTLE RIVER ROAD", "city": "WINDSOR", "province": "ON", "country": "CA", "postalCode": "N8S2B5", "twitter": "None", "instagram": "None", "facebook": "None", "youtube": "None", "website": "None", "summary": "None", "logo": "None", "latitude": 42.32718245772944, "longitude": -82.93534318887411}, "865124093RR0001": {"name": "RIVERSIDE BUILDING MANAGEMENT ASSOCIATION", "designationCode": "C", "categoryCode": "56", "address": "7925-95TH AVENUE", "city": "FORT SASKATCHEWAN", "province": "AB", "country": "CA", "postalCode": "T8L3L4", "twitter": "None", "instagram": "None", "facebook": "None", "youtube": "None", "website": "None", "summary": "None", "logo": "None", "latitude": 53.68797208630055, "longitude": -113.24691224366681}, "888333242RR0001": {"name": "RIVERSIDE CEMETERY (SONORA)", "designationCode": "C", "categoryCode": "59", "address": "1933 SONORA RD.               R.R. #1", "city": "SHERBROOKE", "province": "NS", "country": "CA", "postalCode": "B0J3C0", "twitter": "None", "instagram": "None", "facebook": "None", "youtube": "None", "website": "None", "summary": "None", "logo": "None", "latitude": 45.065047286138935, "longitude": -61.90711055069507}, "851514273RR0001": {"name": "RIVERSIDE CEMETERY CO.", "designationCode": "C", "categoryCode": "59", "address": "BOX 182", "city": "WALLACE", "province": "NS", "country": "CA", "postalCode": "B0K1Y0", "twitter": "None", "instagram": "None", "facebook": "None", "youtube": "None", "website": "None", "summary": "None", "logo": "None", "latitude": 45.52877866223628, "longitude": -62.73566833776373}, "888653862RR0001": {"name": "RIVERSIDE CEMETERY COMPANY LIMITED", "designationCode": "C", "categoryCode": "59", "address": "P.O. BOX 231", "city": "HEBRON", "province": "NS", "country": "CA", "postalCode": "B5A5Z8", "twitter": "None", "instagram": "None", "facebook": "None", "youtube": "None", "website": "None", "summary": "None", "logo": "None", "latitude": 43.88721000000004, "longitude": -66.09039999999999}, "119120665RR0001": {"name": "RIVERSIDE CEMETERY SOCIETY", "designationCode": "C", "categoryCode": "59", "address": "PO BOX 96", "city": "PLYMPTON", "province": "NS", "country": "CA", "postalCode": "B0W2R0", "twitter": "None", "instagram": "None", "facebook": "None", "youtube": "None", "website": "None", "summary": "None", "logo": "None", "latitude": 44.51036000000005, "longitude": -65.90906999999999}, "889832598RR0001": {"name": "RIVERSIDE CHARITABLE TRUST", "designationCode": "B", "categoryCode": "39", "address": "1401 PRINCESS AVE", "city": "BRANDON", "province": "MB", "country": "CA", "postalCode": "R7A7L7", "twitter": "None", "instagram": "None", "facebook": "None", "youtube": "None", "website": "None", "summary": "None", "logo": "None", "latitude": 49.84694947489748, "longitude": -99.957294}, "107817058RR0001": {"name": "RIVERSIDE CHRISTIAN CHILDRENS CENTRE", "designationCode": "C", "categoryCode": "20", "address": "250 MARK ST", "city": "SAULT STE. MARIE", "province": "ON", "country": "CA", "postalCode": "P6A3M7", "twitter": "None", "instagram": "None", "facebook": "None", "youtube": "None", "website": "None", "summary": "None", "logo": "None", "latitude": 46.505527332794614, "longitude": -84.28740511143172}, "885194605RR0001": {"name": "RIVERSIDE CHRISTIAN REFORMED CHURCH OF WELLANDPORT", "designationCode": "C", "categoryCode": "39", "address": "PO BOX 25", "city": "WELLANDPORT", "province": "ON", "country": "CA", "postalCode": "L0R2J0", "twitter": "None", "instagram": "None", "facebook": "None", "youtube": "None", "website": "None", "summary": "None", "logo": "None", "latitude": 42.98007589180602, "longitude": -79.47979790944818}, "119120707RR0001": {"name": "RIVERSIDE CHURCHES OF OTTAWA INCORPORATED", "designationCode": "C", "categoryCode": "39", "address": "3191 RIVERSIDE DRIVE", "city": "OTTAWA", "province": "ON", "country": "CA", "postalCode": "K1V8N8", "twitter": "None", "instagram": "None", "facebook": "None", "youtube": "None", "website": "None", "summary": "None", "logo": "None", "latitude": 45.35941071715065, "longitude": -75.68857601656245}, "891378721RR0001": {"name": "RIVERSIDE COMMUNITY BAPTIST CHURCH", "designationCode": "C", "categoryCode": "31", "address": "PO BOX 1064", "city": "PETERBOROUGH", "province": "ON", "country": "CA", "postalCode": "K9J7A9", "twitter": "None", "instagram": "None", "facebook": "None", "youtube": "None", "website": "None", "summary": "None", "logo": "None", "latitude": 44.30591700000005, "longitude": -78.31950199999993}, "132477209RR0001": {"name": "RIVERSIDE COMMUNITY CHURCH", "designationCode": "C", "categoryCode": "39", "address": "2669 NIAGARA PARKWAY", "city": "FORT ERIE", "province": "ON", "country": "CA", "postalCode": "L2A5M4", "twitter": "None", "instagram": "None", "facebook": "None", "youtube": "None", "website": "None", "summary": "None", "logo": "None", "latitude": 42.95661036471599, "longitude": -78.97679934301216}, "118949338RR0001": {"name": "RIVERSIDE COMMUNITY REFORMED CHURCH", "designationCode": "C", "categoryCode": "39", "address": "103 - 89 WESTWOOD RD", "city": "GUELPH", "province": "ON", "country": "CA", "postalCode": "N1H7J6", "twitter": "None", "instagram": "None", "facebook": "None", "youtube": "None", "website": "None", "summary": "None", "logo": "None", "latitude": 43.5317564760513, "longitude": -80.28099900568415}, "119288918RR0148": {"name": "RIVERSIDE CONGREGATION OF JEHOVAH'S WITNESSES", "designationCode": "C", "categoryCode": "61", "address": "#324 - 1390 LAUZON RD", "city": "WINDSOR", "province": "ON", "country": "CA", "postalCode": "N8P1B7", "twitter": "None", "instagram": "None", "facebook": "None", "youtube": "None", "website": "None", "summary": "None", "logo": "None", "latitude": 42.33622200000005, "longitude": -82.92897349999993}, "119288918RR0677": {"name": "RIVERSIDE CONGREGATION OF JEHOVAH'S WITNESSES", "designationCode": "C", "categoryCode": "61", "address": "2100 SHEVCHENKO", "city": "LASALLE", "province": "QC", "country": "CA", "postalCode": "H8N2Y2", "twitter": "None", "instagram": "None", "facebook": "None", "youtube": "None", "website": "None", "summary": "None", "logo": "None", "latitude": 45.43306681124145, "longitude": -73.63193586291749}, "119288918RR0425": {"name": "RIVERSIDE CONGREGATION OF JEHOVAH'S WITNESSES, CRESTON BRITISH COLUMBIA", "designationCode": "C", "categoryCode": "61", "address": "1323 NORTHWEST BOULEVARD", "city": "CRESTON", "province": "BC", "country": "CA", "postalCode": "V0B1G6", "twitter": "None", "instagram": "None", "facebook": "None", "youtube": "None", "website": "None", "summary": "None", "logo": "None", "latitude": 49.11093983819032, "longitude": -116.5236029274041}, "119288918RR0170": {"name": "RIVERSIDE CONGREGATION OF JEHOVAH'S WITNESSES, OTTAWA, ONTARIO", "designationCode": "C", "categoryCode": "61", "address": "3 - 170 ALICE ST", "city": "VANIER", "province": "ON", "country": "CA", "postalCode": "K1L7X3", "twitter": "None", "instagram": "None", "facebook": "None", "youtube": "None", "website": "None", "summary": "None", "logo": "None", "latitude": 45.44052813460103, "longitude": -75.66890341436329}, "131905150RR0001": {"name": "RIVERSIDE DAY CARE INCORPORATED", "designationCode": "C", "categoryCode": "20", "address": "60 COPPER ROAD", "city": "THOMPSON", "province": "MB", "country": "CA", "postalCode": "R8N0V6", "twitter": "None", "instagram": "None", "facebook": "None", "youtube": "None", "website": "None", "summary": "None", "logo": "None", "latitude": 55.74812396974581, "longitude": -97.8531843738345}, "856369509RR0001": {"name": "RIVERSIDE EVANGELICAL MISSIONARY CHURCH", "designationCode": "C", "categoryCode": "39", "address": "88 MURIEL AVE", "city": "TORONTO", "province": "ON", "country": "CA", "postalCode": "M4J2Y4", "twitter": "None", "instagram": "None", "facebook": "None", "youtube": "None", "website": "None", "summary": "None", "logo": "None", "latitude": 43.68319198972822, "longitude": -79.34559647711916}, "874326549RR0001": {"name": "RIVERSIDE FOUNDATION FOR HEALTH CARE", "designationCode": "A", "categoryCode": "13", "address": "110 VICTORIA AVENUE", "city": "FORT FRANCES", "province": "ON", "country": "CA", "postalCode": "P9A2B7", "twitter": "None", "instagram": "None", "facebook": "None", "youtube": "None", "website": "None", "summary": "None", "logo": "None", "latitude": 48.605996499483595, "longitude": -93.3924168846551}, "132361130RR0001": {"name": "RIVERSIDE GOSPEL FELLOWSHIP", "designationCode": "C", "categoryCode": "39", "address": "PO BOX 14", "city": "DIXONVILLE", "province": "AB", "country": "CA", "postalCode": "T0H1E0", "twitter": "None", "instagram": "None", "facebook": "None", "youtube": "None", "website": "None", "summary": "None", "logo": "None", "latitude": 56.54301000000004, "longitude": -117.66921999999994}, "122009343RR0001": {"name": "RIVERSIDE HEALTH CARE FACILITIES INC", "designationCode": "C", "categoryCode": "10", "address": "110 VICTORIA AVENUE", "city": "FORT FRANCES", "province": "ON", "country": "CA", "postalCode": "P9A2B7", "twitter": "None", "instagram": "None", "facebook": "None", "youtube": "None", "website": "None", "summary": "None", "logo": "None", "latitude": 48.605996499483595, "longitude": -93.3924168846551}, "888606993RR0001": {"name": "RIVERSIDE LIONS' CHARITABLE FOUNDATION INC", "designationCode": "A", "categoryCode": "03", "address": "188 WORTHINGTON AVE", "city": "WINNIPEG", "province": "MB", "country": "CA", "postalCode": "R2M5K1", "twitter": "None", "instagram": "None", "facebook": "None", "youtube": "None", "website": "None", "summary": "None", "logo": "None", "latitude": 49.84261516622443, "longitude": -97.09654492864578}, "119120814RR0001": {"name": "RIVERSIDE NEW HORIZON CENTRE INC.", "designationCode": "C", "categoryCode": "56", "address": "PO BOX 93", "city": "DUNREA", "province": "MB", "country": "CA", "postalCode": "R0K0S0", "twitter": "None", "instagram": "None", "facebook": "None", "youtube": "None", "website": "None", "summary": "None", "logo": "None", "latitude": 49.40691000000004, "longitude": -99.73213999999996}, "119120822RR0001": {"name": "RIVERSIDE PARK NURSERY SCHOOL", "designationCode": "C", "categoryCode": "20", "address": "3191 RIVERSIDE DRIVE,", "city": "OTTAWA", "province": "ON", "country": "CA", "postalCode": "K1V8N8", "twitter": "None", "instagram": "None", "facebook": "None", "youtube": "None", "website": "None", "summary": "None", "logo": "None", "latitude": 45.35941071715065, "longitude": -75.68857601656245}, "866629132RR0001": {"name": "RIVERSIDE PENTECOSTAL ASSEMBLY", "designationCode": "C", "categoryCode": "36", "address": "PO BOX 68", "city": "GRAND VALLEY", "province": "ON", "country": "CA", "postalCode": "L9W7G1", "twitter": "None", "instagram": "None", "facebook": "None", "youtube": "None", "website": "None", "summary": "None", "logo": "None", "latitude": 43.90147500000006, "longitude": -80.31588199999993}, "107833394RR0108": {"name": "RIVERSIDE PENTECOSTAL CHURCH", "designationCode": "C", "categoryCode": "36", "address": "BOX 100", "city": "GLENWOOD", "province": "NL", "country": "CA", "postalCode": "A0G2K0", "twitter": "None", "instagram": "None", "facebook": "None", "youtube": "None", "website": "None", "summary": "None", "logo": "None", "latitude": 48.99727000000007, "longitude": -54.87533999999994}, "889691440RR0001": {"name": "RIVERSIDE UNITED BAPTIST CHURCH", "designationCode": "C", "categoryCode": "31", "address": "RR3", "city": "WEYMOUTH", "province": "NS", "country": "CA", "postalCode": "B0W3T0", "twitter": "None", "instagram": "None", "facebook": "None", "youtube": "None", "website": "None", "summary": "None", "logo": "None", "latitude": 44.40897000000007, "longitude": -65.99622999999997}, "107898470RR0001": {"name": "RIVERSIDE UNITED CHURCH", "designationCode": "C", "categoryCode": "44", "address": "3191 RIVERSIDE DR", "city": "OTTAWA", "province": "ON", "country": "CA", "postalCode": "K1V8N8", "twitter": "None", "instagram": "None", "facebook": "None", "youtube": "None", "website": "None", "summary": "None", "logo": "None", "latitude": 45.35941071715065, "longitude": -75.68857601656245}, "119120855RR0001": {"name": "RIVERSIDE UNITED CHURCH", "designationCode": "C", "categoryCode": "44", "address": "740 MURCHYVILLE ROAD, RR#5", "city": "MIDDLE MUSQUODOBOIT", "province": "NS", "country": "CA", "postalCode": "B0N1X0", "twitter": "None", "instagram": "None", "facebook": "None", "youtube": "None", "website": "None", "summary": "None", "logo": "None", "latitude": 44.99711010456508, "longitude": -63.136445563274535}, "119120871RR0001": {"name": "RIVERSIDE UNITED CHURCH", "designationCode": "C", "categoryCode": "44", "address": "PO BOX 15", "city": "YARKER", "province": "ON", "country": "CA", "postalCode": "K0K3N0", "twitter": "None", "instagram": "None", "facebook": "None", "youtube": "None", "website": "None", "summary": "None", "logo": "None", "latitude": 44.37166000000008, "longitude": -76.77047999999996}, "119120897RR0001": {"name": "RIVERSIDE UNITED CHURCH", "designationCode": "C", "categoryCode": "44", "address": "695 RIVERSIDE DRIVE", "city": "LONDON", "province": "ON", "country": "CA", "postalCode": "N6H2S3", "twitter": "None", "instagram": "None", "facebook": "None", "youtube": "None", "website": "None", "summary": "None", "logo": "None", "latitude": 42.97134476131074, "longitude": -81.29491952328796}, "119120905RR0001": {"name": "RIVERSIDE UNITED CHURCH", "designationCode": "C", "categoryCode": "44", "address": "881 GLIDDEN AVE", "city": "WINDSOR", "province": "ON", "country": "CA", "postalCode": "N8S2N6", "twitter": "None", "instagram": "None", "facebook": "None", "youtube": "None", "website": "None", "summary": "None", "logo": "None", "latitude": 42.3277913829997, "longitude": -82.96438954348172}, "118800150RR0001": {"name": "RIVERSIDE UNITED CHURCH, BASS RIVER, N.S.", "designationCode": "C", "categoryCode": "44", "address": "173 DOMINION STREET", "city": "TRURO", "province": "NS", "country": "CA", "postalCode": "B2N3P7", "twitter": "None", "instagram": "None", "facebook": "None", "youtube": "None", "website": "None", "summary": "None", "logo": "None", "latitude": 45.35809986816894, "longitude": -63.28214792212492}, "131824039RR0001": {"name": "RIVERSIDE-ALBERT BAPTIST CHURCH", "designationCode": "C", "categoryCode": "31", "address": "5776 KING STREET", "city": "RIVERSIDE ALBERT CO", "province": "NB", "country": "CA", "postalCode": "E4H4B2", "twitter": "None", "instagram": "None", "facebook": "None", "youtube": "None", "website": "None", "summary": "None", "logo": "None", "latitude": 45.75127170229867, "longitude": -64.73390501643948}, "107898561RR0001": {"name": "RIVERTON & DISTRICT FRIENDSHIP CENTRE INC.", "designationCode": "C", "categoryCode": "09", "address": "53 LAURA AVENUE               BOX 359", "city": "RIVERTON", "province": "MB", "country": "CA", "postalCode": "R0C2R0", "twitter": "None", "instagram": "None", "facebook": "None", "youtube": "None", "website": "None", "summary": "None", "logo": "None", "latitude": 50.99611110040396, "longitude": -96.99913278213585}, "106731938RR0001": {"name": "RIVERTON CARE SERVICES INC.", "designationCode": "C", "categoryCode": "01", "address": "BOX 453", "city": "RIVERTON", "province": "MB", "country": "CA", "postalCode": "R0C2R0", "twitter": "None", "instagram": "None", "facebook": "None", "youtube": "None", "website": "None", "summary": "None", "logo": "None", "latitude": 50.99757300000002, "longitude": -97.00410710537368}, "823212071RR0001": {"name": "RIVERTON CEMETERY COMPANY", "designationCode": "C", "categoryCode": "59", "address": "R.R. #1", "city": "STELLARTON", "province": "NS", "country": "CA", "postalCode": "B0K1S0", "twitter": "None", "instagram": "None", "facebook": "None", "youtube": "None", "website": "None", "summary": "None", "logo": "None", "latitude": 45.29186181636041, "longitude": -62.65944094531346}, "119120954RR0001": {"name": "RIVERTON COMMUNITY CLUB", "designationCode": "C", "categoryCode": "56", "address": "RR #1", "city": "STELLARTON", "province": "NS", "country": "CA", "postalCode": "B0K1S0", "twitter": "None", "instagram": "None", "facebook": "None", "youtube": "None", "website": "None", "summary": "None", "logo": "None", "latitude": 45.29186181636041, "longitude": -62.65944094531346}, "104545801RR0001": {"name": "RIVERTON DAY CARE COOPERATIVE INC.", "designationCode": "C", "categoryCode": "01", "address": "PO BOX 189", "city": "RIVERTON", "province": "MB", "country": "CA", "postalCode": "R0C2R0", "twitter": "None", "instagram": "None", "facebook": "None", "youtube": "None", "website": "None", "summary": "None", "logo": "None", "latitude": 50.99757300000002, "longitude": -97.00410710537368}, "894193648RR0001": {"name": "RIVERTON FELLOWSHIP CIRCLE INC.", "designationCode": "C", "categoryCode": "39", "address": "BOX 339", "city": "RIVERTON", "province": "MB", "country": "CA", "postalCode": "R0C2R0", "twitter": "None", "instagram": "None", "facebook": "None", "youtube": "None", "website": "None", "summary": "None", "logo": "None", "latitude": 50.99757300000002, "longitude": -97.00410710537368}, "119120962RR0001": {"name": "RIVERTON GOSPEL CHAPEL", "designationCode": "C", "categoryCode": "34", "address": "P.O. BOX 356", "city": "RIVERTON", "province": "MB", "country": "CA", "postalCode": "R0C2R0", "twitter": "None", "instagram": "None", "facebook": "None", "youtube": "None", "website": "None", "summary": "None", "logo": "None", "latitude": 50.99757300000002, "longitude": -97.00410710537368}, "119120970RR0001": {"name": "RIVERTON GUEST HOME CORPORATION", "designationCode": "C", "categoryCode": "01", "address": "6125 TRAFALGAR RD", "city": "STELLARTON", "province": "NS", "country": "CA", "postalCode": "B0K1S0", "twitter": "None", "instagram": "None", "facebook": "None", "youtube": "None", "website": "None", "summary": "None", "logo": "None", "latitude": 45.55755600000006, "longitude": -62.66633299999994}, "880315437RR0001": {"name": "RIVERTON M.C.C. COMMUNITY ASSISTANCE CENTRE INC.", "designationCode": "A", "categoryCode": "09", "address": "BOX 623", "city": "RIVERTON", "province": "MB", "country": "CA", "postalCode": "R0C2R0", "twitter": "None", "instagram": "None", "facebook": "None", "youtube": "None", "website": "None", "summary": "None", "logo": "None", "latitude": 50.99757300000002, "longitude": -97.00410710537368}, "107898595RR0001": {"name": "RIVERTON-HNAUSA LUTHERAN CHURCH", "designationCode": "C", "categoryCode": "32", "address": "BOX 149", "city": "RIVERTON", "province": "MB", "country": "CA", "postalCode": "R0C2R0", "twitter": "None", "instagram": "None", "facebook": "None", "youtube": "None", "website": "None", "summary": "None", "logo": "None", "latitude": 50.99757300000002, "longitude": -97.00410710537368}, "741911093RR0001": {"name": "RIVERVIEW BAPTIST CHURCH LIMITED", "designationCode": "C", "categoryCode": "31", "address": "122 MCCLELAN AVE", "city": "RIVERVIEW", "province": "NB", "country": "CA", "postalCode": "E1B1X2", "twitter": "None", "instagram": "None", "facebook": "None", "youtube": "None", "website": "None", "summary": "None", "logo": "None", "latitude": 46.06475328726412, "longitude": -64.79627828723544}, "894505668RR0001": {"name": "RIVERVIEW BOYS AND GIRLS CLUB", "designationCode": "C", "categoryCode": "09", "address": "P.O. BOX 7416", "city": "RIVERVIEW", "province": "NB", "country": "CA", "postalCode": "E1B4T9", "twitter": "None", "instagram": "None", "facebook": "None", "youtube": "None", "website": "None", "summary": "None", "logo": "None", "latitude": 46.05759600000006, "longitude": -64.80031399999993}, "119121051RR0001": {"name": "RIVERVIEW CEMETERY COMPANY", "designationCode": "C", "categoryCode": "59", "address": "RR 3", "city": "MERIGOMISH", "province": "NS", "country": "CA", "postalCode": "B0K1G0", "twitter": "None", "instagram": "None", "facebook": "None", "youtube": "None", "website": "None", "summary": "None", "logo": "None", "latitude": 45.63122000000004, "longitude": -62.42946999999998}, "132657123RR0001": {"name": "RIVERVIEW CEMETERY COMPANY", "designationCode": "C", "categoryCode": "59", "address": "192 DITTON", "city": "SCOTSTOWN", "province": "QC", "country": "CA", "postalCode": "J0B3B0", "twitter": "None", "instagram": "None", "facebook": "None", "youtube": "None", "website": "None", "summary": "None", "logo": "None", "latitude": 45.51362781207817, "longitude": -71.2700081504987}, "875277428RR0001": {"name": "RIVERVIEW COMMUNITY CHURCH", "designationCode": "C", "categoryCode": "36", "address": "3510-48 AVE", "city": "ATHABASCA", "province": "AB", "country": "CA", "postalCode": "T9S1T9", "twitter": "None", "instagram": "None", "facebook": "None", "youtube": "None", "website": "None", "summary": "None", "logo": "None", "latitude": 54.716955523226616, "longitude": -113.25912372300768}, "119288918RR0397": {"name": "RIVERVIEW CONGREGATION OF JEHOVAH'S WITNESSES", "designationCode": "C", "categoryCode": "61", "address": "12-205 BLYTHWOOD AVE", "city": "RIVERVIEW", "province": "NB", "country": "CA", "postalCode": "E1B2G7", "twitter": "None", "instagram": "None", "facebook": "None", "youtube": "None", "website": "None", "summary": "None", "logo": "None"}, "119288918RR0681": {"name": "RIVERVIEW CONGREGATION OF JEHOVAH'S WITNESSES", "designationCode": "C", "categoryCode": "61", "address": "434 - 50 WOODSMERE CLOSE", "city": "FORT SASKATCHEWAN", "province": "AB", "country": "CA", "postalCode": "T8L4N9", "twitter": "None", "instagram": "None", "facebook": "None", "youtube": "None", "website": "None", "summary": "None", "logo": "None", "latitude": 53.679083421662654, "longitude": -113.24890083868125}, "119288918RR1033": {"name": "RIVERVIEW CONGREGATION OF JEHOVAH'S WITNESSES", "designationCode": "C", "categoryCode": "61", "address": "27 WESTWOOD CRES", "city": "CAMBRIDGE", "province": "ON", "country": "CA", "postalCode": "N1S3V7", "twitter": "None", "instagram": "None", "facebook": "None", "youtube": "None", "website": "None", "summary": "None", "logo": "None", "latitude": 43.34595792587583, "longitude": -80.3361947067633}, "119288918RR0038": {"name": "RIVERVIEW CONGREGATION OF JEHOVAH'S WITNESSES, SARNIA,ONTARIO", "designationCode": "C", "categoryCode": "61", "address": "78 D'ANDREA TRAIL", "city": "SARNIA", "province": "ON", "country": "CA", "postalCode": "N7S6H4", "twitter": "None", "instagram": "None", "facebook": "None", "youtube": "None", "website": "None", "summary": "None", "logo": "None", "latitude": 42.96109571506006, "longitude": -82.3584993315992}, "827556879RR0001": {"name": "RIVERVIEW EARLY LEARNERS, INC.", "designationCode": "C", "categoryCode": "01", "address": "1105 LOUISE AVENUE EAST", "city": "BRANDON", "province": "MB", "country": "CA", "postalCode": "R7A1Y2", "twitter": "None", "instagram": "None", "facebook": "None", "youtube": "None", "website": "None", "summary": "None", "logo": "None", "latitude": 49.843785494373165, "longitude": -99.92327399999999}, "136674918RR0001": {"name": "RIVERVIEW HEALTH CENTRE", "designationCode": "C", "categoryCode": "10", "address": "1 MORLEY AVENUE", "city": "WINNIPEG", "province": "MB", "country": "CA", "postalCode": "R3L2P4", "twitter": "None", "instagram": "None", "facebook": "None", "youtube": "None", "website": "None", "summary": "None", "logo": "None", "latitude": 49.869076526870906, "longitude": -97.12236631521597}, "118937853RR0001": {"name": "RIVERVIEW HEALTH CENTRE FOUNDATION INC.", "designationCode": "A", "categoryCode": "13", "address": "1 MORLEY AVENUE", "city": "WINNIPEG", "province": "MB", "country": "CA", "postalCode": "R3L2P4", "twitter": "None", "instagram": "None", "facebook": "None", "youtube": "None", "website": "None", "summary": "None", "logo": "None", "latitude": 49.869076526870906, "longitude": -97.12236631521597}, "107898686RR0001": {"name": "RIVERVIEW HOME CORPORATION", "designationCode": "C", "categoryCode": "10", "address": "R R #1                        6105 TRAFALGAR ROAD", "city": "STELLARTON", "province": "NS", "country": "CA", "postalCode": "B0K1S0", "twitter": "None", "instagram": "None", "facebook": "None", "youtube": "None", "website": "None", "summary": "None", "logo": "None", "latitude": 45.55755600000006, "longitude": -62.66633299999994}, "137710893RR0001": {"name": "RIVERVIEW HORTICULTURAL CENTRE SOCIETY", "designationCode": "C", "categoryCode": "52", "address": "#129 2880 PANORAMA DRIVE", "city": "COQUITLAM", "province": "BC", "country": "CA", "postalCode": "V3E2W4", "twitter": "None", "instagram": "None", "facebook": "None", "youtube": "None", "website": "None", "summary": "None", "logo": "None", "latitude": 49.29743953621104, "longitude": -122.81243366472387}, "890122427RR0001": {"name": "RIVERVIEW HOSPITAL HISTORICAL SOCIETY", "designationCode": "C", "categoryCode": "50", "address": "1116 BRUNETTE AVENUE", "city": "COQUITLAM", "province": "BC", "country": "CA", "postalCode": "V3K1G3", "twitter": "None", "instagram": "None", "facebook": "None", "youtube": "None", "website": "None", "summary": "None", "logo": "None", "latitude": 49.23878678766814, "longitude": -122.86196589855159}, "126154616RR0001": {"name": "RIVERVIEW KINSMEN COMMUNITY CENTRE INCORPORATED", "designationCode": "C", "categoryCode": "56", "address": "145 LAKESIDE DR", "city": "RIVERVIEW", "province": "NB", "country": "CA", "postalCode": "E1B4K7", "twitter": "None", "instagram": "None", "facebook": "None", "youtube": "None", "website": "None", "summary": "None", "logo": "None", "latitude": 46.062444884846016, "longitude": -64.82055955011815}, "890809569RR0001": {"name": "RIVERVIEW MANOR ACTIVITY FUND", "designationCode": "C", "categoryCode": "11", "address": "PO BOX 820", "city": "MONTAGUE", "province": "PE", "country": "CA", "postalCode": "C0A1R0", "twitter": "None", "instagram": "None", "facebook": "None", "youtube": "None", "website": "None", "summary": "None", "logo": "None", "latitude": 46.14343222329997, "longitude": -62.75594020244682}, "107898785RR0001": {"name": "RIVERVIEW PARK CHURCH OF CHRIST", "designationCode": "C", "categoryCode": "39", "address": "1515 CHOMLEY CRESCENT", "city": "OTTAWA", "province": "ON", "country": "CA", "postalCode": "K1G0V9", "twitter": "None", "instagram": "None", "facebook": "None", "youtube": "None", "website": "None", "summary": "None", "logo": "None", "latitude": 45.408547939206045, "longitude": -75.64603474046416}, "880457817RR0001": {"name": "RIVERVIEW PUBLIC LIBRARY BOARD", "designationCode": "C", "categoryCode": "50", "address": "34 HONOUR HOUSE COURT", "city": "RIVERVIEW", "province": "NB", "country": "CA", "postalCode": "E1B3Y9", "twitter": "None", "instagram": "None", "facebook": "None", "youtube": "None", "website": "None", "summary": "None", "logo": "None", "latitude": 46.06117048993958, "longitude": -64.80521800526974}, "119121200RR0001": {"name": "RIVERVIEW RURAL HIGH SCHOOL SCHOLASTIC AWARDS FUND", "designationCode": "C", "categoryCode": "21", "address": "57 COXHEATH ROAD", "city": "COXHEATH ROAD", "province": "NS", "country": "CA", "postalCode": "B1R1R4", "twitter": "None", "instagram": "None", "facebook": "None", "youtube": "None", "website": "None", "summary": "None", "logo": "None", "latitude": 46.1157183102605, "longitude": -60.23432644278405}, "888054426RR0001": {"name": "RIVERVIEW STUDY CENTRE", "designationCode": "C", "categoryCode": "49", "address": "630, RUE SHERBROOKE OUEST     SUITE 400", "city": "MONTREAL", "province": "QC", "country": "CA", "postalCode": "H3A1E4", "twitter": "None", "instagram": "None", "facebook": "None", "youtube": "None", "website": "None", "summary": "None", "logo": "None", "latitude": 45.505404, "longitude": -73.5724035}, "119121242RR0001": {"name": "RIVERVIEW UNITED CHURCH", "designationCode": "C", "categoryCode": "44", "address": "BOX 730 170 PINE CRESCENT", "city": "ATIKOKAN", "province": "ON", "country": "CA", "postalCode": "P0T1C0", "twitter": "None", "instagram": "None", "facebook": "None", "youtube": "None", "website": "None", "summary": "None", "logo": "None", "latitude": 48.75698324704236, "longitude": -91.60221357732682}, "119121226RR0001": {"name": "RIVERVIEW UNITED CHURCH OF CANADA", "designationCode": "C", "categoryCode": "44", "address": "760 HWY 2", "city": "ELMSDALE", "province": "NS", "country": "CA", "postalCode": "B2S1G3", "twitter": "None", "instagram": "None", "facebook": "None", "youtube": "None", "website": "None", "summary": "None", "logo": "None", "latitude": 44.9671134506398, "longitude": -63.505243217570964}, "130918261RR0001": {"name": "RIVERVIEW-ASHLAND CHILD CARE CENTRE INC", "designationCode": "C", "categoryCode": "20", "address": "112 ASHLAND AVE", "city": "WINNIPEG", "province": "MB", "country": "CA", "postalCode": "R3L1K6", "twitter": "None", "instagram": "None", "facebook": "None", "youtube": "None", "website": "None", "summary": "None", "logo": "None", "latitude": 49.86514511125885, "longitude": -97.11873233371826}, "868665977RR0001": {"name": "RIVERWOOD CHURCH COMMUNITY INC.", "designationCode": "C", "categoryCode": "39", "address": "325 TALBOT AVE", "city": "WINNIPEG", "province": "MB", "country": "CA", "postalCode": "R2L0P9", "twitter": "None", "instagram": "None", "facebook": "None", "youtube": "None", "website": "None", "summary": "None", "logo": "None", "latitude": 49.90760030725942, "longitude": -97.11025518567146}, "726387129RR0001": {"name": "RIVERWOOD OUTDOOR WELLNESS COMMITTEE INC.", "designationCode": "A", "categoryCode": "53", "address": "57 BANERJEE BAY", "city": "WEYBURN", "province": "SK", "country": "CA", "postalCode": "S4H3C3", "twitter": "None", "instagram": "None", "facebook": "None", "youtube": "None", "website": "None", "summary": "None", "logo": "None", "latitude": 49.674048000000056, "longitude": -103.86508849999993}, "874227010RR0001": {"name": "RIVIER ACADEMY INC.", "designationCode": "C", "categoryCode": "20", "address": "1405-A BISHOP PASCAL PLACE", "city": "PRINCE ALBERT", "province": "SK", "country": "CA", "postalCode": "S6V5J1", "twitter": "None", "instagram": "None", "facebook": "None", "youtube": "None", "website": "None", "summary": "None", "logo": "None", "latitude": 53.2002530111085, "longitude": -105.76719889344436}, "833789167RR0001": {"name": "RIVIERE CHARITABLE FOUNDATION", "designationCode": "B", "categoryCode": "03", "address": "14 KING GEORGES ROAD", "city": "TORONTO", "province": "ON", "country": "CA", "postalCode": "M8X1K7", "twitter": "None", "instagram": "None", "facebook": "None", "youtube": "None", "website": "None", "summary": "None", "logo": "None", "latitude": 43.65101288095089, "longitude": -79.50439223648212}, "107898900RR0001": {"name": "RIVIERE QUI BARRE AGRICULTURAL SOCIETY", "designationCode": "C", "categoryCode": "56", "address": "145A 265000 HWY 44", "city": "STURGEON COUNTY", "province": "AB", "country": "CA", "postalCode": "T8R0J3", "twitter": "None", "instagram": "None", "facebook": "None", "youtube": "None", "website": "None", "summary": "None", "logo": "None", "latitude": 53.76248700000005, "longitude": -113.81905249999994}, "889206504RR0001": {"name": "RIWOCHE TIBETAN BUDDHIST TEMPLE OF TORONTO", "designationCode": "C", "categoryCode": "35", "address": "28 HEINTZMAN STREET", "city": "TORONTO", "province": "ON", "country": "CA", "postalCode": "M6P2J6", "twitter": "None", "instagram": "None", "facebook": "None", "youtube": "None", "website": "None", "summary": "None", "logo": "None", "latitude": 43.666102488199, "longitude": -79.46360425647741}, "816763536RR0001": {"name": "RJ and Diane Peterson Keewatin Foundation", "designationCode": "C", "categoryCode": "50", "address": "311 TALBOT STREET             P.O. BOX 189", "city": "PORT MCNICOLL", "province": "ON", "country": "CA", "postalCode": "L0K1R0", "twitter": "None", "instagram": "None", "facebook": "None", "youtube": "None", "website": "None", "summary": "None", "logo": "None", "latitude": 44.74787125064461, "longitude": -79.80376839412538}, "735768699RR0001": {"name": "RJ Kent Housing Society", "designationCode": "C", "categoryCode": "56", "address": "2675 SHAUGHNESSY ST", "city": "PORT COQUITLAM", "province": "BC", "country": "CA", "postalCode": "V3C0B9", "twitter": "None", "instagram": "None", "facebook": "None", "youtube": "None", "website": "None", "summary": "None", "logo": "None", "latitude": 49.26399518901835, "longitude": -122.78003415003735}, "857066955RR0001": {"name": "RJL Braydon Charitable Foundation", "designationCode": "B", "categoryCode": "03", "address": "1500-340 ALBERT STREET", "city": "OTTAWA", "province": "ON", "country": "CA", "postalCode": "K1R0A5", "twitter": "None", "instagram": "None", "facebook": "None", "youtube": "None", "website": "None", "summary": "None", "logo": "None", "latitude": 45.41856366192525, "longitude": -75.70342211835663}, "861367415RR0001": {"name": "RLC YOUTH LEADERSHIP INC.", "designationCode": "C", "categoryCode": "09", "address": "243-375 YORK AVE", "city": "WINNIPEG", "province": "MB", "country": "CA", "postalCode": "R3C3J3", "twitter": "None", "instagram": "None", "facebook": "None", "youtube": "None", "website": "None", "summary": "None", "logo": "None", "latitude": 49.88851200000001, "longitude": -97.144326}, "892645979RR0001": {"name": "RM SOCIETY-SUPPORTING GRIEVING YOUTH THROUGH RAINBOWS", "designationCode": "C", "categoryCode": "49", "address": "2221 BOWEN ROAD", "city": "NANAIMO", "province": "BC", "country": "CA", "postalCode": "V9S5J3", "twitter": "None", "instagram": "None", "facebook": "None", "youtube": "None", "website": "None", "summary": "None", "logo": "None", "latitude": 49.192502396329886, "longitude": -123.99249159120434}, "849991716RR0001": {"name": "RMF Charitable Foundation", "designationCode": "A", "categoryCode": "03", "address": "50 - 3935 ARTHUR ROSE AVE", "city": "SASKATOON", "province": "SK", "country": "CA", "postalCode": "S7P0C8", "twitter": "None", "instagram": "None", "facebook": "None", "youtube": "None", "website": "None", "summary": "None", "logo": "None", "latitude": 52.199963999999994, "longitude": -106.63100734880788}, "859499170RR0001": {"name": "ROACHVILLE CEMETERY ASSOCIATION", "designationCode": "C", "categoryCode": "59", "address": "37 ROACHVILLE ROAD", "city": "ROACHVILLE", "province": "NB", "country": "CA", "postalCode": "E4G2J2", "twitter": "None", "instagram": "None", "facebook": "None", "youtube": "None", "website": "None", "summary": "None", "logo": "None", "latitude": 45.733032468261015, "longitude": -65.5493491419586}, "855428322RR0001": {"name": "ROAD BUILDERS ASSOCIATION OF NEW BRUNSWICK SCHOLARSHIP TRUST FUND", "designationCode": "C", "categoryCode": "21", "address": "59 AVONLEA COURT, SUITE 5", "city": "FREDERICTON", "province": "NB", "country": "CA", "postalCode": "E3C1N8", "twitter": "None", "instagram": "None", "facebook": "None", "youtube": "None", "website": "None", "summary": "None", "logo": "None", "latitude": 45.94681876464306, "longitude": -66.68904423870381}, "778847699RR0001": {"name": "ROAM - Reuniting Owners with Animals Missing LTD.", "designationCode": "C", "categoryCode": "54", "address": "1783 FAIRHURST AVE", "city": "VICTORIA", "province": "BC", "country": "CA", "postalCode": "V8N1P5", "twitter": "None", "instagram": "None", "facebook": "None", "youtube": "None", "website": "None", "summary": "None", "logo": "None", "latitude": 48.475049543424404, "longitude": -123.32237160814215}, "129892675RR0001": {"name": "ROASTERS FOUNDATION/FONDATION ROASTERS", "designationCode": "A", "categoryCode": "63", "address": "SUITE 710                     1250 GUY STREET", "city": "MONTREAL", "province": "QC", "country": "CA", "postalCode": "H3H2T4", "twitter": "None", "instagram": "None", "facebook": "None", "youtube": "None", "website": "None", "summary": "None", "logo": "None", "latitude": 45.49478074242606, "longitude": -73.57730353817293}, "898259494RR0001": {"name": "ROB ROY UNITED CHURCH", "designationCode": "C", "categoryCode": "44", "address": "RR 2", "city": "SINGHAMPTON", "province": "ON", "country": "CA", "postalCode": "N0C1M0", "twitter": "None", "instagram": "None", "facebook": "None", "youtube": "None", "website": "None", "summary": "None", "logo": "None", "latitude": 44.35056000000003, "longitude": -80.25113999999996}, "108159765RR0001": {"name": "ROBBINS HEBREW ACADEMY", "designationCode": "C", "categoryCode": "20", "address": "1700 BATHURST ST", "city": "YORK", "province": "ON", "country": "CA", "postalCode": "M5P3K3", "twitter": "None", "instagram": "None", "facebook": "None", "youtube": "None", "website": "None", "summary": "None", "logo": "None", "latitude": 43.69565432970755, "longitude": -79.42344648704423}, "898119912RR0001": {"name": "ROBERT & NORMA PUDDESTER NUMISMATIC FOUNDATION", "designationCode": "B", "categoryCode": "50", "address": "SUITE 1250  BOX 62            1500 WEST GEORGIA STREET", "city": "VANCOUVER", "province": "BC", "country": "CA", "postalCode": "V6G2Z6", "twitter": "None", "instagram": "None", "facebook": "None", "youtube": "None", "website": "None", "summary": "None", "logo": "None", "latitude": 49.29013479542975, "longitude": -123.1300069287031}, "119121416RR0001": {"name": "ROBERT ALEXANDER STEWART MEMORIAL TRUST", "designationCode": "B", "categoryCode": "15", "address": "PO BOX 10085                  LCD PACIFIC CENTRE", "city": "VANCOUVER", "province": "BC", "country": "CA", "postalCode": "V7Y1B6", "twitter": "None", "instagram": "None", "facebook": "None", "youtube": "None", "website": "None", "summary": "None", "logo": "None", "latitude": 49.28299000000004, "longitude": -123.11890999999997}, "119121424RR0001": {"name": "ROBERT ALLAN MEMORIAL SCHOLARSHIP TRUST", "designationCode": "C", "categoryCode": "21", "address": "#230 - 1639 WEST 2ND AVENUE", "city": "VANCOUVER", "province": "BC", "country": "CA", "postalCode": "V6J1H3", "twitter": "None", "instagram": "None", "facebook": "None", "youtube": "None", "website": "None", "summary": "None", "logo": "None", "latitude": 49.26975749321932, "longitude": -123.14192358090483}, "891194375RR0001": {"name": "ROBERT AND HELEN COLEMAN FOUNDATION", "designationCode": "B", "categoryCode": "03", "address": "700-250 HOWE ST", "city": "VANCOUVER", "province": "BC", "country": "CA", "postalCode": "V6C3S7", "twitter": "None", "instagram": "None", "facebook": "None", "youtube": "None", "website": "None", "summary": "None", "logo": "None", "latitude": 49.28680156812289, "longitude": -123.11355065886683}, "899024616RR0001": {"name": "ROBERT COFFEY MEMORIAL SPORTS FUND FOR YOUTH Inc.", "designationCode": "C", "categoryCode": "21", "address": "815 MACHRAY AVENUE", "city": "WINNIPEG", "province": "MB", "country": "CA", "postalCode": "R2X1H2", "twitter": "None", "instagram": "None", "facebook": "None", "youtube": "None", "website": "None", "summary": "None", "logo": "None", "latitude": 49.93208693923471, "longitude": -97.15425243545512}, "133968834RR0001": {"name": "ROBERT E A AND CAROLINE LAND TRUST", "designationCode": "B", "categoryCode": "05", "address": "155 WELLINGTON ST W, 20TH FL", "city": "TORONTO", "province": "ON", "country": "CA", "postalCode": "M5V3K7", "twitter": "None", "instagram": "None", "facebook": "None", "youtube": "None", "website": "None", "summary": "None", "logo": "None", "latitude": 43.64596585316531, "longitude": -79.38574575644876}, "889739991RR0001": {"name": "ROBERT H JONES SCHOLARSHIP AWARD FOUNDATION", "designationCode": "B", "categoryCode": "25", "address": "447 PORTAGE AVENUE            INVESTORS GROUP TRUST CO. LTD.", "city": "WINNIPEG", "province": "MB", "country": "CA", "postalCode": "R3C3B6", "twitter": "None", "instagram": "None", "facebook": "None", "youtube": "None", "website": "None", "summary": "None", "logo": "None", "latitude": 49.899525000000054, "longitude": -97.14112999999993}, "795077098RR0001": {"name": "ROBERT H. AND LILLIAN P. HARTLEY FONDATION", "designationCode": "B", "categoryCode": "03", "address": "350 7TH AVENUE, 7TH FLOOR", "city": "CALGARY", "province": "AB", "country": "CA", "postalCode": "T2P3N9", "twitter": "None", "instagram": "None", "facebook": "None", "youtube": "None", "website": "None", "summary": "None", "logo": "None", "latitude": 51.046676474897474, "longitude": -114.06982963627445}}