{"118930619RR0001": {"name": "FRANKLIN CRAFT CLUB INC.", "designationCode": "C", "categoryCode": "56", "address": "BOX 29 - 116 WADDELL STREET", "city": "DOMINION CITY", "province": "MB", "country": "CA", "postalCode": "R0A0H0", "twitter": "None", "instagram": "None", "facebook": "None", "youtube": "None", "website": "None", "summary": "None", "logo": "None", "latitude": 49.14137861773139, "longitude": -97.14531239236682}, "832121149RR0001": {"name": "FRANKLIN HORNER COMMUNITY CENTRE OF ETOBICOKE", "designationCode": "C", "categoryCode": "56", "address": "432 HORNER AVENUE", "city": "TORONTO", "province": "ON", "country": "CA", "postalCode": "M8W2B2", "twitter": "None", "instagram": "None", "facebook": "None", "youtube": "None", "website": "None", "summary": "None", "logo": "None", "latitude": 43.60336613630311, "longitude": -79.5378698057302}, "892110040RR0001": {"name": "FRANKLIN WALDEN EVANGELISTIC ASSOCIATION", "designationCode": "C", "categoryCode": "47", "address": "22 JOYCELYN CRESCENT", "city": "GEORGETOWN", "province": "ON", "country": "CA", "postalCode": "L7G2S4", "twitter": "None", "instagram": "None", "facebook": "None", "youtube": "None", "website": "None", "summary": "None", "logo": "None", "latitude": 43.65217249930751, "longitude": -79.93939851252213}, "890953540RR0001": {"name": "FRANKTOWN PUBLIC CEMETERY", "designationCode": "C", "categoryCode": "59", "address": "1810 RICHMOND RD              RR 6", "city": "SMITHS FALLS", "province": "ON", "country": "CA", "postalCode": "K7A4S7", "twitter": "None", "instagram": "None", "facebook": "None", "youtube": "None", "website": "None", "summary": "None", "logo": "None", "latitude": 45.05621495039258, "longitude": -76.04965973146491}, "118930668RR0001": {"name": "FRASER ACADEMY ASSOCIATION", "designationCode": "C", "categoryCode": "20", "address": "2294 W 10TH AVE", "city": "VANCOUVER", "province": "BC", "country": "CA", "postalCode": "V6K2H8", "twitter": "None", "instagram": "None", "facebook": "None", "youtube": "None", "website": "None", "summary": "None", "logo": "None", "latitude": 49.26286448124545, "longitude": -123.15726288634659}, "804470342RR0001": {"name": "FRASER ACADEMY FOUNDATION", "designationCode": "A", "categoryCode": "23", "address": "2294 WEST 10TH AVE", "city": "VANCOUVER", "province": "BC", "country": "CA", "postalCode": "V6K2H8", "twitter": "None", "instagram": "None", "facebook": "None", "youtube": "None", "website": "None", "summary": "None", "logo": "None", "latitude": 49.26286448124545, "longitude": -123.15726288634659}, "886289438RR0001": {"name": "FRASER BASIN COUNCIL SOCIETY", "designationCode": "C", "categoryCode": "59", "address": "470 GRANVILLE ST  1ST FLOOR", "city": "VANCOUVER", "province": "BC", "country": "CA", "postalCode": "V6C1V5", "twitter": "None", "instagram": "None", "facebook": "None", "youtube": "None", "website": "None", "summary": "None", "logo": "None", "latitude": 49.284791843181985, "longitude": -123.11458406466043}, "872646716RR0001": {"name": "FRASER BASIN PROPERTY SOCIETY", "designationCode": "C", "categoryCode": "43", "address": "407-525 DALGLEISH DRIVE", "city": "KAMLOOPS", "province": "BC", "country": "CA", "postalCode": "V2C6E4", "twitter": "None", "instagram": "None", "facebook": "None", "youtube": "None", "website": "None", "summary": "None", "logo": "None", "latitude": 50.67419477655964, "longitude": -120.35594629349652}, "894390863RR0001": {"name": "FRASER CANYON BAPTIST CHURCH", "designationCode": "C", "categoryCode": "31", "address": "BOX 57", "city": "BOSTON BAR", "province": "BC", "country": "CA", "postalCode": "V0K1C0", "twitter": "None", "instagram": "None", "facebook": "None", "youtube": "None", "website": "None", "summary": "None", "logo": "None", "latitude": 49.864899826586026, "longitude": -121.44339787878182}, "899344584RR0001": {"name": "FRASER CANYON HOSPICE SOCIETY", "designationCode": "C", "categoryCode": "09", "address": "PO BOX 819", "city": "HOPE", "province": "BC", "country": "CA", "postalCode": "V0X1L0", "twitter": "None", "instagram": "None", "facebook": "None", "youtube": "None", "website": "None", "summary": "None", "logo": "None", "latitude": 49.37911800000006, "longitude": -121.44296149999994}, "119288918RR0790": {"name": "FRASER CONGREGATION OF JEHOVAH'S WITNESSES", "designationCode": "C", "categoryCode": "61", "address": "PO BOX 1452 STN A", "city": "PRINCE GEORGE", "province": "BC", "country": "CA", "postalCode": "V2L4V4", "twitter": "None", "instagram": "None", "facebook": "None", "youtube": "None", "website": "None", "summary": "None", "logo": "None", "latitude": 53.91241800000006, "longitude": -122.74463149999994}, "896822822RR0001": {"name": "FRASER HEADWATERS ALLIANCE", "designationCode": "C", "categoryCode": "52", "address": "6005 BROWN ROAD", "city": "DUNSTER", "province": "BC", "country": "CA", "postalCode": "V0J1J0", "twitter": "None", "instagram": "None", "facebook": "None", "youtube": "None", "website": "None", "summary": "None", "logo": "None", "latitude": 53.16213799715565, "longitude": -119.88824661893176}, "887612463RR0001": {"name": "FRASER HEALTH AUTHORITY", "designationCode": "C", "categoryCode": "19", "address": "330 E. COLUMBIA ST", "city": "NEW WESTMINSTER", "province": "BC", "country": "CA", "postalCode": "V3L3W7", "twitter": "None", "instagram": "None", "facebook": "None", "youtube": "None", "website": "None", "summary": "None", "logo": "None", "latitude": 49.226604789341565, "longitude": -122.89281120200276}, "869114876RR0001": {"name": "FRASER HERITAGE SOCIETY", "designationCode": "C", "categoryCode": "52", "address": "215 KILBY ROAD                PO BOX 84", "city": "HARRISON MILLS", "province": "BC", "country": "CA", "postalCode": "V0M1L0", "twitter": "None", "instagram": "None", "facebook": "None", "youtube": "None", "website": "None", "summary": "None", "logo": "None", "latitude": 49.23569101158867, "longitude": -121.95739914535417}, "107403461RR0001": {"name": "FRASER HOUSE SOCIETY", "designationCode": "C", "categoryCode": "57", "address": "33063 4TH AVE", "city": "MISSION", "province": "BC", "country": "CA", "postalCode": "V2V1S6", "twitter": "None", "instagram": "None", "facebook": "None", "youtube": "None", "website": "None", "summary": "None", "logo": "None", "latitude": 49.137219700314034, "longitude": -122.30800922461238}, "122190465RR0001": {"name": "FRASER LAKE PUBLIC LIBRARY ASSOCIATION", "designationCode": "C", "categoryCode": "50", "address": "P.O. BOX 520", "city": "FRASER LAKE", "province": "BC", "country": "CA", "postalCode": "V0J1S0", "twitter": "None", "instagram": "None", "facebook": "None", "youtube": "None", "website": "None", "summary": "None", "logo": "None", "latitude": 54.05537000000004, "longitude": -124.84213999999997}, "132155037RR0001": {"name": "FRASER NORTH - COMMUNITY VOLUNTEER CONNECTIONS SOCIETY", "designationCode": "C", "categoryCode": "59", "address": "200-25 KING EDWARD ST", "city": "COQUITLAM", "province": "BC", "country": "CA", "postalCode": "V3K4S8", "twitter": "None", "instagram": "None", "facebook": "None", "youtube": "None", "website": "None", "summary": "None", "logo": "None", "latitude": 49.23147071134628, "longitude": -122.8614347901049}, "118930809RR0001": {"name": "FRASER PRESBYTERIAN CHURCH", "designationCode": "C", "categoryCode": "37", "address": "BOX 495", "city": "TOTTENHAM", "province": "ON", "country": "CA", "postalCode": "L0G1W0", "twitter": "None", "instagram": "None", "facebook": "None", "youtube": "None", "website": "None", "summary": "None", "logo": "None", "latitude": 44.101466326769575, "longitude": -79.82930921542986}, "107403586RR0001": {"name": "FRASER REGION COMMUNITY JUSTICE INITIATIVES ASSOCIATION", "designationCode": "C", "categoryCode": "59", "address": "101-20678 EASTLEIGH CRESCENT", "city": "LANGLEY", "province": "BC", "country": "CA", "postalCode": "V3A4C4", "twitter": "None", "instagram": "None", "facebook": "None", "youtube": "None", "website": "None", "summary": "None", "logo": "None", "latitude": 49.10624704078248, "longitude": -122.6501911473006}, "890611387RR0001": {"name": "FRASER RIVER DISCOVERY CENTRE SOCIETY", "designationCode": "C", "categoryCode": "50", "address": "788 QUAYSIDE DRIVE", "city": "NEW WESTMINSTER", "province": "BC", "country": "CA", "postalCode": "V3M6Z6", "twitter": "None", "instagram": "None", "facebook": "None", "youtube": "None", "website": "None", "summary": "None", "logo": "None", "latitude": 49.20034505610727, "longitude": -122.91155451282154}, "867350282RR0001": {"name": "FRASER RIVER STURGEON CONSERVATION SOCIETY", "designationCode": "C", "categoryCode": "54", "address": "# 300-1682 WEST               7TH AVENUE", "city": "VANCOUVER", "province": "BC", "country": "CA", "postalCode": "V6J4S6", "twitter": "None", "instagram": "None", "facebook": "None", "youtube": "None", "website": "None", "summary": "None", "logo": "None", "latitude": 49.26541150288553, "longitude": -123.1428044701656}, "862234374RR0001": {"name": "FRASER RIVERKEEPER SOCIETY", "designationCode": "C", "categoryCode": "59", "address": "90 - 425 CARRALL ST", "city": "VANCOUVER", "province": "BC", "country": "CA", "postalCode": "V6B6E3", "twitter": "None", "instagram": "None", "facebook": "None", "youtube": "None", "website": "None", "summary": "None", "logo": "None", "latitude": 49.28107458090486, "longitude": -123.10442464770009}, "107403677RR0001": {"name": "FRASER VALLEY ADVENTIST ACADEMY", "designationCode": "C", "categoryCode": "20", "address": "26026 48TH AVE", "city": "ALDERGROVE", "province": "BC", "country": "CA", "postalCode": "V4W1J2", "twitter": "None", "instagram": "None", "facebook": "None", "youtube": "None", "website": "None", "summary": "None", "logo": "None", "latitude": 49.089264545011865, "longitude": -122.50274391618098}, "130565963RR0010": {"name": "FRASER VALLEY ALLIANCE CHURCH", "designationCode": "C", "categoryCode": "39", "address": "6897 120TH STREET", "city": "NORTH DELTA", "province": "BC", "country": "CA", "postalCode": "V4E2A8", "twitter": "None", "instagram": "None", "facebook": "None", "youtube": "None", "website": "None", "summary": "None", "logo": "None", "latitude": 49.12966800000001, "longitude": -122.89049299001668}, "118930841RR0001": {"name": "FRASER VALLEY ANTIQUE FARM MACHINERY ASSOCIATION", "designationCode": "C", "categoryCode": "50", "address": "BOX 2234", "city": "ABBOTSFORD", "province": "BC", "country": "CA", "postalCode": "V2T3X8", "twitter": "None", "instagram": "None", "facebook": "None", "youtube": "None", "website": "None", "summary": "None", "logo": "None", "latitude": 49.05161700000005, "longitude": -122.32930399999994}, "825220478RR0001": {"name": "FRASER VALLEY AUTISM SOCIETY", "designationCode": "C", "categoryCode": "11", "address": "33495 RICHARDS AVE", "city": "MISSION", "province": "BC", "country": "CA", "postalCode": "V2V7E4", "twitter": "None", "instagram": "None", "facebook": "None", "youtube": "None", "website": "None", "summary": "None", "logo": "None", "latitude": 49.18038038491319, "longitude": -122.2975466518122}, "140374547RR0001": {"name": "FRASER VALLEY BAPTIST CHURCH OF MAPLE RIDGE, BRITISH COLUMBIA, CANADA", "designationCode": "C", "categoryCode": "31", "address": "33750 BLUEBERRY DRIVE", "city": "MISSION", "province": "BC", "country": "CA", "postalCode": "V2V7A1", "twitter": "None", "instagram": "None", "facebook": "None", "youtube": "None", "website": "None", "summary": "None", "logo": "None", "latitude": 49.15316453952925, "longitude": -122.28949033083272}, "872023338RR0001": {"name": "FRASER VALLEY BRAIN INJURY ASSOCIATION", "designationCode": "C", "categoryCode": "09", "address": "201-2890 GARDEN ST", "city": "ABBOTSFORD", "province": "BC", "country": "CA", "postalCode": "V2T4W7", "twitter": "None", "instagram": "None", "facebook": "None", "youtube": "None", "website": "None", "summary": "None", "logo": "None", "latitude": 49.054375424923535, "longitude": -122.32148910433393}, "118930858RR0001": {"name": "FRASER VALLEY BUDDHIST TEMPLE", "designationCode": "C", "categoryCode": "35", "address": "POST OFFICE BOX 1619", "city": "ALDERGROVE", "province": "BC", "country": "CA", "postalCode": "V4W2V1", "twitter": "None", "instagram": "None", "facebook": "None", "youtube": "None", "website": "None", "summary": "None", "logo": "None", "latitude": 49.05687300000005, "longitude": -122.47227349999994}, "108163163RR0001": {"name": "FRASER VALLEY CHILD DEVELOPMENT (1982) SOCIETY", "designationCode": "C", "categoryCode": "11", "address": "102 32885 VENTURA AVE", "city": "ABBOTSFORD", "province": "BC", "country": "CA", "postalCode": "V2S6A3", "twitter": "None", "instagram": "None", "facebook": "None", "youtube": "None", "website": "None", "summary": "None", "logo": "None", "latitude": 49.05236143493551, "longitude": -122.31252060782504}, "802667550RR0001": {"name": "FRASER VALLEY CHILD DEVELOPMENT CENTRE FOUNDATION", "designationCode": "A", "categoryCode": "13", "address": "102-32885 VENTURA AVENUE", "city": "ABBOTSFORD", "province": "BC", "country": "CA", "postalCode": "V2S6A3", "twitter": "None", "instagram": "None", "facebook": "None", "youtube": "None", "website": "None", "summary": "None", "logo": "None", "latitude": 49.05236143493551, "longitude": -122.31252060782504}, "889272571RR0001": {"name": "FRASER VALLEY CHRISTIAN FELLOWSHIP", "designationCode": "C", "categoryCode": "39", "address": "604-3170 GLADWIN ROAD", "city": "ABBOTSFORD", "province": "BC", "country": "CA", "postalCode": "V2T5T1", "twitter": "None", "instagram": "None", "facebook": "None", "youtube": "None", "website": "None", "summary": "None", "logo": "None", "latitude": 49.05843647821569, "longitude": -122.31577210918137}, "879282762RR0001": {"name": "FRASER VALLEY CONSERVANCY", "designationCode": "C", "categoryCode": "56", "address": "PO BOX 2026", "city": "ABBOTSFORD", "province": "BC", "country": "CA", "postalCode": "V2T3T8", "twitter": "None", "instagram": "None", "facebook": "None", "youtube": "None", "website": "None", "summary": "None", "logo": "None", "latitude": 49.05161700000005, "longitude": -122.32930399999994}, "894419290RR0001": {"name": "FRASER VALLEY CRISIS PREGNANCY SOCIETY", "designationCode": "C", "categoryCode": "09", "address": "#71-34959 OLD CLAYBURN RD", "city": "ABBOTSFORD", "province": "BC", "country": "CA", "postalCode": "V2S6W7", "twitter": "None", "instagram": "None", "facebook": "None", "youtube": "None", "website": "None", "summary": "None", "logo": "None", "latitude": 49.06131415072983, "longitude": -122.25655892091282}, "856685888RR0001": {"name": "FRASER VALLEY FOSTER PARENT ASSOCIATION", "designationCode": "C", "categoryCode": "59", "address": "22199 61ST AVENUE", "city": "LANGLEY", "province": "BC", "country": "CA", "postalCode": "V2Y2P1", "twitter": "None", "instagram": "None", "facebook": "None", "youtube": "None", "website": "None", "summary": "None", "logo": "None", "latitude": 49.114004464942795, "longitude": -122.60907055536961}, "118930874RR0001": {"name": "FRASER VALLEY GILBERT & SULLIVAN SOCIETY", "designationCode": "C", "categoryCode": "22", "address": "2 - 12357 82A AVE", "city": "SURREY", "province": "BC", "country": "CA", "postalCode": "V3W0L5", "twitter": "None", "instagram": "None", "facebook": "None", "youtube": "None", "website": "None", "summary": "None", "logo": "None", "latitude": 49.153256496537566, "longitude": -122.88037360644006}, "890069529RR0001": {"name": "FRASER VALLEY GLEANERS SOCIETY", "designationCode": "C", "categoryCode": "09", "address": "85 WINSON", "city": "ABBOTSFORD", "province": "BC", "country": "CA", "postalCode": "V2S8E8", "twitter": "None", "instagram": "None", "facebook": "None", "youtube": "None", "website": "None", "summary": "None", "logo": "None", "latitude": 49.004229239771675, "longitude": -122.27750541398792}, "871156725RR0001": {"name": "FRASER VALLEY HEALTH CARE FOUNDATION", "designationCode": "A", "categoryCode": "03", "address": "32900 MARSHALL RD", "city": "ABBOTSFORD", "province": "BC", "country": "CA", "postalCode": "V2S0C2", "twitter": "None", "instagram": "None", "facebook": "None", "youtube": "None", "website": "None", "summary": "None", "logo": "None", "latitude": 49.03815047013695, "longitude": -122.3128527485429}, "877944215RR0001": {"name": "FRASER VALLEY HERITAGE RAILWAY SOCIETY", "designationCode": "C", "categoryCode": "50", "address": "1045 165 ST", "city": "SURREY", "province": "BC", "country": "CA", "postalCode": "V4A9A2", "twitter": "None", "instagram": "None", "facebook": "None", "youtube": "None", "website": "None", "summary": "None", "logo": "None", "latitude": 49.020982763806366, "longitude": -122.76557360482393}, "892515016RR0001": {"name": "FRASER VALLEY KOREAN-CANADIAN EDUCATION AND CULTURAL SOCIETY", "designationCode": "C", "categoryCode": "20", "address": "136 - 20449 66 AVE", "city": "LANGLEY", "province": "BC", "country": "CA", "postalCode": "V2Y3C1", "twitter": "None", "instagram": "None", "facebook": "None", "youtube": "None", "website": "None", "summary": "None", "logo": "None", "latitude": 49.12258449379625, "longitude": -122.65569352553523}, "845551894RR0001": {"name": "FRASER VALLEY PHILHARMONIC SOCIETY", "designationCode": "C", "categoryCode": "22", "address": "9863 ANGUS DR", "city": "CHILLIWACK", "province": "BC", "country": "CA", "postalCode": "V2P6A9", "twitter": "None", "instagram": "None", "facebook": "None", "youtube": "None", "website": "None", "summary": "None", "logo": "None", "latitude": 49.18158706134223, "longitude": -121.93479598141835}, "107403933RR0001": {"name": "FRASER VALLEY REGIONAL LIBRARY", "designationCode": "C", "categoryCode": "50", "address": "34589 DELAIR RD", "city": "ABBOTSFORD", "province": "BC", "country": "CA", "postalCode": "V2S5Y1", "twitter": "None", "instagram": "None", "facebook": "None", "youtube": "None", "website": "None", "summary": "None", "logo": "None", "latitude": 49.037042869294126, "longitude": -122.26699416760941}, "892132770RR0001": {"name": "FRASER VALLEY SCHOLARSHIP FOUNDATION", "designationCode": "C", "categoryCode": "21", "address": "26995-24 AVE", "city": "ALDERGROVE", "province": "BC", "country": "CA", "postalCode": "V4W3Y9", "twitter": "None", "instagram": "None", "facebook": "None", "youtube": "None", "website": "None", "summary": "None", "logo": "None", "latitude": 49.04587546378898, "longitude": -122.47639102553522}, "890156193RR0001": {"name": "FRASER VALLEY SELF-HELP SOCIETY", "designationCode": "C", "categoryCode": "01", "address": "9341 BURNS DRIVE", "city": "DELTA", "province": "BC", "country": "CA", "postalCode": "V4K3N3", "twitter": "None", "instagram": "None", "facebook": "None", "youtube": "None", "website": "None", "summary": "None", "logo": "None", "latitude": 49.09087016572219, "longitude": -122.9662555214631}, "118818491RR0098": {"name": "FRASER VALLEY SEVENTH-DAY ADVENTIST CHURCH", "designationCode": "C", "categoryCode": "41", "address": "PO 1000", "city": "ABBOTSFORD", "province": "BC", "country": "CA", "postalCode": "V2S4P5", "twitter": "None", "instagram": "None", "facebook": "None", "youtube": "None", "website": "None", "summary": "None", "logo": "None", "latitude": 49.03851300000005, "longitude": -122.29441549999993}, "118930932RR0001": {"name": "FRASER VALLEY SYMPHONY SOCIETY", "designationCode": "C", "categoryCode": "22", "address": "BOX 122", "city": "ABBOTSFORD", "province": "BC", "country": "CA", "postalCode": "V2S4N8", "twitter": "None", "instagram": "None", "facebook": "None", "youtube": "None", "website": "None", "summary": "None", "logo": "None", "latitude": 49.03851976853707, "longitude": -122.29441300000173}, "810236273RR0001": {"name": "FRASER VALLEY WATERSHEDS COALITION", "designationCode": "C", "categoryCode": "52", "address": "45950 CHEAM AVENUE", "city": "CHILLIWACK", "province": "BC", "country": "CA", "postalCode": "V2P1N6", "twitter": "None", "instagram": "None", "facebook": "None", "youtube": "None", "website": "None", "summary": "None", "logo": "None", "latitude": 49.16660249235395, "longitude": -121.95399249610486}, "830358560RR0001": {"name": "FRASER VALLEY YOUTH SOCIETY", "designationCode": "C", "categoryCode": "09", "address": "8208 BOWYER DR", "city": "MISSION", "province": "BC", "country": "CA", "postalCode": "V2V6V9", "twitter": "None", "instagram": "None", "facebook": "None", "youtube": "None", "website": "None", "summary": "None", "logo": "None", "latitude": 49.151738474032086, "longitude": -122.31319049999999}, "887336196RR0001": {"name": "FRASER VALLEY-STAGE PRODUCTION SOCIETY", "designationCode": "C", "categoryCode": "22", "address": "33771 GEORGE FERGUSON WAY     UNIT 411", "city": "ABBOTSFORD", "province": "BC", "country": "CA", "postalCode": "V2S2M5", "twitter": "None", "instagram": "None", "facebook": "None", "youtube": "None", "website": "None", "summary": "None", "logo": "None", "latitude": 49.050185489324186, "longitude": -122.28991102553522}, "118930700RR0001": {"name": "FRASER-FORT GEORGE MUSEUM SOCIETY", "designationCode": "C", "categoryCode": "50", "address": "BOX 1779", "city": "PRINCE GEORGE", "province": "BC", "country": "CA", "postalCode": "V2L4V7", "twitter": "None", "instagram": "None", "facebook": "None", "youtube": "None", "website": "None", "summary": "None", "logo": "None", "latitude": 53.91241800000006, "longitude": -122.74463149999994}, "107403669RR0001": {"name": "FRASERSIDE COMMUNITY SERVICES SOCIETY", "designationCode": "C", "categoryCode": "09", "address": "519 SEVENTH ST.               2ND FLOOR", "city": "NEW WESTMINSTER", "province": "BC", "country": "CA", "postalCode": "V3M6A7", "twitter": "None", "instagram": "None", "facebook": "None", "youtube": "None", "website": "None", "summary": "None", "logo": "None", "latitude": 49.211770394097, "longitude": -122.92094551750213}, "119288918RR0134": {"name": "FRASERVIEW CONGREGATION OF JEHOVAH'S WITNESSES, VANCOUVER, BRITISH COLUMBIA", "designationCode": "C", "categoryCode": "61", "address": "FRASERVIEW UNIT               KINGSDOM HALL 3024 EAST 52ND", "city": "VANCOUVER", "province": "BC", "country": "CA", "postalCode": "V5S1T6", "twitter": "None", "instagram": "None", "facebook": "None", "youtube": "None", "website": "None", "summary": "None", "logo": "None", "latitude": 49.22166546681874, "longitude": -123.04232388634658}, "137378527RR0001": {"name": "FRASERVIEW LODGE AUXILIARY SOCIETY", "designationCode": "C", "categoryCode": "19", "address": "#1102-2191 WEST 39TH AVENUE", "city": "VANCOUVER", "province": "BC", "country": "CA", "postalCode": "V6M1T7", "twitter": "None", "instagram": "None", "facebook": "None", "youtube": "None", "website": "None", "summary": "None", "logo": "None", "latitude": 49.23648246047075, "longitude": -123.15779147155058}, "864437322RR0001": {"name": "FRASERVIEW MENNONITE BRETHREN CHURCH", "designationCode": "C", "categoryCode": "34", "address": "11295 MELLIS DRIVE", "city": "RICHMOND", "province": "BC", "country": "CA", "postalCode": "V6X1L8", "twitter": "None", "instagram": "None", "facebook": "None", "youtube": "None", "website": "None", "summary": "None", "logo": "None", "latitude": 49.18560751211812, "longitude": -123.09864227699232}, "890620990RR0001": {"name": "FRASERVILLE CEMETERY ASSOCIATION (1993)", "designationCode": "C", "categoryCode": "59", "address": "25 MADELINE AVE", "city": "LOWER SACKVILLE", "province": "NS", "country": "CA", "postalCode": "B4C2L8", "twitter": "None", "instagram": "None", "facebook": "None", "youtube": "None", "website": "None", "summary": "None", "logo": "None", "latitude": 44.76329020454159, "longitude": -63.68209982304244}, "118931013RR0001": {"name": "FRASERWOOD SPORTS CLUB INC.", "designationCode": "C", "categoryCode": "56", "address": "BOX 29", "city": "FRASERWOOD", "province": "MB", "country": "CA", "postalCode": "R0C1A0", "twitter": "None", "instagram": "None", "facebook": "None", "youtube": "None", "website": "None", "summary": "None", "logo": "None", "latitude": 50.64226000000008, "longitude": -97.21445999999997}, "889172094RR0001": {"name": "FRATERNITE CHRETIENNE DE LA PENTECOTE PENTECOSTAL CHRISTIAN FRATERNITY", "designationCode": "C", "categoryCode": "39", "address": "32349 DOLPHIN CRES", "city": "ABBOTSFORD", "province": "BC", "country": "CA", "postalCode": "V2T1G1", "twitter": "None", "instagram": "None", "facebook": "None", "youtube": "None", "website": "None", "summary": "None", "logo": "None", "latitude": 49.0419124565756, "longitude": -122.32791905245543}, "890125172RR0001": {"name": "FRATERNITE DE L'EPI INC", "designationCode": "C", "categoryCode": "09", "address": "590, RUE ST-JOSEPH EST", "city": "QUEBEC", "province": "QC", "country": "CA", "postalCode": "G1K3B8", "twitter": "None", "instagram": "None", "facebook": "None", "youtube": "None", "website": "None", "summary": "None", "logo": "None", "latitude": 46.81484084098895, "longitude": -71.22257853179629}, "809694276RR0001": {"name": "FRATERNITE HAITI DES TROIS LACS", "designationCode": "C", "categoryCode": "09", "address": "2-25 RUE SAINTE-ANG\u00c9LIQUE", "city": "VAUDREUIL-DORION", "province": "QC", "country": "CA", "postalCode": "J7V1C4", "twitter": "None", "instagram": "None", "facebook": "None", "youtube": "None", "website": "None", "summary": "None", "logo": "None", "latitude": 45.40153291589252, "longitude": -74.02459695002608}, "868642380RR0001": {"name": "FRATERNITE JEAN MARIE VIANNEY", "designationCode": "C", "categoryCode": "49", "address": "226 AVENUE LAMBERT", "city": "BEAUCEVILLE", "province": "QC", "country": "CA", "postalCode": "G5X1S3", "twitter": "None", "instagram": "None", "facebook": "None", "youtube": "None", "website": "None", "summary": "None", "logo": "None", "latitude": 46.212063150152915, "longitude": -70.77798196433723}, "888146842RR0001": {"name": "FRATERNITE RELIGIEUSE UNIVERSELLE", "designationCode": "C", "categoryCode": "47", "address": "3 CHEMIN DE LA BAIE DU REPOS", "city": "LA MINERVE", "province": "QC", "country": "CA", "postalCode": "J0T1S0", "twitter": "None", "instagram": "None", "facebook": "None", "youtube": "None", "website": "None", "summary": "None", "logo": "None", "latitude": 45.9439208155648, "longitude": -74.57139499889757}, "872400106RR0001": {"name": "FRATERNITE S.E.V.E. INC.", "designationCode": "C", "categoryCode": "49", "address": "1 AVENUE ALWARD", "city": "MONCTON", "province": "NB", "country": "CA", "postalCode": "E1C3M2", "twitter": "None", "instagram": "None", "facebook": "None", "youtube": "None", "website": "None", "summary": "None", "logo": "None", "latitude": 46.10388427061569, "longitude": -64.79521674063704}, "136508991RR0001": {"name": "FRATERNITE SACERDOTALE DES ENFANTS DU VERSEAU", "designationCode": "C", "categoryCode": "39", "address": "1480 RUE DE BROMONT", "city": "TERREBONNE", "province": "QC", "country": "CA", "postalCode": "J6W4H8", "twitter": "None", "instagram": "None", "facebook": "None", "youtube": "None", "website": "None", "summary": "None", "logo": "None", "latitude": 45.704887271712195, "longitude": -73.65386285985906}, "124499302RR0001": {"name": "FRATERNITE SACERDOTALE SAINT-JEAN L'EVANGELISTE", "designationCode": "C", "categoryCode": "39", "address": "C.P. 1383", "city": "SHERBROOKE", "province": "QC", "country": "CA", "postalCode": "J1H5L9", "twitter": "None", "instagram": "None", "facebook": "None", "youtube": "None", "website": "None", "summary": "None", "logo": "None", "latitude": 45.403251000000054, "longitude": -71.88894349999994}, "819148404RR0001": {"name": "FRATERNITE SAINT-ALPHONSE (2009)", "designationCode": "C", "categoryCode": "46", "address": "3812 BOUL SAINTE-ANNE", "city": "QUEBEC", "province": "QC", "country": "CA", "postalCode": "G1E3M3", "twitter": "None", "instagram": "None", "facebook": "None", "youtube": "None", "website": "None", "summary": "None", "logo": "None", "latitude": 46.8572687754058, "longitude": -71.17891553286415}, "118931062RR0001": {"name": "FRATERNITE STE-JEANNE D'ARC", "designationCode": "C", "categoryCode": "20", "address": "12 CHEMIN MARCIL", "city": "NOTRE-DAME-DES-BOIS", "province": "QC", "country": "CA", "postalCode": "J0B2E0", "twitter": "None", "instagram": "None", "facebook": "None", "youtube": "None", "website": "None", "summary": "None", "logo": "None", "latitude": 45.35929813627445, "longitude": -71.06490909299428}, "118931047RR0001": {"name": "FRATERNITES FOI ET VIE", "designationCode": "C", "categoryCode": "49", "address": "4100 AVE VENDOME", "city": "MONTREAL", "province": "QC", "country": "CA", "postalCode": "H4A3N1", "twitter": "None", "instagram": "None", "facebook": "None", "youtube": "None", "website": "None", "summary": "None", "logo": "None", "latitude": 45.47974292561603, "longitude": -73.61540493620492}, "888184579RR0001": {"name": "FRATERNITY TO HELP GUATEMALAN CHILDREN", "designationCode": "C", "categoryCode": "99", "address": "P.O.BOX 382                   7101C-120TH ST", "city": "DELTA", "province": "BC", "country": "CA", "postalCode": "V4C2A9", "twitter": "None", "instagram": "None", "facebook": "None", "youtube": "None", "website": "None", "summary": "None", "logo": "None", "latitude": 49.13416228680512, "longitude": -122.89052128680513}, "892987512RR0001": {"name": "FRED AND EDITH GREENE FOUNDATION", "designationCode": "B", "categoryCode": "05", "address": "617 BEDFORD HWY", "city": "HALIFAX", "province": "NS", "country": "CA", "postalCode": "B3M2L6", "twitter": "None", "instagram": "None", "facebook": "None", "youtube": "None", "website": "None", "summary": "None", "logo": "None", "latitude": 44.69844807438397, "longitude": -63.66101227794461}, "888267135RR0001": {"name": "FRED DOUGLAS FOUNDATION, INC.", "designationCode": "A", "categoryCode": "03", "address": "1275 BURROWS AVENUE", "city": "WINNIPEG", "province": "MB", "country": "CA", "postalCode": "R2X0B8", "twitter": "None", "instagram": "None", "facebook": "None", "youtube": "None", "website": "None", "summary": "None", "logo": "None", "latitude": 49.92907695755657, "longitude": -97.1756429682037}, "873487441RR0001": {"name": "FRED DOUGLAS HERITAGE HOUSE INC", "designationCode": "C", "categoryCode": "09", "address": "1275 BURROWS AVE", "city": "WINNIPEG", "province": "MB", "country": "CA", "postalCode": "R2X0B8", "twitter": "None", "instagram": "None", "facebook": "None", "youtube": "None", "website": "None", "summary": "None", "logo": "None", "latitude": 49.92907695755657, "longitude": -97.1756429682037}, "108217191RR0001": {"name": "FRED DOUGLAS SOCIETY INC.", "designationCode": "C", "categoryCode": "01", "address": "1275 BURROWS AVE", "city": "WINNIPEG", "province": "MB", "country": "CA", "postalCode": "R2X0B8", "twitter": "None", "instagram": "None", "facebook": "None", "youtube": "None", "website": "None", "summary": "None", "logo": "None", "latitude": 49.92907695755657, "longitude": -97.1756429682037}, "892917766RR0001": {"name": "FRED GAVILLER MEMORIAL FUND", "designationCode": "C", "categoryCode": "21", "address": "302 PACIFIC AVENUE", "city": "TORONTO", "province": "ON", "country": "CA", "postalCode": "M6P2P9", "twitter": "None", "instagram": "None", "facebook": "None", "youtube": "None", "website": "None", "summary": "None", "logo": "None", "latitude": 43.66200587454558, "longitude": -79.46714310618026}, "888981396RR0001": {"name": "FRED TROTTER MEMORIAL SCHOLARSHIP FUND", "designationCode": "C", "categoryCode": "21", "address": "301 - 4501 KINGSWAY", "city": "BURNABY", "province": "BC", "country": "CA", "postalCode": "V5H0E5", "twitter": "None", "instagram": "None", "facebook": "None", "youtube": "None", "website": "None", "summary": "None", "logo": "None", "latitude": 49.2302612750844, "longitude": -123.00475488392978}, "118931377RR0001": {"name": "FRED VICTOR CENTRE", "designationCode": "C", "categoryCode": "44", "address": "59 ADELAIDE ST.EAST           6TH FLOOR", "city": "TORONTO", "province": "ON", "country": "CA", "postalCode": "M5C1K6", "twitter": "None", "instagram": "None", "facebook": "None", "youtube": "None", "website": "None", "summary": "None", "logo": "None", "latitude": 43.65101485316529, "longitude": -79.37551823091353}, "899305817RR0001": {"name": "FREDERICK A & ABBIE LANE CHARITY FUND", "designationCode": "B", "categoryCode": "03", "address": "155 WELLINGTON ST. W.         20TH FLOOR", "city": "TORONTO", "province": "ON", "country": "CA", "postalCode": "M5V3K7", "twitter": "None", "instagram": "None", "facebook": "None", "youtube": "None", "website": "None", "summary": "None", "logo": "None", "latitude": 43.64596585316531, "longitude": -79.38574575644876}, "860194299RR0001": {"name": "FREDERICK AND DOUGLAS DICKSON MEMORIAL FOUNDATION", "designationCode": "B", "categoryCode": "03", "address": "SUITE 800, 150 YORK ST", "city": "TORONTO", "province": "ON", "country": "CA", "postalCode": "M5H3S5", "twitter": "None", "instagram": "None", "facebook": "None", "youtube": "None", "website": "None", "summary": "None", "logo": "None", "latitude": 43.6497124612788, "longitude": -79.38434705081065}, "897417135RR0001": {"name": "FREDERICTON AREA NETWORK INC.", "designationCode": "C", "categoryCode": "59", "address": "107 LONGWOOD DRIVE", "city": "FREDERICTON", "province": "NB", "country": "CA", "postalCode": "E3A2G3", "twitter": "None", "instagram": "None", "facebook": "None", "youtube": "None", "website": "None", "summary": "None", "logo": "None", "latitude": 45.985007179843095, "longitude": -66.64782508257828}, "861454080RR0001": {"name": "FREDERICTON ARTS AND LEARNING INCORPORATED", "designationCode": "C", "categoryCode": "22", "address": "732 CHARLOTTE STREET", "city": "FREDERICTON", "province": "NB", "country": "CA", "postalCode": "E3B1M5", "twitter": "None", "instagram": "None", "facebook": "None", "youtube": "None", "website": "None", "summary": "None", "logo": "None", "latitude": 45.95605774242608, "longitude": -66.63890203817293}, "130639800RR0001": {"name": "FREDERICTON ASSOCIATION FOR COMMUNITY LIVING, INC.", "designationCode": "C", "categoryCode": "11", "address": "1079 YORK ST.", "city": "FREDERICTON", "province": "NB", "country": "CA", "postalCode": "E3B3S4", "twitter": "None", "instagram": "None", "facebook": "None", "youtube": "None", "website": "None", "summary": "None", "logo": "None", "latitude": 45.94409887844073, "longitude": -66.66180633112118}, "118931120RR0001": {"name": "FREDERICTON BOYS' AND GIRLS' CLUB INC.", "designationCode": "C", "categoryCode": "09", "address": "499 CANTERBURY DR", "city": "FREDERICTON", "province": "NB", "country": "CA", "postalCode": "E3B4M4", "twitter": "None", "instagram": "None", "facebook": "None", "youtube": "None", "website": "None", "summary": "None", "logo": "None", "latitude": 45.93154885622373, "longitude": -66.64017001638862}, "892430448RR0001": {"name": "FREDERICTON CHAPTER, CANADIAN CELIAC ASSOCIATION", "designationCode": "C", "categoryCode": "11", "address": "#226-527 BEAVERBROOK CRESCENT", "city": "FREDERICTON", "province": "NB", "country": "CA", "postalCode": "E3B1X6", "twitter": "None", "instagram": "None", "facebook": "None", "youtube": "None", "website": "None", "summary": "None", "logo": "None", "latitude": 45.953379661100016, "longitude": -66.64628400415442}, "118931179RR0001": {"name": "FREDERICTON CHORAL SOCIETY", "designationCode": "C", "categoryCode": "22", "address": "266 TRIPP SETTLEMENT RD.", "city": "KESWICK RIDGE", "province": "NB", "country": "CA", "postalCode": "E6L1W3", "twitter": "None", "instagram": "None", "facebook": "None", "youtube": "None", "website": "None", "summary": "None", "logo": "None", "latitude": 46.00686035111648, "longitude": -66.86044907784643}, "891129397RR0001": {"name": "FREDERICTON CHRISTIAN BREAKFAST FORUM", "designationCode": "C", "categoryCode": "49", "address": "19 DOUGNORTH STREET", "city": "FREDERICTON", "province": "NB", "country": "CA", "postalCode": "E3G0H8", "twitter": "None", "instagram": "None", "facebook": "None", "youtube": "None", "website": "None", "summary": "None", "logo": "None", "latitude": 46.00918147238732, "longitude": -66.64093989494492}, "107405151RR0001": {"name": "FREDERICTON CHRISTIAN CHURCH", "designationCode": "C", "categoryCode": "47", "address": "PO BOX 671 STATION A", "city": "FREDERICTON", "province": "NB", "country": "CA", "postalCode": "E3B5A6", "twitter": "None", "instagram": "None", "facebook": "None", "youtube": "None", "website": "None", "summary": "None", "logo": "None", "latitude": 45.96062100000006, "longitude": -66.63911299999994}, "118931187RR0001": {"name": "FREDERICTON CHURCH OF CHRIST", "designationCode": "C", "categoryCode": "39", "address": "21465 HWY 2 PLEASANT VALLEY   RR 4", "city": "HUNTER RIVER", "province": "PE", "country": "CA", "postalCode": "C0A1N0", "twitter": "None", "instagram": "None", "facebook": "None", "youtube": "None", "website": "None", "summary": "None", "logo": "None", "latitude": 46.36603284595193, "longitude": -63.45147954607879}, "118931203RR0001": {"name": "FREDERICTON COMMUNITY FOUNDATION INC.", "designationCode": "A", "categoryCode": "53", "address": "SUITE 201 - 390 KING STREET", "city": "FREDERICTON", "province": "NB", "country": "CA", "postalCode": "E3B1E3", "twitter": "None", "instagram": "None", "facebook": "None", "youtube": "None", "website": "None", "summary": "None", "logo": "None", "latitude": 45.96218259310986, "longitude": -66.6443315424721}, "101885226RR0001": {"name": "FREDERICTON COMMUNITY KITCHENS INC.", "designationCode": "C", "categoryCode": "01", "address": "65 BRUNSWICK STREET", "city": "FREDERICTON", "province": "NB", "country": "CA", "postalCode": "E3B1G5", "twitter": "None", "instagram": "None", "facebook": "None", "youtube": "None", "website": "None", "summary": "None", "logo": "None", "latitude": 45.96439337333348, "longitude": -66.6524763918865}, "133080960RR0001": {"name": "FREDERICTON COMMUNITY SERVICES INC", "designationCode": "C", "categoryCode": "09", "address": "686 RIVERSIDE DRIVE", "city": "FREDERICTON", "province": "NB", "country": "CA", "postalCode": "E3A8C2", "twitter": "None", "instagram": "None", "facebook": "None", "youtube": "None", "website": "None", "summary": "None", "logo": "None", "latitude": 45.93653769854031, "longitude": -66.60894950409669}, "118931195RR0001": {"name": "FREDERICTON COUNCIL FOR CHRISTIAN MINISTRY ON CAMPUS", "designationCode": "C", "categoryCode": "49", "address": "129 MELVIN STREET", "city": "FREDERICTON", "province": "NB", "country": "CA", "postalCode": "E3A2M9", "twitter": "None", "instagram": "None", "facebook": "None", "youtube": "None", "website": "None", "summary": "None", "logo": "None", "latitude": 45.98009412129949, "longitude": -66.63902470246411}, "889100848RR0001": {"name": "FREDERICTON HERITAGE TRUST", "designationCode": "C", "categoryCode": "52", "address": "PO BOX 546", "city": "FREDERICTON", "province": "NB", "country": "CA", "postalCode": "E3B5A6", "twitter": "None", "instagram": "None", "facebook": "None", "youtube": "None", "website": "None", "summary": "None", "logo": "None", "latitude": 45.96062100000006, "longitude": -66.63911299999994}, "888228376RR0001": {"name": "FREDERICTON ISLAMIC ASSOCIATION INC.", "designationCode": "C", "categoryCode": "60", "address": "130 LINCOLN ROAD", "city": "FREDERICTON", "province": "NB", "country": "CA", "postalCode": "E3B2A3", "twitter": "None", "instagram": "None", "facebook": "None", "youtube": "None", "website": "None", "summary": "None", "logo": "None", "latitude": 45.936993080760615, "longitude": -66.6278023662357}, "130627052RR0001": {"name": "FREDERICTON JUNCTION UNITED BAPTIST CHURCH,", "designationCode": "C", "categoryCode": "31", "address": "245 SUNBURY DRIVE", "city": "FREDERICTON JUNCTION", "province": "NB", "country": "CA", "postalCode": "E5L1S1", "twitter": "None", "instagram": "None", "facebook": "None", "youtube": "None", "website": "None", "summary": "None", "logo": "None", "latitude": 45.66092171195651, "longitude": -66.60745653944235}, "847007325RR0001": {"name": "FREDERICTON KOREAN CATHEDRAL INC.", "designationCode": "C", "categoryCode": "39", "address": "525 NEW MARYLAND HIGHWAY", "city": "NEW MARYLAND", "province": "NB", "country": "CA", "postalCode": "E3C1J7", "twitter": "None", "instagram": "None", "facebook": "None", "youtube": "None", "website": "None", "summary": "None", "logo": "None", "latitude": 45.8845891945296, "longitude": -66.68898418169034}, "118931252RR0001": {"name": "FREDERICTON MUSIC FESTIVAL", "designationCode": "C", "categoryCode": "22", "address": "79 TALISMAN CRES.", "city": "FREDERICTON", "province": "NB", "country": "CA", "postalCode": "E3C1L9", "twitter": "None", "instagram": "None", "facebook": "None", "youtube": "None", "website": "None", "summary": "None", "logo": "None", "latitude": 45.965714489324206, "longitude": -66.72120272745109}, "118931286RR0001": {"name": "FREDERICTON NON-PROFIT HOUSING CORPORATION, INC.", "designationCode": "C", "categoryCode": "09", "address": "220-494 QUEEN STREET", "city": "FREDERICTON", "province": "NB", "country": "CA", "postalCode": "E3B1B6", "twitter": "None", "instagram": "None", "facebook": "None", "youtube": "None", "website": "None", "summary": "None", "logo": "None", "latitude": 45.962271000000015, "longitude": -66.64142475}, "866721566RR0001": {"name": "FREDERICTON PLAYHOUSE INCORPORATED", "designationCode": "C", "categoryCode": "22", "address": "686 QUEEN STREET", "city": "FREDERICTON", "province": "NB", "country": "CA", "postalCode": "E3B1C2", "twitter": "None", "instagram": "None", "facebook": "None", "youtube": "None", "website": "None", "summary": "None", "logo": "None", "latitude": 45.960207499538654, "longitude": -66.63663885933946}, "888353661RR0001": {"name": "FREDERICTON PUBLIC LIBRARY", "designationCode": "C", "categoryCode": "50", "address": "12 CARLETON ST", "city": "FREDERICTON", "province": "NB", "country": "CA", "postalCode": "E3B5P4", "twitter": "None", "instagram": "None", "facebook": "None", "youtube": "None", "website": "None", "summary": "None", "logo": "None", "latitude": 45.96258714155458, "longitude": -66.64043963653425}, "894137751RR0001": {"name": "FREDERICTON REGIONAL FAMILY RESOURCE CENTRE INC.", "designationCode": "C", "categoryCode": "59", "address": "60 VETERANS DRIVE", "city": "FREDERICTON", "province": "NB", "country": "CA", "postalCode": "E3A4C3", "twitter": "None", "instagram": "None", "facebook": "None", "youtube": "None", "website": "None", "summary": "None", "logo": "None", "latitude": 45.97816528117591, "longitude": -66.59756658451151}, "107405219RR0001": {"name": "FREDERICTON RESIDENTIAL YOUTH SERVICES INC.", "designationCode": "C", "categoryCode": "01", "address": "249 SAUNDERS STREET", "city": "FREDERICTON", "province": "NB", "country": "CA", "postalCode": "E3B1N5", "twitter": "None", "instagram": "None", "facebook": "None", "youtube": "None", "website": "None", "summary": "None", "logo": "None", "latitude": 45.95974023925207, "longitude": -66.65042878697564}}