{"801100686RR0001": {"name": "Baobab Inclusive Empowerment Society", "designationCode": "C", "categoryCode": "09", "address": "101A - 14914 104 AVE", "city": "SURREY", "province": "BC", "country": "CA", "postalCode": "V3R1M7", "twitter": "None", "instagram": "None", "facebook": "None", "youtube": "None", "website": "None", "summary": "None", "logo": "None", "latitude": 49.1866538165715, "longitude": -122.80869778628872}, "877943704RR0001": {"name": "Baptist Housing Enhanced Living Communities", "designationCode": "C", "categoryCode": "01", "address": "125-6165 HIGHWAY 17A", "city": "DELTA", "province": "BC", "country": "CA", "postalCode": "V4K5B8", "twitter": "None", "instagram": "None", "facebook": "None", "youtube": "None", "website": "None", "summary": "None", "logo": "None", "latitude": 49.11029597670904, "longitude": -123.05324789938778}, "129740734RR0001": {"name": "Baptist Housing Hallmark Society", "designationCode": "C", "categoryCode": "01", "address": "125-6165 HIGHWAY 17A", "city": "DELTA", "province": "BC", "country": "CA", "postalCode": "V4K5B8", "twitter": "None", "instagram": "None", "facebook": "None", "youtube": "None", "website": "None", "summary": "None", "logo": "None", "latitude": 49.11029597670904, "longitude": -123.05324789938778}, "877880005RR0001": {"name": "Baptist Housing Mount View Heights Care Society", "designationCode": "C", "categoryCode": "19", "address": "125-6165 HIGHWAY 17A", "city": "DELTA", "province": "BC", "country": "CA", "postalCode": "V4K5B8", "twitter": "None", "instagram": "None", "facebook": "None", "youtube": "None", "website": "None", "summary": "None", "logo": "None", "latitude": 49.11029597670904, "longitude": -123.05324789938778}, "827204314RR0001": {"name": "Baptist Housing Oak Bay Care Society", "designationCode": "C", "categoryCode": "19", "address": "125-6165 HIGHWAY 17A", "city": "DELTA", "province": "BC", "country": "CA", "postalCode": "V4K5B8", "twitter": "None", "instagram": "None", "facebook": "None", "youtube": "None", "website": "None", "summary": "None", "logo": "None", "latitude": 49.11029597670904, "longitude": -123.05324789938778}, "807166087RR0001": {"name": "Baptist International Worship Centre", "designationCode": "C", "categoryCode": "31", "address": "13 NUTWOOD WAY", "city": "BRAMPTON", "province": "ON", "country": "CA", "postalCode": "L6R0X7", "twitter": "None", "instagram": "None", "facebook": "None", "youtube": "None", "website": "None", "summary": "None", "logo": "None", "latitude": 43.756560470454076, "longitude": -79.76449623576097}, "873803894RR0001": {"name": "Bar Harbour United Church Camp Society", "designationCode": "C", "categoryCode": "56", "address": "PO BOX 1645", "city": "STETTLER", "province": "AB", "country": "CA", "postalCode": "T0C2L0", "twitter": "None", "instagram": "None", "facebook": "None", "youtube": "None", "website": "None", "summary": "None", "logo": "None", "latitude": 52.32597900000006, "longitude": -112.70698099999993}, "828084996RR0001": {"name": "Bar None Ranches Memorial Foundation", "designationCode": "B", "categoryCode": "03", "address": "BOX 262", "city": "DEWINTER", "province": "AB", "country": "CA", "postalCode": "T0L0X0", "twitter": "None", "instagram": "None", "facebook": "None", "youtube": "None", "website": "None", "summary": "None", "logo": "None", "latitude": 50.84368800000006, "longitude": -114.00937099999993}, "847156080RR0001": {"name": "Baraka Community Partnerships Canada Society", "designationCode": "C", "categoryCode": "09", "address": "16525 BELL RD", "city": "SURREY", "province": "BC", "country": "CA", "postalCode": "V3S1J9", "twitter": "None", "instagram": "None", "facebook": "None", "youtube": "None", "website": "None", "summary": "None", "logo": "None", "latitude": 49.10901879323672, "longitude": -122.76535463390853}, "848969044RR0001": {"name": "Barb Cemetery", "designationCode": "C", "categoryCode": "59", "address": "2445 COUNTY ROAD 10", "city": "ST-EUGENE", "province": "ON", "country": "CA", "postalCode": "K0B1P0", "twitter": "None", "instagram": "None", "facebook": "None", "youtube": "None", "website": "None", "summary": "None", "logo": "None", "latitude": 45.515049983773324, "longitude": -74.53102596926198}, "118799196RR0001": {"name": "Bardo Lutheran Church of Tofield", "designationCode": "C", "categoryCode": "32", "address": "BOX 538", "city": "TOFIELD", "province": "AB", "country": "CA", "postalCode": "T0B4J0", "twitter": "None", "instagram": "None", "facebook": "None", "youtube": "None", "website": "None", "summary": "None", "logo": "None", "latitude": 53.36988000000008, "longitude": -112.66557999999998}, "827894262RR0001": {"name": "Baric Foundation", "designationCode": "B", "categoryCode": "03", "address": "2213 SORRENTO DRIVE", "city": "COQUITLAM", "province": "BC", "country": "CA", "postalCode": "V3K6H6", "twitter": "None", "instagram": "None", "facebook": "None", "youtube": "None", "website": "None", "summary": "None", "logo": "None", "latitude": 49.23813269969415, "longitude": -122.83274997235864}, "835829607RR0001": {"name": "Baris Charitable Foundation", "designationCode": "B", "categoryCode": "03", "address": "6399 SANDPIPER RD", "city": "SECHELT", "province": "BC", "country": "CA", "postalCode": "V0N3A5", "twitter": "None", "instagram": "None", "facebook": "None", "youtube": "None", "website": "None", "summary": "None", "logo": "None", "latitude": 49.504910119579215, "longitude": -123.78808618321239}, "804870087RR0001": {"name": "Bark Lake Cultural Developments", "designationCode": "B", "categoryCode": "52", "address": "POST OFFICE BOX 113", "city": "IRONDALE", "province": "ON", "country": "CA", "postalCode": "K0M1X0", "twitter": "None", "instagram": "None", "facebook": "None", "youtube": "None", "website": "None", "summary": "None", "logo": "None", "latitude": 44.872355262064715, "longitude": -78.51670922734934}, "807297155RR0001": {"name": "Barnabite Fathers Canadian Association", "designationCode": "C", "categoryCode": "39", "address": "231 MORDEN ROAD", "city": "OAKVILLE", "province": "ON", "country": "CA", "postalCode": "L6K2S2", "twitter": "None", "instagram": "None", "facebook": "None", "youtube": "None", "website": "None", "summary": "None", "logo": "None", "latitude": 43.43573841355524, "longitude": -79.68744591574828}, "827100900RR0001": {"name": "Baron Byng High School Museum and Hall of Honour / Mus\u00e9e et tableau d'honneur de l'\u00e9cole secondaire Baron Byng", "designationCode": "C", "categoryCode": "50", "address": "4150 RUE SAINTE-CATHERINE O   BUREAU 525", "city": "WESTMOUNT", "province": "QC", "country": "CA", "postalCode": "H3Z2Y5", "twitter": "None", "instagram": "None", "facebook": "None", "youtube": "None", "website": "None", "summary": "None", "logo": "None", "latitude": 45.48667562946514, "longitude": -73.58731726170022}, "838935781RR0001": {"name": "Barrhaven Community Concert Band", "designationCode": "C", "categoryCode": "22", "address": "214 MUSKAN STREET", "city": "OTTAWA", "province": "ON", "country": "CA", "postalCode": "K2J0C6", "twitter": "None", "instagram": "None", "facebook": "None", "youtube": "None", "website": "None", "summary": "None", "logo": "None", "latitude": 45.26632061474994, "longitude": -75.77516222341171}, "720925924RR0001": {"name": "Barrhaven Seniors' Council", "designationCode": "C", "categoryCode": "09", "address": "286 HARTHILL WAY", "city": "NEPEAN", "province": "ON", "country": "CA", "postalCode": "K2J0P3", "twitter": "None", "instagram": "None", "facebook": "None", "youtube": "None", "website": "None", "summary": "None", "logo": "None", "latitude": 45.26156626726881, "longitude": -75.7640281675225}, "806436416RR0001": {"name": "BarrhavenRun.ca", "designationCode": "A", "categoryCode": "03", "address": "1581 GREENBANK ROAD           BARRHAVEN SOURCE FOR SPORTS", "city": "NEPEAN", "province": "ON", "country": "CA", "postalCode": "K2J4Y6", "twitter": "None", "instagram": "None", "facebook": "None", "youtube": "None", "website": "None", "summary": "None", "logo": "None", "latitude": 45.27397998110127, "longitude": -75.74838993825463}, "809030059RR0001": {"name": "Barrhead Animal Rescue Society", "designationCode": "C", "categoryCode": "54", "address": "104 - 52222 RANGE ROAD 274", "city": "SPRUCE GROVE", "province": "AB", "country": "CA", "postalCode": "T7X3T6", "twitter": "None", "instagram": "None", "facebook": "None", "youtube": "None", "website": "None", "summary": "None", "logo": "None", "latitude": 53.494649916180975, "longitude": -113.93774821212939}, "847174752RR0001": {"name": "Barrie Chamber Choir", "designationCode": "C", "categoryCode": "22", "address": "58 DUNDONALD STREET", "city": "BARRIE", "province": "ON", "country": "CA", "postalCode": "L4M3T1", "twitter": "None", "instagram": "None", "facebook": "None", "youtube": "None", "website": "None", "summary": "None", "logo": "None", "latitude": 44.39337614348782, "longitude": -79.67879766792652}, "817455439RR0001": {"name": "Barrie Community Life Centre", "designationCode": "C", "categoryCode": "09", "address": "1202 BOOTH AVE", "city": "INNISFIL", "province": "ON", "country": "CA", "postalCode": "L9S4W1", "twitter": "None", "instagram": "None", "facebook": "None", "youtube": "None", "website": "None", "summary": "None", "logo": "None", "latitude": 44.29683312075123, "longitude": -79.55747858370346}, "122095102RR0001": {"name": "Barrie Concert Association", "designationCode": "C", "categoryCode": "22", "address": "26 OWEN STREET                P.O. BOX 452", "city": "BARRIE", "province": "ON", "country": "CA", "postalCode": "L4M4T7", "twitter": "None", "instagram": "None", "facebook": "None", "youtube": "None", "website": "None", "summary": "None", "logo": "None", "latitude": 44.39002265306712, "longitude": -79.68787030197927}, "106962251RR0001": {"name": "Barrie Food Bank", "designationCode": "C", "categoryCode": "01", "address": "2 - 42 ANNE ST S", "city": "BARRIE", "province": "ON", "country": "CA", "postalCode": "L4N2C9", "twitter": "None", "instagram": "None", "facebook": "None", "youtube": "None", "website": "None", "summary": "None", "logo": "None", "latitude": 44.379459, "longitude": -79.7026635}, "827367293RR0001": {"name": "Barriere & District Food Bank Society", "designationCode": "C", "categoryCode": "09", "address": "4748 GILBERT ROAD             PO BOX 465", "city": "BARRIERE", "province": "BC", "country": "CA", "postalCode": "V0E1E0", "twitter": "None", "instagram": "None", "facebook": "None", "youtube": "None", "website": "None", "summary": "None", "logo": "None", "latitude": 51.183157549180144, "longitude": -120.14183804295351}, "118818491RR0103": {"name": "Barriere Community Seventh-day Adventist Church", "designationCode": "C", "categoryCode": "41", "address": "PO 1000", "city": "ABBOTSFORD", "province": "BC", "country": "CA", "postalCode": "V2S4P5", "twitter": "None", "instagram": "None", "facebook": "None", "youtube": "None", "website": "None", "summary": "None", "logo": "None", "latitude": 49.03851300000005, "longitude": -122.29441549999993}, "119288918RR1342": {"name": "Barrington Passage Congregation of Jehovah's Witnesses, Barrington Passage, Nova Scotia", "designationCode": "C", "categoryCode": "61", "address": "POST OFFICE BOX 7 COMP 2      153 ISLAND VIEW DRIVE", "city": "BARRINGTON", "province": "NS", "country": "CA", "postalCode": "B0W1E0", "twitter": "None", "instagram": "None", "facebook": "None", "youtube": "None", "website": "None", "summary": "None", "logo": "None", "latitude": 43.55089617150454, "longitude": -65.5945136787179}, "855366266RR0001": {"name": "Barrington Township Museum Association", "designationCode": "C", "categoryCode": "50", "address": "PO BOX 75", "city": "BARRINGTON", "province": "NS", "country": "CA", "postalCode": "B0W1E0", "twitter": "None", "instagram": "None", "facebook": "None", "youtube": "None", "website": "None", "summary": "None", "logo": "None", "latitude": 44.107428523541074, "longitude": -66.06027088088527}, "829702190RR0001": {"name": "Barristers for a Better Bytown", "designationCode": "A", "categoryCode": "03", "address": "800-200 ELGIN STREET", "city": "OTTAWA", "province": "ON", "country": "CA", "postalCode": "K2P1L5", "twitter": "None", "instagram": "None", "facebook": "None", "youtube": "None", "website": "None", "summary": "None", "logo": "None", "latitude": 45.41933470607079, "longitude": -75.69173686208076}, "801712258RR0001": {"name": "Barry and Laurie Green Family Charitable Trust", "designationCode": "B", "categoryCode": "05", "address": "64 MERTON STREET", "city": "TORONTO", "province": "ON", "country": "CA", "postalCode": "M4S1A1", "twitter": "None", "instagram": "None", "facebook": "None", "youtube": "None", "website": "None", "summary": "None", "logo": "None", "latitude": 43.696549191268716, "longitude": -79.39413654705973}, "811187665RR0001": {"name": "Barry Charitable Foundation", "designationCode": "A", "categoryCode": "03", "address": "SUITE 1165                    5328 CALGARY TRAIL NW", "city": "EDMONTON", "province": "AB", "country": "CA", "postalCode": "T6H4J8", "twitter": "None", "instagram": "None", "facebook": "None", "youtube": "None", "website": "None", "summary": "None", "logo": "None", "latitude": 53.49123769080735, "longitude": -113.49539595798925}, "833800394RR0001": {"name": "Barry F. Lorenzetti Foundation", "designationCode": "B", "categoryCode": "03", "address": "2200 - 2001 AV MCGILL COLLEGE", "city": "MONTREAL", "province": "QC", "country": "CA", "postalCode": "H3A1G1", "twitter": "None", "instagram": "None", "facebook": "None", "youtube": "None", "website": "None", "summary": "None", "logo": "None", "latitude": 45.50352596283666, "longitude": -73.57416041975898}, "132541913RR0001": {"name": "Barss Corner Baptist Church", "designationCode": "C", "categoryCode": "31", "address": "RR1", "city": "NEW GERMANY", "province": "NS", "country": "CA", "postalCode": "B0R1E0", "twitter": "None", "instagram": "None", "facebook": "None", "youtube": "None", "website": "None", "summary": "None", "logo": "None", "latitude": 44.53315800000006, "longitude": -64.71399049999994}, "118799824RR0001": {"name": "Barton Stone-Mount Hope United Church", "designationCode": "C", "categoryCode": "44", "address": "21 STONE CHURCH ROAD W", "city": "HAMILTON", "province": "ON", "country": "CA", "postalCode": "L9B1A1", "twitter": "None", "instagram": "None", "facebook": "None", "youtube": "None", "website": "None", "summary": "None", "logo": "None", "latitude": 43.21126998358272, "longitude": -79.8899275669108}, "118876424RR0001": {"name": "Base de plein air Bon d\u00e9part", "designationCode": "C", "categoryCode": "56", "address": "4610 RTE PRINCIPALE", "city": "WENTWORTH-NORD", "province": "QC", "country": "CA", "postalCode": "J0T1Y0", "twitter": "None", "instagram": "None", "facebook": "None", "youtube": "None", "website": "None", "summary": "None", "logo": "None", "latitude": 45.82014183391874, "longitude": -74.47961264431169}, "844289926RR0001": {"name": "Base plein air Elgin inc.", "designationCode": "C", "categoryCode": "29", "address": "C.P 132", "city": "ST-HYACINTHE", "province": "QC", "country": "CA", "postalCode": "J2S7B4", "twitter": "None", "instagram": "None", "facebook": "None", "youtube": "None", "website": "None", "summary": "None", "logo": "None", "latitude": 45.62664000000005, "longitude": -72.94719049999993}, "809650203RR0001": {"name": "Bases - Burnaby Association for South East Side", "designationCode": "C", "categoryCode": "29", "address": "7825 EDMONDS ST", "city": "BURNABY", "province": "BC", "country": "CA", "postalCode": "V3N1B9", "twitter": "None", "instagram": "None", "facebook": "None", "youtube": "None", "website": "None", "summary": "None", "logo": "None", "latitude": 49.22547395172817, "longitude": -122.93845656053416}, "835190893RR0001": {"name": "Bashaw Community Church", "designationCode": "C", "categoryCode": "39", "address": "PO BOX 7", "city": "BASHAW", "province": "AB", "country": "CA", "postalCode": "T0B0H0", "twitter": "None", "instagram": "None", "facebook": "None", "youtube": "None", "website": "None", "summary": "None", "logo": "None", "latitude": 52.58378000000005, "longitude": -112.97087999999997}, "868562075RR0001": {"name": "Basic Gospel Canada", "designationCode": "C", "categoryCode": "47", "address": "2398 SUMMERSET", "city": "NANOOSE BAY", "province": "BC", "country": "CA", "postalCode": "V9P9J9", "twitter": "None", "instagram": "None", "facebook": "None", "youtube": "None", "website": "None", "summary": "None", "logo": "None", "latitude": 49.259337900934014, "longitude": -124.19836034796384}, "837209410RR0001": {"name": "Basil Dobbin Family Foundation Inc.", "designationCode": "C", "categoryCode": "09", "address": "P.O. BOX 1045", "city": "ST. JOHN'S", "province": "NL", "country": "CA", "postalCode": "A1C5M3", "twitter": "None", "instagram": "None", "facebook": "None", "youtube": "None", "website": "None", "summary": "None", "logo": "None", "latitude": 47.56082100000006, "longitude": -52.71219349999993}, "849398318RR0001": {"name": "Basilique Cath\u00e9drale Saint-Michel", "designationCode": "C", "categoryCode": "39", "address": "130 RUE DE LA CATHEDRALE", "city": "SHERBROOKE", "province": "QC", "country": "CA", "postalCode": "J1H4M1", "twitter": "None", "instagram": "None", "facebook": "None", "youtube": "None", "website": "None", "summary": "None", "logo": "None"}, "128967353RR0036": {"name": "Basilique Cathedrale Notre-Dame Notre Dame Catheral Basilica", "designationCode": "C", "categoryCode": "38", "address": "56, RUE GUIGUES", "city": "OTTAWA", "province": "ON", "country": "CA", "postalCode": "K1N5H5", "twitter": "None", "instagram": "None", "facebook": "None", "youtube": "None", "website": "None", "summary": "None", "logo": "None", "latitude": 45.43026030532615, "longitude": -75.69631328339761}, "774419493RR0001": {"name": "Basket Brigade Charity", "designationCode": "C", "categoryCode": "09", "address": "6 - 165 CROSS AVE", "city": "OAKVILLE", "province": "ON", "country": "CA", "postalCode": "L6J0A9", "twitter": "None", "instagram": "None", "facebook": "None", "youtube": "None", "website": "None", "summary": "None", "logo": "None", "latitude": 43.454611081971784, "longitude": -79.68579398617979}, "747295723RR0001": {"name": "Bassi Family Foundation", "designationCode": "B", "categoryCode": "13", "address": "800-515 LEGGET DRIVE", "city": "KANATA", "province": "ON", "country": "CA", "postalCode": "K2K3G4", "twitter": "None", "instagram": "None", "facebook": "None", "youtube": "None", "website": "None", "summary": "None", "logo": "None", "latitude": 45.34599682133942, "longitude": -75.917431922847}, "840164818RR0001": {"name": "Basso-Fasso Organisation", "designationCode": "C", "categoryCode": "09", "address": "25 CHALDEAN STREET", "city": "TORONTO", "province": "ON", "country": "CA", "postalCode": "M1W2B6", "twitter": "None", "instagram": "None", "facebook": "None", "youtube": "None", "website": "None", "summary": "None", "logo": "None", "latitude": 43.79320011183575, "longitude": -79.30384322647012}, "817186315RR0001": {"name": "Bat Melech Canada", "designationCode": "C", "categoryCode": "59", "address": "116 ROSEDALE HEIGHTS DR", "city": "THORNHILL", "province": "ON", "country": "CA", "postalCode": "L4J4V9", "twitter": "None", "instagram": "None", "facebook": "None", "youtube": "None", "website": "None", "summary": "None", "logo": "None", "latitude": 43.81284943493552, "longitude": -79.44769038328816}, "107396905RR0087": {"name": "Bathurst Foursqaure Gospel Church", "designationCode": "C", "categoryCode": "39", "address": "603 KING AVENUE", "city": "BATHURST", "province": "NB", "country": "CA", "postalCode": "E2A1P9", "twitter": "None", "instagram": "None", "facebook": "None", "youtube": "None", "website": "None", "summary": "None", "logo": "None", "latitude": 47.61537435137628, "longitude": -65.65155726559536}, "123794927RR0001": {"name": "Bathurst Lawn Memorial Park", "designationCode": "C", "categoryCode": "59", "address": "6033 BATHURST STREET", "city": "TORONTO", "province": "ON", "country": "CA", "postalCode": "M2R1Z3", "twitter": "None", "instagram": "None", "facebook": "None", "youtube": "None", "website": "None", "summary": "None", "logo": "None", "latitude": 43.78661729669917, "longitude": -79.44617569758802}, "817793235RR0001": {"name": "Battle Of The Atlantic Society", "designationCode": "C", "categoryCode": "50", "address": "7 - 1657 BEDFORD ROW", "city": "HALIFAX", "province": "NS", "country": "CA", "postalCode": "B3J1T1", "twitter": "None", "instagram": "None", "facebook": "None", "youtube": "None", "website": "None", "summary": "None", "logo": "None", "latitude": 44.647150117404344, "longitude": -63.571810270182986}, "119288918RR0195": {"name": "Battleford Congregation of Jehovah's Witnesses, Battleford, Saskatchewan", "designationCode": "C", "categoryCode": "61", "address": "POST OFFICE BOX 1775", "city": "BATTLEFORD", "province": "SK", "country": "CA", "postalCode": "S0M0E0", "twitter": "None", "instagram": "None", "facebook": "None", "youtube": "None", "website": "None", "summary": "None", "logo": "None", "latitude": 52.736037700209145, "longitude": -108.26411792034625}, "817016983RR0001": {"name": "Battlefords Cowboy Church Inc.", "designationCode": "C", "categoryCode": "39", "address": "BOX 633", "city": "BATTLEFORD", "province": "SK", "country": "CA", "postalCode": "S0M0E0", "twitter": "None", "instagram": "None", "facebook": "None", "youtube": "None", "website": "None", "summary": "None", "logo": "None", "latitude": 52.736037700209145, "longitude": -108.26411792034625}, "850933177RR0001": {"name": "Battlefords Korean Church Inc.", "designationCode": "C", "categoryCode": "39", "address": "PO BOX 1341", "city": "BATTLEFORD", "province": "SK", "country": "CA", "postalCode": "S0M0E0", "twitter": "None", "instagram": "None", "facebook": "None", "youtube": "None", "website": "None", "summary": "None", "logo": "None", "latitude": 52.736037700209145, "longitude": -108.26411792034625}, "815828173RR0001": {"name": "Bautista Family Education Fund Canada", "designationCode": "A", "categoryCode": "21", "address": "1202 - 390 BAY ST", "city": "TORONTO", "province": "ON", "country": "CA", "postalCode": "M5H2Y2", "twitter": "None", "instagram": "None", "facebook": "None", "youtube": "None", "website": "None", "summary": "None", "logo": "None", "latitude": 43.651353688585644, "longitude": -79.38143494243734}, "892698606RR0001": {"name": "Bay of Islands Volunteer Search and Rescue", "designationCode": "C", "categoryCode": "59", "address": "77 PREMIERE DRIVE             P.O. BOX 893", "city": "CORNER BROOK", "province": "NL", "country": "CA", "postalCode": "A2H6J8", "twitter": "None", "instagram": "None", "facebook": "None", "youtube": "None", "website": "None", "summary": "None", "logo": "None", "latitude": 48.95832355952455, "longitude": -57.931469546050124}, "888056231RR0001": {"name": "Bay of Quinte Chapter of Sweet Adelines International", "designationCode": "C", "categoryCode": "22", "address": "57 KELLY RD                   RR2", "city": "STIRLING", "province": "ON", "country": "CA", "postalCode": "K0K3E0", "twitter": "None", "instagram": "None", "facebook": "None", "youtube": "None", "website": "None", "summary": "None", "logo": "None", "latitude": 44.310616094898876, "longitude": -77.43780017133071}, "119288918RR0603": {"name": "Bay Roberts Congregation of Jehovah's Witnesses, Bay Roberts, Newfoundland", "designationCode": "C", "categoryCode": "61", "address": "6 BISHOPS COVE RD             PO BOX 618", "city": "SPANIARDS BAY", "province": "NL", "country": "CA", "postalCode": "A0A3X0", "twitter": "None", "instagram": "None", "facebook": "None", "youtube": "None", "website": "None", "summary": "None", "logo": "None", "latitude": 47.622015327228915, "longitude": -53.27377228005974}, "853176857RR0001": {"name": "Bay Roberts Cultural Foundation Inc.", "designationCode": "C", "categoryCode": "52", "address": "PO BOX 1759", "city": "BAY ROBERTS", "province": "NL", "country": "CA", "postalCode": "A0A1G0", "twitter": "None", "instagram": "None", "facebook": "None", "youtube": "None", "website": "None", "summary": "None", "logo": "None", "latitude": 47.58335663598053, "longitude": -53.28220018500299}, "886558998RR0001": {"name": "Bay Tree Community Park Association", "designationCode": "C", "categoryCode": "56", "address": "PO BOX 78", "city": "BAY TREE", "province": "AB", "country": "CA", "postalCode": "T0H0A0", "twitter": "None", "instagram": "None", "facebook": "None", "youtube": "None", "website": "None", "summary": "None", "logo": "None", "latitude": 55.82530000000003, "longitude": -119.94477999999998}, "833524663RR0001": {"name": "Bay Tree Foundation", "designationCode": "B", "categoryCode": "03", "address": "112 FOREST HILL ROAD", "city": "TORONTO", "province": "ON", "country": "CA", "postalCode": "M4V2L7", "twitter": "None", "instagram": "None", "facebook": "None", "youtube": "None", "website": "None", "summary": "None", "logo": "None", "latitude": 43.69166332638933, "longitude": -79.40542397088676}, "836674150RR0001": {"name": "Bayfest Festival of Performing Arts", "designationCode": "C", "categoryCode": "22", "address": "485 HARBOUR RD", "city": "SARNIA", "province": "ON", "country": "CA", "postalCode": "N7T5R8", "twitter": "None", "instagram": "None", "facebook": "None", "youtube": "None", "website": "None", "summary": "None", "logo": "None", "latitude": 42.985391269734244, "longitude": -82.40804249795657}, "118800713RR0001": {"name": "Bayham Community Initiatives/Elgin Community Nutrition Partnership/Eat2Learn", "designationCode": "C", "categoryCode": "09", "address": "BOX 95", "city": "PORT BURWELL", "province": "ON", "country": "CA", "postalCode": "N0J1T0", "twitter": "None", "instagram": "None", "facebook": "None", "youtube": "None", "website": "None", "summary": "None", "logo": "None", "latitude": 42.645650000000046, "longitude": -80.80489999999998}, "780845897RR0001": {"name": "Bayshore Make-A-Difference Foundation", "designationCode": "B", "categoryCode": "03", "address": "2101 HADWEN RD.", "city": "MISSISSAUGA", "province": "ON", "country": "CA", "postalCode": "L5K2L3", "twitter": "None", "instagram": "None", "facebook": "None", "youtube": "None", "website": "None", "summary": "None", "logo": "None", "latitude": 43.522304861849626, "longitude": -79.65577109013834}, "119288918RR1520": {"name": "Bayside Congregation of Jehovah's Witnesses, Port Alberni, British Columbia", "designationCode": "C", "categoryCode": "61", "address": "5055 MAEBELLE RD", "city": "PORT ALBERNI", "province": "BC", "country": "CA", "postalCode": "V9Y8R2", "twitter": "None", "instagram": "None", "facebook": "None", "youtube": "None", "website": "None", "summary": "None", "logo": "None", "latitude": 49.26575895974959, "longitude": -124.76626062658053}, "720673896RR0001": {"name": "Bayside Family Church", "designationCode": "C", "categoryCode": "36", "address": "PO BOX 68                     4 PARRY SOUND,DR", "city": "PARRY SOUND", "province": "ON", "country": "CA", "postalCode": "P2A2X2", "twitter": "None", "instagram": "None", "facebook": "None", "youtube": "None", "website": "None", "summary": "None", "logo": "None", "latitude": 45.363021894800674, "longitude": -80.0419940974377}, "131909277RR0001": {"name": "Bayview United Church", "designationCode": "C", "categoryCode": "44", "address": "2609 BAYVIEW AVENUE", "city": "TORONTO", "province": "ON", "country": "CA", "postalCode": "M2L1B5", "twitter": "None", "instagram": "None", "facebook": "None", "youtube": "None", "website": "None", "summary": "None", "logo": "None", "latitude": 43.751591968088135, "longitude": -79.38481622003617}, "107599847RR0001": {"name": "Bazar de la Maison de Quartier de Jonqui\u00e8re", "designationCode": "C", "categoryCode": "59", "address": "3971 RUE DU VIEUX PONT        C.P. 42", "city": "JONQUIERE", "province": "QC", "country": "CA", "postalCode": "G7X7V8", "twitter": "None", "instagram": "None", "facebook": "None", "youtube": "None", "website": "None", "summary": "None", "logo": "None", "latitude": 48.409984834843456, "longitude": -71.25810043242537}, "118830389RR0001": {"name": "Be in Christ Church of Canada", "designationCode": "C", "categoryCode": "39", "address": "2700 BRISTOL CIRCLE", "city": "OAKVILLE", "province": "ON", "country": "CA", "postalCode": "L6H6E1", "twitter": "None", "instagram": "None", "facebook": "None", "youtube": "None", "website": "None", "summary": "None", "logo": "None", "latitude": 43.51060032973621, "longitude": -79.68617233192924}, "818009276RR0001": {"name": "Be the Change Earth Alliance Society", "designationCode": "C", "categoryCode": "20", "address": "949 WEST 49 AVENUE", "city": "VANCOUVER", "province": "BC", "country": "CA", "postalCode": "V5Z2T1", "twitter": "None", "instagram": "None", "facebook": "None", "youtube": "None", "website": "None", "summary": "None", "logo": "None", "latitude": 49.22653944993916, "longitude": -123.12757091756595}, "841811680RR0001": {"name": "Be the Love Global Society", "designationCode": "C", "categoryCode": "01", "address": "5516 51ST STREET              PO BOX 3212", "city": "FORT NELSON", "province": "BC", "country": "CA", "postalCode": "V0C1R0", "twitter": "None", "instagram": "None", "facebook": "None", "youtube": "None", "website": "None", "summary": "None", "logo": "None", "latitude": 58.81093041667311, "longitude": -122.69938054605451}, "823671672RR0001": {"name": "Be Brave and Believe", "designationCode": "B", "categoryCode": "03", "address": "42 BIELBY ST", "city": "GRAND VALLEY", "province": "ON", "country": "CA", "postalCode": "L9W5M3", "twitter": "None", "instagram": "None", "facebook": "None", "youtube": "None", "website": "None", "summary": "None", "logo": "None"}, "855054458RR0001": {"name": "Be One to Help Foundation of Alberta", "designationCode": "B", "categoryCode": "09", "address": "PO BOX 5007 STN MAIN          12 11 AVE SE", "city": "HIGH RIVER", "province": "AB", "country": "CA", "postalCode": "T1V1M3", "twitter": "None", "instagram": "None", "facebook": "None", "youtube": "None", "website": "None", "summary": "None", "logo": "None", "latitude": 50.57297451875454, "longitude": -113.8715235}, "828173807RR0001": {"name": "Be You Promise.Org", "designationCode": "C", "categoryCode": "57", "address": "1803 DOUGLAS STREET, SUITE 703", "city": "VICTORIA", "province": "BC", "country": "CA", "postalCode": "V8T5C3", "twitter": "None", "instagram": "None", "facebook": "None", "youtube": "None", "website": "None", "summary": "None", "logo": "None", "latitude": 48.43023651875456, "longitude": -123.36413433527613}, "118980291RR0001": {"name": "Beach United Church", "designationCode": "C", "categoryCode": "44", "address": "140 WINEVA AVENUE", "city": "TORONTO", "province": "ON", "country": "CA", "postalCode": "M4E2T4", "twitter": "None", "instagram": "None", "facebook": "None", "youtube": "None", "website": "None", "summary": "None", "logo": "None", "latitude": 43.67153932638932, "longitude": -79.2960139781001}, "847647617RR0001": {"name": "Beacon of Hope for Afghan Children society", "designationCode": "C", "categoryCode": "10", "address": "41 - 16127 87 AVE", "city": "SURREY", "province": "BC", "country": "CA", "postalCode": "V4N6R3", "twitter": "None", "instagram": "None", "facebook": "None", "youtube": "None", "website": "None", "summary": "None", "logo": "None", "latitude": 49.16134464898716, "longitude": -122.77312395906124}, "825027337RR0001": {"name": "Beacon of Hope Church Association", "designationCode": "C", "categoryCode": "39", "address": "3742 SHORE ROAD WEST", "city": "GRANVILLE FERRY", "province": "NS", "country": "CA", "postalCode": "B0S1K0", "twitter": "None", "instagram": "None", "facebook": "None", "youtube": "None", "website": "None", "summary": "None", "logo": "None", "latitude": 44.79853308462708, "longitude": -65.56685787088158}, "839748431RR0001": {"name": "Beacon Baptist Church Inc.", "designationCode": "C", "categoryCode": "31", "address": "POST OFFICE BOX 40012         WEST ROYALTY P.O.", "city": "CHARLOTTETOWN", "province": "PE", "country": "CA", "postalCode": "C1E0J2", "twitter": "None", "instagram": "None", "facebook": "None", "youtube": "None", "website": "None", "summary": "None", "logo": "None", "latitude": 46.281626403726364, "longitude": -63.193198462572106}, "815042460RR0001": {"name": "Beacon Baptist Church,Coldwater", "designationCode": "C", "categoryCode": "31", "address": "48 ANDERSON CRES              RR 1 COMP 927", "city": "VICTORIA HARBOUR", "province": "ON", "country": "CA", "postalCode": "L0K2A0", "twitter": "None", "instagram": "None", "facebook": "None", "youtube": "None", "website": "None", "summary": "None", "logo": "None", "latitude": 44.758613345288104, "longitude": -79.76578498808344}, "824666093RR0001": {"name": "Beacon's Reach Port Credit", "designationCode": "C", "categoryCode": "09", "address": "2137 KAWARTHA CRESCENT", "city": "MISSISSAUGA", "province": "ON", "country": "CA", "postalCode": "L5H3P8", "twitter": "None", "instagram": "None", "facebook": "None", "youtube": "None", "website": "None", "summary": "None", "logo": "None", "latitude": 43.54357556673793, "longitude": -79.63111080019027}, "829402585RR0001": {"name": "Beaconbright Foundation", "designationCode": "B", "categoryCode": "03", "address": "POST OFFICE BOX 25243", "city": "LONDON", "province": "ON", "country": "CA", "postalCode": "N6C6A9", "twitter": "None", "instagram": "None", "facebook": "None", "youtube": "None", "website": "None", "summary": "None", "logo": "None", "latitude": 42.98689500000006, "longitude": -81.24624349999993}, "847431905RR0001": {"name": "Beads of Courage - Canada / Perles de courage - Canada", "designationCode": "C", "categoryCode": "11", "address": "1155 BOUL ROBERT-BOURASSA     BUREAU 1310", "city": "MONTREAL", "province": "QC", "country": "CA", "postalCode": "H3B3A7", "twitter": "None", "instagram": "None", "facebook": "None", "youtube": "None", "website": "None", "summary": "None", "logo": "None", "latitude": 45.50225302443871, "longitude": -73.56784138660637}, "831600648RR0001": {"name": "Beakerhead Creative Society", "designationCode": "C", "categoryCode": "22", "address": "184 - 200 BARCLAY PARADE SW", "city": "CALGARY", "province": "AB", "country": "CA", "postalCode": "T2P4R5", "twitter": "None", "instagram": "None", "facebook": "None", "youtube": "None", "website": "None", "summary": "None", "logo": "None", "latitude": 51.05237271135093, "longitude": -114.0692743736802}, "887464105RR0001": {"name": "Bear Conflict Solutions Institute", "designationCode": "C", "categoryCode": "54", "address": "313 - 8 AVE", "city": "CANMORE", "province": "AB", "country": "CA", "postalCode": "T1W2E6", "twitter": "None", "instagram": "None", "facebook": "None", "youtube": "None", "website": "None", "summary": "None", "logo": "None", "latitude": 51.084756, "longitude": -115.36334576521999}, "880094024RR0001": {"name": "Bear Creek Exotic Wildlife Sanctuary Inc.", "designationCode": "B", "categoryCode": "54", "address": "8633 10TH LINE", "city": "BARRIE", "province": "ON", "country": "CA", "postalCode": "L4M4S4", "twitter": "None", "instagram": "None", "facebook": "None", "youtube": "None", "website": "None", "summary": "None", "logo": "None", "latitude": 44.34404035686746, "longitude": -79.77040661634526}, "802403048RR0001": {"name": "Bear Island Cemetery Inc.", "designationCode": "C", "categoryCode": "59", "address": "3495 ROUTE 105", "city": "BEAR ISLAND", "province": "NB", "country": "CA", "postalCode": "E6L1J6", "twitter": "None", "instagram": "None", "facebook": "None", "youtube": "None", "website": "None", "summary": "None", "logo": "None", "latitude": 45.90783339687708, "longitude": -67.0080704570827}, "811164193RR0001": {"name": "Bear Valley Rescue Society", "designationCode": "C", "categoryCode": "54", "address": "BOX 19 SITE 6 RR 2", "city": "SUNDRE", "province": "AB", "country": "CA", "postalCode": "T0M1X0", "twitter": "None", "instagram": "None", "facebook": "None", "youtube": "None", "website": "None", "summary": "None", "logo": "None"}, "858341357RR0001": {"name": "Bearers of Love International / Porteurs d'amour international", "designationCode": "C", "categoryCode": "09", "address": "8, RUE LIDO", "city": "DOLLARD-DES-ORMEAUX", "province": "QC", "country": "CA", "postalCode": "H9B2T1", "twitter": "None", "instagram": "None", "facebook": "None", "youtube": "None", "website": "None", "summary": "None", "logo": "None", "latitude": 45.48889103165206, "longitude": -73.78542309507176}, "803069640RR0001": {"name": "Bearspaw Christian School Foundation", "designationCode": "A", "categoryCode": "23", "address": "15001 69 ST NW", "city": "CALGARY", "province": "AB", "country": "CA", "postalCode": "T3R1C5", "twitter": "None", "instagram": "None", "facebook": "None", "youtube": "None", "website": "None", "summary": "None", "logo": "None", "latitude": 51.18213739355994, "longitude": -114.1876366404294}, "825895980RR0001": {"name": "Beat the Heat Kenora", "designationCode": "C", "categoryCode": "54", "address": "R R 1 SITE 6B BOX 20,", "city": "KEEWATIN", "province": "ON", "country": "CA", "postalCode": "P0X1C0", "twitter": "None", "instagram": "None", "facebook": "None", "youtube": "None", "website": "None", "summary": "None", "logo": "None", "latitude": 49.75863000000005, "longitude": -94.54708249999993}, "846893881RR0001": {"name": "Beatitude Bible Church", "designationCode": "C", "categoryCode": "39", "address": "7917 14TH AVENUE", "city": "BURNABY", "province": "BC", "country": "CA", "postalCode": "V3N2B3", "twitter": "None", "instagram": "None", "facebook": "None", "youtube": "None", "website": "None", "summary": "None", "logo": "None", "latitude": 49.222134082722526, "longitude": -122.93078650265439}, "829739028RR0001": {"name": "Beatrice Stevens Memorial Foundation Inc.", "designationCode": "B", "categoryCode": "03", "address": "4816 142 ST NW", "city": "EDMONTON", "province": "AB", "country": "CA", "postalCode": "T6H4B1", "twitter": "None", "instagram": "None", "facebook": "None", "youtube": "None", "website": "None", "summary": "None", "logo": "None", "latitude": 53.486684497085804, "longitude": -113.56573864879661}, "806171799RR0001": {"name": "Beatty Family Charitable Foundation Inc.", "designationCode": "B", "categoryCode": "03", "address": "135 HARTLEY STREET,", "city": "BROCKVILLE", "province": "ON", "country": "CA", "postalCode": "K6V3N4", "twitter": "None", "instagram": "None", "facebook": "None", "youtube": "None", "website": "None", "summary": "None", "logo": "None", "latitude": 44.58027982760142, "longitude": -75.69494557224918}, "849085931RR0001": {"name": "Beauce art: L'international de sculptures", "designationCode": "C", "categoryCode": "22", "address": "440 - 11505 1RE AV", "city": "SAINT-GEORGES", "province": "QC", "country": "CA", "postalCode": "G5Y7X3", "twitter": "None", "instagram": "None", "facebook": "None", "youtube": "None", "website": "None", "summary": "None", "logo": "None", "latitude": 46.11630257357594, "longitude": -70.66661517122108}, "121555031RR0001": {"name": "Beaufort-Delta Divisional Education Council", "designationCode": "C", "categoryCode": "20", "address": "BAG SERVICE #12", "city": "INUVIK", "province": "NT", "country": "CA", "postalCode": "X0E0T0", "twitter": "None", "instagram": "None", "facebook": "None", "youtube": "None", "website": "None", "summary": "None", "logo": "None", "latitude": 68.35869628298585, "longitude": -133.70778161333652}, "822203386RR0001": {"name": "Beaumont & District Heritage Society/La soci\u00e9t\u00e9 d'histoire de Beaumont", "designationCode": "C", "categoryCode": "52", "address": "4901-55 AVENUE                BOX 13", "city": "BEAUMONT", "province": "AB", "country": "CA", "postalCode": "T4X1M9", "twitter": "None", "instagram": "None", "facebook": "None", "youtube": "None", "website": "None", "summary": "None", "logo": "None", "latitude": 53.35682731384489, "longitude": -113.41292968615512}, "863915526RR0001": {"name": "Beaumont and District Agricultural Society", "designationCode": "C", "categoryCode": "56", "address": "5010A - 52 AVENUE", "city": "BEAUMONT", "province": "AB", "country": "CA", "postalCode": "T4X1E5", "twitter": "None", "instagram": "None", "facebook": "None", "youtube": "None", "website": "None", "summary": "None", "logo": "None", "latitude": 53.35470568097483, "longitude": -113.41658433471687}, "119288918RR1721": {"name": "Beaumont Alberta Congregation of Jehovah's Witnesses", "designationCode": "C", "categoryCode": "61", "address": "250-23549 TWP 510", "city": "LEDUC COUNTY", "province": "AB", "country": "CA", "postalCode": "T4X0T1", "twitter": "None", "instagram": "None", "facebook": "None", "youtube": "None", "website": "None", "summary": "None", "logo": "None", "latitude": 53.36680550346246, "longitude": -113.357304}, "820754190RR0001": {"name": "Beaumont Baptist Church", "designationCode": "C", "categoryCode": "31", "address": "PO BOX 90041 RPO MONTALET", "city": "BEAUMONT", "province": "AB", "country": "CA", "postalCode": "T4X0C8", "twitter": "None", "instagram": "None", "facebook": "None", "youtube": "None", "website": "None", "summary": "None", "logo": "None", "latitude": 53.36340553837436, "longitude": -113.42443773530265}, "850079252RR0001": {"name": "Beaumont Supportive Living Society", "designationCode": "C", "categoryCode": "09", "address": "5020 52 AVE", "city": "BEAUMONT", "province": "AB", "country": "CA", "postalCode": "T4X1P3", "twitter": "None", "instagram": "None", "facebook": "None", "youtube": "None", "website": "None", "summary": "None", "logo": "None", "latitude": 53.35466447100232, "longitude": -113.41847216472387}, "811041847RR0001": {"name": "Beausejour Hospital T.V. Fund", "designationCode": "C", "categoryCode": "11", "address": "POST OFFICE BOX 1614", "city": "BEAUSEJOUR", "province": "MB", "country": "CA", "postalCode": "R0E0C0", "twitter": "None", "instagram": "None", "facebook": "None", "youtube": "None", "website": "None", "summary": "None", "logo": "None", "latitude": 50.061750000000075, "longitude": -96.50519999999995}, "804200111RR0001": {"name": "Beausejour/Brokenhead Christmas Hampers", "designationCode": "C", "categoryCode": "09", "address": "PO BOX 605", "city": "BEAUSEJOUR", "province": "MB", "country": "CA", "postalCode": "R0E0C0", "twitter": "None", "instagram": "None", "facebook": "None", "youtube": "None", "website": "None", "summary": "None", "logo": "None", "latitude": 50.061750000000075, "longitude": -96.50519999999995}}