{"891649642RR0001": {"name": "Fondation Coll\u00e8ge Saint-Alexandre", "designationCode": "A", "categoryCode": "23", "address": "2425 ST-LOUIS", "city": "GATINEAU", "province": "QC", "country": "CA", "postalCode": "J8V1E7", "twitter": "None", "instagram": "None", "facebook": "None", "youtube": "None", "website": "None", "summary": "None", "logo": "None", "latitude": 45.490983404768095, "longitude": -75.75040836287303}, "820431658RR0001": {"name": "Fondation Communautaire de l'Abitibi-T\u00e9miscamingue", "designationCode": "A", "categoryCode": "03", "address": "150 AV DU LAC", "city": "ROUYN-NORANDA", "province": "QC", "country": "CA", "postalCode": "J9X4N5", "twitter": "None", "instagram": "None", "facebook": "None", "youtube": "None", "website": "None", "summary": "None", "logo": "None", "latitude": 48.239306707455796, "longitude": -79.01779522817223}, "892931353RR0001": {"name": "Fondation Constance Langlois Inc.", "designationCode": "A", "categoryCode": "03", "address": "CP 937 CSP MAGOG", "city": "MAGOG", "province": "QC", "country": "CA", "postalCode": "J1X5C7", "twitter": "None", "instagram": "None", "facebook": "None", "youtube": "None", "website": "None", "summary": "None", "logo": "None", "latitude": 45.26478600000006, "longitude": -72.14726149999993}, "844629444RR0001": {"name": "Fondation Corbeille d'\u00c9milie", "designationCode": "A", "categoryCode": "03", "address": "5090, RUE DUDEMAINE", "city": "MONTREAL", "province": "QC", "country": "CA", "postalCode": "H4J1N6", "twitter": "None", "instagram": "None", "facebook": "None", "youtube": "None", "website": "None", "summary": "None", "logo": "None", "latitude": 45.52812493614762, "longitude": -73.70119307796199}, "847933371RR0001": {"name": "Fondation Coup de Coeur", "designationCode": "B", "categoryCode": "03", "address": "3600 AV. DU PARC, #1214", "city": "MONTR\u00c9AL", "province": "QC", "country": "CA", "postalCode": "H2X3R2", "twitter": "None", "instagram": "None", "facebook": "None", "youtube": "None", "website": "None", "summary": "None", "logo": "None", "latitude": 45.510729161521226, "longitude": -73.57642479115924}, "891807646RR0001": {"name": "Fondation Coup de Pouce \u00e0 l'Enfance de l'Estrie", "designationCode": "C", "categoryCode": "09", "address": "1947 RUE BELVEDERE S", "city": "SHERBROOKE", "province": "QC", "country": "CA", "postalCode": "J1H5Y3", "twitter": "None", "instagram": "None", "facebook": "None", "youtube": "None", "website": "None", "summary": "None", "logo": "None", "latitude": 45.3756875342778, "longitude": -71.89393257972141}, "850271289RR0001": {"name": "Fondation Courtois", "designationCode": "B", "categoryCode": "03", "address": "18 PLACE RICHELIEU", "city": "MONTR\u00c9AL", "province": "QC", "country": "CA", "postalCode": "H3G1E8", "twitter": "None", "instagram": "None", "facebook": "None", "youtube": "None", "website": "None", "summary": "None", "logo": "None", "latitude": 45.499762037192, "longitude": -73.58080437108312}, "844833111RR0001": {"name": "Fondation Croteau, Isabelle, Caron", "designationCode": "B", "categoryCode": "13", "address": "141,RUE NOTRE-DAME EST", "city": "VICTORIAVILLE", "province": "QC", "country": "CA", "postalCode": "G6P3Z8", "twitter": "None", "instagram": "None", "facebook": "None", "youtube": "None", "website": "None", "summary": "None", "logo": "None", "latitude": 46.056736301113915, "longitude": -71.95572168829719}, "850091620RR0001": {"name": "Fondation CAA-Qu\u00e9bec / CAA-Qu\u00e9bec Foundation", "designationCode": "C", "categoryCode": "21", "address": "444,RUE BOUVIER", "city": "QU\u00c9BEC", "province": "QC", "country": "CA", "postalCode": "G2J1E3", "twitter": "None", "instagram": "None", "facebook": "None", "youtube": "None", "website": "None", "summary": "None", "logo": "None", "latitude": 46.83767422872049, "longitude": -71.26840442974138}, "141761155RR0001": {"name": "Fondation CERVO", "designationCode": "A", "categoryCode": "19", "address": "2601, CHEMIN DE LA CANARDI\u00c8RE,J-9000", "city": "QU\u00c9BEC", "province": "QC", "country": "CA", "postalCode": "G1J2G3", "twitter": "None", "instagram": "None", "facebook": "None", "youtube": "None", "website": "None", "summary": "None", "logo": "None", "latitude": 46.84564443851354, "longitude": -71.2174281421315}, "820599058RR0001": {"name": "Fondation CFER", "designationCode": "C", "categoryCode": "21", "address": "184, RUE RACINE               BUREAU 413", "city": "QU\u00c9BEC", "province": "QC", "country": "CA", "postalCode": "G2B1E3", "twitter": "None", "instagram": "None", "facebook": "None", "youtube": "None", "website": "None", "summary": "None", "logo": "None", "latitude": 46.8529536616941, "longitude": -71.35786986182096}, "836712919RR0001": {"name": "Fondation CJAM Foundation", "designationCode": "C", "categoryCode": "21", "address": "5765 CHEMIN DE LA COTE SAINTE ANTOINE", "city": "MONTREAL", "province": "QC", "country": "CA", "postalCode": "H4A1S1", "twitter": "None", "instagram": "None", "facebook": "None", "youtube": "None", "website": "None", "summary": "None", "logo": "None", "latitude": 45.47080065474055, "longitude": -73.61823421706373}, "823028774RR0001": {"name": "Fondation CO2 Environnement", "designationCode": "C", "categoryCode": "59", "address": "1600D CH D'OKA", "city": "OKA", "province": "QC", "country": "CA", "postalCode": "J0N1E0", "twitter": "None", "instagram": "None", "facebook": "None", "youtube": "None", "website": "None", "summary": "None", "logo": "None", "latitude": 45.492202309447904, "longitude": -74.03231649131158}, "899352363RR0002": {"name": "Fondation CRDITED de Laval", "designationCode": "C", "categoryCode": "11", "address": "600 RUE DE LA GAUCHETIERE O   BUREAU 2000", "city": "MONTREAL", "province": "QC", "country": "CA", "postalCode": "H3B4L8", "twitter": "None", "instagram": "None", "facebook": "None", "youtube": "None", "website": "None", "summary": "None", "logo": "None", "latitude": 45.50188920231989, "longitude": -73.56436485827253}, "827901307RR0001": {"name": "Fondation D.I.R.I.G.E.S. inc.", "designationCode": "C", "categoryCode": "21", "address": "26 AVENUE DE NAPLES", "city": "CANDIAC", "province": "QC", "country": "CA", "postalCode": "J5R5N3", "twitter": "None", "instagram": "None", "facebook": "None", "youtube": "None", "website": "None", "summary": "None", "logo": "None", "latitude": 45.38620104356862, "longitude": -73.53412432878392}, "821698024RR0001": {"name": "Fondation Daniel Lamarre", "designationCode": "A", "categoryCode": "03", "address": "1981,AVENUE MCGILL COLLEGE    BUREAU 1440", "city": "MONTREAL", "province": "QC", "country": "CA", "postalCode": "H3A2Y1", "twitter": "None", "instagram": "None", "facebook": "None", "youtube": "None", "website": "None", "summary": "None", "logo": "None", "latitude": 45.50305997394517, "longitude": -73.57323951800474}, "842637571RR0001": {"name": "Fondation De La Vallee Massawippi/Massawippi Valley Foundation", "designationCode": "C", "categoryCode": "11", "address": "1082 MAIN STREET", "city": "AYER'S CLIFF", "province": "QC", "country": "CA", "postalCode": "J0B1C0", "twitter": "None", "instagram": "None", "facebook": "None", "youtube": "None", "website": "None", "summary": "None", "logo": "None", "latitude": 45.168251019418385, "longitude": -72.04004604400131}, "844263616RR0001": {"name": "Fondation Denis Ouellet et Suzanne Fournier", "designationCode": "B", "categoryCode": "03", "address": "425 CHEMIN DES PATRIOTES SUD", "city": "MONT ST-HILAIRE", "province": "QC", "country": "CA", "postalCode": "J3H3G5", "twitter": "None", "instagram": "None", "facebook": "None", "youtube": "None", "website": "None", "summary": "None", "logo": "None", "latitude": 45.55029164086208, "longitude": -73.20506553168072}, "774729313RR0001": {"name": "Fondation Denis Viger", "designationCode": "B", "categoryCode": "05", "address": "900 - 2828 BOUL LAURIER", "city": "QUEBEC", "province": "QC", "country": "CA", "postalCode": "G1V0B9", "twitter": "None", "instagram": "None", "facebook": "None", "youtube": "None", "website": "None", "summary": "None", "logo": "None", "latitude": 46.76745081020227, "longitude": -71.28815594454348}, "721791093RR0001": {"name": "Fondation Denis-Servant (ODILON)", "designationCode": "B", "categoryCode": "21", "address": "3483 CAR DE L'ORMEAU", "city": "QUEBEC", "province": "QC", "country": "CA", "postalCode": "G1X2A5", "twitter": "None", "instagram": "None", "facebook": "None", "youtube": "None", "website": "None", "summary": "None", "logo": "None", "latitude": 46.77111890755398, "longitude": -71.33405967236993}, "806192506RR0001": {"name": "Fondation Dentons / Dentons Foundation", "designationCode": "B", "categoryCode": "03", "address": "39TH FLOOR                    1 PLACE VILLE-MARIE", "city": "MONTREAL", "province": "QC", "country": "CA", "postalCode": "H3B4M7", "twitter": "None", "instagram": "None", "facebook": "None", "youtube": "None", "website": "None", "summary": "None", "logo": "None", "latitude": 45.50188724476333, "longitude": -73.56787382018557}, "804021905RR0001": {"name": "Fondation Diane et Armand Pich\u00e9", "designationCode": "B", "categoryCode": "43", "address": "136 CH DU MONT-CASTOR", "city": "SAINTE-AGATHE-NORD", "province": "QC", "country": "CA", "postalCode": "J8C2Z8", "twitter": "None", "instagram": "None", "facebook": "None", "youtube": "None", "website": "None", "summary": "None", "logo": "None", "latitude": 46.06650957591318, "longitude": -74.30706518999929}, "731402491RR0001": {"name": "Fondation Diffuser Le Soleil", "designationCode": "C", "categoryCode": "09", "address": "630 BOUL RENE-LEVESQUE O      BUREAU 2800", "city": "MONTREAL", "province": "QC", "country": "CA", "postalCode": "H3B1S6", "twitter": "None", "instagram": "None", "facebook": "None", "youtube": "None", "website": "None", "summary": "None", "logo": "None", "latitude": 45.50216587702709, "longitude": -73.56700637477672}, "873310106RR0001": {"name": "Fondation Dignit\u00e9, Amour et Compassion / Dignity, Love and Compassion Foundation", "designationCode": "B", "categoryCode": "54", "address": "1780-B RUE PRINCIPALE EST", "city": "ST-PAUL D'ABBOTSFORD", "province": "QC", "country": "CA", "postalCode": "J0E1A0", "twitter": "None", "instagram": "None", "facebook": "None", "youtube": "None", "website": "None", "summary": "None", "logo": "None", "latitude": 45.432960871463436, "longitude": -72.8568658920191}, "831861216RR0001": {"name": "Fondation Docteur Sadok Besrour", "designationCode": "B", "categoryCode": "03", "address": "1603-1115, RUE SHERBROOKE O.", "city": "MONTR\u00c9AL", "province": "QC", "country": "CA", "postalCode": "H3A1H3", "twitter": "None", "instagram": "None", "facebook": "None", "youtube": "None", "website": "None", "summary": "None", "logo": "None", "latitude": 45.50420051526984, "longitude": -73.57425178965626}, "814102588RR0001": {"name": "Fondation DonEspoir Cancer/GiveHope for Cancer Foundation", "designationCode": "C", "categoryCode": "11", "address": "4891 SAINT-CHARLES BLVD.", "city": "PIERREFONDS", "province": "QC", "country": "CA", "postalCode": "H9H3E4", "twitter": "None", "instagram": "None", "facebook": "None", "youtube": "None", "website": "None", "summary": "None", "logo": "None", "latitude": 45.4667859528247, "longitude": -73.87396394030254}, "891032674RR0001": {"name": "Fondation Dufresne de l'\u00e9cole de Val-David", "designationCode": "C", "categoryCode": "21", "address": "2580 RUE DE L'EGLISE", "city": "VAL-DAVID", "province": "QC", "country": "CA", "postalCode": "J0T2N0", "twitter": "None", "instagram": "None", "facebook": "None", "youtube": "None", "website": "None", "summary": "None", "logo": "None", "latitude": 46.03170734220104, "longitude": -74.20480509781306}, "141155150RR0001": {"name": "Fondation Dupont", "designationCode": "B", "categoryCode": "21", "address": "3229, CH. DES QUATRE-BOURGEOISBUREAU 600", "city": "QU\u00c9BEC", "province": "QC", "country": "CA", "postalCode": "G1W0C1", "twitter": "None", "instagram": "None", "facebook": "None", "youtube": "None", "website": "None", "summary": "None", "logo": "None", "latitude": 46.76663400000005, "longitude": -71.31107149999994}, "827639998RR0001": {"name": "Fondation DAmours", "designationCode": "B", "categoryCode": "03", "address": "105 - 1290 RUE DU PHARE", "city": "LAVAL", "province": "QC", "country": "CA", "postalCode": "H7R6J5", "twitter": "None", "instagram": "None", "facebook": "None", "youtube": "None", "website": "None", "summary": "None", "logo": "None", "latitude": 45.57239216319466, "longitude": -73.8494374055338}, "859114894RR0001": {"name": "Fondation DITED", "designationCode": "C", "categoryCode": "09", "address": "1489, DE LA VOIE LACT\u00c9E", "city": "PR\u00c9VOST", "province": "QC", "country": "CA", "postalCode": "J0R1T0", "twitter": "None", "instagram": "None", "facebook": "None", "youtube": "None", "website": "None", "summary": "None", "logo": "None", "latitude": 45.88208155920746, "longitude": -74.06642063563929}, "118922889RR0001": {"name": "Fondation E.P.I.C.", "designationCode": "A", "categoryCode": "11", "address": "5055 RUE SAINT-ZOTIQUE E", "city": "MONTREAL", "province": "QC", "country": "CA", "postalCode": "H1T1N6", "twitter": "None", "instagram": "None", "facebook": "None", "youtube": "None", "website": "None", "summary": "None", "logo": "None", "latitude": 45.57450941439196, "longitude": -73.57419865116252}, "822654513RR0001": {"name": "Fondation Ed Brunet inc.", "designationCode": "B", "categoryCode": "03", "address": "9,RUE DUMAS", "city": "GATINEAU", "province": "QC", "country": "CA", "postalCode": "J8Y2M4", "twitter": "None", "instagram": "None", "facebook": "None", "youtube": "None", "website": "None", "summary": "None", "logo": "None", "latitude": 45.43745454674263, "longitude": -75.73058163918864}, "837892629RR0001": {"name": "Fondation Ekuus", "designationCode": "C", "categoryCode": "09", "address": "11-166 38 PLACE DU COMMERCE", "city": "VERDUN", "province": "QC", "country": "CA", "postalCode": "H3E1T8", "twitter": "None", "instagram": "None", "facebook": "None", "youtube": "None", "website": "None", "summary": "None", "logo": "None", "latitude": 45.468083005222816, "longitude": -73.54167319605882}, "842646770RR0001": {"name": "Fondation En Sc\u00e8ne Rivi\u00e8re-du-Nord", "designationCode": "C", "categoryCode": "22", "address": "118 RUE DE LA GARE", "city": "SAINT-JEROME", "province": "QC", "country": "CA", "postalCode": "J7Z0J1", "twitter": "None", "instagram": "None", "facebook": "None", "youtube": "None", "website": "None", "summary": "None", "logo": "None", "latitude": 45.776134572456115, "longitude": -74.00104187901657}, "781386883RR0001": {"name": "Fondation Enfanti/\u00c2ge d'Or", "designationCode": "B", "categoryCode": "03", "address": "1276 RANG KEMPT", "city": "SAINT-ALEXANDRE-D'IBERVILLE", "province": "QC", "country": "CA", "postalCode": "J0J1S0", "twitter": "None", "instagram": "None", "facebook": "None", "youtube": "None", "website": "None", "summary": "None", "logo": "None", "latitude": 45.25910075662166, "longitude": -73.11095395804749}, "780057329RR0001": {"name": "Fondation Enfants avec Kawasaki - Kids With Kawasaki", "designationCode": "B", "categoryCode": "13", "address": "1650 BOUL RENE-LEVESQUE O", "city": "MONTREAL", "province": "QC", "country": "CA", "postalCode": "H3H2S1", "twitter": "None", "instagram": "None", "facebook": "None", "youtube": "None", "website": "None", "summary": "None", "logo": "None", "latitude": 45.49302449596062, "longitude": -73.57565801370558}, "711222729RR0001": {"name": "Fondation Entraide Qu\u00e9bec", "designationCode": "C", "categoryCode": "09", "address": "1-4180                        51E RUE", "city": "MONTREAL", "province": "QC", "country": "CA", "postalCode": "H1Z1J3", "twitter": "None", "instagram": "None", "facebook": "None", "youtube": "None", "website": "None", "summary": "None", "logo": "None", "latitude": 45.58199219949304, "longitude": -73.62423915931558}, "897426334RR0001": {"name": "Fondation Espace pour la vie", "designationCode": "A", "categoryCode": "53", "address": "4101 RUE SHERBROOKE EST", "city": "MONTREAL", "province": "QC", "country": "CA", "postalCode": "H1X2B2", "twitter": "None", "instagram": "None", "facebook": "None", "youtube": "None", "website": "None", "summary": "None", "logo": "None", "latitude": 45.556460725295054, "longitude": -73.55448215612533}, "890872377RR0001": {"name": "Fondation Espace Jeunesse Lanaudi\u00e8re", "designationCode": "C", "categoryCode": "21", "address": "90 BOUL. DES M\u00c9SANGES", "city": "SAINT-CHARLES-BORROM\u00c9", "province": "QC", "country": "CA", "postalCode": "J6E0B9", "twitter": "None", "instagram": "None", "facebook": "None", "youtube": "None", "website": "None", "summary": "None", "logo": "None", "latitude": 46.03839759299176, "longitude": -73.46429376813322}, "842731598RR0001": {"name": "Fondation Espoir-Gu\u00e9rison", "designationCode": "B", "categoryCode": "03", "address": "925, BOUL. DE CH\u00c2TEAUNEUF", "city": "BOISBRIAND", "province": "QC", "country": "CA", "postalCode": "J7G2G7", "twitter": "None", "instagram": "None", "facebook": "None", "youtube": "None", "website": "None", "summary": "None", "logo": "None", "latitude": 45.61860131805078, "longitude": -73.83398760770947}, "815033972RR0001": {"name": "Fondation Evenko pour le Talent \u00c9mergent", "designationCode": "A", "categoryCode": "23", "address": "1275 RUE SAINT-ANTOINE O", "city": "MONTREAL", "province": "QC", "country": "CA", "postalCode": "H3C5L2", "twitter": "None", "instagram": "None", "facebook": "None", "youtube": "None", "website": "None", "summary": "None", "logo": "None", "latitude": 45.49539392506777, "longitude": -73.5687908005943}, "820904530RR0001": {"name": "Fondation Evens Guercy", "designationCode": "C", "categoryCode": "09", "address": "7728 AV DES ORMEAUX", "city": "ANJOU", "province": "QC", "country": "CA", "postalCode": "H1K2Y1", "twitter": "None", "instagram": "None", "facebook": "None", "youtube": "None", "website": "None", "summary": "None", "logo": "None", "latitude": 45.61421773131757, "longitude": -73.5545942169195}, "839009172RR0001": {"name": "Fondation Excelsior Foundation", "designationCode": "B", "categoryCode": "03", "address": "1 WOOD AVENUE, APT. 903", "city": "WESTMOUNT", "province": "QC", "country": "CA", "postalCode": "H3Z3C5", "twitter": "None", "instagram": "None", "facebook": "None", "youtube": "None", "website": "None", "summary": "None", "logo": "None", "latitude": 45.4877823530784, "longitude": -73.58728905228253}, "818398554RR0001": {"name": "Fondation Externat Saint-Jean-Eudes", "designationCode": "A", "categoryCode": "23", "address": "650, AVENUE BOURG-ROYAL", "city": "QU\u00c9BEC", "province": "QC", "country": "CA", "postalCode": "G2L1M8", "twitter": "None", "instagram": "None", "facebook": "None", "youtube": "None", "website": "None", "summary": "None", "logo": "None", "latitude": 46.876831175976605, "longitude": -71.24378719813629}, "812513984RR0001": {"name": "Fondation EBS/EBS Foundation", "designationCode": "B", "categoryCode": "03", "address": "960 AV OUTREMONT", "city": "OUTREMONT", "province": "QC", "country": "CA", "postalCode": "H2V4R1", "twitter": "None", "instagram": "None", "facebook": "None", "youtube": "None", "website": "None", "summary": "None", "logo": "None", "latitude": 45.522661665243476, "longitude": -73.61721444829438}, "760581322RR0001": {"name": "Fondation Factry - Factry Foundation", "designationCode": "C", "categoryCode": "21", "address": "2 RUE SERGE-GARANT", "city": "VERDUN", "province": "QC", "country": "CA", "postalCode": "H3E0A6", "twitter": "None", "instagram": "None", "facebook": "None", "youtube": "None", "website": "None", "summary": "None", "logo": "None", "latitude": 45.44723164640201, "longitude": -73.55973886360997}, "809585912RR0001": {"name": "Fondation Familiale Sheryl et Ronald Black / The Sheryl and Ronald Black Family Foundation", "designationCode": "B", "categoryCode": "03", "address": "2700-1000 RUE SHERBROOKE O", "city": "MONTREAL", "province": "QC", "country": "CA", "postalCode": "H3A3G4", "twitter": "None", "instagram": "None", "facebook": "None", "youtube": "None", "website": "None", "summary": "None", "logo": "None", "latitude": 45.50420051526984, "longitude": -73.57425178965626}, "836118448RR0001": {"name": "Fondation Familiprix", "designationCode": "B", "categoryCode": "03", "address": "6000 RUE ARMAND-VIAU", "city": "QU\u00c9BEC", "province": "QC", "country": "CA", "postalCode": "G2C2C5", "twitter": "None", "instagram": "None", "facebook": "None", "youtube": "None", "website": "None", "summary": "None", "logo": "None", "latitude": 46.81643922540226, "longitude": -71.34277838173028}, "725661292RR0001": {"name": "Fondation Famille Andr\u00e9e et R\u00e9al l'Heureux", "designationCode": "B", "categoryCode": "03", "address": "260 - 1415 RUE FRANK-CARREL", "city": "QUEBEC", "province": "QC", "country": "CA", "postalCode": "G1N4N7", "twitter": "None", "instagram": "None", "facebook": "None", "youtube": "None", "website": "None", "summary": "None", "logo": "None", "latitude": 46.79725985452162, "longitude": -71.26072790766953}, "824675789RR0001": {"name": "Fondation Famille Bertrand", "designationCode": "B", "categoryCode": "03", "address": "20150 CH LAKESHORE", "city": "BAIE-D'URFE", "province": "QC", "country": "CA", "postalCode": "H9X1P7", "twitter": "None", "instagram": "None", "facebook": "None", "youtube": "None", "website": "None", "summary": "None", "logo": "None", "latitude": 45.412352721017136, "longitude": -73.9041261562411}, "758441125RR0001": {"name": "Fondation Famille Caron", "designationCode": "B", "categoryCode": "03", "address": "322 RUE DES BERNACHES", "city": "SAINT-JEAN-SUR-RICHELIEU", "province": "QC", "country": "CA", "postalCode": "J2W0A4", "twitter": "None", "instagram": "None", "facebook": "None", "youtube": "None", "website": "None", "summary": "None", "logo": "None", "latitude": 45.35778567664043, "longitude": -73.25569527944516}, "891357717RR0001": {"name": "Fondation Famille Donald Quane / Donald Quane Family Foundation", "designationCode": "B", "categoryCode": "03", "address": "758 MAIN ROAD", "city": "HUDSON", "province": "QC", "country": "CA", "postalCode": "J0P1H0", "twitter": "None", "instagram": "None", "facebook": "None", "youtube": "None", "website": "None", "summary": "None", "logo": "None", "latitude": 45.47322606633389, "longitude": -74.18400715958798}, "835879065RR0001": {"name": "Fondation Famille F.X. Seigneur", "designationCode": "B", "categoryCode": "03", "address": "1981 AVENUE MCGILL COLLEGE    BUREAU 1440", "city": "MONTR\u00c9AL", "province": "QC", "country": "CA", "postalCode": "H3A2Y1", "twitter": "None", "instagram": "None", "facebook": "None", "youtube": "None", "website": "None", "summary": "None", "logo": "None", "latitude": 45.50305997394517, "longitude": -73.57323951800474}, "768297723RR0001": {"name": "Fondation Famille Lafond", "designationCode": "B", "categoryCode": "03", "address": "970 CH DES PATRIOTES N        SS 974", "city": "MONT-SAINT-HILAIRE", "province": "QC", "country": "CA", "postalCode": "J3G4S6", "twitter": "None", "instagram": "None", "facebook": "None", "youtube": "None", "website": "None", "summary": "None", "logo": "None", "latitude": 45.58849009325409, "longitude": -73.18747115067252}, "763095726RR0001": {"name": "Fondation Famille Michel Fournelle", "designationCode": "B", "categoryCode": "03", "address": "200 - 3600 AV BARCLAY", "city": "MONTREAL", "province": "QC", "country": "CA", "postalCode": "H3S1K5", "twitter": "None", "instagram": "None", "facebook": "None", "youtube": "None", "website": "None", "summary": "None", "logo": "None", "latitude": 45.50239007937564, "longitude": -73.6356888918865}, "718034499RR0001": {"name": "Fondation Famille Mongeau/Mongeau Family Foundation", "designationCode": "B", "categoryCode": "03", "address": "195 AV MAPLEWOOD", "city": "OUTREMONT", "province": "QC", "country": "CA", "postalCode": "H2V2M6", "twitter": "None", "instagram": "None", "facebook": "None", "youtube": "None", "website": "None", "summary": "None", "logo": "None", "latitude": 45.51298421011018, "longitude": -73.60580800418359}, "850215682RR0001": {"name": "Fondation Famille Monk / Monk Family Foundation", "designationCode": "B", "categoryCode": "03", "address": "1290 KENILWORTH", "city": "VILLE MONT ROYAL", "province": "QC", "country": "CA", "postalCode": "H3R2R7", "twitter": "None", "instagram": "None", "facebook": "None", "youtube": "None", "website": "None", "summary": "None", "logo": "None", "latitude": 45.50835006076532, "longitude": -73.64737818249748}, "795288091RR0001": {"name": "Fondation Famille Neuhaus Neuhaus Family Foundation", "designationCode": "B", "categoryCode": "03", "address": "6072 WILDERTON CRES", "city": "MONTREAL", "province": "QC", "country": "CA", "postalCode": "H3S2M6", "twitter": "None", "instagram": "None", "facebook": "None", "youtube": "None", "website": "None", "summary": "None", "logo": "None", "latitude": 45.508722623348284, "longitude": -73.62330533775763}, "842761181RR0001": {"name": "Fondation Famille Normand Beauchamp/ Normand Beauchamp Family Foundation", "designationCode": "B", "categoryCode": "03", "address": "7850 RUE BOMBARDIER", "city": "MONTR\u00c9AL", "province": "QC", "country": "CA", "postalCode": "H1J2G3", "twitter": "None", "instagram": "None", "facebook": "None", "youtube": "None", "website": "None", "summary": "None", "logo": "None", "latitude": 45.613936165935975, "longitude": -73.57866721862254}, "839564887RR0001": {"name": "Fondation Famille Pierre Boivin / Pierre Boivin Family Foundation", "designationCode": "B", "categoryCode": "03", "address": "950 BOUL MICHELE-BOHEC", "city": "BLAINVILLE", "province": "QC", "country": "CA", "postalCode": "J7C5E2", "twitter": "None", "instagram": "None", "facebook": "None", "youtube": "None", "website": "None", "summary": "None", "logo": "None", "latitude": 45.66396036727397, "longitude": -73.89118047902375}, "726883291RR0001": {"name": "Fondation Famille Ren\u00e9 et Desch\u00eanes", "designationCode": "B", "categoryCode": "03", "address": "PHS2 - 6301 PLACE NORTHCREST", "city": "MONTREAL", "province": "QC", "country": "CA", "postalCode": "H3S2W4", "twitter": "None", "instagram": "None", "facebook": "None", "youtube": "None", "website": "None", "summary": "None", "logo": "None", "latitude": 45.5122622600841, "longitude": -73.62496738429776}, "702035890RR0001": {"name": "Fondation Famille Vachon", "designationCode": "B", "categoryCode": "03", "address": "120, BOUL. BEACONSFIELD", "city": "BEACONSFIELD", "province": "QC", "country": "CA", "postalCode": "H9W3Z7", "twitter": "None", "instagram": "None", "facebook": "None", "youtube": "None", "website": "None", "summary": "None", "logo": "None", "latitude": 45.429939391569384, "longitude": -73.84895417759272}, "782684294RR0001": {"name": "Fondation Familles Lauzon et Provencher", "designationCode": "B", "categoryCode": "05", "address": "1250 BOUL RENE-LEVESQUE O     BUREAU 4600", "city": "MONTREAL", "province": "QC", "country": "CA", "postalCode": "H3B4W8", "twitter": "None", "instagram": "None", "facebook": "None", "youtube": "None", "website": "None", "summary": "None", "logo": "None", "latitude": 45.497635797911244, "longitude": -73.57123025818045}, "776746323RR0001": {"name": "Fondation Farag & Ward/Farag & Ward Foundation", "designationCode": "B", "categoryCode": "03", "address": "602-2800 COTE VERTU BOULEVARD", "city": "MONTREAL", "province": "QC", "country": "CA", "postalCode": "H4R2M5", "twitter": "None", "instagram": "None", "facebook": "None", "youtube": "None", "website": "None", "summary": "None", "logo": "None", "latitude": 45.509591940035286, "longitude": -73.68850903119487}, "862463791RR0001": {"name": "Fondation Fares Malek", "designationCode": "B", "categoryCode": "21", "address": "517 ATHENES", "city": "LAVAL", "province": "QC", "country": "CA", "postalCode": "H7M5R8", "twitter": "None", "instagram": "None", "facebook": "None", "youtube": "None", "website": "None", "summary": "None", "logo": "None", "latitude": 45.61703180573019, "longitude": -73.71647667750581}, "836944447RR0001": {"name": "Fondation Fasken Martineau DuMoulin / Fasken Martineau DuMoulin Foundation", "designationCode": "B", "categoryCode": "03", "address": "800 PLACE VICTORIA            BUREAU 3700, P.O.B. 242", "city": "MONTREAL", "province": "QC", "country": "CA", "postalCode": "H4Z1E9", "twitter": "None", "instagram": "None", "facebook": "None", "youtube": "None", "website": "None", "summary": "None", "logo": "None", "latitude": 45.51239400000006, "longitude": -73.55469049999994}, "898564117RR0001": {"name": "Fondation Faucon Argent\u00e9", "designationCode": "C", "categoryCode": "50", "address": "953 RUE DE LA VOLUTE", "city": "L'ANCIENNE-LORETTE", "province": "QC", "country": "CA", "postalCode": "G2E5S8", "twitter": "None", "instagram": "None", "facebook": "None", "youtube": "None", "website": "None", "summary": "None", "logo": "None", "latitude": 46.815512773789656, "longitude": -71.35298639174226}, "791173495RR0001": {"name": "Fondation Fiera Capital / Fiera Capital Foundation", "designationCode": "B", "categoryCode": "03", "address": "800 - 1501 AV MCGILL COLLEGE", "city": "MONTREAL", "province": "QC", "country": "CA", "postalCode": "H3A3M8", "twitter": "None", "instagram": "None", "facebook": "None", "youtube": "None", "website": "None", "summary": "None", "logo": "None", "latitude": 45.50241910883465, "longitude": -73.57189910473797}, "810505446RR0001": {"name": "Fondation Filia / Filia Foundation", "designationCode": "C", "categoryCode": "09", "address": "821, RUE OGILVY", "city": "MONTREAL", "province": "QC", "country": "CA", "postalCode": "H4B2A7", "twitter": "None", "instagram": "None", "facebook": "None", "youtube": "None", "website": "None", "summary": "None", "logo": "None", "latitude": 45.526616915632715, "longitude": -73.62674280019027}, "812209138RR0001": {"name": "Fondation Flambeau d'Espoir (FFE)", "designationCode": "C", "categoryCode": "09", "address": "153, RUE DE SANNOIS", "city": "TERREBONNE", "province": "QC", "country": "CA", "postalCode": "J6W0C3", "twitter": "None", "instagram": "None", "facebook": "None", "youtube": "None", "website": "None", "summary": "None", "logo": "None", "latitude": 45.71704417568816, "longitude": -73.6065345294017}, "820408060RR0001": {"name": "Fondation ForCGal", "designationCode": "C", "categoryCode": "22", "address": "305-3103 AVENUE DES H\u00d4TELS", "city": "QU\u00c9BEC", "province": "QC", "country": "CA", "postalCode": "G1W4W6", "twitter": "None", "instagram": "None", "facebook": "None", "youtube": "None", "website": "None", "summary": "None", "logo": "None", "latitude": 46.76315968079539, "longitude": -71.29417185322261}, "819818790RR0001": {"name": "Fondation Fr\u00e8re J\u00e9r\u00f4me", "designationCode": "C", "categoryCode": "50", "address": "4901 RUE DU PIEDMONT", "city": "MONTREAL", "province": "QC", "country": "CA", "postalCode": "H3V1E3", "twitter": "None", "instagram": "None", "facebook": "None", "youtube": "None", "website": "None", "summary": "None", "logo": "None", "latitude": 45.49437641078528, "longitude": -73.61616300470321}, "824486815RR0001": {"name": "Fondation Fran\u00e7ois Bonnardel", "designationCode": "A", "categoryCode": "03", "address": "569, RUE PRICIPAL", "city": "GRANBY", "province": "QC", "country": "CA", "postalCode": "J3G2X5", "twitter": "None", "instagram": "None", "facebook": "None", "youtube": "None", "website": "None", "summary": "None", "logo": "None", "latitude": 45.57335100000006, "longitude": -73.19877199999993}, "816554331RR0001": {"name": "Fondation Francois de Courval", "designationCode": "B", "categoryCode": "21", "address": "1510, CHEMIN SAINTE-FOY", "city": "QU\u00c9BEC", "province": "QC", "country": "CA", "postalCode": "G1S2P3", "twitter": "None", "instagram": "None", "facebook": "None", "youtube": "None", "website": "None", "summary": "None", "logo": "None", "latitude": 46.79299435250148, "longitude": -71.25827457481665}, "817150717RR0001": {"name": "Fondation Francoise-Labb\u00e9", "designationCode": "B", "categoryCode": "53", "address": "23 RUE AMBROISE-FAFARD", "city": "BAIE ST-PAUL", "province": "QC", "country": "CA", "postalCode": "G3Z2J2", "twitter": "None", "instagram": "None", "facebook": "None", "youtube": "None", "website": "None", "summary": "None", "logo": "None", "latitude": 47.44040029141904, "longitude": -70.50579561030654}, "787268895RR0001": {"name": "Fondation Frisson de Colline", "designationCode": "A", "categoryCode": "03", "address": "475, AVENUE BLOOMFIELD", "city": "MONTR\u00c9AL", "province": "QC", "country": "CA", "postalCode": "H2T2X3", "twitter": "None", "instagram": "None", "facebook": "None", "youtube": "None", "website": "None", "summary": "None", "logo": "None", "latitude": 45.51943236750512, "longitude": -73.60578278931291}, "842147084RR0001": {"name": "Fondation Frontenac", "designationCode": "A", "categoryCode": "03", "address": "210 - 801 GRANDE ALLEE O", "city": "QUEBEC", "province": "QC", "country": "CA", "postalCode": "G1S1C1", "twitter": "None", "instagram": "None", "facebook": "None", "youtube": "None", "website": "None", "summary": "None", "logo": "None", "latitude": 46.79707551669151, "longitude": -71.23267117488822}, "829094952RR0001": {"name": "Fondation G\u00e9nies en herbe", "designationCode": "C", "categoryCode": "29", "address": "65 RUE DUFFERIN", "city": "GRANBY", "province": "QC", "country": "CA", "postalCode": "J2G4W8", "twitter": "None", "instagram": "None", "facebook": "None", "youtube": "None", "website": "None", "summary": "None", "logo": "None", "latitude": 45.40071085622371, "longitude": -72.7220064057363}, "840103444RR0001": {"name": "Fondation Ga\u00efa Nova / Ga\u00efa Nova Foundation", "designationCode": "C", "categoryCode": "59", "address": "858 AV DU MONT-ROYAL E", "city": "MONTREAL", "province": "QC", "country": "CA", "postalCode": "H2J1X1", "twitter": "None", "instagram": "None", "facebook": "None", "youtube": "None", "website": "None", "summary": "None", "logo": "None", "latitude": 45.526291177621395, "longitude": -73.58073864374762}, "843268897RR0001": {"name": "Fondation Gervais-Talbot", "designationCode": "B", "categoryCode": "03", "address": "575, RUE SYLVESTRE", "city": "SAINT-HYACINTHE", "province": "QC", "country": "CA", "postalCode": "J2S1S9", "twitter": "None", "instagram": "None", "facebook": "None", "youtube": "None", "website": "None", "summary": "None", "logo": "None", "latitude": 45.636811313895855, "longitude": -72.94991126184445}, "855639399RR0001": {"name": "Fondation Gilles Daoust", "designationCode": "C", "categoryCode": "09", "address": "2852 INCAS", "city": "SHERBROOKE", "province": "QC", "country": "CA", "postalCode": "J1N2X7", "twitter": "None", "instagram": "None", "facebook": "None", "youtube": "None", "website": "None", "summary": "None", "logo": "None", "latitude": 45.36377447013695, "longitude": -71.94379097155058}, "826127318RR0001": {"name": "Fondation Girafonds / Girafund Foundation", "designationCode": "B", "categoryCode": "13", "address": "1100 BOULEVARD RENE-LEVESQUE O25IEME \u00c9TAGE", "city": "MONTREAL", "province": "QC", "country": "CA", "postalCode": "H3B5C9", "twitter": "None", "instagram": "None", "facebook": "None", "youtube": "None", "website": "None", "summary": "None", "logo": "None", "latitude": 45.49826098776631, "longitude": -73.57064846733833}, "746513290RR0001": {"name": "Fondation Giverny pour l'Art Contemporain / Giverny Foundation for Contemporary Art", "designationCode": "C", "categoryCode": "22", "address": "118 RUE SAINT-PIERRE", "city": "MONTREAL", "province": "QC", "country": "CA", "postalCode": "H2Y2L7", "twitter": "None", "instagram": "None", "facebook": "None", "youtube": "None", "website": "None", "summary": "None", "logo": "None", "latitude": 45.50025348707384, "longitude": -73.55397195963403}, "762060721RR0001": {"name": "Fondation Gr\u00e2ce D'Almeida", "designationCode": "C", "categoryCode": "21", "address": "8370 BOUL SAINT-MICHEL", "city": "MONTREAL", "province": "QC", "country": "CA", "postalCode": "H1Z3E2", "twitter": "None", "instagram": "None", "facebook": "None", "youtube": "None", "website": "None", "summary": "None", "logo": "None", "latitude": 45.56571673131758, "longitude": -73.61415243992718}, "806214839RR0001": {"name": "Fondation Grand Village", "designationCode": "A", "categoryCode": "03", "address": "2434 RTE MARIE-VICTORIN", "city": "L\u00c9VIS", "province": "QC", "country": "CA", "postalCode": "G7A4H7", "twitter": "None", "instagram": "None", "facebook": "None", "youtube": "None", "website": "None", "summary": "None", "logo": "None", "latitude": 46.68579692417345, "longitude": -71.48383189921613}, "807806252RR0001": {"name": "Fondation Grande Boucle Tremblant", "designationCode": "C", "categoryCode": "56", "address": "303 \u00c9MOND", "city": "MONT-TREMBLANT", "province": "QC", "country": "CA", "postalCode": "J8E2M4", "twitter": "None", "instagram": "None", "facebook": "None", "youtube": "None", "website": "None", "summary": "None", "logo": "None", "latitude": 46.13265473933898, "longitude": -74.5627546505856}, "844796508RR0001": {"name": "Fondation Groupe AGF / AGF Group Foundation", "designationCode": "B", "categoryCode": "03", "address": "2270 RUE GARNEAU", "city": "LONGUEUIL", "province": "QC", "country": "CA", "postalCode": "J4G1E7", "twitter": "None", "instagram": "None", "facebook": "None", "youtube": "None", "website": "None", "summary": "None", "logo": "None", "latitude": 45.57015967164879, "longitude": -73.46968673714593}, "830749628RR0001": {"name": "Fondation Groupe Forget", "designationCode": "C", "categoryCode": "11", "address": "9245 RUE THIMENS", "city": "PIERREFONDS", "province": "QC", "country": "CA", "postalCode": "H8Y0A1", "twitter": "None", "instagram": "None", "facebook": "None", "youtube": "None", "website": "None", "summary": "None", "logo": "None", "latitude": 45.50465246305688, "longitude": -73.75403329400014}, "806052122RR0001": {"name": "Fondation Guy Latraverse Guy Latraverse Foundation", "designationCode": "A", "categoryCode": "13", "address": "5140 RUE SAINT-HUBERT", "city": "MONTREAL", "province": "QC", "country": "CA", "postalCode": "H2J2Y3", "twitter": "None", "instagram": "None", "facebook": "None", "youtube": "None", "website": "None", "summary": "None", "logo": "None", "latitude": 45.52923560364144, "longitude": -73.5884340646891}, "891784845RR0001": {"name": "Fondation GAMINS", "designationCode": "C", "categoryCode": "20", "address": "1711 RUE BOURASSA", "city": "LONGUEUIL", "province": "QC", "country": "CA", "postalCode": "J4J3A5", "twitter": "None", "instagram": "None", "facebook": "None", "youtube": "None", "website": "None", "summary": "None", "logo": "None", "latitude": 45.52259572773954, "longitude": -73.49100491811421}, "832793699RR0001": {"name": "Fondation GDG", "designationCode": "B", "categoryCode": "03", "address": "330, RUE ST-VALLIER E.        BUREAU 023", "city": "QU\u00c9BEC", "province": "QC", "country": "CA", "postalCode": "G1K9C5", "twitter": "None", "instagram": "None", "facebook": "None", "youtube": "None", "website": "None", "summary": "None", "logo": "None", "latitude": 46.81195740550516, "longitude": -71.22377642353857}, "779522929RR0001": {"name": "Fondation GESBUDIM", "designationCode": "A", "categoryCode": "03", "address": "100 - 79 RUE WELLINGTON N", "city": "SHERBROOKE", "province": "QC", "country": "CA", "postalCode": "J1H5A9", "twitter": "None", "instagram": "None", "facebook": "None", "youtube": "None", "website": "None", "summary": "None", "logo": "None", "latitude": 45.40298224435397, "longitude": -71.89129498883517}, "758012926RR0001": {"name": "Fondation H\u00e9bert-Fournier", "designationCode": "B", "categoryCode": "21", "address": "1440 - 1981 AV MCGILL COLLEGE", "city": "MONTREAL", "province": "QC", "country": "CA", "postalCode": "H3A2Y1", "twitter": "None", "instagram": "None", "facebook": "None", "youtube": "None", "website": "None", "summary": "None", "logo": "None", "latitude": 45.50305997394517, "longitude": -73.57323951800474}, "845175702RR0001": {"name": "Fondation H\u00e9l\u00e8ne Caron", "designationCode": "C", "categoryCode": "11", "address": "4 ST-ANTOINE                  PORTE 1", "city": "MONTMAGNY", "province": "QC", "country": "CA", "postalCode": "G5V1P1", "twitter": "None", "instagram": "None", "facebook": "None", "youtube": "None", "website": "None", "summary": "None", "logo": "None", "latitude": 46.98464927087547, "longitude": -70.54400876129618}, "838206001RR0001": {"name": "Fondation H\u00e9l\u00e8ne Tremblay Lavoie Foundation", "designationCode": "A", "categoryCode": "03", "address": "17-465 KING ST E", "city": "TORONTO", "province": "ON", "country": "CA", "postalCode": "M5A1L6", "twitter": "None", "instagram": "None", "facebook": "None", "youtube": "None", "website": "None", "summary": "None", "logo": "None", "latitude": 43.6540597771079, "longitude": -79.36081701024312}, "843689357RR0001": {"name": "Fondation H\u00e9ritage Nature et Plein Air de Saint-Donat", "designationCode": "C", "categoryCode": "52", "address": "536 PRINCIPALE", "city": "SAINT-DONAT", "province": "QC", "country": "CA", "postalCode": "J0T2C0", "twitter": "None", "instagram": "None", "facebook": "None", "youtube": "None", "website": "None", "summary": "None", "logo": "None", "latitude": 46.31693233498768, "longitude": -74.21947755150313}, "815924584RR0001": {"name": "Fondation Hagop et Zaruhi Keledjian", "designationCode": "A", "categoryCode": "03", "address": "755 RUE MANOOGIAN", "city": "SAINT-LAURENT", "province": "QC", "country": "CA", "postalCode": "H4N1Z5", "twitter": "None", "instagram": "None", "facebook": "None", "youtube": "None", "website": "None", "summary": "None", "logo": "None", "latitude": 45.518183696087476, "longitude": -73.66719819929013}, "813520673RR0001": {"name": "Fondation Harnois-Richelieu", "designationCode": "A", "categoryCode": "03", "address": "473 ST-CHARLES BORROM\u00c9E NORD", "city": "JOLIETTE", "province": "QC", "country": "CA", "postalCode": "J6E4S3", "twitter": "None", "instagram": "None", "facebook": "None", "youtube": "None", "website": "None", "summary": "None", "logo": "None", "latitude": 46.03469624257029, "longitude": -73.44140528645603}, "755906328RR0001": {"name": "Fondation Hassoun Camara", "designationCode": "A", "categoryCode": "03", "address": "3000 - 1 PLACE VILLE-MARIE", "city": "MONTREAL", "province": "QC", "country": "CA", "postalCode": "H3B4N8", "twitter": "None", "instagram": "None", "facebook": "None", "youtube": "None", "website": "None", "summary": "None", "logo": "None", "latitude": 45.50188724476333, "longitude": -73.56787382018557}, "895478725RR0001": {"name": "Fondation Hector-Cypihot", "designationCode": "B", "categoryCode": "23", "address": "847 DES H\u00c9RONS", "city": "LONGUEUIL", "province": "QC", "country": "CA", "postalCode": "J4G2N8", "twitter": "None", "instagram": "None", "facebook": "None", "youtube": "None", "website": "None", "summary": "None", "logo": "None", "latitude": 45.553672340008, "longitude": -73.48235845836462}}