{"861213932RR0001": {"name": "\u00c9GLISE GR\u00c2CE ABONDANTE", "designationCode": "C", "categoryCode": "39", "address": "64 RUE SAINT-HUBERT", "city": "CHATEAUGUAY", "province": "QC", "country": "CA", "postalCode": "J6K4A4", "twitter": "None", "instagram": "None", "facebook": "None", "youtube": "None", "website": "None", "summary": "None", "logo": "None", "latitude": 45.35333270719597, "longitude": -73.73156673301966}, "849290853RR0001": {"name": "\u00c9GLISE IMPACT DU PLEIN \u00c9VANGILE", "designationCode": "C", "categoryCode": "39", "address": "6657-A, P.-E. LAMARCHE", "city": "SAINT-L\u00c9ONARD", "province": "QC", "country": "CA", "postalCode": "H1P1J7", "twitter": "None", "instagram": "None", "facebook": "None", "youtube": "None", "website": "None", "summary": "None", "logo": "None"}, "130576291RR0001": {"name": "\u00c9GLISE LE PORTAIL", "designationCode": "C", "categoryCode": "39", "address": "560 JUSTIN FABREVILLE", "city": "LAVAL", "province": "QC", "country": "CA", "postalCode": "H7P5R2", "twitter": "None", "instagram": "None", "facebook": "None", "youtube": "None", "website": "None", "summary": "None", "logo": "None", "latitude": 45.570823263037205, "longitude": -73.8200666828207}, "844485169RR0001": {"name": "\u00c9GLISE LIBERT\u00c9 OASIS DES NATIONS", "designationCode": "C", "categoryCode": "36", "address": "6328 SABLEWOOD PLACE", "city": "OTTAWA", "province": "ON", "country": "CA", "postalCode": "K1C7M4", "twitter": "None", "instagram": "None", "facebook": "None", "youtube": "None", "website": "None", "summary": "None", "logo": "None", "latitude": 45.44737860006342, "longitude": -75.52968120549387}, "869304600RR0001": {"name": "\u00c9GLISE M\u00c9THODISTE \u00c9VANG\u00c9LIQUE", "designationCode": "C", "categoryCode": "39", "address": "8420, AVENUE TALCY", "city": "ANJOU", "province": "QC", "country": "CA", "postalCode": "H1K1B9", "twitter": "None", "instagram": "None", "facebook": "None", "youtube": "None", "website": "None", "summary": "None", "logo": "None", "latitude": 45.61037629032251, "longitude": -73.55973990354326}, "884155607RR0001": {"name": "\u00c9GLISE MISSION \u00c9VANG\u00c9LIQUE PRINCE DE LA PAIX INC.", "designationCode": "C", "categoryCode": "39", "address": "5242, RUE S\u00c9VILLE", "city": "MONTR\u00c9AL-NORD", "province": "QC", "country": "CA", "postalCode": "H1G1H9", "twitter": "None", "instagram": "None", "facebook": "None", "youtube": "None", "website": "None", "summary": "None", "logo": "None", "latitude": 45.610101252553626, "longitude": -73.63418829695897}, "897949301RR0001": {"name": "\u00c9GLISE MISSIONNAIRE BAPTISTE LANDMARK DE LA GR\u00c2CE", "designationCode": "C", "categoryCode": "31", "address": "18 DE LEEMANS", "city": "LAVALTRIE", "province": "QC", "country": "CA", "postalCode": "J5T3K3", "twitter": "None", "instagram": "None", "facebook": "None", "youtube": "None", "website": "None", "summary": "None", "logo": "None", "latitude": 45.918144187633374, "longitude": -73.31716033432384}, "142667195RR0001": {"name": "\u00c9GLISE MISSIONNAIRE BAPTISTE LANDMARK DE LA MIS\u00c9RICORDE", "designationCode": "C", "categoryCode": "39", "address": "17380 RUE SAINT-ONGE", "city": "SAINT-HYACINTHE", "province": "QC", "country": "CA", "postalCode": "J2T3A9", "twitter": "None", "instagram": "None", "facebook": "None", "youtube": "None", "website": "None", "summary": "None", "logo": "None", "latitude": 45.61978747183904, "longitude": -72.92404360600737}, "812070142RR0001": {"name": "\u00c9GLISE MISSIONNAIRE CANADIENNE DE LA PENTEC\u00d4TE", "designationCode": "C", "categoryCode": "39", "address": "789, SAINT MARTIN #2", "city": "MONTREAL", "province": "QC", "country": "CA", "postalCode": "H3J1W8", "twitter": "None", "instagram": "None", "facebook": "None", "youtube": "None", "website": "None", "summary": "None", "logo": "None", "latitude": 45.488208980581625, "longitude": -73.56807837217966}, "860088467RR0001": {"name": "\u00c9GLISE MISSIONNAIRE DE J\u00c9SUS-CHRIST", "designationCode": "C", "categoryCode": "39", "address": "12 TERRASSE ROYALE", "city": "REPENTIGNY", "province": "QC", "country": "CA", "postalCode": "J6A4Y2", "twitter": "None", "instagram": "None", "facebook": "None", "youtube": "None", "website": "None", "summary": "None", "logo": "None", "latitude": 45.75264071689085, "longitude": -73.43616464752719}, "846235745RR0001": {"name": "\u00c9GLISE MONT DES OLIVIERS", "designationCode": "C", "categoryCode": "39", "address": "9225 ST-MICHEL", "city": "MONTR\u00c9AL", "province": "QC", "country": "CA", "postalCode": "H1Z3G7", "twitter": "None", "instagram": "None", "facebook": "None", "youtube": "None", "website": "None", "summary": "None", "logo": "None", "latitude": 45.57328030143102, "longitude": -73.63088216942708}, "842863979RR0001": {"name": "\u00c9GLISE NATIONS UNIES POUR CHRIST-J\u00c9SUS", "designationCode": "B", "categoryCode": "49", "address": "1260 RUE BREBEUF", "city": "SAINTE-CATHERINE", "province": "QC", "country": "CA", "postalCode": "J5C1L7", "twitter": "None", "instagram": "None", "facebook": "None", "youtube": "None", "website": "None", "summary": "None", "logo": "None", "latitude": 45.3926960460788, "longitude": -73.56734277909845}, "119011294RR0001": {"name": "\u00c9GLISE NOUVELLE ALLIANCE", "designationCode": "C", "categoryCode": "36", "address": "116 RUE EAST", "city": "GATINEAU", "province": "QC", "country": "CA", "postalCode": "J8P4Z9", "twitter": "None", "instagram": "None", "facebook": "None", "youtube": "None", "website": "None", "summary": "None", "logo": "None", "latitude": 45.48095304302038, "longitude": -75.6466925307867}, "887194793RR0001": {"name": "\u00c9GLISE NOUVELLE VIE DE CHIBOUGAMAU", "designationCode": "C", "categoryCode": "36", "address": "773, RUE LAFLAMME", "city": "CHIBOUGAMAU", "province": "QC", "country": "CA", "postalCode": "G8P2V8", "twitter": "None", "instagram": "None", "facebook": "None", "youtube": "None", "website": "None", "summary": "None", "logo": "None", "latitude": 49.915195133792956, "longitude": -74.37340643715721}, "841432701RR0001": {"name": "\u00c9GLISE ORTHODOXE \u00c9THIOPIENNE TEWAHEDO MEDHANEALEM DE MONTR\u00c9AL", "designationCode": "C", "categoryCode": "39", "address": "7905, AVENUE STUART", "city": "MONTR\u00c9AL", "province": "QC", "country": "CA", "postalCode": "H3N2R9", "twitter": "None", "instagram": "None", "facebook": "None", "youtube": "None", "website": "None", "summary": "None", "logo": "None", "latitude": 45.52789488426912, "longitude": -73.63437457715393}, "849743364RR0001": {"name": "\u00c9GLISE ORTHODOXE ROUMAINE SAINT AP\u00d4TRE ANDR\u00c9", "designationCode": "C", "categoryCode": "39", "address": "2761 RUE DU SANCTUAIRE", "city": "ST-LAZARD", "province": "QC", "country": "CA", "postalCode": "J7T0B7", "twitter": "None", "instagram": "None", "facebook": "None", "youtube": "None", "website": "None", "summary": "None", "logo": "None", "latitude": 45.414320026948864, "longitude": -74.17139486037867}, "839137965RR0001": {"name": "\u00c9GLISE PENTEC\u00d4TISTE UNIE DE MONTR\u00c9AL / UNITED PENTECOSTAL CHURCH OF MONTR\u00c9AL", "designationCode": "C", "categoryCode": "39", "address": "7072 CHEMIN COTE-DES-NEIGES", "city": "MONTREAL", "province": "QC", "country": "CA", "postalCode": "H3R2L9", "twitter": "None", "instagram": "None", "facebook": "None", "youtube": "None", "website": "None", "summary": "None", "logo": "None", "latitude": 45.50440800830988, "longitude": -73.64069627381834}, "844364885RR0001": {"name": "\u00c9GLISE PENTEC\u00d4TISTE UNIE DE SAINT-LAURENT / SAINT-LAURENT UNITED PENTECOSTAL CHURCH", "designationCode": "C", "categoryCode": "36", "address": "1375 POIRIER", "city": "ST LAURENT", "province": "QC", "country": "CA", "postalCode": "H4L5K7", "twitter": "None", "instagram": "None", "facebook": "None", "youtube": "None", "website": "None", "summary": "None", "logo": "None", "latitude": 45.52241469054755, "longitude": -73.69191768347842}, "825665680RR0001": {"name": "\u00c9GLISE PENTEC\u00d4TISTE UNIE DE TROIS-RIVI\u00c8RES / UNITED PENTECOSTAL CHURCH OF TROIS-RIVI\u00c8RES", "designationCode": "C", "categoryCode": "36", "address": "705 BOUL MAURICIEN", "city": "TROIS-RIVIERES", "province": "QC", "country": "CA", "postalCode": "G9B1P4", "twitter": "None", "instagram": "None", "facebook": "None", "youtube": "None", "website": "None", "summary": "None", "logo": "None", "latitude": 46.31154475157268, "longitude": -72.59248689733951}, "870190030RR0001": {"name": "\u00c9GLISE PENTEC\u00d4TISTE UNIE DU QU\u00c9BEC / THE UNITED PENTECOSTAL CHURCH IN THE PROVINCE OF QU\u00c9BEC", "designationCode": "C", "categoryCode": "36", "address": "PO BOX 12", "city": "POINTE CLAIRE", "province": "QC", "country": "CA", "postalCode": "H9R4N5", "twitter": "None", "instagram": "None", "facebook": "None", "youtube": "None", "website": "None", "summary": "None", "logo": "None", "latitude": 45.44809800000006, "longitude": -73.81735099999993}, "895271278RR0001": {"name": "\u00c9GLISE PENTEC\u00d4TISTE UNIE DU WEST ISLAND/WEST ISLAND UNITED PENTECOSTAL CHURCH", "designationCode": "C", "categoryCode": "39", "address": "393 ST. LOUIS AVENUE", "city": "POINTE CLAIRE", "province": "QC", "country": "CA", "postalCode": "H9R2A4", "twitter": "None", "instagram": "None", "facebook": "None", "youtube": "None", "website": "None", "summary": "None", "logo": "None", "latitude": 45.45547392619296, "longitude": -73.80673468570012}, "852635267RR0001": {"name": "\u00c9GLISE PRESBYT\u00c9RIENNE ARABE DE MONTR\u00c9AL/ARABIC PRESBYTERIAN CHURCH OF MONTR\u00c9AL", "designationCode": "C", "categoryCode": "37", "address": "765 BOUL. LAVAL", "city": "LAVAL", "province": "QC", "country": "CA", "postalCode": "H7S2K4", "twitter": "None", "instagram": "None", "facebook": "None", "youtube": "None", "website": "None", "summary": "None", "logo": "None", "latitude": 45.56729399278665, "longitude": -73.71984545764346}, "138846944RR0001": {"name": "\u00c9GLISE PROTESTANTE \u00c9VANGELIQUE LA BIBLE PARLE DE MONT-JOLI INC.", "designationCode": "C", "categoryCode": "39", "address": "1314 RUE THIBAULT", "city": "MONT-JOLI", "province": "QC", "country": "CA", "postalCode": "G5H4A2", "twitter": "None", "instagram": "None", "facebook": "None", "youtube": "None", "website": "None", "summary": "None", "logo": "None", "latitude": 48.59190448568886, "longitude": -68.19491610202532}, "783608912RR0001": {"name": "\u00c9GLISE PUISSANCE DE VIE", "designationCode": "C", "categoryCode": "39", "address": "425 BOUL DES PRAIRIES", "city": "LAVAL", "province": "QC", "country": "CA", "postalCode": "H7N2W8", "twitter": "None", "instagram": "None", "facebook": "None", "youtube": "None", "website": "None", "summary": "None", "logo": "None", "latitude": 45.54439472329614, "longitude": -73.71149772344036}, "107287625RR0001": {"name": "\u00c9GLISE R\u00c9FORM\u00c9 DE LA RIVE-SUD", "designationCode": "C", "categoryCode": "39", "address": "5377, AV. DU MAR\u00c9CHAL-JOFFRE", "city": "L\u00c9VIS", "province": "QC", "country": "CA", "postalCode": "G6X3C9", "twitter": "None", "instagram": "None", "facebook": "None", "youtube": "None", "website": "None", "summary": "None", "logo": "None", "latitude": 46.71667796753988, "longitude": -71.26024665179769}, "131966566RR0001": {"name": "\u00c9GLISE R\u00c9FORM\u00c9E BAPTISTE DE LA CAPITALE (E.R.B.C)", "designationCode": "C", "categoryCode": "31", "address": "2775 RAGEOT", "city": "QU\u00c9BEC", "province": "QC", "country": "CA", "postalCode": "G1M2L4", "twitter": "None", "instagram": "None", "facebook": "None", "youtube": "None", "website": "None", "summary": "None", "logo": "None", "latitude": 46.811399374141565, "longitude": -71.28272203817293}, "850928763RR0001": {"name": "\u00c9GLISE R\u00c9FORM\u00c9E ST-PAUL", "designationCode": "C", "categoryCode": "39", "address": "49, RUE GIGUERE", "city": "REPENTIGNY", "province": "QC", "country": "CA", "postalCode": "J5Y1X3", "twitter": "None", "instagram": "None", "facebook": "None", "youtube": "None", "website": "None", "summary": "None", "logo": "None", "latitude": 45.76903932307111, "longitude": -73.42009853843273}, "897600821RR0001": {"name": "\u00c9GLISE SOURCE D'AMOUR ET D'ESPOIR / SOURCE OF LOVE AND HOPE CHURCH", "designationCode": "C", "categoryCode": "39", "address": "1900 CH TOURVILLE", "city": "DRUMMONDVILLE", "province": "QC", "country": "CA", "postalCode": "J2A3X8", "twitter": "None", "instagram": "None", "facebook": "None", "youtube": "None", "website": "None", "summary": "None", "logo": "None", "latitude": 45.82352554316459, "longitude": -72.4735393277743}, "853756633RR0001": {"name": "\u00c9GLISE SOURCE DE VIE DU CANADA", "designationCode": "C", "categoryCode": "39", "address": "5600 BOUL. MONK", "city": "MONTR\u00c9AL", "province": "QC", "country": "CA", "postalCode": "H4E3G8", "twitter": "None", "instagram": "None", "facebook": "None", "youtube": "None", "website": "None", "summary": "None", "logo": "None", "latitude": 45.46267268082405, "longitude": -73.59756942893424}, "108020603RR0001": {"name": "\u00c9GLISE ST-JACQUES SYRIAQUE ORTHODOXE / ST-JACK SYRIAC ORTHODOX CHURCH", "designationCode": "C", "categoryCode": "39", "address": "4375 BOUL. HENRI BOURRASSA O.", "city": "MONTR\u00c9AL", "province": "QC", "country": "CA", "postalCode": "H4L1A5", "twitter": "None", "instagram": "None", "facebook": "None", "youtube": "None", "website": "None", "summary": "None", "logo": "None", "latitude": 45.52463430532617, "longitude": -73.70219245103569}, "879593515RR0001": {"name": "\u00c9GLISE TEMPLE DE DIEU TEMPLE OF GOD CHURCH", "designationCode": "C", "categoryCode": "47", "address": "1074 RACHEL", "city": "REPENTIGNY", "province": "QC", "country": "CA", "postalCode": "J5Y3S1", "twitter": "None", "instagram": "None", "facebook": "None", "youtube": "None", "website": "None", "summary": "None", "logo": "None", "latitude": 45.77470221036998, "longitude": -73.41621901607151}, "887950046RR0001": {"name": "\u00c9GLISE UNITARIENNE DE MONTR\u00c9AL / UNITARIAN CHURCH OF MONTR\u00c9AL", "designationCode": "C", "categoryCode": "39", "address": "5035 MAISONNEUVE WEST", "city": "MONTREAL", "province": "QC", "country": "CA", "postalCode": "H4A1Y5", "twitter": "None", "instagram": "None", "facebook": "None", "youtube": "None", "website": "None", "summary": "None", "logo": "None", "latitude": 45.47549738608678, "longitude": -73.60267266059759}, "118919539RR0001": {"name": "\u00c9GLISE UNITARIENNE UNIVERSALISTE DE NORTH HATLEY/UNITARIAN UNIVERSALIST CHURCH OF NORTH HATLEY", "designationCode": "C", "categoryCode": "39", "address": "201 MAIN STREET", "city": "NORTH HATLEY", "province": "QC", "country": "CA", "postalCode": "J0B2C0", "twitter": "None", "instagram": "None", "facebook": "None", "youtube": "None", "website": "None", "summary": "None", "logo": "None", "latitude": 45.27339431028917, "longitude": -71.97489404659838}, "804407625RR0001": {"name": "\u00c9GLISE VIE ABONDANTE", "designationCode": "C", "categoryCode": "36", "address": "109-3291 CHEMIN STE-FOY", "city": "QU\u00c9BEC", "province": "QC", "country": "CA", "postalCode": "G1X3V2", "twitter": "None", "instagram": "None", "facebook": "None", "youtube": "None", "website": "None", "summary": "None", "logo": "None", "latitude": 46.7705943946278, "longitude": -71.31937153863521}, "839186657RR0001": {"name": "\u00c9GLISE VIE NOUVELLE DE TROIS-RIVI\u00c8RES", "designationCode": "C", "categoryCode": "36", "address": "80 RUE LATREILLE", "city": "TROIS-RIVI\u00c8RES", "province": "QC", "country": "CA", "postalCode": "G8T3E4", "twitter": "None", "instagram": "None", "facebook": "None", "youtube": "None", "website": "None", "summary": "None", "logo": "None", "latitude": 46.36538403967348, "longitude": -72.5154842428301}, "866259807RR0001": {"name": "\u00c9GLISE VINEYARD MONTR\u00c9AL", "designationCode": "C", "categoryCode": "47", "address": "1881, ALEXIS-NIHON", "city": "ST-LAURENT", "province": "QC", "country": "CA", "postalCode": "H4R3A7", "twitter": "None", "instagram": "None", "facebook": "None", "youtube": "None", "website": "None", "summary": "None", "logo": "None", "latitude": 45.51362907689414, "longitude": -73.7070854317042}, "875016826RR0001": {"name": "\u00c9GLISE Y\u00c9SHOUA ALLIANCE", "designationCode": "C", "categoryCode": "39", "address": "730 JEAN-NIL C.P.26023", "city": "TROIS-RIVIERES", "province": "QC", "country": "CA", "postalCode": "G8T8V8", "twitter": "None", "instagram": "None", "facebook": "None", "youtube": "None", "website": "None", "summary": "None", "logo": "None", "latitude": 46.420738334987675, "longitude": -72.59493372257499}, "867630501RR0001": {"name": "\u00c9GLISE, J\u00c9SUS CHRIST, LE SEIGNEUR F.I.C.U.", "designationCode": "C", "categoryCode": "39", "address": "61, RUE GODBOUT", "city": "QUEBEC", "province": "QC", "country": "CA", "postalCode": "G1L1T8", "twitter": "None", "instagram": "None", "facebook": "None", "youtube": "None", "website": "None", "summary": "None", "logo": "None", "latitude": 46.83633422482535, "longitude": -71.24178295005473}, "119012755RR0001": {"name": "\u00c9GLISES DE FR\u00c8RES CHR\u00c9TIENS DU QU\u00c9BEC CHRISTIAN BRETHREN CHURCHES IN QU\u00c9BEC", "designationCode": "C", "categoryCode": "34", "address": "1555 RUE LA NACELLE", "city": "TROIS-RIVIERES", "province": "QC", "country": "CA", "postalCode": "G8Y4J2", "twitter": "None", "instagram": "None", "facebook": "None", "youtube": "None", "website": "None", "summary": "None", "logo": "None", "latitude": 46.3871272112067, "longitude": -72.64588532041671}, "140793209RR0001": {"name": "\u00c9LIXIR OU L'ASSU\u00c9TUDE D'\u00c8VE", "designationCode": "C", "categoryCode": "57", "address": "333 RUE DU QUEBEC", "city": "SHERBROOKE", "province": "QC", "country": "CA", "postalCode": "J1H3L6", "twitter": "None", "instagram": "None", "facebook": "None", "youtube": "None", "website": "None", "summary": "None", "logo": "None", "latitude": 45.40334512101103, "longitude": -71.90469004971412}, "865214332RR0001": {"name": "\u00c9PARCHIE ST-MARON DE MONTR\u00c9AL AU CANADA/EPARCHY OF ST-MARON OF MONTR\u00c9AL IN CANADA", "designationCode": "C", "categoryCode": "43", "address": "12475 RUE GRENET", "city": "MONTREAL", "province": "QC", "country": "CA", "postalCode": "H4J2K4", "twitter": "None", "instagram": "None", "facebook": "None", "youtube": "None", "website": "None", "summary": "None", "logo": "None", "latitude": 45.53465803303704, "longitude": -73.72288791727748}, "747372498RR0001": {"name": "\u00c9VA - \u00c9coute, Vie, Accueil", "designationCode": "C", "categoryCode": "09", "address": "890 BOULEVARD DU SAINT-MAURICE", "city": "TROIS-RIVIERES", "province": "QC", "country": "CA", "postalCode": "G9A3P8", "twitter": "None", "instagram": "None", "facebook": "None", "youtube": "None", "website": "None", "summary": "None", "logo": "None", "latitude": 46.35116128117591, "longitude": -72.54765976245002}, "121334536RR0001": {"name": "\u00c9VANG\u00c9LISATION 2000", "designationCode": "C", "categoryCode": "49", "address": "2398 BOUL. MARIE-VICTORIN     SUITE 104", "city": "LONGUEUIL", "province": "QC", "country": "CA", "postalCode": "J4G1B6", "twitter": "None", "instagram": "None", "facebook": "None", "youtube": "None", "website": "None", "summary": "None", "logo": "None", "latitude": 45.577655057995344, "longitude": -73.47660639604143}, "812406486RR0001": {"name": "\u00cele d'Espoir", "designationCode": "C", "categoryCode": "39", "address": "363 WORTHINGTON AVE", "city": "RICHMOND HILL", "province": "ON", "country": "CA", "postalCode": "L4E4S3", "twitter": "None", "instagram": "None", "facebook": "None", "youtube": "None", "website": "None", "summary": "None", "logo": "None", "latitude": 43.96144270497429, "longitude": -79.44282875073594}, "845442177RR0001": {"name": "\u00celot Saint-Pierre Ap\u00f4tre", "designationCode": "C", "categoryCode": "52", "address": "1212, RUE PANET", "city": "MONTREAL", "province": "QC", "country": "CA", "postalCode": "H2L2Y7", "twitter": "None", "instagram": "None", "facebook": "None", "youtube": "None", "website": "None", "summary": "None", "logo": "None", "latitude": 45.51925176406615, "longitude": -73.55341318417092}, "811662048RR0001": {"name": "#MYINSPIRATION HIGHER LEARNING FUND INC.", "designationCode": "C", "categoryCode": "21", "address": "906 KING EDWARD ST", "city": "WINNIPEG", "province": "MB", "country": "CA", "postalCode": "R3H0P4", "twitter": "None", "instagram": "None", "facebook": "None", "youtube": "None", "website": "None", "summary": "None", "logo": "None", "latitude": 49.90475746990581, "longitude": -97.20682481923329}, "889193942RR0001": {"name": "#1 WEST MONTREAL SQUADRON", "designationCode": "C", "categoryCode": "29", "address": "4625, RUE SAINTE-CATHERINE O", "city": "WESTMOUNT", "province": "QC", "country": "CA", "postalCode": "H3Z1S4", "twitter": "None", "instagram": "None", "facebook": "None", "youtube": "None", "website": "None", "summary": "None", "logo": "None", "latitude": 45.47942085235724, "longitude": -73.5953894721275}, "130387665RR0075": {"name": "#3 STRIKER AIR CADET SQUADRON SPONSORING COMMITTEE", "designationCode": "C", "categoryCode": "29", "address": "BOX 45, STN MAIN", "city": "STRATHROY", "province": "ON", "country": "CA", "postalCode": "N7G3J1", "twitter": "None", "instagram": "None", "facebook": "None", "youtube": "None", "website": "None", "summary": "None", "logo": "None", "latitude": 42.95607900000006, "longitude": -81.62186299999993}, "125593657RR0052": {"name": "#52 CITY OF CALGARY SQUADRON", "designationCode": "C", "categoryCode": "29", "address": "PO BOX 42100                  RPO SOUTHLAND", "city": "CALGARY", "province": "AB", "country": "CA", "postalCode": "T2J7A6", "twitter": "None", "instagram": "None", "facebook": "None", "youtube": "None", "website": "None", "summary": "None", "logo": "None", "latitude": 50.96850383088225, "longitude": -114.03020395220729}, "130387665RR0076": {"name": "#543 Wingham Valiants Squadron Sponsoring Committee", "designationCode": "C", "categoryCode": "29", "address": "P.O. BOX 1364", "city": "WINGHAM", "province": "ON", "country": "CA", "postalCode": "N0G2W0", "twitter": "None", "instagram": "None", "facebook": "None", "youtube": "None", "website": "None", "summary": "None", "logo": "None", "latitude": 43.88924000000003, "longitude": -81.31057999999996}, "130387665RR0036": {"name": "#638 ALGONQUIN SQUADRON", "designationCode": "C", "categoryCode": "29", "address": "PO BOX 1201 STN MAIN", "city": "PEMBROKE", "province": "ON", "country": "CA", "postalCode": "K8A6Y6", "twitter": "None", "instagram": "None", "facebook": "None", "youtube": "None", "website": "None", "summary": "None", "logo": "None", "latitude": 45.826494000000054, "longitude": -77.11217449999994}, "125593657RR0279": {"name": "#639 F.P. MCLAREN SQUADRON", "designationCode": "C", "categoryCode": "29", "address": "18 KAY ST", "city": "PETITCODIAC", "province": "NB", "country": "CA", "postalCode": "E4Z4K6", "twitter": "None", "instagram": "None", "facebook": "None", "youtube": "None", "website": "None", "summary": "None", "logo": "None", "latitude": 45.932079120751226, "longitude": -65.17585652994995}, "828687665RR0001": {"name": "'tit Bateau Dragon Boat Team Inc.", "designationCode": "C", "categoryCode": "11", "address": "176 CRESTWOOD DRIVE", "city": "MONCTON", "province": "NB", "country": "CA", "postalCode": "E1C9P1", "twitter": "None", "instagram": "None", "facebook": "None", "youtube": "None", "website": "None", "summary": "None", "logo": "None", "latitude": 46.103604915892504, "longitude": -64.83841038525004}, "136039690RR0001": {"name": "\"ACTION-AUTONOMIE\" LE COLLECTIF POUR LA DEFENSE DES DROITS EN SANTE MENTALE DE MONTREAL", "designationCode": "C", "categoryCode": "19", "address": "3958 RUE DANDURAND            3I\u00c8ME \u00c9TAGE", "city": "MONTR\u00c9AL", "province": "QC", "country": "CA", "postalCode": "H1X1P7", "twitter": "None", "instagram": "None", "facebook": "None", "youtube": "None", "website": "None", "summary": "None", "logo": "None", "latitude": 45.558357684978986, "longitude": -73.57218453661507}, "118789429RR0001": {"name": "\"ARGUS\"- RESIDENCE FOR YOUNG PEOPLE", "designationCode": "C", "categoryCode": "01", "address": "PO BOX 22041                  RPO WATER ST", "city": "CAMBRIDGE", "province": "ON", "country": "CA", "postalCode": "N1R8E3", "twitter": "None", "instagram": "None", "facebook": "None", "youtube": "None", "website": "None", "summary": "None", "logo": "None", "latitude": 43.36676354706339, "longitude": -80.3160546261061}, "875769515RR0001": {"name": "\"BETHESDA\" ROMANIAN CHURCH OF GOD", "designationCode": "C", "categoryCode": "39", "address": "202 718-333 BROOKSBANK AVE", "city": "NORTH VANCOUVER", "province": "BC", "country": "CA", "postalCode": "V7J3V8", "twitter": "None", "instagram": "None", "facebook": "None", "youtube": "None", "website": "None", "summary": "None", "logo": "None", "latitude": 49.30735157104911, "longitude": -123.04041421491816}, "858394364RR0001": {"name": "\"Camp Courage\" The First Responder's Society", "designationCode": "C", "categoryCode": "21", "address": "281 CRAIGBURN DRIVE", "city": "DARTMOUTH", "province": "NS", "country": "CA", "postalCode": "B2X3V1", "twitter": "None", "instagram": "None", "facebook": "None", "youtube": "None", "website": "None", "summary": "None", "logo": "None", "latitude": 44.72377862225178, "longitude": -63.544118575336256}, "892458076RR0001": {"name": "\"CAFE COMMUNAUTAIRE L'ENTRE-GENS\" DE SAINTE-ADELE,COMTE ROUSSEAU", "designationCode": "C", "categoryCode": "09", "address": "1006 RUE VALIQUETTE           ELEANOR FISET (PRESIDENT)", "city": "SAINTE ADELE", "province": "QC", "country": "CA", "postalCode": "J8B2M3", "twitter": "None", "instagram": "None", "facebook": "None", "youtube": "None", "website": "None", "summary": "None", "logo": "None", "latitude": 45.95030560087149, "longitude": -74.13457228423434}, "131801714RR0001": {"name": "\"CANADIAN MENTAL HEALTH ASSOCIATION, WINNIPEG REGION, INC.\"", "designationCode": "C", "categoryCode": "11", "address": "930 PORTAGE AVENUE", "city": "WINNIPEG", "province": "MB", "country": "CA", "postalCode": "R3G0P8", "twitter": "None", "instagram": "None", "facebook": "None", "youtube": "None", "website": "None", "summary": "None", "logo": "None", "latitude": 49.884911656096875, "longitude": -97.17192869149984}, "106901804RR0001": {"name": "\"CENTRE D'ORGANISATION MAURICIEN DE SERVICES ET D'EDUCATION POPULAIRE\" (C.O.M.S.E.P.)", "designationCode": "C", "categoryCode": "09", "address": "1060 RUE SAINT-FRANCOIS-XAVIER", "city": "TROIS-RIVIERES", "province": "QC", "country": "CA", "postalCode": "G9A1R8", "twitter": "None", "instagram": "None", "facebook": "None", "youtube": "None", "website": "None", "summary": "None", "logo": "None", "latitude": 46.35088687067911, "longitude": -72.54580268148787}, "140382375RR0001": {"name": "\"CHANTS LIBRES\" COMPAGNIE LYRIQUE DE CREATION", "designationCode": "C", "categoryCode": "22", "address": "1908, RUE PANET               BUREAU 303", "city": "MONTREAL", "province": "QC", "country": "CA", "postalCode": "H2L3A2", "twitter": "None", "instagram": "None", "facebook": "None", "youtube": "None", "website": "None", "summary": "None", "logo": "None", "latitude": 45.52251698277466, "longitude": -73.56046463171549}, "863317665RR0001": {"name": "\"DON'T TOUCH\" EXPLOSIVES SAFETY SOCIETY", "designationCode": "C", "categoryCode": "59", "address": "8985 MCLAREY AVENUE", "city": "BLACK CREEK", "province": "BC", "country": "CA", "postalCode": "V9J1A2", "twitter": "None", "instagram": "None", "facebook": "None", "youtube": "None", "website": "None", "summary": "None", "logo": "None", "latitude": 49.866331392907824, "longitude": -125.1215394965906}, "867355158RR0001": {"name": "\"E\" DIVISION R.C.M.P. MEMBERS' MEMORIAL FUND", "designationCode": "C", "categoryCode": "59", "address": "1270 RICHARDS ST", "city": "VANCOUVER", "province": "BC", "country": "CA", "postalCode": "V6B3G2", "twitter": "None", "instagram": "None", "facebook": "None", "youtube": "None", "website": "None", "summary": "None", "logo": "None", "latitude": 49.27507955382902, "longitude": -123.12533757065539}, "118912757RR0001": {"name": "\"FAMILLE NOUVELLE\" CENTRE D'ENTRAIDE CONJUGAL ET FAMILIAL", "designationCode": "C", "categoryCode": "09", "address": "1150, ST-JOSEPH EST BUREAU 106", "city": "MONTREAL", "province": "QC", "country": "CA", "postalCode": "H2J1L4", "twitter": "None", "instagram": "None", "facebook": "None", "youtube": "None", "website": "None", "summary": "None", "logo": "None", "latitude": 45.530775126550935, "longitude": -73.58357859989054}, "875462327RR0001": {"name": "\"FE VIVA\" WORLD MISSIONS", "designationCode": "C", "categoryCode": "47", "address": "14 WOODSIDE CRES", "city": "SPRUCE GROVE", "province": "AB", "country": "CA", "postalCode": "T7X3E5", "twitter": "None", "instagram": "None", "facebook": "None", "youtube": "None", "website": "None", "summary": "None", "logo": "None", "latitude": 53.55724049321933, "longitude": -113.90062122300768}, "892472564RR0001": {"name": "\"FONDATION DU CINQUIEME\"", "designationCode": "C", "categoryCode": "51", "address": "5E RALC, B\u00c2TISSE 311          CP 1000, SUCCURSALE FORCES", "city": "COURCELETTE", "province": "QC", "country": "CA", "postalCode": "G0A4Z0", "twitter": "None", "instagram": "None", "facebook": "None", "youtube": "None", "website": "None", "summary": "None", "logo": "None", "latitude": 46.88734200000006, "longitude": -71.50947199999993}, "107445736RR0001": {"name": "\"Grachanica\" Serbian Eastern Orthodox Church, Congregation of Windsor, Ontario, Canada", "designationCode": "C", "categoryCode": "39", "address": "BOX 2331 WALKERVILLE POSTAL S", "city": "WINDSOR", "province": "ON", "country": "CA", "postalCode": "N8Y4S2", "twitter": "None", "instagram": "None", "facebook": "None", "youtube": "None", "website": "None", "summary": "None", "logo": "None", "latitude": 42.31784400000005, "longitude": -83.03387299999993}, "811637131RR0001": {"name": "\"Greffe-toi \u00e0 nous\"", "designationCode": "C", "categoryCode": "11", "address": "CASE POSTALE 945", "city": "SEPT-\u00ceLES", "province": "QC", "country": "CA", "postalCode": "G4R4S3", "twitter": "None", "instagram": "None", "facebook": "None", "youtube": "None", "website": "None", "summary": "None", "logo": "None", "latitude": 50.209593000000055, "longitude": -66.38952049999993}, "888612538RR0001": {"name": "\"GRANDIR\" ENSEMBLE", "designationCode": "C", "categoryCode": "09", "address": "2580 ST-DOMINIQUE", "city": "JONQUI\u00c8RE", "province": "QC", "country": "CA", "postalCode": "G7X6J4", "twitter": "None", "instagram": "None", "facebook": "None", "youtube": "None", "website": "None", "summary": "None", "logo": "None", "latitude": 48.4070074565756, "longitude": -71.25879549838388}, "889068847RR0001": {"name": "\"HANDI BUS\" VALLEE DE MEMRAMCOOK INC", "designationCode": "C", "categoryCode": "09", "address": "16 WILLIAM ST.", "city": "MEMRAMCOOK", "province": "NB", "country": "CA", "postalCode": "E4K2P9", "twitter": "None", "instagram": "None", "facebook": "None", "youtube": "None", "website": "None", "summary": "None", "logo": "None", "latitude": 45.92364220801032, "longitude": -64.60792777997528}, "868967928RR0001": {"name": "\"IVONIS MAZZAROLO FOUNDATION\"", "designationCode": "A", "categoryCode": "03", "address": "545, CH. DE L'ANSE", "city": "VAUDREUIL-DORION", "province": "QC", "country": "CA", "postalCode": "J7V8P3", "twitter": "None", "instagram": "None", "facebook": "None", "youtube": "None", "website": "None", "summary": "None", "logo": "None", "latitude": 45.44123444662093, "longitude": -74.07219454830049}, "806834388RR0001": {"name": "\"Journal Le PORTAIL de l'Outaouais\"", "designationCode": "C", "categoryCode": "09", "address": "85 RUE MORIN", "city": "GATINEAU", "province": "QC", "country": "CA", "postalCode": "J8X0A1", "twitter": "None", "instagram": "None", "facebook": "None", "youtube": "None", "website": "None", "summary": "None", "logo": "None", "latitude": 45.43320432361938, "longitude": -75.72598111852952}, "851281857RR0001": {"name": "\"L & A Feline Fixers ('L&AFF')\"", "designationCode": "C", "categoryCode": "54", "address": "1066 COUNTY RD 9              RR 3", "city": "NAPANEE", "province": "ON", "country": "CA", "postalCode": "K7R3K8", "twitter": "None", "instagram": "None", "facebook": "None", "youtube": "None", "website": "None", "summary": "None", "logo": "None", "latitude": 44.20118340053773, "longitude": -76.9777585344572}, "141003772RR0001": {"name": "\"L'APOGEE\" ASSOCIATION POUR PARENTS ET AMIS DE LA PERSONNE AYANT UN PROBLEME DE SANTE MENTALE", "designationCode": "C", "categoryCode": "09", "address": "92 BOUL. ST-RAYMOND           PIECE 304", "city": "GATINEAU", "province": "QC", "country": "CA", "postalCode": "J8Y1S7", "twitter": "None", "instagram": "None", "facebook": "None", "youtube": "None", "website": "None", "summary": "None", "logo": "None", "latitude": 45.4470094205088, "longitude": -75.74195494615958}, "141194787RR0001": {"name": "\"L'EAU-VENT\" (MAISON DE JEUNES)", "designationCode": "C", "categoryCode": "09", "address": "366 RUE BELIVEAU", "city": "ST-LEONARD D'ASTON", "province": "QC", "country": "CA", "postalCode": "J0C1M0", "twitter": "None", "instagram": "None", "facebook": "None", "youtube": "None", "website": "None", "summary": "None", "logo": "None", "latitude": 46.105564725777654, "longitude": -72.37136678394587}, "118988336RR0001": {"name": "\"LA CHRYSALIDE\", CENTRE D'ACCOMPAGNEMENT AUX FAMILLES MONOPARENTALES", "designationCode": "C", "categoryCode": "09", "address": "2310, BOUL. DE MAISONNEUVE E", "city": "MONTREAL", "province": "QC", "country": "CA", "postalCode": "H2K2E7", "twitter": "None", "instagram": "None", "facebook": "None", "youtube": "None", "website": "None", "summary": "None", "logo": "None", "latitude": 45.52788823857928, "longitude": -73.54937252025478}, "137418562RR0001": {"name": "\"LA MAISON DES ENFANTS\" DE L'ILE DE MONTREAL", "designationCode": "C", "categoryCode": "01", "address": "1844, BOUL. PIE IX", "city": "MONTR\u00c9AL", "province": "QC", "country": "CA", "postalCode": "H1V2C6", "twitter": "None", "instagram": "None", "facebook": "None", "youtube": "None", "website": "None", "summary": "None", "logo": "None", "latitude": 45.54988815179771, "longitude": -73.54018053900965}, "120792429RR0001": {"name": "\"LA QEHILLA\" ECOLE DE LA FOI DE MONTREAL INC", "designationCode": "C", "categoryCode": "49", "address": "2745 CHARLEMAGNE", "city": "MONTREAL", "province": "QC", "country": "CA", "postalCode": "H1W3T1", "twitter": "None", "instagram": "None", "facebook": "None", "youtube": "None", "website": "None", "summary": "None", "logo": "None", "latitude": 45.55272385152052, "longitude": -73.55335343935026}, "874403470RR0001": {"name": "\"LA SOURCE\" ASSOCIATION DES PERSONNES HANDICAPEES DU HAUT SAINT-MAURICE INC.", "designationCode": "C", "categoryCode": "09", "address": "290 ST-JOSEPH SUITE 107       CASE POSTALE 211", "city": "LA TUQUE", "province": "QC", "country": "CA", "postalCode": "G9X3P2", "twitter": "None", "instagram": "None", "facebook": "None", "youtube": "None", "website": "None", "summary": "None", "logo": "None", "latitude": 47.43777300000005, "longitude": -72.78446149999994}, "136134756RR0001": {"name": "\"LE CORPS INDICE\" PRODUCTIONS ARTISTIQUES", "designationCode": "C", "categoryCode": "22", "address": "1833 RUE DE CHAMBLY", "city": "MONTREAL", "province": "QC", "country": "CA", "postalCode": "H1W3J1", "twitter": "None", "instagram": "None", "facebook": "None", "youtube": "None", "website": "None", "summary": "None", "logo": "None", "latitude": 45.54537190980433, "longitude": -73.54333588398065}, "141126763RR0001": {"name": "\"LE PETIT BONHEUR\" DE ST-CAMILLE INC.", "designationCode": "C", "categoryCode": "22", "address": "162, RUE MIQUELON", "city": "ST-CAMILLE", "province": "QC", "country": "CA", "postalCode": "J0A1G0", "twitter": "None", "instagram": "None", "facebook": "None", "youtube": "None", "website": "None", "summary": "None", "logo": "None", "latitude": 45.683580079664104, "longitude": -71.70350449099763}, "887774867RR0001": {"name": "\"LES AMIS COMPATISSANTS DU QUEBEC-SECTION DE L'ESTRIE/THE COMPASSIONATE FRIENDS OF QUEBEC-ESTRIE BRANCH\"", "designationCode": "C", "categoryCode": "11", "address": "1680 EMERY-LUSSIER", "city": "SHERBROOKE", "province": "QC", "country": "CA", "postalCode": "J1G1N6", "twitter": "None", "instagram": "None", "facebook": "None", "youtube": "None", "website": "None", "summary": "None", "logo": "None", "latitude": 45.40815387731555, "longitude": -71.85254812363675}, "118970805RR0001": {"name": "\"LIF\" LIFE INTERNATIONAL FOUNDATION INC.", "designationCode": "B", "categoryCode": "47", "address": "213-566 NORTH NECHAKO RD", "city": "PRINCE GEORGE", "province": "BC", "country": "CA", "postalCode": "V2K1A1", "twitter": "None", "instagram": "None", "facebook": "None", "youtube": "None", "website": "None", "summary": "None", "logo": "None", "latitude": 53.93118924938793, "longitude": -122.78078176069265}, "107396905RR0059": {"name": "\"LOVE ASSEMBLY\" FOURSQUARE GOSPEL CHURCH", "designationCode": "C", "categoryCode": "39", "address": "P.O. BOX 60618                1597 WILSON AVENUE, DOWNSVIEW", "city": "TORONTO", "province": "ON", "country": "CA", "postalCode": "M3L2N5", "twitter": "None", "instagram": "None", "facebook": "None", "youtube": "None", "website": "None", "summary": "None", "logo": "None", "latitude": 43.72034918485651, "longitude": -79.51108780119792}, "891793580RR0001": {"name": "\"LOVING OUTREACH\"", "designationCode": "C", "categoryCode": "09", "address": "112 - 278 VINE ST", "city": "ST CATHARINES", "province": "ON", "country": "CA", "postalCode": "L2M7Z4", "twitter": "None", "instagram": "None", "facebook": "None", "youtube": "None", "website": "None", "summary": "None", "logo": "None", "latitude": 43.18105545045876, "longitude": -79.23057437795072}, "107577223RR0001": {"name": "\"M KOPERNIK (NICOLAUS COPERNICUS) FOUNDATION\"", "designationCode": "C", "categoryCode": "01", "address": "3150 ROSEMONT DRIVE", "city": "VANCOUVER", "province": "BC", "country": "CA", "postalCode": "V5S2C9", "twitter": "None", "instagram": "None", "facebook": "None", "youtube": "None", "website": "None", "summary": "None", "logo": "None", "latitude": 49.21534567543923, "longitude": -123.03991638962597}, "103464889RR0001": {"name": "\"MAISON D'HEBERGEMENT DEPANNAGE DE VALLEYFIELD\" M.H.D.V.", "designationCode": "C", "categoryCode": "09", "address": "79 DU ZOUAVE", "city": "VALLEYFIELD", "province": "QC", "country": "CA", "postalCode": "J6T2W4", "twitter": "None", "instagram": "None", "facebook": "None", "youtube": "None", "website": "None", "summary": "None", "logo": "None", "latitude": 45.24638065860705, "longitude": -74.13255062946513}, "140488974RR0001": {"name": "\"MAISON MULTIETHNIQUE MYOSOTIS\" INC", "designationCode": "C", "categoryCode": "09", "address": "660, RUE VILLERAY             LOCAL 2.107", "city": "MONTR\u00c9AL", "province": "QC", "country": "CA", "postalCode": "H2R1J1", "twitter": "None", "instagram": "None", "facebook": "None", "youtube": "None", "website": "None", "summary": "None", "logo": "None", "latitude": 45.54332852316931, "longitude": -73.62167189589721}, "888368867RR0001": {"name": "\"META\", MOTORSPORT EMERGENCY & TURNWORKERS ASSOCIATION", "designationCode": "C", "categoryCode": "59", "address": "10952 MCADAM ROAD", "city": "DELTA", "province": "BC", "country": "CA", "postalCode": "V4C3E8", "twitter": "None", "instagram": "None", "facebook": "None", "youtube": "None", "website": "None", "summary": "None", "logo": "None", "latitude": 49.16297765863568, "longitude": -122.92046405159005}, "131818122RR0001": {"name": "\"NEW LIFE\" GIRLS' HOME (CANADA)", "designationCode": "C", "categoryCode": "01", "address": "PO BOX 149", "city": "CONSECON", "province": "ON", "country": "CA", "postalCode": "K0K1T0", "twitter": "None", "instagram": "None", "facebook": "None", "youtube": "None", "website": "None", "summary": "None", "logo": "None", "latitude": 43.95994425935102, "longitude": -77.35752987765406}, "748942497RR0001": {"name": "\"Off The Cuff\" Community Chorus Inc.", "designationCode": "C", "categoryCode": "22", "address": "20 - 22 FINN AVE", "city": "GRAND FALLS-WINDSOR", "province": "NL", "country": "CA", "postalCode": "A2A2V2", "twitter": "None", "instagram": "None", "facebook": "None", "youtube": "None", "website": "None", "summary": "None", "logo": "None", "latitude": 48.947469086070974, "longitude": -55.636445995623156}, "132502246RR0001": {"name": "\"OEUVRES PROVIDENCE\"", "designationCode": "C", "categoryCode": "46", "address": "12055 GRENET", "city": "MONTREAL", "province": "QC", "country": "CA", "postalCode": "H4J2J5", "twitter": "None", "instagram": "None", "facebook": "None", "youtube": "None", "website": "None", "summary": "None", "logo": "None", "latitude": 45.528534048617615, "longitude": -73.71426693502242}, "891452765RR0001": {"name": "\"PERLAS\"", "designationCode": "C", "categoryCode": "11", "address": "26 HOLYROOD AVE", "city": "OAKVILLE", "province": "ON", "country": "CA", "postalCode": "L6K2V3", "twitter": "None", "instagram": "None", "facebook": "None", "youtube": "None", "website": "None", "summary": "None", "logo": "None", "latitude": 43.4325511687346, "longitude": -79.67786548141834}, "104256581RR0001": {"name": "\"POLANIE\" POLISH SONG & DANCE ASSOCIATION", "designationCode": "C", "categoryCode": "22", "address": "3015 - 15 ST N.E.", "city": "CALGARY", "province": "AB", "country": "CA", "postalCode": "T2E7L8", "twitter": "None", "instagram": "None", "facebook": "None", "youtube": "None", "website": "None", "summary": "None", "logo": "None", "latitude": 51.0791420327486, "longitude": -114.02287258050082}, "129352977RR0001": {"name": "\"RESIDENCE 2000\" DE QUEBEC", "designationCode": "C", "categoryCode": "01", "address": "6109 AV DES BELLES-AMOURS", "city": "LEVIS", "province": "QC", "country": "CA", "postalCode": "G6X1P8", "twitter": "None", "instagram": "None", "facebook": "None", "youtube": "None", "website": "None", "summary": "None", "logo": "None", "latitude": 46.720792741849145, "longitude": -71.26125910043879}, "893096057RR0001": {"name": "\"S S M \" \"STEVE SPARLING MINISTRIES\"", "designationCode": "C", "categoryCode": "47", "address": "52 HOBBS DRIVE", "city": "BOWMANVILLE", "province": "ON", "country": "CA", "postalCode": "L1C3L9", "twitter": "None", "instagram": "None", "facebook": "None", "youtube": "None", "website": "None", "summary": "None", "logo": "None", "latitude": 43.90891567721737, "longitude": -78.6701072490625}, "821832037RR0001": {"name": "\"Stop Diabetes\" Foundation Inc.", "designationCode": "C", "categoryCode": "11", "address": "43 VAUGHAN BLVD", "city": "THORNHILL", "province": "ON", "country": "CA", "postalCode": "L4J3N8", "twitter": "None", "instagram": "None", "facebook": "None", "youtube": "None", "website": "None", "summary": "None", "logo": "None", "latitude": 43.80918459201335, "longitude": -79.46459583911394}, "898758776RR0001": {"name": "\"SCHOOL DAYS\" MUSEUM INCORPORATED", "designationCode": "C", "categoryCode": "50", "address": "PO BOX 752  STN A", "city": "FREDERICTON", "province": "NB", "country": "CA", "postalCode": "E3B5R6", "twitter": "None", "instagram": "None", "facebook": "None", "youtube": "None", "website": "None", "summary": "None", "logo": "None", "latitude": 45.96062100000006, "longitude": -66.63911299999994}, "853419646RR0001": {"name": "\"THE LEST WE FORGET\" REMEMBRANCE AND MILITARY LIBRARY", "designationCode": "C", "categoryCode": "50", "address": "375 PINE ST.", "city": "SAULT STE. MARIE", "province": "ON", "country": "CA", "postalCode": "P6B3E6", "twitter": "None", "instagram": "None", "facebook": "None", "youtube": "None", "website": "None", "summary": "None", "logo": "None", "latitude": 46.510761313103, "longitude": -84.307480813103}, "861993970RR0001": {"name": "\"THE ST. THOMAS EVANGELICAL CHURCH OF INDIA - ALBERTA PARISH\"", "designationCode": "C", "categoryCode": "39", "address": "1112 RUTHERFORD CLOSE SW", "city": "EDMONTON", "province": "AB", "country": "CA", "postalCode": "T6W1H4", "twitter": "None", "instagram": "None", "facebook": "None", "youtube": "None", "website": "None", "summary": "None", "logo": "None", "latitude": 53.423251459893834, "longitude": -113.53096741566137}}