{"890825748RR0001": {"name": "STONEY CREEK DISABLED SPORTS ASSOCIATION", "designationCode": "C", "categoryCode": "56", "address": "3 SHORELINE CRES", "city": "GRIMSBY", "province": "ON", "country": "CA", "postalCode": "L3M5B1", "twitter": "None", "instagram": "None", "facebook": "None", "youtube": "None", "website": "None", "summary": "None", "logo": "None", "latitude": 43.204757711062456, "longitude": -79.57355892991521}, "119192664RR0001": {"name": "STONEY CREEK HISTORICAL SOCIETY", "designationCode": "C", "categoryCode": "50", "address": "PO BOX 66637", "city": "STONEY CREEK", "province": "ON", "country": "CA", "postalCode": "L8G5E6", "twitter": "None", "instagram": "None", "facebook": "None", "youtube": "None", "website": "None", "summary": "None", "logo": "None", "latitude": 43.20879000000005, "longitude": -79.65669049999994}, "119192672RR0001": {"name": "STONEY CREEK UNITED BAPTIST CHURCH", "designationCode": "C", "categoryCode": "31", "address": "2005 RTE 114", "city": "STONEY CREEK", "province": "NB", "country": "CA", "postalCode": "E1J2J8", "twitter": "None", "instagram": "None", "facebook": "None", "youtube": "None", "website": "None", "summary": "None", "logo": "None", "latitude": 45.99246527597613, "longitude": -64.70619644893513}, "108033952RR0001": {"name": "STONEY CREEK UNITED CHURCH", "designationCode": "C", "categoryCode": "44", "address": "1 KING STREET W", "city": "STONEY CREEK", "province": "ON", "country": "CA", "postalCode": "L8G1G7", "twitter": "None", "instagram": "None", "facebook": "None", "youtube": "None", "website": "None", "summary": "None", "logo": "None", "latitude": 43.21706179098634, "longitude": -79.75838728740833}, "890338577RR0001": {"name": "STONEY HILL OTTO CHURCH", "designationCode": "C", "categoryCode": "39", "address": "BOX 225", "city": "LUNDAR", "province": "MB", "country": "CA", "postalCode": "R0C1Y0", "twitter": "None", "instagram": "None", "facebook": "None", "youtube": "None", "website": "None", "summary": "None", "logo": "None", "latitude": 50.697610000000054, "longitude": -98.03051999999997}, "108033986RR0001": {"name": "STONEY ISLAND UNITED BAPTIST CHURCH", "designationCode": "C", "categoryCode": "31", "address": "PO BOX 64", "city": "STONEY ISLAND", "province": "NS", "country": "CA", "postalCode": "B0W3J0", "twitter": "None", "instagram": "None", "facebook": "None", "youtube": "None", "website": "None", "summary": "None", "logo": "None", "latitude": 43.50776346320697, "longitude": -65.5990622895017}, "119192706RR0001": {"name": "STONY BEACH COMMUNITY CEMETERY PERPETUAL CARE SOCIETY CORP.", "designationCode": "A", "categoryCode": "59", "address": "RURAL MUNICIPALITY PENSE #160 324 ELDER STREET", "city": "PENSE", "province": "SK", "country": "CA", "postalCode": "S0G3W0", "twitter": "None", "instagram": "None", "facebook": "None", "youtube": "None", "website": "None", "summary": "None", "logo": "None", "latitude": 50.41731933905552, "longitude": -104.98176666789168}, "891865669RR0001": {"name": "STONY BROOK FELLOWSHIP", "designationCode": "C", "categoryCode": "34", "address": "65 CAMPUS DR", "city": "STEINBACH", "province": "MB", "country": "CA", "postalCode": "R5G0S3", "twitter": "None", "instagram": "None", "facebook": "None", "youtube": "None", "website": "None", "summary": "None", "logo": "None", "latitude": 49.53655957471164, "longitude": -96.6906982400954}, "107848954RR0001": {"name": "STONY MOUNTAIN CHILD CARE CENTRE CO-OP INC.", "designationCode": "C", "categoryCode": "01", "address": "PO BOX 448", "city": "STONY MOUNTAIN", "province": "MB", "country": "CA", "postalCode": "R0C3A0", "twitter": "None", "instagram": "None", "facebook": "None", "youtube": "None", "website": "None", "summary": "None", "logo": "None"}, "108034091RR0001": {"name": "STONY MOUNTAIN UNITED CHURCH", "designationCode": "C", "categoryCode": "44", "address": "BOX 176", "city": "STONY MOUNTAIN", "province": "MB", "country": "CA", "postalCode": "R0C3A0", "twitter": "None", "instagram": "None", "facebook": "None", "youtube": "None", "website": "None", "summary": "None", "logo": "None", "latitude": 50.085920000000044, "longitude": -97.21850999999998}, "873430078RR0001": {"name": "STONY PLAIN & DISTRICT CRIME PREVENTION ASSOCIATION", "designationCode": "C", "categoryCode": "59", "address": "BOX 2063", "city": "STONY PLAIN", "province": "AB", "country": "CA", "postalCode": "T7Z1X6", "twitter": "None", "instagram": "None", "facebook": "None", "youtube": "None", "website": "None", "summary": "None", "logo": "None", "latitude": 53.52878400000006, "longitude": -114.00552349999992}, "119192714RR0001": {"name": "STONY PLAIN ALBERTA CONGREGATION OF JEHOVAH'S WITNESSES", "designationCode": "C", "categoryCode": "61", "address": "75 OATWAY DRIVE", "city": "STONY PLAIN", "province": "AB", "country": "CA", "postalCode": "T7Z1H7", "twitter": "None", "instagram": "None", "facebook": "None", "youtube": "None", "website": "None", "summary": "None", "logo": "None", "latitude": 53.52487793170422, "longitude": -113.99095764123746}, "108034125RR0001": {"name": "STONY PLAIN ALLIANCE CHURCH", "designationCode": "C", "categoryCode": "39", "address": "4900-53 AVENUE, BOX 3158", "city": "STONY PLAIN", "province": "AB", "country": "CA", "postalCode": "T7Z1V3", "twitter": "None", "instagram": "None", "facebook": "None", "youtube": "None", "website": "None", "summary": "None", "logo": "None", "latitude": 53.52700749567217, "longitude": -114.00403908658899}, "119257863RR0001": {"name": "STONY PLAIN AND DISTRICT HEALTH CENTRE AUXILIARY", "designationCode": "C", "categoryCode": "19", "address": "4405 SOUTHPARK DRIVE", "city": "STONY PLAIN", "province": "AB", "country": "CA", "postalCode": "T7Z2M7", "twitter": "None", "instagram": "None", "facebook": "None", "youtube": "None", "website": "None", "summary": "None", "logo": "None", "latitude": 53.53832400000006, "longitude": -113.97882499999994}, "140037813RR0001": {"name": "STONY PLAIN AND PARKLAND PIONEER MUSEUM SOCIETY", "designationCode": "C", "categoryCode": "50", "address": "5120 41 AVE", "city": "STONY PLAIN", "province": "AB", "country": "CA", "postalCode": "T7Z1L5", "twitter": "None", "instagram": "None", "facebook": "None", "youtube": "None", "website": "None", "summary": "None", "logo": "None", "latitude": 53.539650503462454, "longitude": -114.00864291618096}, "135859593RR0001": {"name": "STONY PLAIN BAPTIST CHURCH", "designationCode": "C", "categoryCode": "39", "address": "PO BOX 3139", "city": "STONY PLAIN", "province": "AB", "country": "CA", "postalCode": "T7Z1Y4", "twitter": "None", "instagram": "None", "facebook": "None", "youtube": "None", "website": "None", "summary": "None", "logo": "None", "latitude": 53.52878400000006, "longitude": -114.00552349999992}, "141123190RR0001": {"name": "STONY PLAIN LIGHTHOUSE PENTECOSTAL CHURCH", "designationCode": "C", "categoryCode": "36", "address": "49 BOULDER BLVD", "city": "STONY PLAIN", "province": "AB", "country": "CA", "postalCode": "T7Z1V6", "twitter": "None", "instagram": "None", "facebook": "None", "youtube": "None", "website": "None", "summary": "None", "logo": "None", "latitude": 53.542427483841585, "longitude": -113.98453021870851}, "119192748RR0001": {"name": "STONY PLAIN PUBLIC LIBRARY", "designationCode": "C", "categoryCode": "50", "address": "112-4613 52 AVE", "city": "STONY PLAIN", "province": "AB", "country": "CA", "postalCode": "T7Z1E7", "twitter": "None", "instagram": "None", "facebook": "None", "youtube": "None", "website": "None", "summary": "None", "logo": "None", "latitude": 53.528343009323606, "longitude": -113.99721281469981}, "119192755RR0001": {"name": "STONY PLAIN UNITED CHURCH", "designationCode": "C", "categoryCode": "44", "address": "BOX 3196", "city": "STONY PLAIN", "province": "AB", "country": "CA", "postalCode": "T7Z1Y4", "twitter": "None", "instagram": "None", "facebook": "None", "youtube": "None", "website": "None", "summary": "None", "logo": "None", "latitude": 53.52878400000006, "longitude": -114.00552349999992}, "892248162RR0001": {"name": "STONY PLAIN'S POLAR BEAR PLAYSCHOOL SOCIETY", "designationCode": "C", "categoryCode": "20", "address": "5114 51 AVE", "city": "STONY PLAIN", "province": "AB", "country": "CA", "postalCode": "T7Z1C2", "twitter": "None", "instagram": "None", "facebook": "None", "youtube": "None", "website": "None", "summary": "None", "logo": "None", "latitude": 53.5283925212074, "longitude": -114.01204844740035}, "130373160RR0001": {"name": "STOREFRONT HUMBER INCORPORATED", "designationCode": "C", "categoryCode": "59", "address": "2445 LAKESHORE BLVD. W.", "city": "ETOBICOKE", "province": "ON", "country": "CA", "postalCode": "M8V1C5", "twitter": "None", "instagram": "None", "facebook": "None", "youtube": "None", "website": "None", "summary": "None", "logo": "None", "latitude": 43.61364646543376, "longitude": -79.48933965246154}, "849238720RR0001": {"name": "STOREHOUSE-39-3-10", "designationCode": "C", "categoryCode": "09", "address": "3751 21 ST NE", "city": "CALGARY", "province": "AB", "country": "CA", "postalCode": "T2E6T5", "twitter": "None", "instagram": "None", "facebook": "None", "youtube": "None", "website": "None", "summary": "None", "logo": "None", "latitude": 51.086124167638076, "longitude": -114.00836571746775}, "892267048RR0001": {"name": "STORMONT DUNDAS AND GLENGARRY REGIMENTAL FOUNDATION", "designationCode": "C", "categoryCode": "50", "address": "505 FOURTH ST E.", "city": "CORNWALL", "province": "ON", "country": "CA", "postalCode": "K6H2J7", "twitter": "None", "instagram": "None", "facebook": "None", "youtube": "None", "website": "None", "summary": "None", "logo": "None", "latitude": 45.02459603416224, "longitude": -74.71873989537761}, "119192813RR0001": {"name": "STORMONT UNION CHURCH", "designationCode": "C", "categoryCode": "39", "address": "15424 HWY 316", "city": "COUNTRY HBR GUYS. CO.", "province": "NS", "country": "CA", "postalCode": "B0H1J0", "twitter": "None", "instagram": "None", "facebook": "None", "youtube": "None", "website": "None", "summary": "None", "logo": "None", "latitude": 45.23327763048912, "longitude": -61.75400857546776}, "891333395RR0001": {"name": "STORMONT, DUNDAS & GLENGARRY SENIORS' EDUCATION CENTRE INC", "designationCode": "C", "categoryCode": "20", "address": "1500 CUMBERLAND ST", "city": "CORNWALL", "province": "ON", "country": "CA", "postalCode": "K6J4K9", "twitter": "None", "instagram": "None", "facebook": "None", "youtube": "None", "website": "None", "summary": "None", "logo": "None", "latitude": 45.034394038713295, "longitude": -74.74988763138569}, "108034372RR0001": {"name": "STORMONT, DUNDAS AND GLENGARRY HISTORICAL SOCIETY", "designationCode": "C", "categoryCode": "50", "address": "PO BOX 773", "city": "CORNWALL", "province": "ON", "country": "CA", "postalCode": "K6H5T5", "twitter": "None", "instagram": "None", "facebook": "None", "youtube": "None", "website": "None", "summary": "None", "logo": "None", "latitude": 45.028419000000056, "longitude": -74.73569299999993}, "119192821RR0001": {"name": "STORNOWAY PROTESTANT CEMETERY INC", "designationCode": "C", "categoryCode": "59", "address": "568 MAIN STREET", "city": "BURY", "province": "QC", "country": "CA", "postalCode": "J0B1J0", "twitter": "None", "instagram": "None", "facebook": "None", "youtube": "None", "website": "None", "summary": "None", "logo": "None", "latitude": 45.47349243883066, "longitude": -71.50149247293557}, "119192839RR0001": {"name": "STORRINGTON RETIREES ASSOCIATION", "designationCode": "C", "categoryCode": "56", "address": "4383 BATTERSEA RD             RR1", "city": "BATTERSEA", "province": "ON", "country": "CA", "postalCode": "K0H1H0", "twitter": "None", "instagram": "None", "facebook": "None", "youtube": "None", "website": "None", "summary": "None", "logo": "None", "latitude": 44.4017354584398, "longitude": -76.4091634987224}, "130227069RR0001": {"name": "STORY BOOK DAY CARE CENTRE, INC.", "designationCode": "C", "categoryCode": "20", "address": "103-131 SANFORD FLEMING RD", "city": "WINNIPEG", "province": "MB", "country": "CA", "postalCode": "R2C5B8", "twitter": "None", "instagram": "None", "facebook": "None", "youtube": "None", "website": "None", "summary": "None", "logo": "None", "latitude": 49.90746813546642, "longitude": -97.02047295245025}, "105036180RR0001": {"name": "STORY BOOK EARLY LEARNING CENTRE", "designationCode": "C", "categoryCode": "20", "address": "492 COUNTY RD 8", "city": "ESSEX", "province": "ON", "country": "CA", "postalCode": "N8M2W2", "twitter": "None", "instagram": "None", "facebook": "None", "youtube": "None", "website": "None", "summary": "None", "logo": "None", "latitude": 42.17862941098908, "longitude": -82.84776689531888}, "119192854RR0001": {"name": "STORYBOOK THEATRE SOCIETY", "designationCode": "C", "categoryCode": "22", "address": "375 BERMUDA DR NW", "city": "CALGARY", "province": "AB", "country": "CA", "postalCode": "T3K2J5", "twitter": "None", "instagram": "None", "facebook": "None", "youtube": "None", "website": "None", "summary": "None", "logo": "None", "latitude": 51.132290627243435, "longitude": -114.08561690437998}, "892629338RR0001": {"name": "STORYLINE FX INCORPORATED", "designationCode": "C", "categoryCode": "22", "address": "244-340 PROVENCHER BLVD", "city": "WINNIPEG", "province": "MB", "country": "CA", "postalCode": "R2H0G7", "twitter": "None", "instagram": "None", "facebook": "None", "youtube": "None", "website": "None", "summary": "None", "logo": "None", "latitude": 49.89396984869324, "longitude": -97.11442403133495}, "867741373RR0001": {"name": "STORYTELLERS OF CANADA/CONTEURS DU CANADA", "designationCode": "C", "categoryCode": "81", "address": "173 - 601 CHRISTIE ST", "city": "TORONTO", "province": "ON", "country": "CA", "postalCode": "M6G4C7", "twitter": "None", "instagram": "None", "facebook": "None", "youtube": "None", "website": "None", "summary": "None", "logo": "None", "latitude": 43.67978587067912, "longitude": -79.42488115174038}, "124151895RR0001": {"name": "STOUFFVILLE CHRISTIAN SCHOOL", "designationCode": "C", "categoryCode": "20", "address": "3885 STOUFFVILLE RD", "city": "STOUFFVILLE", "province": "ON", "country": "CA", "postalCode": "L4A3X1", "twitter": "None", "instagram": "None", "facebook": "None", "youtube": "None", "website": "None", "summary": "None", "logo": "None", "latitude": 43.95348581652157, "longitude": -79.32821812877265}, "133163980RR0001": {"name": "STOUFFVILLE MEMORIAL CHRISTIAN CHURCH", "designationCode": "C", "categoryCode": "39", "address": "6528 MAIN STREET", "city": "STOUFFVILLE", "province": "ON", "country": "CA", "postalCode": "L4A5Z4", "twitter": "None", "instagram": "None", "facebook": "None", "youtube": "None", "website": "None", "summary": "None", "logo": "None", "latitude": 43.97325512519462, "longitude": -79.23851900903102}, "119288918RR1137": {"name": "STOUFFVILLE ONTARIO CONGREGATION OF JEHOVAH'S WITNESSES", "designationCode": "C", "categoryCode": "61", "address": "23 GOODWOOD ST", "city": "GOODWOOD", "province": "ON", "country": "CA", "postalCode": "L0C1A0", "twitter": "None", "instagram": "None", "facebook": "None", "youtube": "None", "website": "None", "summary": "None", "logo": "None", "latitude": 44.0379330596003, "longitude": -79.19829614632891}, "119192912RR0001": {"name": "STOUFFVILLE PASTORAL CHARGE,", "designationCode": "C", "categoryCode": "44", "address": "34 CHURCH ST", "city": "STOUFFVILLE", "province": "ON", "country": "CA", "postalCode": "L4A1E3", "twitter": "None", "instagram": "None", "facebook": "None", "youtube": "None", "website": "None", "summary": "None", "logo": "None", "latitude": 43.972644297791014, "longitude": -79.24583550173446}, "875030629RR0001": {"name": "STOUFFVILLE PENTECOSTAL CHURCH", "designationCode": "C", "categoryCode": "36", "address": "6853 MAIN STREET", "city": "STOUFFVILLE", "province": "ON", "country": "CA", "postalCode": "L4A7G4", "twitter": "None", "instagram": "None", "facebook": "None", "youtube": "None", "website": "None", "summary": "None", "logo": "None", "latitude": 43.97538190697704, "longitude": -79.22882384788517}, "822582078RR0001": {"name": "STOUFFVILLE-IGOMA PARTNERSHIP INC.", "designationCode": "C", "categoryCode": "02", "address": "PO BOX 104 STATION MAIN", "city": "STOUFFVILLE", "province": "ON", "country": "CA", "postalCode": "L4A7Z4", "twitter": "None", "instagram": "None", "facebook": "None", "youtube": "None", "website": "None", "summary": "None", "logo": "None", "latitude": 43.97107200000005, "longitude": -79.24805449999994}, "119192961RR0001": {"name": "STOUGHTON & DISTRICT FIRST RESPONDERS", "designationCode": "C", "categoryCode": "11", "address": "PO BOX 282", "city": "STOUGHTON", "province": "SK", "country": "CA", "postalCode": "S0G4T0", "twitter": "None", "instagram": "None", "facebook": "None", "youtube": "None", "website": "None", "summary": "None", "logo": "None", "latitude": 49.676720000000046, "longitude": -103.02253999999999}, "108034661RR0001": {"name": "STOUGHTON APOSTOLIC CHURCH", "designationCode": "C", "categoryCode": "36", "address": "PO BOX 122", "city": "STOUGHTON", "province": "SK", "country": "CA", "postalCode": "S0G4T0", "twitter": "None", "instagram": "None", "facebook": "None", "youtube": "None", "website": "None", "summary": "None", "logo": "None", "latitude": 49.676720000000046, "longitude": -103.02253999999999}, "119192953RR0001": {"name": "STOUGHTON COMMUNITY DROP IN CENTRE", "designationCode": "C", "categoryCode": "56", "address": "PO BOX 99", "city": "STOUGHTON", "province": "SK", "country": "CA", "postalCode": "S0G4T0", "twitter": "None", "instagram": "None", "facebook": "None", "youtube": "None", "website": "None", "summary": "None", "logo": "None", "latitude": 49.676720000000046, "longitude": -103.02253999999999}, "129829677RR0001": {"name": "STRADBROOK OPTIMIST HOUSE INC", "designationCode": "C", "categoryCode": "01", "address": "174B SCOTT ST", "city": "WINNIPEG", "province": "MB", "country": "CA", "postalCode": "R3L0L3", "twitter": "None", "instagram": "None", "facebook": "None", "youtube": "None", "website": "None", "summary": "None", "logo": "None", "latitude": 49.87803765926437, "longitude": -97.14034819986227}, "891060022RR0001": {"name": "STRAFFORDVILLE EVANGELICAL MENNONITE CHURCH", "designationCode": "C", "categoryCode": "39", "address": "28 HAWTHORNE CRES", "city": "AYLMER", "province": "ON", "country": "CA", "postalCode": "N5H3C3", "twitter": "None", "instagram": "None", "facebook": "None", "youtube": "None", "website": "None", "summary": "None", "logo": "None", "latitude": 42.77838095141105, "longitude": -80.99172739148246}, "890959646RR0001": {"name": "STRAFFORDVILLE GOSPEL HALL", "designationCode": "C", "categoryCode": "39", "address": "9142 PLANK ROAD               BOX 366", "city": "STRAFFORDVILLE", "province": "ON", "country": "CA", "postalCode": "N0J1Y0", "twitter": "None", "instagram": "None", "facebook": "None", "youtube": "None", "website": "None", "summary": "None", "logo": "None", "latitude": 42.74635018232459, "longitude": -80.78043201133964}, "108039827RR0001": {"name": "STRAIGHT AHEAD MINISTRIES", "designationCode": "C", "categoryCode": "39", "address": "RR 1 GLENWOOD", "city": "YARMOUTH COUNTY", "province": "NS", "country": "CA", "postalCode": "B0W1W0", "twitter": "None", "instagram": "None", "facebook": "None", "youtube": "None", "website": "None", "summary": "None", "logo": "None", "latitude": 43.81449000000005, "longitude": -65.90226949999993}, "864267133RR0001": {"name": "STRAIGHT GATE MINISTRIES", "designationCode": "C", "categoryCode": "39", "address": "560 WILDGRASS ROAD", "city": "MISSISSAUGA", "province": "ON", "country": "CA", "postalCode": "L5B4H7", "twitter": "None", "instagram": "None", "facebook": "None", "youtube": "None", "website": "None", "summary": "None", "logo": "None", "latitude": 43.5718904784755, "longitude": -79.63658946168283}, "893919373RR0001": {"name": "STRAIGHT TALK MINISTRIES ASSOCIATION", "designationCode": "C", "categoryCode": "49", "address": "38 RIVER ROCK CRESCENT S.E.", "city": "CALGARY", "province": "AB", "country": "CA", "postalCode": "T2C4J4", "twitter": "None", "instagram": "None", "facebook": "None", "youtube": "None", "website": "None", "summary": "None", "logo": "None", "latitude": 50.96725522675859, "longitude": -114.0085775276127}, "119199669RR0001": {"name": "STRAIT AREA EDUCATION-RECREATION CENTRE DAY-CARE SOCIETY", "designationCode": "C", "categoryCode": "01", "address": "304 PITT ST                   UNIT 2", "city": "PORT HAWKESBURY", "province": "NS", "country": "CA", "postalCode": "B9A2T9", "twitter": "None", "instagram": "None", "facebook": "None", "youtube": "None", "website": "None", "summary": "None", "logo": "None", "latitude": 45.61649171368725, "longitude": -61.356311678978635}, "135262582RR0001": {"name": "STRAIT OF GEORGIA MARINE RESCUE SOCIETY", "designationCode": "C", "categoryCode": "59", "address": "PO BOX 26043                  8000 NO. 3 ROAD", "city": "RICHMOND", "province": "BC", "country": "CA", "postalCode": "V6Y2E3", "twitter": "None", "instagram": "None", "facebook": "None", "youtube": "None", "website": "None", "summary": "None", "logo": "None", "latitude": 49.155272999999994, "longitude": -123.13662947276269}, "888039351RR0001": {"name": "STRAIT REGIONAL SCHOOL BOARD", "designationCode": "C", "categoryCode": "20", "address": "16 CEMETERY ROAD", "city": "PORT HASTINGS", "province": "NS", "country": "CA", "postalCode": "B9A1K6", "twitter": "None", "instagram": "None", "facebook": "None", "youtube": "None", "website": "None", "summary": "None", "logo": "None", "latitude": 45.64987824259896, "longitude": -61.4022749348782}, "895387579RR0001": {"name": "STRAIT RICHMOND PALLIATIVE CARE SOCIETY", "designationCode": "C", "categoryCode": "11", "address": "138 HOSPITAL ROAD             RR #1", "city": "CLEVELAND", "province": "NS", "country": "CA", "postalCode": "B0E1J0", "twitter": "None", "instagram": "None", "facebook": "None", "youtube": "None", "website": "None", "summary": "None", "logo": "None", "latitude": 45.61627108080334, "longitude": -61.22232626108275}, "891301970RR0001": {"name": "STRAIT SERENITY CLUB", "designationCode": "C", "categoryCode": "57", "address": "719 CHURCH STREET", "city": "PORT HAWKESBURY", "province": "NS", "country": "CA", "postalCode": "B9A2X9", "twitter": "None", "instagram": "None", "facebook": "None", "youtube": "None", "website": "None", "summary": "None", "logo": "None", "latitude": 45.61310025393861, "longitude": -61.35037960020765}, "119199693RR0001": {"name": "STRAIT-RICHMOND HEALTH CARE FOUNDATION", "designationCode": "C", "categoryCode": "13", "address": "305 NEW RD", "city": "HAVRE BOUCHER", "province": "NS", "country": "CA", "postalCode": "B0H1P0", "twitter": "None", "instagram": "None", "facebook": "None", "youtube": "None", "website": "None", "summary": "None", "logo": "None", "latitude": 45.675880009435055, "longitude": -61.55424894425501}, "139898266RR0001": {"name": "STRAITS-ST BARBE CHRONIC CARE CORPORATION", "designationCode": "C", "categoryCode": "01", "address": "P.O. BOX 234", "city": "FLOWER'S COVE", "province": "NL", "country": "CA", "postalCode": "A0K2N0", "twitter": "None", "instagram": "None", "facebook": "None", "youtube": "None", "website": "None", "summary": "None", "logo": "None", "latitude": 51.29754900000006, "longitude": -56.729802499999934}, "108039967RR0001": {"name": "STRANG PRESBYTERIAN CHURCH", "designationCode": "C", "categoryCode": "37", "address": "PO BOX 170", "city": "DIXONVILLE", "province": "AB", "country": "CA", "postalCode": "T0H1E0", "twitter": "None", "instagram": "None", "facebook": "None", "youtube": "None", "website": "None", "summary": "None", "logo": "None", "latitude": 56.54301000000004, "longitude": -117.66921999999994}, "889947396RR0001": {"name": "STRANGWAY CENTRE AUXILIARY", "designationCode": "C", "categoryCode": "19", "address": "260 EAST ST N", "city": "SARNIA", "province": "ON", "country": "CA", "postalCode": "N7T6X7", "twitter": "None", "instagram": "None", "facebook": "None", "youtube": "None", "website": "None", "summary": "None", "logo": "None", "latitude": 42.97707245463465, "longitude": -82.38641345517637}, "119199842RR0001": {"name": "STRASBOURG & DISTRICT COMBINED APPEAL", "designationCode": "A", "categoryCode": "05", "address": "PO BOX 42", "city": "STRASBOURG", "province": "SK", "country": "CA", "postalCode": "S0G4V0", "twitter": "None", "instagram": "None", "facebook": "None", "youtube": "None", "website": "None", "summary": "None", "logo": "None", "latitude": 51.07036000000005, "longitude": -104.96119999999996}, "108040056RR0001": {"name": "STRASBOURG ALLIANCE CHURCH OF THE CHRISTIAN AND MISSIONARY ALLIANCE IN CANADA", "designationCode": "C", "categoryCode": "39", "address": "BOX 535", "city": "STRASBOURG", "province": "SK", "country": "CA", "postalCode": "S0G4V0", "twitter": "None", "instagram": "None", "facebook": "None", "youtube": "None", "website": "None", "summary": "None", "logo": "None", "latitude": 51.07036000000005, "longitude": -104.96119999999996}, "119199792RR0001": {"name": "STRASBOURG AND COMMUNITY RECREATION CENTRE", "designationCode": "C", "categoryCode": "56", "address": "BOX 339", "city": "STRASBOURG", "province": "SK", "country": "CA", "postalCode": "S0G4V0", "twitter": "None", "instagram": "None", "facebook": "None", "youtube": "None", "website": "None", "summary": "None", "logo": "None", "latitude": 51.07036000000005, "longitude": -104.96119999999996}, "119199800RR0001": {"name": "STRASBOURG AND DISTRICT HEALTH CENTER", "designationCode": "C", "categoryCode": "11", "address": "BOX 217", "city": "STRASBOURG", "province": "SK", "country": "CA", "postalCode": "S0G4V0", "twitter": "None", "instagram": "None", "facebook": "None", "youtube": "None", "website": "None", "summary": "None", "logo": "None", "latitude": 51.07036000000005, "longitude": -104.96119999999996}, "119199834RR0001": {"name": "STRASBOURG BIBLE CAMP,", "designationCode": "C", "categoryCode": "56", "address": "BOX 308", "city": "STRASBOURG", "province": "SK", "country": "CA", "postalCode": "S0G4V0", "twitter": "None", "instagram": "None", "facebook": "None", "youtube": "None", "website": "None", "summary": "None", "logo": "None", "latitude": 51.07036000000005, "longitude": -104.96119999999996}, "119199875RR0001": {"name": "STRASBOURG UNITED CHURCH", "designationCode": "C", "categoryCode": "44", "address": "BOX 187", "city": "STRASBOURG", "province": "SK", "country": "CA", "postalCode": "S0G4V0", "twitter": "None", "instagram": "None", "facebook": "None", "youtube": "None", "website": "None", "summary": "None", "logo": "None", "latitude": 51.07036000000005, "longitude": -104.96119999999996}, "844714709RR0001": {"name": "STRATA MONTESSORI ADOLESCENT SCHOOL", "designationCode": "C", "categoryCode": "20", "address": "14 KEMP DRIVE,", "city": "DUNDAS", "province": "ON", "country": "CA", "postalCode": "L9H2M9", "twitter": "None", "instagram": "None", "facebook": "None", "youtube": "None", "website": "None", "summary": "None", "logo": "None", "latitude": 43.26327171856429, "longitude": -79.96445522525804}, "802678748RR0001": {"name": "STRATEGIC CHARITABLE GIVING FOUNDATION", "designationCode": "A", "categoryCode": "03", "address": "180 QUEEN ST. W.", "city": "TORONTO", "province": "ON", "country": "CA", "postalCode": "M5V3K1", "twitter": "None", "instagram": "None", "facebook": "None", "youtube": "None", "website": "None", "summary": "None", "logo": "None", "latitude": 43.65060618347844, "longitude": -79.38770870358928}, "119199990RR0001": {"name": "STRATFORD & DISTRICT RIGHT TO LIFE ASSOCIATION", "designationCode": "C", "categoryCode": "09", "address": "P.O. BOX 21133", "city": "STRATFORD", "province": "ON", "country": "CA", "postalCode": "N5A7V4", "twitter": "None", "instagram": "None", "facebook": "None", "youtube": "None", "website": "None", "summary": "None", "logo": "None", "latitude": 43.37013300000005, "longitude": -80.98191349999993}, "108040213RR0001": {"name": "STRATFORD AND DISTRICT AGRICULTURAL SOCIETY", "designationCode": "C", "categoryCode": "56", "address": "357 MCCARTHY RD", "city": "STRATFORD", "province": "ON", "country": "CA", "postalCode": "N5A7S7", "twitter": "None", "instagram": "None", "facebook": "None", "youtube": "None", "website": "None", "summary": "None", "logo": "None", "latitude": 43.38708069617349, "longitude": -80.98335198807838}, "119199909RR0001": {"name": "STRATFORD AND DISTRICT CHRISTIAN SCHOOL SOCIETY", "designationCode": "C", "categoryCode": "20", "address": "190 QUEENSLAND RD", "city": "STRATFORD", "province": "ON", "country": "CA", "postalCode": "N4Z0A3", "twitter": "None", "instagram": "None", "facebook": "None", "youtube": "None", "website": "None", "summary": "None", "logo": "None", "latitude": 43.36580430382924, "longitude": -81.00409894242742}, "119199917RR0001": {"name": "STRATFORD AND DISTRICT HORTICULTURAL SOCIETY", "designationCode": "C", "categoryCode": "52", "address": "BOX 21032", "city": "STRATFORD", "province": "ON", "country": "CA", "postalCode": "N5A7V4", "twitter": "None", "instagram": "None", "facebook": "None", "youtube": "None", "website": "None", "summary": "None", "logo": "None", "latitude": 43.37013300000005, "longitude": -80.98191349999993}, "884884305RR0001": {"name": "STRATFORD AND PERTH COUNTY COMMUNITY FOUNDATION", "designationCode": "A", "categoryCode": "03", "address": "5-55 LORNE AVENUE EAST", "city": "STRATFORD", "province": "ON", "country": "CA", "postalCode": "N5A6S4", "twitter": "None", "instagram": "None", "facebook": "None", "youtube": "None", "website": "None", "summary": "None", "logo": "None", "latitude": 43.35501384673135, "longitude": -80.99418479078388}, "119199958RR0001": {"name": "STRATFORD CHEFS SCHOOL", "designationCode": "C", "categoryCode": "20", "address": "192 ONTARIO ST", "city": "STRATFORD", "province": "ON", "country": "CA", "postalCode": "N5A3H4", "twitter": "None", "instagram": "None", "facebook": "None", "youtube": "None", "website": "None", "summary": "None", "logo": "None", "latitude": 43.3713875115412, "longitude": -80.97846330391252}, "119199966RR0001": {"name": "STRATFORD CHURCH OF CHRIST", "designationCode": "C", "categoryCode": "39", "address": "478 BRUNSWICK STREET", "city": "STRATFORD", "province": "ON", "country": "CA", "postalCode": "N5A3N6", "twitter": "None", "instagram": "None", "facebook": "None", "youtube": "None", "website": "None", "summary": "None", "logo": "None", "latitude": 43.3693804899011, "longitude": -80.96235347155059}, "861415297RR0001": {"name": "STRATFORD CIVIC ORCHESTRA", "designationCode": "C", "categoryCode": "22", "address": "PO BOX 1067 STN MAIN", "city": "STRATFORD", "province": "ON", "country": "CA", "postalCode": "N5A6W4", "twitter": "None", "instagram": "None", "facebook": "None", "youtube": "None", "website": "None", "summary": "None", "logo": "None", "latitude": 43.37013300000005, "longitude": -80.98191349999993}, "862646890RR0001": {"name": "STRATFORD COMMUNITY CHOIR", "designationCode": "B", "categoryCode": "22", "address": "33 TOWERWOOD DR", "city": "STRATFORD", "province": "PE", "country": "CA", "postalCode": "C1B1J5", "twitter": "None", "instagram": "None", "facebook": "None", "youtube": "None", "website": "None", "summary": "None", "logo": "None", "latitude": 46.214382456575606, "longitude": -63.082780878988984}, "891438749RR0001": {"name": "STRATFORD CONCERT BAND", "designationCode": "C", "categoryCode": "22", "address": "P.O. BOX 21024", "city": "STRATFORD", "province": "ON", "country": "CA", "postalCode": "N5A7V4", "twitter": "None", "instagram": "None", "facebook": "None", "youtube": "None", "website": "None", "summary": "None", "logo": "None", "latitude": 43.37013300000005, "longitude": -80.98191349999993}, "119199974RR0001": {"name": "STRATFORD CONCERT CHOIR ASSOCIATION", "designationCode": "C", "categoryCode": "22", "address": "BOX 21057", "city": "STRATFORD", "province": "ON", "country": "CA", "postalCode": "N5A7V4", "twitter": "None", "instagram": "None", "facebook": "None", "youtube": "None", "website": "None", "summary": "None", "logo": "None", "latitude": 43.37013300000005, "longitude": -80.98191349999993}, "874714595RR0001": {"name": "STRATFORD CYGNETS CO-OPERATIVE PRESCHOOL INC.", "designationCode": "C", "categoryCode": "01", "address": "181 LOUISE ST", "city": "STRATFORD", "province": "ON", "country": "CA", "postalCode": "N5A2E6", "twitter": "None", "instagram": "None", "facebook": "None", "youtube": "None", "website": "None", "summary": "None", "logo": "None", "latitude": 43.357744772664496, "longitude": -80.98307248107163}, "868072992RR0001": {"name": "STRATFORD FESTIVAL ARCHIVES TRUST", "designationCode": "C", "categoryCode": "22", "address": "PO BOX 520", "city": "STRATFORD", "province": "ON", "country": "CA", "postalCode": "N5A6V2", "twitter": "None", "instagram": "None", "facebook": "None", "youtube": "None", "website": "None", "summary": "None", "logo": "None", "latitude": 43.37013300000005, "longitude": -80.98191349999993}, "108040312RR0001": {"name": "STRATFORD GENERAL HOSPITAL", "designationCode": "C", "categoryCode": "10", "address": "46 GENERAL HOSPITAL DRIVE", "city": "STRATFORD", "province": "ON", "country": "CA", "postalCode": "N5A2Y6", "twitter": "None", "instagram": "None", "facebook": "None", "youtube": "None", "website": "None", "summary": "None", "logo": "None", "latitude": 43.36872108243406, "longitude": -80.99543586248478}, "119200004RR0001": {"name": "STRATFORD GENERAL HOSPITAL FOUNDATION", "designationCode": "A", "categoryCode": "13", "address": "46 GENERAL HOSPITAL DRIVE", "city": "STRATFORD", "province": "ON", "country": "CA", "postalCode": "N5A2Y6", "twitter": "None", "instagram": "None", "facebook": "None", "youtube": "None", "website": "None", "summary": "None", "logo": "None", "latitude": 43.36872108243406, "longitude": -80.99543586248478}, "873164727RR0001": {"name": "STRATFORD HALL (SCHOOL) SOCIETY", "designationCode": "C", "categoryCode": "20", "address": "3000 COMMERCIAL DR", "city": "VANCOUVER", "province": "BC", "country": "CA", "postalCode": "V5N4E2", "twitter": "None", "instagram": "None", "facebook": "None", "youtube": "None", "website": "None", "summary": "None", "logo": "None", "latitude": 49.257725714421525, "longitude": -123.06980371442152}, "864610316RR0001": {"name": "STRATFORD HALL FOUNDATION", "designationCode": "A", "categoryCode": "03", "address": "3000 COMMERCIAL DRIVE", "city": "VANCOUVER", "province": "BC", "country": "CA", "postalCode": "V5N4E2", "twitter": "None", "instagram": "None", "facebook": "None", "youtube": "None", "website": "None", "summary": "None", "logo": "None", "latitude": 49.257725714421525, "longitude": -123.06980371442152}, "119200020RR0001": {"name": "STRATFORD HOUSE OF BLESSING", "designationCode": "C", "categoryCode": "09", "address": "423 ERIE ST", "city": "STRATFORD", "province": "ON", "country": "CA", "postalCode": "N5A2N3", "twitter": "None", "instagram": "None", "facebook": "None", "youtube": "None", "website": "None", "summary": "None", "logo": "None", "latitude": 43.361574957527914, "longitude": -80.99106561140306}, "890750045RR0001": {"name": "STRATFORD PERTH HERITAGE FOUNDATION", "designationCode": "C", "categoryCode": "52", "address": "329 - 356 ONTARIO ST", "city": "STRATFORD", "province": "ON", "country": "CA", "postalCode": "N5A7X6", "twitter": "None", "instagram": "None", "facebook": "None", "youtube": "None", "website": "None", "summary": "None", "logo": "None", "latitude": 43.37125945715252, "longitude": -80.97183955536961}, "872079298RR0001": {"name": "STRATFORD SHAKESPEAREAN FESTIVAL ENDOWMENT FOUNDATION", "designationCode": "A", "categoryCode": "23", "address": "P.O. BOX 520", "city": "STRATFORD", "province": "ON", "country": "CA", "postalCode": "N5A6V2", "twitter": "None", "instagram": "None", "facebook": "None", "youtube": "None", "website": "None", "summary": "None", "logo": "None", "latitude": 43.37013300000005, "longitude": -80.98191349999993}, "119200095RR0001": {"name": "STRATFORD SHAKESPEAREAN FESTIVAL HOLDING FOUNDATION", "designationCode": "C", "categoryCode": "22", "address": "P.O. BOX 520", "city": "STRATFORD", "province": "ON", "country": "CA", "postalCode": "N5A6V2", "twitter": "None", "instagram": "None", "facebook": "None", "youtube": "None", "website": "None", "summary": "None", "logo": "None", "latitude": 43.37013300000005, "longitude": -80.98191349999993}, "108040338RR0001": {"name": "STRATFORD-PERTH FAMILY YMCA", "designationCode": "C", "categoryCode": "49", "address": "204 DOWNIE ST", "city": "STRATFORD", "province": "ON", "country": "CA", "postalCode": "N5A1X4", "twitter": "None", "instagram": "None", "facebook": "None", "youtube": "None", "website": "None", "summary": "None", "logo": "None", "latitude": 43.367338174014705, "longitude": -80.9804009422931}, "859509754RR0001": {"name": "STRATFORD-PERTH FAMILY YMCA FOUNDATION", "designationCode": "A", "categoryCode": "43", "address": "204 DOWNIE STREET", "city": "STRATFORD", "province": "ON", "country": "CA", "postalCode": "N5A1X4", "twitter": "None", "instagram": "None", "facebook": "None", "youtube": "None", "website": "None", "summary": "None", "logo": "None", "latitude": 43.367338174014705, "longitude": -80.9804009422931}, "135897916RR0001": {"name": "STRATFORD-PERTH MUSEUM ASSOCIATION", "designationCode": "C", "categoryCode": "50", "address": "388 GLENDON ROAD", "city": "STRATFORD", "province": "ON", "country": "CA", "postalCode": "N5A6Y7", "twitter": "None", "instagram": "None", "facebook": "None", "youtube": "None", "website": "None", "summary": "None", "logo": "None", "latitude": 43.38272937448853, "longitude": -80.96656109362213}, "119200111RR0001": {"name": "STRATHAVEN BAPTIST CHURCH", "designationCode": "C", "categoryCode": "31", "address": "RR#5 556854 STRATHAVEN ROAD", "city": "CHATSWORTH", "province": "ON", "country": "CA", "postalCode": "N0H1G0", "twitter": "None", "instagram": "None", "facebook": "None", "youtube": "None", "website": "None", "summary": "None", "logo": "None", "latitude": 44.477115930070966, "longitude": -80.76808348940466}, "125593657RR0272": {"name": "STRATHCLAIR AIR CADET SPONSORING ASSOCIATION", "designationCode": "C", "categoryCode": "29", "address": "P.O. BOX 203", "city": "STRATHCLAIR", "province": "MB", "country": "CA", "postalCode": "R0J2C0", "twitter": "None", "instagram": "None", "facebook": "None", "youtube": "None", "website": "None", "summary": "None", "logo": "None", "latitude": 50.40360000000004, "longitude": -100.39218999999997}, "891729576RR0001": {"name": "STRATHCLAIR AND DISTRICT THEATRE COMMITTEE INC", "designationCode": "C", "categoryCode": "22", "address": "BOX 119", "city": "STRATHCLAIR", "province": "MB", "country": "CA", "postalCode": "R0J2C0", "twitter": "None", "instagram": "None", "facebook": "None", "youtube": "None", "website": "None", "summary": "None", "logo": "None", "latitude": 50.40360000000004, "longitude": -100.39218999999997}, "892646316RR0001": {"name": "STRATHCLAIR BAPTIST CHURCH", "designationCode": "C", "categoryCode": "31", "address": "BOX 24", "city": "STRATHCLAIR", "province": "MB", "country": "CA", "postalCode": "R0J2C0", "twitter": "None", "instagram": "None", "facebook": "None", "youtube": "None", "website": "None", "summary": "None", "logo": "None", "latitude": 50.40360000000004, "longitude": -100.39218999999997}, "119200137RR0001": {"name": "STRATHCLAIR MUSEUM ASSOCIATION", "designationCode": "C", "categoryCode": "50", "address": "BOX 383", "city": "STRATHCLAIR", "province": "MB", "country": "CA", "postalCode": "R0J2C0", "twitter": "None", "instagram": "None", "facebook": "None", "youtube": "None", "website": "None", "summary": "None", "logo": "None", "latitude": 50.40360000000004, "longitude": -100.39218999999997}, "843736547RR0001": {"name": "STRATHCLAIR RINK MANAGEMENT COMMITTEE", "designationCode": "C", "categoryCode": "56", "address": "BOX 207", "city": "STRATHCLAIR", "province": "MB", "country": "CA", "postalCode": "R0J2C0", "twitter": "None", "instagram": "None", "facebook": "None", "youtube": "None", "website": "None", "summary": "None", "logo": "None", "latitude": 50.40360000000004, "longitude": -100.39218999999997}, "119200145RR0001": {"name": "STRATHCLAIR UNITED CHURCH", "designationCode": "C", "categoryCode": "44", "address": "PO BOX 143", "city": "STRATHCLAIR", "province": "MB", "country": "CA", "postalCode": "R0J2C0", "twitter": "None", "instagram": "None", "facebook": "None", "youtube": "None", "website": "None", "summary": "None", "logo": "None", "latitude": 50.40360000000004, "longitude": -100.39218999999997}, "890750581RR0001": {"name": "STRATHCONA ARCHAEOLOGICAL SOCIETY", "designationCode": "C", "categoryCode": "52", "address": "#204 9366 - 49TH STREET", "city": "EDMONTON", "province": "AB", "country": "CA", "postalCode": "T6B2L7", "twitter": "None", "instagram": "None", "facebook": "None", "youtube": "None", "website": "None", "summary": "None", "logo": "None", "latitude": 53.53258533527614, "longitude": -113.41490768659416}, "889912572RR0001": {"name": "STRATHCONA AREA 5 SENIOR CITIZENS CLUB", "designationCode": "C", "categoryCode": "56", "address": "57A 54569 RANGE ROAD 215", "city": "FT SASKATCHEWAN", "province": "AB", "country": "CA", "postalCode": "T8L4B9", "twitter": "None", "instagram": "None", "facebook": "None", "youtube": "None", "website": "None", "summary": "None", "logo": "None", "latitude": 53.715262679735716, "longitude": -113.0695097418501}, "816146070RR0001": {"name": "STRATHCONA ARMY CADETS PARENT ASSOCIATION", "designationCode": "C", "categoryCode": "29", "address": "8403 ROPER ROAD, BOX # 6", "city": "EDMONTON", "province": "AB", "country": "CA", "postalCode": "T6E6T5", "twitter": "None", "instagram": "None", "facebook": "None", "youtube": "None", "website": "None", "summary": "None", "logo": "None", "latitude": 53.489832269721646, "longitude": -113.44820468904794}, "119200160RR0001": {"name": "STRATHCONA BAPTIST CHURCH", "designationCode": "C", "categoryCode": "31", "address": "8318-104 ST", "city": "EDMONTON", "province": "AB", "country": "CA", "postalCode": "T6E4E8", "twitter": "None", "instagram": "None", "facebook": "None", "youtube": "None", "website": "None", "summary": "None", "logo": "None", "latitude": 53.519724, "longitude": -113.49770767043668}}