{"118920289RR0001": {"name": "FOCOLARE MOVEMENT (MEN'S BRANCH)", "designationCode": "C", "categoryCode": "46", "address": "16 GRANTBROOK ST", "city": "TORONTO", "province": "ON", "country": "CA", "postalCode": "M2R2E7", "twitter": "None", "instagram": "None", "facebook": "None", "youtube": "None", "website": "None", "summary": "None", "logo": "None", "latitude": 43.77735367776561, "longitude": -79.4320293279472}, "118920297RR0001": {"name": "FOCOLARE MOVEMENT (WOMEN'S BRANCH)", "designationCode": "C", "categoryCode": "46", "address": "154 FISHERVILLE RD.", "city": "TORONTO", "province": "ON", "country": "CA", "postalCode": "M2R3C2", "twitter": "None", "instagram": "None", "facebook": "None", "youtube": "None", "website": "None", "summary": "None", "logo": "None", "latitude": 43.788189183478416, "longitude": -79.45638714821968}, "131611337RR0001": {"name": "FOCUS FOR ETHNIC WOMEN, WATERLOO REGION INC", "designationCode": "C", "categoryCode": "59", "address": "190 VICTORIA ST N", "city": "KITCHENER", "province": "ON", "country": "CA", "postalCode": "N2H5C6", "twitter": "None", "instagram": "None", "facebook": "None", "youtube": "None", "website": "None", "summary": "None", "logo": "None", "latitude": 43.4561827460614, "longitude": -80.48978015557726}, "118920305RR0001": {"name": "FOCUS FOUNDATION OF BRITISH COLUMBIA", "designationCode": "C", "categoryCode": "59", "address": "PO BOX 91489", "city": "WEST VANCOUVER", "province": "BC", "country": "CA", "postalCode": "V7V3P2", "twitter": "None", "instagram": "None", "facebook": "None", "youtube": "None", "website": "None", "summary": "None", "logo": "None", "latitude": 49.331148000000056, "longitude": -123.16023349999993}, "895647055RR0001": {"name": "FOCUS HUMANITARIAN ASSISTANCE CANADA - FOCUS ASSISTANCE HUMANITAIRE CANADA", "designationCode": "C", "categoryCode": "01", "address": "200-49 WYNFORD DRIVE", "city": "TORONTO", "province": "ON", "country": "CA", "postalCode": "M3C1K1", "twitter": "None", "instagram": "None", "facebook": "None", "youtube": "None", "website": "None", "summary": "None", "logo": "None", "latitude": 43.72468551232059, "longitude": -79.33420827748326}, "889696944RR0001": {"name": "FOCUS ON AFRICA SOCIETY", "designationCode": "C", "categoryCode": "09", "address": "6771-144B ST.", "city": "SURREY", "province": "BC", "country": "CA", "postalCode": "V3S0T3", "twitter": "None", "instagram": "None", "facebook": "None", "youtube": "None", "website": "None", "summary": "None", "logo": "None", "latitude": 49.12564844740034, "longitude": -122.82131245726808}, "140287673RR0001": {"name": "FOCUS ON THE BIBLE", "designationCode": "C", "categoryCode": "47", "address": "POST OFFICE BOX 2005 STATION A", "city": "SUDBURY", "province": "ON", "country": "CA", "postalCode": "P3A4R8", "twitter": "None", "instagram": "None", "facebook": "None", "youtube": "None", "website": "None", "summary": "None", "logo": "None", "latitude": 46.48958700000006, "longitude": -80.99011249999994}, "106845969RR0001": {"name": "FOCUS ON THE FAMILY (CANADA) ASSOCIATION", "designationCode": "C", "categoryCode": "47", "address": "19946 80A AVE", "city": "LANGLEY", "province": "BC", "country": "CA", "postalCode": "V2Y0J8", "twitter": "None", "instagram": "None", "facebook": "None", "youtube": "None", "website": "None", "summary": "None", "logo": "None", "latitude": 49.14944219401001, "longitude": -122.67067663988112}, "884014440RR0001": {"name": "FOCUS ON THE WORLD MINISTRIES", "designationCode": "C", "categoryCode": "47", "address": "PO BOX 61537                  FENNELL POSTAL OUTLET", "city": "HAMILTON", "province": "ON", "country": "CA", "postalCode": "L8T5A1", "twitter": "None", "instagram": "None", "facebook": "None", "youtube": "None", "website": "None", "summary": "None", "logo": "None", "latitude": 43.22517553310967, "longitude": -79.8277597220962}, "118920339RR0001": {"name": "FOGA CHARITABLE FOUNDATION", "designationCode": "C", "categoryCode": "48", "address": "58 CLARK AVENUE", "city": "THORNHILL", "province": "ON", "country": "CA", "postalCode": "L3T1S5", "twitter": "None", "instagram": "None", "facebook": "None", "youtube": "None", "website": "None", "summary": "None", "logo": "None", "latitude": 43.808342194586935, "longitude": -79.41691994783304}, "884409426RR0001": {"name": "FOGO ISLAND PASTORAL CHARGE", "designationCode": "C", "categoryCode": "44", "address": "P.O. BOX 94", "city": "STAG HARBOUR", "province": "NL", "country": "CA", "postalCode": "A0G4B0", "twitter": "None", "instagram": "None", "facebook": "None", "youtube": "None", "website": "None", "summary": "None", "logo": "None", "latitude": 49.58032000000003, "longitude": -54.28503999999998}, "874201312RR0001": {"name": "FOGQUEST: SUSTAINABLE WATER SOLUTIONS", "designationCode": "C", "categoryCode": "59", "address": "448 MONARCH PLACE", "city": "KAMLOOPS", "province": "BC", "country": "CA", "postalCode": "V2E2B2", "twitter": "None", "instagram": "None", "facebook": "None", "youtube": "None", "website": "None", "summary": "None", "logo": "None", "latitude": 50.65383214322801, "longitude": -120.34955076712455}, "887438067RR0001": {"name": "FOI ET LUMI\u00c8RE CANADA-EST - FAITH AND LIGHT CANADA EAST", "designationCode": "C", "categoryCode": "49", "address": "3530 RUE CINQ-MARS", "city": "QUEBEC", "province": "QC", "country": "CA", "postalCode": "G1P3L7", "twitter": "None", "instagram": "None", "facebook": "None", "youtube": "None", "website": "None", "summary": "None", "logo": "None", "latitude": 46.81744002997862, "longitude": -71.3037358623119}, "866866684RR0001": {"name": "FOI GOSPEL MINISTRY INC", "designationCode": "C", "categoryCode": "39", "address": "21 QUEEN ST. E SUITE 402", "city": "BRAMPTON", "province": "ON", "country": "CA", "postalCode": "L6W3P1", "twitter": "None", "instagram": "None", "facebook": "None", "youtube": "None", "website": "None", "summary": "None", "logo": "None", "latitude": 43.68641002969016, "longitude": -79.75931108852224}, "107950669RR0001": {"name": "FOLDENS PASTORAL CHARGE", "designationCode": "C", "categoryCode": "44", "address": "374147 FOLDENS LINE           RR #5", "city": "INGERSOLL", "province": "ON", "country": "CA", "postalCode": "N5C3J8", "twitter": "None", "instagram": "None", "facebook": "None", "youtube": "None", "website": "None", "summary": "None", "logo": "None", "latitude": 43.03964098721807, "longitude": -80.8072224080153}, "896962446RR0001": {"name": "FOLIE TECHNIQUE, CAMP D'ETE SCIENTIFIQUE DE L'ECOLE POLYTECHNIQUE", "designationCode": "C", "categoryCode": "21", "address": "CP 6079 , SUCC. CENTRE-VILLE  2550, POLYTECHNIQUE", "city": "MONTREAL", "province": "QC", "country": "CA", "postalCode": "H3C3A7", "twitter": "None", "instagram": "None", "facebook": "None", "youtube": "None", "website": "None", "summary": "None", "logo": "None", "latitude": 45.49833600000005, "longitude": -73.55148649999994}, "118920370RR0001": {"name": "FOLK ARTS COUNCIL OF ST. CATHARINES", "designationCode": "C", "categoryCode": "22", "address": "85 CHURCH STREET", "city": "ST CATHARINES", "province": "ON", "country": "CA", "postalCode": "L2R3C7", "twitter": "None", "instagram": "None", "facebook": "None", "youtube": "None", "website": "None", "summary": "None", "logo": "None", "latitude": 43.16156536721664, "longitude": -79.24555370029972}, "118920388RR0001": {"name": "FOLK ARTS COUNCIL OF WINNIPEG, INC.", "designationCode": "C", "categoryCode": "22", "address": "2ND FLOOR 183 KENNEDY ST", "city": "WINNIPEG", "province": "MB", "country": "CA", "postalCode": "R3C1S6", "twitter": "None", "instagram": "None", "facebook": "None", "youtube": "None", "website": "None", "summary": "None", "logo": "None", "latitude": 49.8889349156327, "longitude": -97.14677968134365}, "118920404RR0001": {"name": "FOLKLORE ENSEMBLE CROATIA MISSISSAUGA", "designationCode": "C", "categoryCode": "22", "address": "251 QUEEN ST. SOUTH           SUITE 817", "city": "MISSISSAUGA", "province": "ON", "country": "CA", "postalCode": "L5M1L7", "twitter": "None", "instagram": "None", "facebook": "None", "youtube": "None", "website": "None", "summary": "None", "logo": "None", "latitude": 43.58011933694957, "longitude": -79.7115449085349}, "894821339RR0001": {"name": "FOLKLORE STUDIES ASSOCIATION OF CANADA/ASSOCIATION CANADIENNE D'ETHNOLOGIE ET DE FOLKLORE", "designationCode": "C", "categoryCode": "21", "address": "213 AV DU GRAND-CALUMET", "city": "GATINEAU", "province": "QC", "country": "CA", "postalCode": "J9J1L4", "twitter": "None", "instagram": "None", "facebook": "None", "youtube": "None", "website": "None", "summary": "None", "logo": "None", "latitude": 45.40232230613424, "longitude": -75.8292750592361}, "866930290RR0001": {"name": "FOLLOWERS OF CHRIST (BRANTFORD)", "designationCode": "C", "categoryCode": "39", "address": "16 MORRELL STREET", "city": "BRANTFORD", "province": "ON", "country": "CA", "postalCode": "N3T4J2", "twitter": "None", "instagram": "None", "facebook": "None", "youtube": "None", "website": "None", "summary": "None", "logo": "None", "latitude": 43.14116076493152, "longitude": -80.29064755208005}, "896942695RR0001": {"name": "FOLLOWERS OF CHRIST FELLOWSHIP INC.", "designationCode": "C", "categoryCode": "39", "address": "1535 ELGIN AVE W", "city": "WINNIPEG", "province": "MB", "country": "CA", "postalCode": "R3E1C1", "twitter": "None", "instagram": "None", "facebook": "None", "youtube": "None", "website": "None", "summary": "None", "logo": "None", "latitude": 49.91654491369947, "longitude": -97.19054298652556}, "139537856RR0001": {"name": "FOLLY VILAGE CEMETERY", "designationCode": "C", "categoryCode": "59", "address": "RR #1 DEBERT                  #3081  HWY #4", "city": "COL. CO", "province": "NS", "country": "CA", "postalCode": "B0M1G0", "twitter": "None", "instagram": "None", "facebook": "None", "youtube": "None", "website": "None", "summary": "None", "logo": "None", "latitude": 45.41822311234204, "longitude": -63.53174044850932}, "132855735RR0001": {"name": "FOM MUSIC SOCIETY", "designationCode": "C", "categoryCode": "22", "address": "2328 TRENT ST.", "city": "VICTORIA", "province": "BC", "country": "CA", "postalCode": "V8R4Z3", "twitter": "None", "instagram": "None", "facebook": "None", "youtube": "None", "website": "None", "summary": "None", "logo": "None", "latitude": 48.432438670552244, "longitude": -123.323883896647}, "891425746RR0001": {"name": "FOND D'AIDE AUX ELEVES DE LA PENINSULE ACADIENNE INC", "designationCode": "C", "categoryCode": "21", "address": "520 RUE DE L'EGLISE", "city": "TRACADIE-SHEILA", "province": "NB", "country": "CA", "postalCode": "E1X1B1", "twitter": "None", "instagram": "None", "facebook": "None", "youtube": "None", "website": "None", "summary": "None", "logo": "None", "latitude": 47.5130548553297, "longitude": -64.91635585841676}, "725894927RR0001": {"name": "FOND DE SOUTIEN AUX PERSONNES ATTEINTES DE MALADIES R\u00c9NALES DU SAGLAC", "designationCode": "C", "categoryCode": "11", "address": "174 - 305 RUE SAINT-VALLIER", "city": "CHICOUTIMI", "province": "QC", "country": "CA", "postalCode": "G7H5H6", "twitter": "None", "instagram": "None", "facebook": "None", "youtube": "None", "website": "None", "summary": "None", "logo": "None", "latitude": 48.426379384607515, "longitude": -71.0502546240482}, "885045989RR0001": {"name": "FOND IRENE GAUTHIER INC.", "designationCode": "C", "categoryCode": "19", "address": "77 PLACE KENNEDY", "city": "SEPT-ILES", "province": "QC", "country": "CA", "postalCode": "G4R4G1", "twitter": "None", "instagram": "None", "facebook": "None", "youtube": "None", "website": "None", "summary": "None", "logo": "None", "latitude": 50.21595278821639, "longitude": -66.39987547305114}, "134013382RR0001": {"name": "FONDATION (R E V H V I ) RESSOURCES POUR LES ELEVES VIVANT AVEC UN HANDICAP VISUEL ET/OU INTELLECTUEL DE L'ECOLE ST-CHARLES BORROMEE", "designationCode": "C", "categoryCode": "11", "address": "120-47E RUE EST", "city": "CHARLESBOURG", "province": "QC", "country": "CA", "postalCode": "G1H2M2", "twitter": "None", "instagram": "None", "facebook": "None", "youtube": "None", "website": "None", "summary": "None", "logo": "None", "latitude": 46.84589350539569, "longitude": -71.25103173062507}, "119000503RR0001": {"name": "FONDATION - ACTION SANTE DE LA MATAPEDIA", "designationCode": "A", "categoryCode": "13", "address": "135 AVENUE GA\u00cbTAN-ARCHAMBAULT", "city": "AMQUI", "province": "QC", "country": "CA", "postalCode": "G5J2K5", "twitter": "None", "instagram": "None", "facebook": "None", "youtube": "None", "website": "None", "summary": "None", "logo": "None", "latitude": 48.46896566704979, "longitude": -67.42040634444339}, "884539917RR0001": {"name": "FONDATION \u00c0 CHACUN SON D\u00c9FI", "designationCode": "A", "categoryCode": "09", "address": "1375 18E AV", "city": "POINTE-AUX-TREMBLES", "province": "QC", "country": "CA", "postalCode": "H1B3J1", "twitter": "None", "instagram": "None", "facebook": "None", "youtube": "None", "website": "None", "summary": "None", "logo": "None", "latitude": 45.64664331447278, "longitude": -73.50164601373423}, "141642231RR0001": {"name": "FONDATION \u00c0 L'EMPLOYABILITE DU QUEBEC INC", "designationCode": "A", "categoryCode": "23", "address": "533 RUE ONTARIO EST           BUREAU 202", "city": "MONTREAL", "province": "QC", "country": "CA", "postalCode": "H2L1N8", "twitter": "None", "instagram": "None", "facebook": "None", "youtube": "None", "website": "None", "summary": "None", "logo": "None", "latitude": 45.51759733279464, "longitude": -73.56449399353644}, "870619608RR0001": {"name": "FONDATION \u00c9COLE BOUCHER-DE LA BRU\u00c8RE", "designationCode": "C", "categoryCode": "23", "address": "7760, RUE LA FONTAINE", "city": "MONTREAL", "province": "QC", "country": "CA", "postalCode": "H1L3H2", "twitter": "None", "instagram": "None", "facebook": "None", "youtube": "None", "website": "None", "summary": "None", "logo": "None", "latitude": 45.58848823896361, "longitude": -73.51334476781706}, "889816054RR0001": {"name": "FONDATION \u00c9COLE CARILLON", "designationCode": "C", "categoryCode": "21", "address": "76 RUE MORRIS", "city": "SHERBROOKE", "province": "QC", "country": "CA", "postalCode": "J1J2L9", "twitter": "None", "instagram": "None", "facebook": "None", "youtube": "None", "website": "None", "summary": "None", "logo": "None", "latitude": 45.39964628864908, "longitude": -71.93376247971624}, "899731616RR0001": {"name": "FONDATION \u00c9COLE CORMIER INC.", "designationCode": "C", "categoryCode": "21", "address": "54, 21 AVENUE", "city": "EDMUNDSTON", "province": "NB", "country": "CA", "postalCode": "E3V2B9", "twitter": "None", "instagram": "None", "facebook": "None", "youtube": "None", "website": "None", "summary": "None", "logo": "None", "latitude": 47.364686354893664, "longitude": -68.33767293431764}, "856794805RR0001": {"name": "FONDATION \u00c9COLE DES CINQ-CONTINENTS", "designationCode": "C", "categoryCode": "21", "address": "5195 AV EARNSCLIFFE", "city": "MONTREAL", "province": "QC", "country": "CA", "postalCode": "H3X2P7", "twitter": "None", "instagram": "None", "facebook": "None", "youtube": "None", "website": "None", "summary": "None", "logo": "None", "latitude": 45.48287229421767, "longitude": -73.63256164389185}, "871442026RR0001": {"name": "FONDATION \u00c9COLE INTERNATIONALE DE SAINT-SACREMENT", "designationCode": "C", "categoryCode": "21", "address": "1430, CHEMIN STE-FOY", "city": "QUEBEC", "province": "QC", "country": "CA", "postalCode": "G1S2N8", "twitter": "None", "instagram": "None", "facebook": "None", "youtube": "None", "website": "None", "summary": "None", "logo": "None", "latitude": 46.793533378036685, "longitude": -71.25704149099762}, "868560426RR0001": {"name": "FONDATION \u00c9COLE LANAUDI\u00c8RE", "designationCode": "C", "categoryCode": "21", "address": "4300 RUE DE LANAUDIERE", "city": "MONTREAL", "province": "QC", "country": "CA", "postalCode": "H2J3N9", "twitter": "None", "instagram": "None", "facebook": "None", "youtube": "None", "website": "None", "summary": "None", "logo": "None", "latitude": 45.52894607380704, "longitude": -73.57426345977825}, "863997771RR0001": {"name": "FONDATION \u00c9COLE LE RUISSELET ANCIENNE-LORETTE", "designationCode": "C", "categoryCode": "23", "address": "1745, RUE ST-OLIVIER", "city": "ANCIENNE-LORETTE", "province": "QC", "country": "CA", "postalCode": "G2E4S1", "twitter": "None", "instagram": "None", "facebook": "None", "youtube": "None", "website": "None", "summary": "None", "logo": "None", "latitude": 46.81224426175755, "longitude": -71.35366550949331}, "874034648RR0001": {"name": "FONDATION \u00c9COLE MARCELLE-MALLET", "designationCode": "C", "categoryCode": "21", "address": "51 RUE DEZIEL", "city": "LEVIS", "province": "QC", "country": "CA", "postalCode": "G6V3T7", "twitter": "None", "instagram": "None", "facebook": "None", "youtube": "None", "website": "None", "summary": "None", "logo": "None", "latitude": 46.80996314544972, "longitude": -71.18463168379554}, "118922772RR0001": {"name": "FONDATION \u00c9COLE MONTCALM INC.", "designationCode": "C", "categoryCode": "21", "address": "2050 BOUL. PORTLAND", "city": "SHERBROOKE", "province": "QC", "country": "CA", "postalCode": "J1J1T9", "twitter": "None", "instagram": "None", "facebook": "None", "youtube": "None", "website": "None", "summary": "None", "logo": "None", "latitude": 45.40365952784385, "longitude": -71.92403999999999}, "869690297RR0001": {"name": "FONDATION \u00c9COLE POLYVALENTE BELOEIL", "designationCode": "C", "categoryCode": "21", "address": "469 DES M\u00c9SANGES", "city": "BELOEIL", "province": "QC", "country": "CA", "postalCode": "J3G6G7", "twitter": "None", "instagram": "None", "facebook": "None", "youtube": "None", "website": "None", "summary": "None", "logo": "None", "latitude": 45.5692621423913, "longitude": -73.22854588954922}, "899588925RR0001": {"name": "FONDATION \u00c9COLE PRIMAIRE SAINT-JEAN DE MATHA (MONTR\u00c9AL)", "designationCode": "C", "categoryCode": "21", "address": "6970, RUE DUMAS", "city": "MONTR\u00c9AL", "province": "QC", "country": "CA", "postalCode": "H4E3A3", "twitter": "None", "instagram": "None", "facebook": "None", "youtube": "None", "website": "None", "summary": "None", "logo": "None", "latitude": 45.44827652567945, "longitude": -73.59674762291559}, "877947028RR0001": {"name": "FONDATION \u00c9COLE ST-GABRIEL ARCHANGE", "designationCode": "C", "categoryCode": "21", "address": "280 RUE MONTPLAISIR", "city": "TROIS-RIVI\u00c8RES", "province": "QC", "country": "CA", "postalCode": "G8T3A1", "twitter": "None", "instagram": "None", "facebook": "None", "youtube": "None", "website": "None", "summary": "None", "logo": "None", "latitude": 46.36936481706983, "longitude": -72.51399703326818}, "896560406RR0001": {"name": "FONDATION \u00c9COLOGIQUE DU GRAND MONTR\u00c9AL", "designationCode": "C", "categoryCode": "59", "address": "10950 BOULEVARD PERRAS EST    PAVILLON 4", "city": "MONTREAL", "province": "QC", "country": "CA", "postalCode": "H1C1B3", "twitter": "None", "instagram": "None", "facebook": "None", "youtube": "None", "website": "None", "summary": "None", "logo": "None", "latitude": 45.669151917621605, "longitude": -73.54679558895856}, "890326721RR0001": {"name": "FONDATION \u00c9DOUARD-BROCHU DE L'ITA DE SAINT-HYACINTHE", "designationCode": "C", "categoryCode": "23", "address": "3230 RUE SICOTTE CP 70", "city": "SAINT-HYACINTHE", "province": "QC", "country": "CA", "postalCode": "J2S7B3", "twitter": "None", "instagram": "None", "facebook": "None", "youtube": "None", "website": "None", "summary": "None", "logo": "None", "latitude": 45.61901331163577, "longitude": -72.96433187752315}, "880020763RR0001": {"name": "FONDATION \u00c9DUCATION NOUVELLE-\u00c9COSSE", "designationCode": "C", "categoryCode": "21", "address": "C.P. 88", "city": "SAULNIERVILLE", "province": "NS", "country": "CA", "postalCode": "B0W2Z0", "twitter": "None", "instagram": "None", "facebook": "None", "youtube": "None", "website": "None", "summary": "None", "logo": "None", "latitude": 44.26137823393837, "longitude": -66.1309486546708}, "837112630RR0001": {"name": "FONDATION \u00c9DUCATION SOINS CAMBODGE", "designationCode": "B", "categoryCode": "09", "address": "305 RUE NATHALIE", "city": "SAINT-CYRILLE-DE-WENDOVER", "province": "QC", "country": "CA", "postalCode": "J1Z1W6", "twitter": "None", "instagram": "None", "facebook": "None", "youtube": "None", "website": "None", "summary": "None", "logo": "None", "latitude": 45.91254560090016, "longitude": -72.44238380310446}, "865361489RR0001": {"name": "FONDATION \u00c9DUCATIVE HAUTE COMME 3 POMMES", "designationCode": "C", "categoryCode": "21", "address": "915 RUE PRINCIPALE", "city": "ROUGEMONT", "province": "QC", "country": "CA", "postalCode": "J0L1M0", "twitter": "None", "instagram": "None", "facebook": "None", "youtube": "None", "website": "None", "summary": "None", "logo": "None", "latitude": 45.436484260920814, "longitude": -73.05461253312394}, "863187563RR0001": {"name": "FONDATION \u00c9DUCATIVE JEAN-JACQUES-BERTRAND", "designationCode": "C", "categoryCode": "21", "address": "255, RUE ST-ANDRE SUD", "city": "FARNHAM", "province": "QC", "country": "CA", "postalCode": "J2N2B8", "twitter": "None", "instagram": "None", "facebook": "None", "youtube": "None", "website": "None", "summary": "None", "logo": "None", "latitude": 45.27652910371696, "longitude": -72.97943180058726}, "867963589RR0001": {"name": "FONDATION \u00c9DUCATIVE ST-GILLES", "designationCode": "C", "categoryCode": "21", "address": "220 RUE DAUPHIN", "city": "LAVAL", "province": "QC", "country": "CA", "postalCode": "H7G1M7", "twitter": "None", "instagram": "None", "facebook": "None", "youtube": "None", "website": "None", "summary": "None", "logo": "None", "latitude": 45.57160457259495, "longitude": -73.67830708508843}, "859656936RR0001": {"name": "FONDATION \u00c9DUQUER EN FRAN\u00c7AIS", "designationCode": "C", "categoryCode": "21", "address": "435 RUE DONALD                BUREAU 203", "city": "OTTAWA", "province": "ON", "country": "CA", "postalCode": "K1K4X5", "twitter": "None", "instagram": "None", "facebook": "None", "youtube": "None", "website": "None", "summary": "None", "logo": "None", "latitude": 45.42831747331002, "longitude": -75.64913597558996}, "732524525RR0001": {"name": "FONDATION \u00c9L\u00c9OS", "designationCode": "A", "categoryCode": "43", "address": "71 RUE SAINT-LOUIS", "city": "VICTORIAVILLE", "province": "QC", "country": "CA", "postalCode": "G6P3P6", "twitter": "None", "instagram": "None", "facebook": "None", "youtube": "None", "website": "None", "summary": "None", "logo": "None", "latitude": 46.0562892423105, "longitude": -71.9596722226323}, "118922962RR0001": {"name": "FONDATION \u00c9LAN", "designationCode": "C", "categoryCode": "11", "address": "2975, CH. SAINT-LOUIS         PORTE B110", "city": "QUEBEC", "province": "QC", "country": "CA", "postalCode": "G1W1P9", "twitter": "None", "instagram": "None", "facebook": "None", "youtube": "None", "website": "None", "summary": "None", "logo": "None", "latitude": 46.76024191509626, "longitude": -71.28569290567381}, "875907420RR0001": {"name": "FONDATION \u00c9MERGENCE INC.", "designationCode": "C", "categoryCode": "03", "address": "3 - 3155 RUE HOCHELAGA", "city": "MONTREAL", "province": "QC", "country": "CA", "postalCode": "H1W1G4", "twitter": "None", "instagram": "None", "facebook": "None", "youtube": "None", "website": "None", "summary": "None", "logo": "None", "latitude": 45.542420024986974, "longitude": -73.55416159259026}, "834521940RR0001": {"name": "FONDATION \u00c9MILIE-TAVERNIER-GAMELIN", "designationCode": "A", "categoryCode": "03", "address": "12227 RUE GRENET", "city": "MONTREAL", "province": "QC", "country": "CA", "postalCode": "H4J0A2", "twitter": "None", "instagram": "None", "facebook": "None", "youtube": "None", "website": "None", "summary": "None", "logo": "None", "latitude": 45.529911110796554, "longitude": -73.71643498493904}, "118921758RR0001": {"name": "FONDATION \u00c9QUILIBRE SAGUENAY-LAC-ST-JEAN", "designationCode": "A", "categoryCode": "13", "address": "1109 RUE BEGIN", "city": "CHICOUTIMI", "province": "QC", "country": "CA", "postalCode": "G7H4P1", "twitter": "None", "instagram": "None", "facebook": "None", "youtube": "None", "website": "None", "summary": "None", "logo": "None", "latitude": 48.41098249379061, "longitude": -71.06844619658968}, "855782587RR0001": {"name": "FONDATION \"\u00c9COLE CARDINAL-ROY\"", "designationCode": "C", "categoryCode": "21", "address": "4100 BOUL. DES FORGES", "city": "TROIS-RIVIERES", "province": "QC", "country": "CA", "postalCode": "G8Y1V7", "twitter": "None", "instagram": "None", "facebook": "None", "youtube": "None", "website": "None", "summary": "None", "logo": "None", "latitude": 46.35574254180829, "longitude": -72.58490299549928}, "137708053RR0001": {"name": "FONDATION \"ALPHA-POP\"", "designationCode": "C", "categoryCode": "59", "address": "65, RUE DE CASTELNAU OUEST    LOCAL 400", "city": "MONTR\u00c9AL", "province": "QC", "country": "CA", "postalCode": "H2R2W3", "twitter": "None", "instagram": "None", "facebook": "None", "youtube": "None", "website": "None", "summary": "None", "logo": "None", "latitude": 45.53393719429848, "longitude": -73.62154562409809}, "890047921RR0001": {"name": "FONDATION \"LA MAISON NOTRE-DAME DU SAGUENAY\"", "designationCode": "A", "categoryCode": "13", "address": "1176 RUE NOTRE-DAME", "city": "CHICOUTIMI", "province": "QC", "country": "CA", "postalCode": "G7H1X6", "twitter": "None", "instagram": "None", "facebook": "None", "youtube": "None", "website": "None", "summary": "None", "logo": "None", "latitude": 48.4233806705236, "longitude": -71.03276646015362}, "899915540RR0001": {"name": "FONDATION \"LE SENTIER DE L'ENTRAIDE\"", "designationCode": "C", "categoryCode": "09", "address": "125 RUE DUQUET", "city": "STE-TH\u00c9R\u00c8SE", "province": "QC", "country": "CA", "postalCode": "J7E0A5", "twitter": "None", "instagram": "None", "facebook": "None", "youtube": "None", "website": "None", "summary": "None", "logo": "None", "latitude": 45.64394463284066, "longitude": -73.84103356059242}, "892899659RR0001": {"name": "FONDATION \"LES AMIS DE L'ECOLE JEAN XXIII\"", "designationCode": "C", "categoryCode": "21", "address": "875 THIBAULT                  ALAIN GAUVREAU PRESIDENT", "city": "SHERBROOKE", "province": "QC", "country": "CA", "postalCode": "J1H3B3", "twitter": "None", "instagram": "None", "facebook": "None", "youtube": "None", "website": "None", "summary": "None", "logo": "None", "latitude": 45.3748725337582, "longitude": -71.89978066763805}, "891543662RR0001": {"name": "FONDATION \"LES AMIS DE L'ECOLE STE-ANNE\"", "designationCode": "A", "categoryCode": "21", "address": "851 RUE DE L'ONTARIO", "city": "SHERBROOKE", "province": "QC", "country": "CA", "postalCode": "J1J3R9", "twitter": "None", "instagram": "None", "facebook": "None", "youtube": "None", "website": "None", "summary": "None", "logo": "None", "latitude": 45.41138108546382, "longitude": -71.90811428195438}, "823226345RR0001": {"name": "FONDATION \"NOTRE RELEVE EN AFFAIRES\"", "designationCode": "C", "categoryCode": "59", "address": "100 RUE STE-CECILE, BUREAU 100", "city": "SALABERRY-DE-VALLEYFIELD", "province": "QC", "country": "CA", "postalCode": "J6T1M1", "twitter": "None", "instagram": "None", "facebook": "None", "youtube": "None", "website": "None", "summary": "None", "logo": "None", "latitude": 45.25550447821569, "longitude": -74.13320311809683}, "130970932RR0001": {"name": "FONDATION \"POUR ENFANTS SEULEMENT\"/\"JUST FOR KIDS\" FOUNDATION", "designationCode": "A", "categoryCode": "13", "address": "3400 BOUL DE MAISONNEUVE O    BUREAU 1420", "city": "MONTREAL", "province": "QC", "country": "CA", "postalCode": "H3Z3B8", "twitter": "None", "instagram": "None", "facebook": "None", "youtube": "None", "website": "None", "summary": "None", "logo": "None", "latitude": 45.4900007973734, "longitude": -73.58584629044694}, "855065124RR0001": {"name": "FONDATION \"SOUTIEN \u00c0 L'ENFANCE\" RIVI\u00c8RE DU NORD", "designationCode": "C", "categoryCode": "21", "address": "374, RUE DU PALAIS", "city": "SAINT-JEROME", "province": "QC", "country": "CA", "postalCode": "J7Z1Y1", "twitter": "None", "instagram": "None", "facebook": "None", "youtube": "None", "website": "None", "summary": "None", "logo": "None", "latitude": 45.77797863056165, "longitude": -73.99863617069649}, "118920453RR0001": {"name": "FONDATION A.G. INC.", "designationCode": "B", "categoryCode": "50", "address": "275 RUE DUFFERIN", "city": "SHERBROOKE", "province": "QC", "country": "CA", "postalCode": "J1H4M5", "twitter": "None", "instagram": "None", "facebook": "None", "youtube": "None", "website": "None", "summary": "None", "logo": "None", "latitude": 45.405574397714865, "longitude": -71.89470282197458}, "138299078RR0001": {"name": "FONDATION A\u00c9ROVISION QU\u00c9BEC", "designationCode": "C", "categoryCode": "50", "address": "6575 CH DE LA SAVANE          H-18", "city": "LONGUEUIL", "province": "QC", "country": "CA", "postalCode": "J3Y8Y9", "twitter": "None", "instagram": "None", "facebook": "None", "youtube": "None", "website": "None", "summary": "None", "logo": "None", "latitude": 45.53146401601357, "longitude": -73.41052474900786}, "871986709RR0001": {"name": "FONDATION ABITIBI CONSOLIDATED - MANICOUAGAN", "designationCode": "A", "categoryCode": "03", "address": "20, RUE MARQUETTE", "city": "BAIE-COMEAU", "province": "QC", "country": "CA", "postalCode": "G4Z1K6", "twitter": "None", "instagram": "None", "facebook": "None", "youtube": "None", "website": "None", "summary": "None", "logo": "None", "latitude": 49.220810373854725, "longitude": -68.14828748817787}, "867634800RR0001": {"name": "FONDATION ACACIA INC.", "designationCode": "C", "categoryCode": "21", "address": "212 - 435 ST. LAURENT BLVD", "city": "OTTAWA", "province": "ON", "country": "CA", "postalCode": "K1K2Z8", "twitter": "None", "instagram": "None", "facebook": "None", "youtube": "None", "website": "None", "summary": "None", "logo": "None", "latitude": 45.44755740550517, "longitude": -75.65046011639473}, "889397840RR0001": {"name": "FONDATION ACCED FEMMES CANADA INC.", "designationCode": "C", "categoryCode": "21", "address": "450 RIDEAU STREET             SUITE 302", "city": "OTTAWA", "province": "ON", "country": "CA", "postalCode": "K1N5Z4", "twitter": "None", "instagram": "None", "facebook": "None", "youtube": "None", "website": "None", "summary": "None", "logo": "None", "latitude": 45.4308965636795, "longitude": -75.68052908852223}, "890150592RR0001": {"name": "FONDATION ACTIONMARGUERITE FOUNDATION INC.", "designationCode": "A", "categoryCode": "03", "address": "185 DESPINS ST", "city": "WINNIPEG", "province": "MB", "country": "CA", "postalCode": "R2H2B3", "twitter": "None", "instagram": "None", "facebook": "None", "youtube": "None", "website": "None", "summary": "None", "logo": "None", "latitude": 49.88731858914793, "longitude": -97.12064954598252}, "130295959RR0001": {"name": "FONDATION AFDU QUEBEC", "designationCode": "C", "categoryCode": "21", "address": "1100 AVENUE DE LA M\u00c9DECINE    LOCAL 1184", "city": "QUEBEC", "province": "QC", "country": "CA", "postalCode": "G1V0A9", "twitter": "None", "instagram": "None", "facebook": "None", "youtube": "None", "website": "None", "summary": "None", "logo": "None", "latitude": 46.77613707187382, "longitude": -71.2731588573489}, "885161216RR0001": {"name": "FONDATION AFRIQUE FUTURE", "designationCode": "B", "categoryCode": "03", "address": "304 CHEMIN DES PATRIOTES", "city": "ST-MATHIAS-SUR-RICHELIEU", "province": "QC", "country": "CA", "postalCode": "J3L6A4", "twitter": "None", "instagram": "None", "facebook": "None", "youtube": "None", "website": "None", "summary": "None", "logo": "None", "latitude": 45.47626016680133, "longitude": -73.26823201771629}, "852526581RR0001": {"name": "FONDATION AILES DU PAPILLON/BUTTERFLY WINGS FOUNDATION", "designationCode": "C", "categoryCode": "09", "address": "1095, RUE DEGUIRE", "city": "SAINT-LAURENT", "province": "QC", "country": "CA", "postalCode": "H4L1L8", "twitter": "None", "instagram": "None", "facebook": "None", "youtube": "None", "website": "None", "summary": "None", "logo": "None", "latitude": 45.522557129349565, "longitude": -73.68657238539427}, "865700595RR0001": {"name": "FONDATION AIRM\u00c9DIC, AMBULANCE A\u00c9RIENNE", "designationCode": "A", "categoryCode": "03", "address": "1688 RTE DE L'AEROPORT", "city": "QUEBEC", "province": "QC", "country": "CA", "postalCode": "G2G0K1", "twitter": "None", "instagram": "None", "facebook": "None", "youtube": "None", "website": "None", "summary": "None", "logo": "None", "latitude": 46.80070942154802, "longitude": -71.37222944289869}, "877580985RR0001": {"name": "FONDATION ALAIN LEMAIRE", "designationCode": "B", "categoryCode": "03", "address": "396, MARIE-VICTORIN", "city": "KINGSEY FALLS", "province": "QC", "country": "CA", "postalCode": "J0A1B0", "twitter": "None", "instagram": "None", "facebook": "None", "youtube": "None", "website": "None", "summary": "None", "logo": "None", "latitude": 45.85682694809283, "longitude": -72.07591451105024}, "866713258RR0001": {"name": "FONDATION ALAYN LEPAGE", "designationCode": "A", "categoryCode": "13", "address": "332-345JEAN-BATISPE-ROLAND E", "city": "ST JEROME", "province": "QC", "country": "CA", "postalCode": "J7Z7N5", "twitter": "None", "instagram": "None", "facebook": "None", "youtube": "None", "website": "None", "summary": "None", "logo": "None", "latitude": 45.765803868006586, "longitude": -74.00514107742275}, "122127061RR0001": {"name": "FONDATION ALBATROS INC", "designationCode": "A", "categoryCode": "03", "address": "2325 AV 1E", "city": "TROIS-RIVIERES", "province": "QC", "country": "CA", "postalCode": "G8Z2X4", "twitter": "None", "instagram": "None", "facebook": "None", "youtube": "None", "website": "None", "summary": "None", "logo": "None", "latitude": 46.348536929770965, "longitude": -72.55464294809283}, "890922396RR0001": {"name": "FONDATION ALBERT ET MONIQUE BISSONNETTE POUR LA TERRE SAINTE", "designationCode": "A", "categoryCode": "03", "address": "406-11825B AVE NORWOOD", "city": "MONTREAL", "province": "QC", "country": "CA", "postalCode": "H3L3W4", "twitter": "None", "instagram": "None", "facebook": "None", "youtube": "None", "website": "None", "summary": "None", "logo": "None", "latitude": 45.54806026250212, "longitude": -73.68432802710366}, "118920479RR0001": {"name": "FONDATION ALBERT LAPOINTE INC.", "designationCode": "A", "categoryCode": "03", "address": "6565, 10E AVENUE", "city": "MONTR\u00c9AL", "province": "QC", "country": "CA", "postalCode": "H1Y2H8", "twitter": "None", "instagram": "None", "facebook": "None", "youtube": "None", "website": "None", "summary": "None", "logo": "None", "latitude": 45.55477892091283, "longitude": -73.58820575630453}, "888122462RR0001": {"name": "FONDATION ALCO-TOXICO DES BASSES LAURENTIDES", "designationCode": "A", "categoryCode": "03", "address": "56 RUE TURGEON", "city": "STE-THERESE", "province": "QC", "country": "CA", "postalCode": "J7E3H4", "twitter": "None", "instagram": "None", "facebook": "None", "youtube": "None", "website": "None", "summary": "None", "logo": "None", "latitude": 45.6378975792314, "longitude": -73.83967197781165}, "862614468RR0001": {"name": "FONDATION ALEX U. SOYKA", "designationCode": "B", "categoryCode": "03", "address": "4210M RUE SERE", "city": "SAINT-LAURENT", "province": "QC", "country": "CA", "postalCode": "H4T1A6", "twitter": "None", "instagram": "None", "facebook": "None", "youtube": "None", "website": "None", "summary": "None", "logo": "None", "latitude": 45.485637500663195, "longitude": -73.70629694118523}, "889532065RR0001": {"name": "FONDATION ALHAMBRA QUEBEC INC", "designationCode": "A", "categoryCode": "21", "address": "1055 RUE CHARCOT # 56", "city": "BOUCHERVILLE", "province": "QC", "country": "CA", "postalCode": "J4B0A7", "twitter": "None", "instagram": "None", "facebook": "None", "youtube": "None", "website": "None", "summary": "None", "logo": "None", "latitude": 45.59213375214958, "longitude": -73.42643516056894}, "894180785RR0001": {"name": "FONDATION ALICE ET LIONEL BREAU INC.", "designationCode": "C", "categoryCode": "21", "address": "19 RUE DUCLOS", "city": "ST. ISIDORE", "province": "NB", "country": "CA", "postalCode": "E8M1N3", "twitter": "None", "instagram": "None", "facebook": "None", "youtube": "None", "website": "None", "summary": "None", "logo": "None", "latitude": 47.54994914668222, "longitude": -65.06085999826296}, "118920487RR0001": {"name": "FONDATION ALINE LETENDRE", "designationCode": "A", "categoryCode": "13", "address": "1800 RUE DESSAULLES", "city": "SAINT-HYACINTHE", "province": "QC", "country": "CA", "postalCode": "J2S2T2", "twitter": "None", "instagram": "None", "facebook": "None", "youtube": "None", "website": "None", "summary": "None", "logo": "None", "latitude": 45.62536457269854, "longitude": -72.94960190490643}, "865887111RR0001": {"name": "FONDATION ALLAIRE", "designationCode": "A", "categoryCode": "03", "address": "296, RUE DE MARTIGNY OUEST    BUREAU 100", "city": "ST-JEROME", "province": "QC", "country": "CA", "postalCode": "J7Y4C9", "twitter": "None", "instagram": "None", "facebook": "None", "youtube": "None", "website": "None", "summary": "None", "logo": "None", "latitude": 45.77945371220508, "longitude": -74.01704829261544}, "139065361RR0001": {"name": "FONDATION ALPHONSE LEPAGE INC.", "designationCode": "A", "categoryCode": "03", "address": "3775 RUE MARTINIQUE", "city": "BROSSARD", "province": "QC", "country": "CA", "postalCode": "J4Y1K3", "twitter": "None", "instagram": "None", "facebook": "None", "youtube": "None", "website": "None", "summary": "None", "logo": "None", "latitude": 45.45780343909047, "longitude": -73.45195511322073}, "869285577RR0001": {"name": "FONDATION ALTER-CIN\u00c9", "designationCode": "B", "categoryCode": "23", "address": "5369 AV DE L'ESPLANADE", "city": "MONTREAL", "province": "QC", "country": "CA", "postalCode": "H2T2Z8", "twitter": "None", "instagram": "None", "facebook": "None", "youtube": "None", "website": "None", "summary": "None", "logo": "None", "latitude": 45.522676141006315, "longitude": -73.59928840784242}, "870158920RR0001": {"name": "FONDATION ALTUM/ALTUM FOUNDATION", "designationCode": "A", "categoryCode": "03", "address": "630 RUE SHERBROOKE OUEST      SUITE 400", "city": "MONTREAL", "province": "QC", "country": "CA", "postalCode": "H3A1E4", "twitter": "None", "instagram": "None", "facebook": "None", "youtube": "None", "website": "None", "summary": "None", "logo": "None", "latitude": 45.505404, "longitude": -73.5724035}, "882594419RR0001": {"name": "FONDATION ALZHEIMER GRANBY ET R\u00c9GION", "designationCode": "C", "categoryCode": "09", "address": "89 ALEXANDRA", "city": "GRANBY", "province": "QC", "country": "CA", "postalCode": "J2G2P4", "twitter": "None", "instagram": "None", "facebook": "None", "youtube": "None", "website": "None", "summary": "None", "logo": "None", "latitude": 45.4001945115412, "longitude": -72.71540383389114}, "895102929RR0001": {"name": "FONDATION AMITI\u00c9 VANIER", "designationCode": "C", "categoryCode": "21", "address": "3400, RUE BOISCLAIR", "city": "BROSSARD", "province": "QC", "country": "CA", "postalCode": "J4Z2C2", "twitter": "None", "instagram": "None", "facebook": "None", "youtube": "None", "website": "None", "summary": "None", "logo": "None", "latitude": 45.466030878123604, "longitude": -73.44821517303376}, "855157087RR0001": {"name": "FONDATION AMITIES SANS FRONTIERES CANADA-HAITI", "designationCode": "C", "categoryCode": "20", "address": "850, RUE ROULEAU, #8", "city": "ST-HYACINTHE", "province": "QC", "country": "CA", "postalCode": "J2S1B7", "twitter": "None", "instagram": "None", "facebook": "None", "youtube": "None", "website": "None", "summary": "None", "logo": "None", "latitude": 45.63779655565808, "longitude": -72.960018777425}, "856514179RR0001": {"name": "FONDATION AMOUR / HOI TINH THUONG", "designationCode": "C", "categoryCode": "09", "address": "2600 BEAUBIEN EST", "city": "MONTREAL", "province": "QC", "country": "CA", "postalCode": "H1Y1G5", "twitter": "None", "instagram": "None", "facebook": "None", "youtube": "None", "website": "None", "summary": "None", "logo": "None", "latitude": 45.55067227335699, "longitude": -73.59005795775903}, "857896583RR0001": {"name": "FONDATION ANAJA / ANAJA FOUNDATION", "designationCode": "C", "categoryCode": "09", "address": "C.P. 60061", "city": "BOISBRIAND", "province": "QC", "country": "CA", "postalCode": "J7G3G4", "twitter": "None", "instagram": "None", "facebook": "None", "youtube": "None", "website": "None", "summary": "None", "logo": "None", "latitude": 45.61253700000006, "longitude": -73.83882049999994}, "874698103RR0001": {"name": "FONDATION ANDR\u00c9-DELAMBRE / ANDR\u00c9-DELAMBRE FOUNDATION", "designationCode": "A", "categoryCode": "03", "address": "1400 DE VAL BRILLANT", "city": "LAVAL", "province": "QC", "country": "CA", "postalCode": "H7Y1V9", "twitter": "None", "instagram": "None", "facebook": "None", "youtube": "None", "website": "None", "summary": "None", "logo": "None", "latitude": 45.52645718956662, "longitude": -73.86071808953184}, "893128611RR0001": {"name": "FONDATION ANDRE GAUTHIER/ANDRE GAUTHIER FOUNDATION", "designationCode": "B", "categoryCode": "13", "address": "1010 RUE SHERBROOKE OUEST     SUITE 800", "city": "MONTREAL", "province": "QC", "country": "CA", "postalCode": "H3A2R7", "twitter": "None", "instagram": "None", "facebook": "None", "youtube": "None", "website": "None", "summary": "None", "logo": "None", "latitude": 45.5023064815339, "longitude": -73.57605998485214}, "894552074RR0001": {"name": "FONDATION ANDRE ROCHAIS DU CANADA", "designationCode": "C", "categoryCode": "21", "address": "SUITE 100                     227 RUE SAINT-GEORGES", "city": "SAINT-JEROME", "province": "QC", "country": "CA", "postalCode": "J7Z5A1", "twitter": "None", "instagram": "None", "facebook": "None", "youtube": "None", "website": "None", "summary": "None", "logo": "None", "latitude": 45.77441913350451, "longitude": -74.00280596055765}, "856472782RR0001": {"name": "FONDATION ANG\u00c9LIQUE LE SOURD", "designationCode": "A", "categoryCode": "43", "address": "137, STEWART", "city": "OTTAWA", "province": "ON", "country": "CA", "postalCode": "K1N6J2", "twitter": "None", "instagram": "None", "facebook": "None", "youtube": "None", "website": "None", "summary": "None", "logo": "None", "latitude": 45.42745427589579, "longitude": -75.68297458203001}, "860749894RR0001": {"name": "FONDATION ANGELICA", "designationCode": "A", "categoryCode": "03", "address": "3435 BOULEVARD GOUIN EST", "city": "MONTREAL", "province": "QC", "country": "CA", "postalCode": "H1H1B1", "twitter": "None", "instagram": "None", "facebook": "None", "youtube": "None", "website": "None", "summary": "None", "logo": "None", "latitude": 45.5898466722257, "longitude": -73.65092672623898}, "127265122RR0001": {"name": "FONDATION ANNA-LABERGE / ANNA-LABERGE FOUNDATION", "designationCode": "A", "categoryCode": "13", "address": "200 BOUL. BRISEBOIS", "city": "CHATEAUGUAY", "province": "QC", "country": "CA", "postalCode": "J6K4W8", "twitter": "None", "instagram": "None", "facebook": "None", "youtube": "None", "website": "None", "summary": "None", "logo": "None", "latitude": 45.34600555841073, "longitude": -73.76566005283038}}