{"119173367RR0001": {"name": "THE WINNIFRED STEWART FOUNDATION", "designationCode": "C", "categoryCode": "13", "address": "11130 131 ST NW", "city": "EDMONTON", "province": "AB", "country": "CA", "postalCode": "T5M7C7", "twitter": "None", "instagram": "None", "facebook": "None", "youtube": "None", "website": "None", "summary": "None", "logo": "None", "latitude": 53.56002541326677, "longitude": -113.54795925151441}, "105260525RR0001": {"name": "THE WINNIPEG ART GALLERY", "designationCode": "C", "categoryCode": "50", "address": "300 MEMORIAL BLVD", "city": "WINNIPEG", "province": "MB", "country": "CA", "postalCode": "R3C1V1", "twitter": "None", "instagram": "None", "facebook": "None", "youtube": "None", "website": "None", "summary": "None", "logo": "None", "latitude": 49.889548719112554, "longitude": -97.15017075829508}, "890311376RR0001": {"name": "THE WINNIPEG ART GALLERY FOUNDATION INC", "designationCode": "B", "categoryCode": "53", "address": "300 MEMORIAL BLVD", "city": "WINNIPEG", "province": "MB", "country": "CA", "postalCode": "R3C1V1", "twitter": "None", "instagram": "None", "facebook": "None", "youtube": "None", "website": "None", "summary": "None", "logo": "None", "latitude": 49.889548719112554, "longitude": -97.15017075829508}, "871180675RR0001": {"name": "THE WINNIPEG CHILDREN'S ACCESS AGENCY, INC.", "designationCode": "C", "categoryCode": "59", "address": "385 RIVER AVE", "city": "WINNIPEG", "province": "MB", "country": "CA", "postalCode": "R3L0C3", "twitter": "None", "instagram": "None", "facebook": "None", "youtube": "None", "website": "None", "summary": "None", "logo": "None", "latitude": 49.88020088095088, "longitude": -97.14342945089145}, "119300960RR0001": {"name": "THE WINNIPEG FOUNDATION", "designationCode": "A", "categoryCode": "03", "address": "1350 ONE LOMBARD PL", "city": "WINNIPEG", "province": "MB", "country": "CA", "postalCode": "R3B0X3", "twitter": "None", "instagram": "None", "facebook": "None", "youtube": "None", "website": "None", "summary": "None", "logo": "None", "latitude": 49.89608549999999, "longitude": -97.13498849999999}, "119301026RR0001": {"name": "THE WINNIPEG GRENADIERS HONG KONG TRUST FUND", "designationCode": "C", "categoryCode": "21", "address": "207-97 SWINDON WAY", "city": "WINNIPEG", "province": "MB", "country": "CA", "postalCode": "R3P0W3", "twitter": "None", "instagram": "None", "facebook": "None", "youtube": "None", "website": "None", "summary": "None", "logo": "None", "latitude": 49.85142547936954, "longitude": -97.2138951036701}, "119647907RR0002": {"name": "THE WINNIPEG HUMANE SOCIETY FOR THE PREVENTION OF CRUELTY TOANIMALS", "designationCode": "C", "categoryCode": "54", "address": "45 HURST WAY", "city": "WINNIPEG", "province": "MB", "country": "CA", "postalCode": "R3T0R3", "twitter": "None", "instagram": "None", "facebook": "None", "youtube": "None", "website": "None", "summary": "None", "logo": "None", "latitude": 49.84682446551973, "longitude": -97.17552369317329}, "875803876RR0001": {"name": "THE WINNIPEG HUMANE SOCIETY FOUNDATION", "designationCode": "A", "categoryCode": "53", "address": "45 HURST WAY", "city": "WINNIPEG", "province": "MB", "country": "CA", "postalCode": "R3T0R3", "twitter": "None", "instagram": "None", "facebook": "None", "youtube": "None", "website": "None", "summary": "None", "logo": "None", "latitude": 49.84682446551973, "longitude": -97.17552369317329}, "130516388RR0001": {"name": "THE WINNIPEG MONTESSORI SCHOOL INC", "designationCode": "C", "categoryCode": "20", "address": "1525 WILLSON PLACE", "city": "WINNIPEG", "province": "MB", "country": "CA", "postalCode": "R3T4H1", "twitter": "None", "instagram": "None", "facebook": "None", "youtube": "None", "website": "None", "summary": "None", "logo": "None", "latitude": 49.84182265892416, "longitude": -97.17737134696155}, "119301414RR0001": {"name": "THE WINNIPEG POLICE ASSOCIATION CHARITABLE TRUST", "designationCode": "A", "categoryCode": "05", "address": "70-81 GARRY ST", "city": "WINNIPEG", "province": "MB", "country": "CA", "postalCode": "R3C4J9", "twitter": "None", "instagram": "None", "facebook": "None", "youtube": "None", "website": "None", "summary": "None", "logo": "None", "latitude": 49.890267531364145, "longitude": -97.13868578045343}, "119262517RR0001": {"name": "THE WINNIPEG POLICE MUSEUM AND HISTORICAL SOCIETY INC", "designationCode": "C", "categoryCode": "50", "address": "PO BOX 1680 STN MAIN", "city": "WINNIPEG", "province": "MB", "country": "CA", "postalCode": "R3C2Z7", "twitter": "None", "instagram": "None", "facebook": "None", "youtube": "None", "website": "None", "summary": "None", "logo": "None", "latitude": 49.886161958421624, "longitude": -97.13345310241456}, "119301448RR0001": {"name": "THE WINNIPEG ROTARY CLUB COMMUNITY SERVICE FUND INC", "designationCode": "A", "categoryCode": "65", "address": "THE WINNIPEG CONVENTION CENTRE243-375 YORK AVENUE", "city": "WINNIPEG", "province": "MB", "country": "CA", "postalCode": "R3C3J3", "twitter": "None", "instagram": "None", "facebook": "None", "youtube": "None", "website": "None", "summary": "None", "logo": "None", "latitude": 49.888520062755944, "longitude": -97.14438004053882}, "119301455RR0001": {"name": "THE WINNIPEG SINGERS", "designationCode": "C", "categoryCode": "22", "address": "P O BOX 2382", "city": "WINNIPEG", "province": "MB", "country": "CA", "postalCode": "R3C4A6", "twitter": "None", "instagram": "None", "facebook": "None", "youtube": "None", "website": "None", "summary": "None", "logo": "None", "latitude": 49.899525000000054, "longitude": -97.14112999999993}, "105260673RR0001": {"name": "THE WINNIPEG SYMPHONY ORCHESTRA INC.", "designationCode": "C", "categoryCode": "22", "address": "2110 - 1 LOMBARD PL", "city": "WINNIPEG", "province": "MB", "country": "CA", "postalCode": "R3B0X3", "twitter": "None", "instagram": "None", "facebook": "None", "youtube": "None", "website": "None", "summary": "None", "logo": "None", "latitude": 49.89608549999999, "longitude": -97.13498849999999}, "136907284RR0001": {"name": "THE WINNIPEGOSIS NEW HORIZONS CENTER INC", "designationCode": "C", "categoryCode": "53", "address": "BOX 312", "city": "WINNIPEGOSIS", "province": "MB", "country": "CA", "postalCode": "R0L2G0", "twitter": "None", "instagram": "None", "facebook": "None", "youtube": "None", "website": "None", "summary": "None", "logo": "None", "latitude": 51.65289899999999, "longitude": -99.9405918859683}, "119301893RR0001": {"name": "THE WOLFE ISLAND COMMUNITY MEDICAL CLINIC", "designationCode": "C", "categoryCode": "11", "address": "PO BOX 89", "city": "WOLFE ISLAND", "province": "ON", "country": "CA", "postalCode": "K0H2Y0", "twitter": "None", "instagram": "None", "facebook": "None", "youtube": "None", "website": "None", "summary": "None", "logo": "None", "latitude": 44.194210000000055, "longitude": -76.43937999999997}, "119239929RR0001": {"name": "THE WOLFOND FAMILY FOUNDATION", "designationCode": "B", "categoryCode": "03", "address": "199 BAY STREET, SUITE 2900    COMMERCE COURT WEST PO BOX 459", "city": "TORONTO", "province": "ON", "country": "CA", "postalCode": "M5L1G4", "twitter": "None", "instagram": "None", "facebook": "None", "youtube": "None", "website": "None", "summary": "None", "logo": "None", "latitude": 43.64868300000006, "longitude": -79.38544399999994}, "119302008RR0001": {"name": "THE WOLRIGE FOUNDATION", "designationCode": "B", "categoryCode": "13", "address": "1826 WEST 33RD AVENUE", "city": "VANCOUVER", "province": "BC", "country": "CA", "postalCode": "V6M1B2", "twitter": "None", "instagram": "None", "facebook": "None", "youtube": "None", "website": "None", "summary": "None", "logo": "None", "latitude": 49.24193852842076, "longitude": -123.1461032216227}, "119302065RR0001": {"name": "THE WOLVERINE HOBBY AND HISTORICAL SOCIETY", "designationCode": "C", "categoryCode": "50", "address": "BOX 268", "city": "SPY HILL", "province": "SK", "country": "CA", "postalCode": "S0A3W0", "twitter": "None", "instagram": "None", "facebook": "None", "youtube": "None", "website": "None", "summary": "None", "logo": "None", "latitude": 50.60239000000007, "longitude": -101.68677999999994}, "119026417RR0001": {"name": "THE WOMEN'S ART ASSOCIATION OF CANADA", "designationCode": "C", "categoryCode": "22", "address": "23 PRINCE ARTHUR STREET", "city": "TORONTO", "province": "ON", "country": "CA", "postalCode": "M5R1B2", "twitter": "None", "instagram": "None", "facebook": "None", "youtube": "None", "website": "None", "summary": "None", "logo": "None", "latitude": 43.66951180209487, "longitude": -79.39641728919733}, "131083180RR0001": {"name": "THE WOMEN'S AUXILIARY OF THE YARMOUTH REGIONAL HOSPITAL", "designationCode": "C", "categoryCode": "19", "address": "BOX 239 RR 3", "city": "TUSKET", "province": "NS", "country": "CA", "postalCode": "B0W3M0", "twitter": "None", "instagram": "None", "facebook": "None", "youtube": "None", "website": "None", "summary": "None", "logo": "None", "latitude": 43.92724200000005, "longitude": -65.89714399999993}, "119302594RR0001": {"name": "THE WOMEN'S CENTRE (GREY & BRUCE) INC.", "designationCode": "C", "categoryCode": "09", "address": "2048A 9TH AVE E", "city": "OWEN SOUND", "province": "ON", "country": "CA", "postalCode": "N4K3H2", "twitter": "None", "instagram": "None", "facebook": "None", "youtube": "None", "website": "None", "summary": "None", "logo": "None", "latitude": 44.58235851368552, "longitude": -80.92374138189126}, "119302602RR0001": {"name": "THE WOMEN'S CHRISTIAN ASSOCIATION OF LONDON", "designationCode": "C", "categoryCode": "10", "address": "2022 KAINS RD", "city": "LONDON", "province": "ON", "country": "CA", "postalCode": "N6K0A8", "twitter": "None", "instagram": "None", "facebook": "None", "youtube": "None", "website": "None", "summary": "None", "logo": "None", "latitude": 42.96857688825643, "longitude": -81.35529017705139}, "119302651RR0001": {"name": "THE WOMEN'S COMMITTEE OF THE WINNIPEG SYMPHONY ORCHESTRA", "designationCode": "A", "categoryCode": "22", "address": "555 MAIN STREET", "city": "WINNIPEG", "province": "MB", "country": "CA", "postalCode": "R3B1C3", "twitter": "None", "instagram": "None", "facebook": "None", "youtube": "None", "website": "None", "summary": "None", "logo": "None", "latitude": 49.90007376516268, "longitude": -97.13779693190669}, "132932757RR0001": {"name": "THE WOMEN'S HEALTH RESEARCH FOUNDATION OF CANADA INC", "designationCode": "C", "categoryCode": "13", "address": "PO BOX 61019 RPO GRANT PARK", "city": "WINNIPEG", "province": "MB", "country": "CA", "postalCode": "R3M3X8", "twitter": "None", "instagram": "None", "facebook": "None", "youtube": "None", "website": "None", "summary": "None", "logo": "None", "latitude": 49.857817557346486, "longitude": -97.1699079449958}, "108219908RR0001": {"name": "THE WOMEN'S INTERVAL HOME OF SARNIA AND LAMBTON INC.", "designationCode": "C", "categoryCode": "01", "address": "PO BOX 652", "city": "SARNIA", "province": "ON", "country": "CA", "postalCode": "N7T7J7", "twitter": "None", "instagram": "None", "facebook": "None", "youtube": "None", "website": "None", "summary": "None", "logo": "None", "latitude": 42.97877700000005, "longitude": -82.40368399999993}, "888814266RR0001": {"name": "THE WOMEN'S MISSIONARY SOCIETY (W D ) - HAMILTON PRESBYTERIAL", "designationCode": "C", "categoryCode": "47", "address": "103 ORGAN CRESCENT", "city": "HAMILTON", "province": "ON", "country": "CA", "postalCode": "L8T1Y8", "twitter": "None", "instagram": "None", "facebook": "None", "youtube": "None", "website": "None", "summary": "None", "logo": "None", "latitude": 43.22142115072984, "longitude": -79.82220626796129}, "887913069RR0001": {"name": "THE WOMEN'S MISSIONARY SOCIETY (W D ) - MAITLAND PRESBYTERIAL", "designationCode": "C", "categoryCode": "47", "address": "12 MARGARET ST                RR 1", "city": "WROXETER", "province": "ON", "country": "CA", "postalCode": "N0G2X0", "twitter": "None", "instagram": "None", "facebook": "None", "youtube": "None", "website": "None", "summary": "None", "logo": "None", "latitude": 43.95968356647812, "longitude": -81.18739823365483}, "119262897RR0001": {"name": "THE WOMEN'S MISSIONARY SOCIETY (W D ) WATERLOO - WELLINGTON PRESBYTERIAL", "designationCode": "C", "categoryCode": "47", "address": "34 HUNTINGTON PLACE", "city": "KITCHENER", "province": "ON", "country": "CA", "postalCode": "N2M5A6", "twitter": "None", "instagram": "None", "facebook": "None", "youtube": "None", "website": "None", "summary": "None", "logo": "None", "latitude": 43.44378941078527, "longitude": -80.53445138302835}, "119262707RR0001": {"name": "THE WOMEN'S MISSIONARY SOCIETY (W D) - LINDSAY PRESBYTERIAL", "designationCode": "C", "categoryCode": "47", "address": "10 CAMPBELL ST. RR 6", "city": "WOODVILLE", "province": "ON", "country": "CA", "postalCode": "K0M2T0", "twitter": "None", "instagram": "None", "facebook": "None", "youtube": "None", "website": "None", "summary": "None", "logo": "None", "latitude": 44.53189392030726, "longitude": -79.0780457965836}, "119262780RR0002": {"name": "THE WOMEN'S MISSIONARY SOCIETY (W D) - PARIS PRESBYTERIAL", "designationCode": "C", "categoryCode": "47", "address": "62 CRESTLYNN CR", "city": "SIMCOE", "province": "ON", "country": "CA", "postalCode": "N3Y4X3", "twitter": "None", "instagram": "None", "facebook": "None", "youtube": "None", "website": "None", "summary": "None", "logo": "None", "latitude": 42.845913051907175, "longitude": -80.28781738550984}, "892493248RR0001": {"name": "THE WOMEN'S MISSIONARY SOCIETY (W D) BARRIE PRESBYTERIAL", "designationCode": "C", "categoryCode": "45", "address": "302 - 20 SIMCOE ST", "city": "ORILLIA", "province": "ON", "country": "CA", "postalCode": "L3V1G4", "twitter": "None", "instagram": "None", "facebook": "None", "youtube": "None", "website": "None", "summary": "None", "logo": "None", "latitude": 44.59436031986554, "longitude": -79.40799140339465}, "891448888RR0001": {"name": "THE WOMEN'S MISSIONARY SOCIETY (W D) BROCKVILLE", "designationCode": "C", "categoryCode": "47", "address": "2119 CROWDER RD               RR#4", "city": "SPENCERVILLE", "province": "ON", "country": "CA", "postalCode": "K0E1X0", "twitter": "None", "instagram": "None", "facebook": "None", "youtube": "None", "website": "None", "summary": "None", "logo": "None"}, "891274995RR0001": {"name": "THE WOMEN'S MISSIONARY SOCIETY (W D) LANARK AND RENFREW PRESBYTERIAL", "designationCode": "A", "categoryCode": "45", "address": "15 SAWGRASS CIR", "city": "ASHTON", "province": "ON", "country": "CA", "postalCode": "K0A1B0", "twitter": "None", "instagram": "None", "facebook": "None", "youtube": "None", "website": "None", "summary": "None", "logo": "None", "latitude": 45.206965834843444, "longitude": -76.00652253805829}, "890024060RR0001": {"name": "THE WOMEN'S MISSIONARY SOCIETY (W D) LONDON PRESBYTERIAL", "designationCode": "C", "categoryCode": "47", "address": "272 MILLER ROAD", "city": "DUTTON", "province": "ON", "country": "CA", "postalCode": "N0L1J0", "twitter": "None", "instagram": "None", "facebook": "None", "youtube": "None", "website": "None", "summary": "None", "logo": "None", "latitude": 42.665073462878475, "longitude": -81.51097124261449}, "890064447RR0001": {"name": "THE WOMEN'S MISSIONARY SOCIETY (W D) PETERBOROUGH PRESBYTERIAL", "designationCode": "C", "categoryCode": "47", "address": "106 OLD HASTING RD            RR 3", "city": "WARKWORTH", "province": "ON", "country": "CA", "postalCode": "K0K3K0", "twitter": "None", "instagram": "None", "facebook": "None", "youtube": "None", "website": "None", "summary": "None", "logo": "None", "latitude": 44.20238324508047, "longitude": -77.89420929892086}, "893141242RR0001": {"name": "THE WOMEN'S MISSIONARY SOCIETY (W D) SARNIA PRESBYTERIAL", "designationCode": "C", "categoryCode": "47", "address": "902 - 175 WELLINGTON ST", "city": "SARNIA", "province": "ON", "country": "CA", "postalCode": "N7T7X5", "twitter": "None", "instagram": "None", "facebook": "None", "youtube": "None", "website": "None", "summary": "None", "logo": "None", "latitude": 42.96904698365337, "longitude": -82.40593913862783}, "119262947RR0001": {"name": "THE WOMEN'S MISSIONARY SOCIETY (W O ) KINGSTON PRESBYTERIAL", "designationCode": "A", "categoryCode": "47", "address": "201-201 PALMER ROAD", "city": "BELLEVILLE", "province": "ON", "country": "CA", "postalCode": "K8P4T8", "twitter": "None", "instagram": "None", "facebook": "None", "youtube": "None", "website": "None", "summary": "None", "logo": "None", "latitude": 44.15858827006743, "longitude": -77.4055701142886}, "119098911RR0001": {"name": "THE WOMEN'S MISSIONARY SOCIETY (W.D.) - MONTREAL PRESBYTERIAL", "designationCode": "C", "categoryCode": "47", "address": "6025 RUE BAILLARGEON", "city": "BROSSARD", "province": "QC", "country": "CA", "postalCode": "J4Z3K8", "twitter": "None", "instagram": "None", "facebook": "None", "youtube": "None", "website": "None", "summary": "None", "logo": "None", "latitude": 45.474030283917216, "longitude": -73.45159675823776}, "888972999RR0001": {"name": "THE WOMEN'S MISSIONARY SOCIETY (W.D.) - NIAGARA PRESBYTERIAL", "designationCode": "C", "categoryCode": "47", "address": "8 COUNTRY CLUB RD", "city": "CAYUGA", "province": "ON", "country": "CA", "postalCode": "N0A1E0", "twitter": "None", "instagram": "None", "facebook": "None", "youtube": "None", "website": "None", "summary": "None", "logo": "None", "latitude": 42.943547117004286, "longitude": -79.84776024508298}, "891494627RR0001": {"name": "THE WOMEN'S MISSIONARY SOCIETY (W.D.) KNOX NORTH EASTHOPE", "designationCode": "A", "categoryCode": "47", "address": "#4643 RD 110 RR #1", "city": "STRATFORD", "province": "ON", "country": "CA", "postalCode": "N5A6S2", "twitter": "None", "instagram": "None", "facebook": "None", "youtube": "None", "website": "None", "summary": "None", "logo": "None", "latitude": 43.38933900000005, "longitude": -80.96317999999994}, "889412979RR0001": {"name": "THE WOMEN'S MISSIONARY SOCIETY WEST TORONTO PRESBYTERIAL", "designationCode": "A", "categoryCode": "47", "address": "902-299 MILL RD", "city": "TORONTO", "province": "ON", "country": "CA", "postalCode": "M9C4V9", "twitter": "None", "instagram": "None", "facebook": "None", "youtube": "None", "website": "None", "summary": "None", "logo": "None", "latitude": 43.63801254180827, "longitude": -79.58256377930094}, "888264991RR0001": {"name": "THE WOMEN'S MISSIONARY SOCIETY, WESTERN DIVISION, BRUCE-GRE Y PRESBYTERIRAL", "designationCode": "C", "categoryCode": "47", "address": "RR #2", "city": "HOLSTEIN", "province": "ON", "country": "CA", "postalCode": "N0G2A0", "twitter": "None", "instagram": "None", "facebook": "None", "youtube": "None", "website": "None", "summary": "None", "logo": "None", "latitude": 44.055285000000055, "longitude": -80.75348899999993}, "888780665RR0001": {"name": "THE WOMEN'S MISSIONARY SOCIETY, WESTERN DIVISION, EAST TORONTO PRESBYTERIAL", "designationCode": "C", "categoryCode": "47", "address": "41 ELGIN AVENUE", "city": "TORONTO", "province": "ON", "country": "CA", "postalCode": "M5R1G5", "twitter": "None", "instagram": "None", "facebook": "None", "youtube": "None", "website": "None", "summary": "None", "logo": "None", "latitude": 43.67140180209487, "longitude": -79.3974974568354}, "123718637RR0001": {"name": "THE WOMEN'S MUSICAL CLUB OF TORONTO", "designationCode": "C", "categoryCode": "22", "address": "500 - 59 ADELAIDE ST E", "city": "TORONTO", "province": "ON", "country": "CA", "postalCode": "M5C1K6", "twitter": "None", "instagram": "None", "facebook": "None", "youtube": "None", "website": "None", "summary": "None", "logo": "None", "latitude": 43.65106129336214, "longitude": -79.3754558860496}, "890227176RR0001": {"name": "THE WOMENS AUXILIARY TO THE MISSION SERVICES OF LONDON", "designationCode": "C", "categoryCode": "09", "address": "237 HIGHBURY AVE N.", "city": "LONDON", "province": "ON", "country": "CA", "postalCode": "N5Z2W8", "twitter": "None", "instagram": "None", "facebook": "None", "youtube": "None", "website": "None", "summary": "None", "logo": "None", "latitude": 42.98244184543083, "longitude": -81.19710399368145}, "891478083RR0001": {"name": "THE WOOD BUFFALO EDUCARE SOCIETY", "designationCode": "C", "categoryCode": "20", "address": "BOX 5952", "city": "FORT MCMURRAY", "province": "AB", "country": "CA", "postalCode": "T9H4V9", "twitter": "None", "instagram": "None", "facebook": "None", "youtube": "None", "website": "None", "summary": "None", "logo": "None", "latitude": 56.72719500000005, "longitude": -111.38028199999994}, "891849218RR0001": {"name": "THE WOOD'S HOMES FOUNDATION", "designationCode": "A", "categoryCode": "05", "address": "805-37TH STREET NW", "city": "CALGARY", "province": "AB", "country": "CA", "postalCode": "T2N4N8", "twitter": "None", "instagram": "None", "facebook": "None", "youtube": "None", "website": "None", "summary": "None", "logo": "None", "latitude": 51.06493800000001, "longitude": -114.14126772136291}, "890465578RR0001": {"name": "THE WOODBRIDGE PENTECOSTAL CHURCH", "designationCode": "C", "categoryCode": "39", "address": "6335 RUTHERFORD ROAD          RR 3", "city": "WOODBRIDGE", "province": "ON", "country": "CA", "postalCode": "L4L1A7", "twitter": "None", "instagram": "None", "facebook": "None", "youtube": "None", "website": "None", "summary": "None", "logo": "None", "latitude": 43.80722984537501, "longitude": -79.64202502663174}, "119303196RR0001": {"name": "THE WOODBURN CHURCH TRUST", "designationCode": "C", "categoryCode": "49", "address": "17 OAKDALE DRIVE", "city": "WINNIPEG", "province": "MB", "country": "CA", "postalCode": "R3R0Z3", "twitter": "None", "instagram": "None", "facebook": "None", "youtube": "None", "website": "None", "summary": "None", "logo": "None", "latitude": 49.86831335997463, "longitude": -97.2699126538465}, "892870767RR0001": {"name": "THE WOODLANDS MEETING ROOM TRUST", "designationCode": "B", "categoryCode": "39", "address": "BOX 306", "city": "WOODLANDS", "province": "MB", "country": "CA", "postalCode": "R0C3H0", "twitter": "None", "instagram": "None", "facebook": "None", "youtube": "None", "website": "None", "summary": "None", "logo": "None", "latitude": 50.480104488010895, "longitude": -96.97111199999999}, "119303477RR0001": {"name": "THE WOODLAWN ARTS FOUNDATION", "designationCode": "B", "categoryCode": "23", "address": "P.O. BOX C655                 STATION Q", "city": "TORONTO", "province": "ON", "country": "CA", "postalCode": "M4T2N5", "twitter": "None", "instagram": "None", "facebook": "None", "youtube": "None", "website": "None", "summary": "None", "logo": "None", "latitude": 43.690731000000056, "longitude": -79.38300499999994}, "119262954RR0001": {"name": "THE WOODS FOUNDATION", "designationCode": "B", "categoryCode": "03", "address": "3369 HUNTLEIGH COURT", "city": "NORTH VANCOUVER", "province": "BC", "country": "CA", "postalCode": "V7H1C9", "twitter": "None", "instagram": "None", "facebook": "None", "youtube": "None", "website": "None", "summary": "None", "logo": "None"}, "119303675RR0001": {"name": "THE WOODSTOCK CHORALAIRES", "designationCode": "C", "categoryCode": "22", "address": "PO BOX 125                    215006, 21ST LINE", "city": "THAMESFORD", "province": "ON", "country": "CA", "postalCode": "N0M2M0", "twitter": "None", "instagram": "None", "facebook": "None", "youtube": "None", "website": "None", "summary": "None", "logo": "None", "latitude": 43.06131155037797, "longitude": -80.99014192088417}, "121599799RR0001": {"name": "THE WOODSTOCK PUBLIC LIBRARY BOARD", "designationCode": "C", "categoryCode": "50", "address": "445 HUNTER ST", "city": "WOODSTOCK", "province": "ON", "country": "CA", "postalCode": "N4S4G7", "twitter": "None", "instagram": "None", "facebook": "None", "youtube": "None", "website": "None", "summary": "None", "logo": "None", "latitude": 43.13162527061568, "longitude": -80.75872560574757}, "888525466RR0001": {"name": "THE WORD OF TRUTH MINISTRIES", "designationCode": "C", "categoryCode": "39", "address": "580, LOT 244 BEAVER CREEK RD.", "city": "WATERLOO", "province": "ON", "country": "CA", "postalCode": "N2J3Z4", "twitter": "None", "instagram": "None", "facebook": "None", "youtube": "None", "website": "None", "summary": "None", "logo": "None", "latitude": 43.46950829306471, "longitude": -80.57922944966467}, "892325440RR0001": {"name": "THE WORD ON THE STREET CANADA INC", "designationCode": "C", "categoryCode": "22", "address": "5 GRAHAM GDNS", "city": "YORK", "province": "ON", "country": "CA", "postalCode": "M6C1G6", "twitter": "None", "instagram": "None", "facebook": "None", "youtube": "None", "website": "None", "summary": "None", "logo": "None", "latitude": 43.68274982763007, "longitude": -79.43074592408682}, "890441926RR0001": {"name": "THE WORD ON THE STREET FELLOWSHIP", "designationCode": "C", "categoryCode": "39", "address": "1732 DUBLIN ST", "city": "NEW WESTMINSTER", "province": "BC", "country": "CA", "postalCode": "V3M3A1", "twitter": "None", "instagram": "None", "facebook": "None", "youtube": "None", "website": "None", "summary": "None", "logo": "None", "latitude": 49.2067010338451, "longitude": -122.94567925310187}, "863803938RR0001": {"name": "THE WORK BRIDGE ASSOCIATION", "designationCode": "C", "categoryCode": "59", "address": "501 - 7051 BAYERS RD", "city": "HALIFAX", "province": "NS", "country": "CA", "postalCode": "B3L2C1", "twitter": "None", "instagram": "None", "facebook": "None", "youtube": "None", "website": "None", "summary": "None", "logo": "None", "latitude": 44.65377548658288, "longitude": -63.62594002553523}, "119304335RR0001": {"name": "THE WORKER SISTERS OF THE HOLY SPIRIT", "designationCode": "C", "categoryCode": "49", "address": "2170 PRESTON RD", "city": "CAVAN MONAGHAN", "province": "ON", "country": "CA", "postalCode": "K9J0G5", "twitter": "None", "instagram": "None", "facebook": "None", "youtube": "None", "website": "None", "summary": "None", "logo": "None", "latitude": 44.25979979932489, "longitude": -78.41166544341829}, "130259328RR0001": {"name": "THE WORKERS' EDUCATIONAL ASSOCIATION OF CANADA", "designationCode": "C", "categoryCode": "20", "address": "157 CARLTON ST STE 205", "city": "TORONTO", "province": "ON", "country": "CA", "postalCode": "M5A2K2", "twitter": "None", "instagram": "None", "facebook": "None", "youtube": "None", "website": "None", "summary": "None", "logo": "None", "latitude": 43.66329280209485, "longitude": -79.37248637301637}, "118780998RR0001": {"name": "THE WORKS INTERNATIONAL VISUAL ARTS SOCIETY", "designationCode": "C", "categoryCode": "22", "address": "10635 95 STREET", "city": "EDMONTON", "province": "AB", "country": "CA", "postalCode": "T5H2C3", "twitter": "None", "instagram": "None", "facebook": "None", "youtube": "None", "website": "None", "summary": "None", "logo": "None", "latitude": 53.5520441729182, "longitude": -113.48249073379907}, "119304384RR0001": {"name": "THE WORKSHOP THEATRE", "designationCode": "C", "categoryCode": "22", "address": "10-415 60TH AVENUE SOUTH EAST", "city": "CALGARY", "province": "AB", "country": "CA", "postalCode": "T2H2H5", "twitter": "None", "instagram": "None", "facebook": "None", "youtube": "None", "website": "None", "summary": "None", "logo": "None", "latitude": 50.998948148512774, "longitude": -114.07045834806588}, "896173762RR0001": {"name": "THE WORLD MISSION CHURCH ASSOCIATION", "designationCode": "C", "categoryCode": "37", "address": "8319 AEGEAN CRES", "city": "VANCOUVER", "province": "BC", "country": "CA", "postalCode": "V5S4H9", "twitter": "None", "instagram": "None", "facebook": "None", "youtube": "None", "website": "None", "summary": "None", "logo": "None", "latitude": 49.20877239773537, "longitude": -123.02987025455519}, "108104605RR0001": {"name": "THE WORLD OF PENTECOST CHURCH", "designationCode": "C", "categoryCode": "39", "address": "3606 ALLSOP RD", "city": "NANAIMO", "province": "BC", "country": "CA", "postalCode": "V9R6X3", "twitter": "None", "instagram": "None", "facebook": "None", "youtube": "None", "website": "None", "summary": "None", "logo": "None", "latitude": 49.19201757469931, "longitude": -124.04911711580847}, "132003708RR0001": {"name": "THE WORLD SIGN COMMUNICATION SOCIETY", "designationCode": "C", "categoryCode": "21", "address": "7485 ST. THOMAS RD.", "city": "WINLAW", "province": "BC", "country": "CA", "postalCode": "V0G2J0", "twitter": "None", "instagram": "None", "facebook": "None", "youtube": "None", "website": "None", "summary": "None", "logo": "None", "latitude": 49.678633725253846, "longitude": -117.49185712481868}, "118859032RR0001": {"name": "THE WORLD VIETNAMESE BUDDHIST ORDER - AMIDA TEMPLE OF TORONTO", "designationCode": "C", "categoryCode": "35", "address": "1375 MORNINGSIDE AVE", "city": "SCARBOROUGH", "province": "ON", "country": "CA", "postalCode": "M1B3C5", "twitter": "None", "instagram": "None", "facebook": "None", "youtube": "None", "website": "None", "summary": "None", "logo": "None", "latitude": 43.8085241862484, "longitude": -79.20248873475136}, "851823971RR0001": {"name": "THE WORLD VIETNAMESE BUDDHIST ORDER-DUC QUANG BUDDHIST CENTRE", "designationCode": "C", "categoryCode": "35", "address": "608 HAMILTON RD", "city": "LONDON", "province": "ON", "country": "CA", "postalCode": "N5Z1S9", "twitter": "None", "instagram": "None", "facebook": "None", "youtube": "None", "website": "None", "summary": "None", "logo": "None", "latitude": 42.98024728172418, "longitude": -81.21155540437998}, "108222399RR0001": {"name": "THE WORSLEY AGRICULTURAL SOCIETY", "designationCode": "C", "categoryCode": "56", "address": "BOX 35", "city": "WORSLEY", "province": "AB", "country": "CA", "postalCode": "T0H3W0", "twitter": "None", "instagram": "None", "facebook": "None", "youtube": "None", "website": "None", "summary": "None", "logo": "None", "latitude": 56.508710000000065, "longitude": -119.13987999999995}, "835599549RR0001": {"name": "THE WRIGHT PLACE - CHRISTIAN YOUTH CENTRE", "designationCode": "C", "categoryCode": "49", "address": "31 WAKEM COURT", "city": "WHITBY", "province": "ON", "country": "CA", "postalCode": "L1P1T8", "twitter": "None", "instagram": "None", "facebook": "None", "youtube": "None", "website": "None", "summary": "None", "logo": "None", "latitude": 43.91039173884804, "longitude": -78.97580940703436}, "824763122RR0001": {"name": "THE WRITERS IN ELECTRONIC RESIDENCE FOUNDATION", "designationCode": "C", "categoryCode": "20", "address": "17 ELMER AVE", "city": "TORONTO", "province": "ON", "country": "CA", "postalCode": "M4L3R6", "twitter": "None", "instagram": "None", "facebook": "None", "youtube": "None", "website": "None", "summary": "None", "logo": "None", "latitude": 43.67016633833454, "longitude": -79.30384082872659}, "121494207RR0001": {"name": "THE WRITERS' GUILD OF ALBERTA", "designationCode": "C", "categoryCode": "22", "address": "11759 GROAT RD NW", "city": "EDMONTON", "province": "AB", "country": "CA", "postalCode": "T5M3K6", "twitter": "None", "instagram": "None", "facebook": "None", "youtube": "None", "website": "None", "summary": "None", "logo": "None", "latitude": 53.56974075240938, "longitude": -113.54923837596016}, "105261341RR0001": {"name": "THE WRITERS' UNION OF CANADA", "designationCode": "C", "categoryCode": "81", "address": "600 - 460 RICHMOND ST W", "city": "TORONTO", "province": "ON", "country": "CA", "postalCode": "M5V1Y1", "twitter": "None", "instagram": "None", "facebook": "None", "youtube": "None", "website": "None", "summary": "None", "logo": "None", "latitude": 43.64792255983254, "longitude": -79.39538964100468}, "866249592RR0001": {"name": "THE WYATT FOUNDATION TRUST", "designationCode": "B", "categoryCode": "05", "address": "380 WELLINGTON ST, 12TH FLR", "city": "LONDON", "province": "ON", "country": "CA", "postalCode": "N6A5B5", "twitter": "None", "instagram": "None", "facebook": "None", "youtube": "None", "website": "None", "summary": "None", "logo": "None", "latitude": 42.98403487844074, "longitude": -81.24475227780037}, "890556343RR0001": {"name": "THE WYCHWOOD PARK HISTORICAL SOCIETY", "designationCode": "C", "categoryCode": "50", "address": "44 WYCHWOOD PK", "city": "TORONTO", "province": "ON", "country": "CA", "postalCode": "M6G2V5", "twitter": "None", "instagram": "None", "facebook": "None", "youtube": "None", "website": "None", "summary": "None", "logo": "None", "latitude": 43.67842674632121, "longitude": -79.42187068166075}, "855824074RR0001": {"name": "THE WYE STRING ENSEMBLE SOCIETY", "designationCode": "C", "categoryCode": "22", "address": "104, 22560 WYE ROAD", "city": "SHERWOOD PARK", "province": "AB", "country": "CA", "postalCode": "T8A4T6", "twitter": "None", "instagram": "None", "facebook": "None", "youtube": "None", "website": "None", "summary": "None", "logo": "None", "latitude": 53.5168674865829, "longitude": -113.24258172300767}, "863928073RR0001": {"name": "THE YAKAR CHARITABLE FOUNDATION", "designationCode": "B", "categoryCode": "05", "address": "1 YORKDALE ROAD               SUITE 602", "city": "TORONTO", "province": "ON", "country": "CA", "postalCode": "M6A3A1", "twitter": "None", "instagram": "None", "facebook": "None", "youtube": "None", "website": "None", "summary": "None", "logo": "None", "latitude": 43.72823883758475, "longitude": -79.45371698998802}, "119305472RR0001": {"name": "THE YAO TRUST", "designationCode": "C", "categoryCode": "21", "address": "49 CASTLE FRANK RD", "city": "TORONTO", "province": "ON", "country": "CA", "postalCode": "M4W2Z5", "twitter": "None", "instagram": "None", "facebook": "None", "youtube": "None", "website": "None", "summary": "None", "logo": "None", "latitude": 43.67586702692021, "longitude": -79.36900831101032}, "119305571RR0001": {"name": "THE YARMOUTH MOUNTAIN CEMETERY COMPANY", "designationCode": "C", "categoryCode": "59", "address": "27 JAMES ST", "city": "YARMOUTH", "province": "NS", "country": "CA", "postalCode": "B5A2V4", "twitter": "None", "instagram": "None", "facebook": "None", "youtube": "None", "website": "None", "summary": "None", "logo": "None", "latitude": 43.8445313233309, "longitude": -66.11501155635057}, "130565963RR0019": {"name": "THE YARROW ALLIANCE CHURCH OF THE CHRISTIAN AND MISSIONARY ALLIANCE IN CANADA", "designationCode": "C", "categoryCode": "39", "address": "42479 YARROW CENTRAL RD", "city": "CHILLIWACK", "province": "BC", "country": "CA", "postalCode": "V2R5C8", "twitter": "None", "instagram": "None", "facebook": "None", "youtube": "None", "website": "None", "summary": "None", "logo": "None", "latitude": 49.08209048658288, "longitude": -122.048514}, "869487173RR0001": {"name": "THE YEBON PRESBYTERIAN CHURCH", "designationCode": "C", "categoryCode": "39", "address": "4258 BLOOR ST W", "city": "ETOBICOKE", "province": "ON", "country": "CA", "postalCode": "M9C1Z7", "twitter": "None", "instagram": "None", "facebook": "None", "youtube": "None", "website": "None", "summary": "None", "logo": "None", "latitude": 43.634176100236324, "longitude": -79.56858745464235}, "854829520RR0001": {"name": "THE YELLOW BUS FOUNDATION", "designationCode": "A", "categoryCode": "03", "address": "3400 - 130 ADELAIDE ST W", "city": "TORONTO", "province": "ON", "country": "CA", "postalCode": "M5H3P5", "twitter": "None", "instagram": "None", "facebook": "None", "youtube": "None", "website": "None", "summary": "None", "logo": "None", "latitude": 43.64931314741162, "longitude": -79.38362708272251}, "891534844RR0001": {"name": "THE YELLOW POINT DRAMA GROUP", "designationCode": "C", "categoryCode": "22", "address": "3181 YELLOW POINT ROAD", "city": "LADYSMITH", "province": "BC", "country": "CA", "postalCode": "V9G1C6", "twitter": "None", "instagram": "None", "facebook": "None", "youtube": "None", "website": "None", "summary": "None", "logo": "None", "latitude": 49.057797745221585, "longitude": -123.77392351737}, "108224908RR0001": {"name": "THE YELLOWHEAD LIBRARY BOARD", "designationCode": "C", "categoryCode": "50", "address": "PO BOX 4270                   433 KING ST", "city": "SPRUCE GROVE", "province": "AB", "country": "CA", "postalCode": "T7X3B4", "twitter": "None", "instagram": "None", "facebook": "None", "youtube": "None", "website": "None", "summary": "None", "logo": "None", "latitude": 53.546265000000005, "longitude": -113.90049822713303}, "889101978RR0001": {"name": "THE YELLOWKNIFE COMMUNITY FOUNDATION", "designationCode": "A", "categoryCode": "53", "address": "VISITOR'S CENTRE              BOX 1620, 4807-49TH STREET", "city": "YELLOWKNIFE", "province": "NT", "country": "CA", "postalCode": "X1A2P2", "twitter": "None", "instagram": "None", "facebook": "None", "youtube": "None", "website": "None", "summary": "None", "logo": "None", "latitude": 62.456289973150106, "longitude": -114.37458694907069}, "888806668RR0001": {"name": "THE YELLOWKNIFE SENIORS SOCIETY", "designationCode": "C", "categoryCode": "56", "address": "2-5710 50 AVE", "city": "YELLOWKNIFE", "province": "NT", "country": "CA", "postalCode": "X1A1G1", "twitter": "None", "instagram": "None", "facebook": "None", "youtube": "None", "website": "None", "summary": "None", "logo": "None", "latitude": 62.44896454422208, "longitude": -114.381768694012}, "119305936RR0001": {"name": "THE YESHIVAH SCHOLARSHIP FUND OF ISRAEL", "designationCode": "C", "categoryCode": "21", "address": "4731 KENT AVE", "city": "MONTREAL", "province": "QC", "country": "CA", "postalCode": "H3W1H3", "twitter": "None", "instagram": "None", "facebook": "None", "youtube": "None", "website": "None", "summary": "None", "logo": "None", "latitude": 45.49562678241667, "longitude": -73.63790794396655}, "866949944RR0001": {"name": "THE YM INC CHARITABLE FOUNDATION", "designationCode": "B", "categoryCode": "03", "address": "50 DUFFLAW ROAD", "city": "TORONTO", "province": "ON", "country": "CA", "postalCode": "M6A2W1", "twitter": "None", "instagram": "None", "facebook": "None", "youtube": "None", "website": "None", "summary": "None", "logo": "None", "latitude": 43.71725276850957, "longitude": -79.46281254573208}, "119307007RR0001": {"name": "THE YMCA ASSOCIATION OF CUMBERLAND", "designationCode": "C", "categoryCode": "49", "address": "PO BOX 552 STN MAIN", "city": "AMHERST", "province": "NS", "country": "CA", "postalCode": "B4H4A1", "twitter": "None", "instagram": "None", "facebook": "None", "youtube": "None", "website": "None", "summary": "None", "logo": "None", "latitude": 45.83198400000006, "longitude": -64.20979249999993}, "136560760RR0001": {"name": "THE YMCA OF GREATER HALIFAX/DARTMOUTH", "designationCode": "C", "categoryCode": "49", "address": "5670 SPRING GARDEN ROAD       UNIT 306", "city": "HALIFAX", "province": "NS", "country": "CA", "postalCode": "B3J1H6", "twitter": "None", "instagram": "None", "facebook": "None", "youtube": "None", "website": "None", "summary": "None", "logo": "None", "latitude": 44.642583904755355, "longitude": -63.578757478215685}, "801444613RR0001": {"name": "THE YMCA OF GREATER HALIFAX/DARTMOUTH LEGACY FOUNDATION", "designationCode": "A", "categoryCode": "43", "address": "306-5670 SPRING GARDEN RD", "city": "HALIFAX", "province": "NS", "country": "CA", "postalCode": "B3J1H6", "twitter": "None", "instagram": "None", "facebook": "None", "youtube": "None", "website": "None", "summary": "None", "logo": "None", "latitude": 44.64321800521938, "longitude": -63.57617228611219}, "803540343RR0001": {"name": "THE YMCA OF GREATER VANCOUVER PROPERTIES FOUNDATION", "designationCode": "A", "categoryCode": "03", "address": "300-5055 JOYCE ST", "city": "VANCOUVER", "province": "BC", "country": "CA", "postalCode": "V5R6B2", "twitter": "None", "instagram": "None", "facebook": "None", "youtube": "None", "website": "None", "summary": "None", "logo": "None", "latitude": 49.23880279545841, "longitude": -123.03138653208475}, "119306140RR0001": {"name": "THE YOGA ASSOCIATION OF ALBERTA", "designationCode": "C", "categoryCode": "56", "address": "11759 GROAT ROAD", "city": "EDMONTON", "province": "AB", "country": "CA", "postalCode": "T5M3K6", "twitter": "None", "instagram": "None", "facebook": "None", "youtube": "None", "website": "None", "summary": "None", "logo": "None", "latitude": 53.56974075240938, "longitude": -113.54923837596016}, "803544543RR0001": {"name": "THE YOGA OUTREACH SOCIETY", "designationCode": "C", "categoryCode": "09", "address": "2145 168 ST", "city": "SURREY", "province": "BC", "country": "CA", "postalCode": "V3Z0B5", "twitter": "None", "instagram": "None", "facebook": "None", "youtube": "None", "website": "None", "summary": "None", "logo": "None", "latitude": 49.041072000000014, "longitude": -122.75714243562801}, "119306181RR0001": {"name": "THE YONGE STREET MISSION", "designationCode": "C", "categoryCode": "47", "address": "306 GERRARD ST EAST", "city": "TORONTO", "province": "ON", "country": "CA", "postalCode": "M5A2G7", "twitter": "None", "instagram": "None", "facebook": "None", "youtube": "None", "website": "None", "summary": "None", "logo": "None", "latitude": 43.66213215462498, "longitude": -79.36626838233586}, "129995817RR0001": {"name": "THE YORK CENTRE FOR CHILDREN, YOUTH & FAMILIES", "designationCode": "C", "categoryCode": "21", "address": "11225 LESLIE ST", "city": "RICHMOND HILL", "province": "ON", "country": "CA", "postalCode": "L4S1N5", "twitter": "None", "instagram": "None", "facebook": "None", "youtube": "None", "website": "None", "summary": "None", "logo": "None", "latitude": 43.909572990853405, "longitude": -79.39844395161353}, "108226242RR0001": {"name": "THE YORK SCHOOL", "designationCode": "C", "categoryCode": "20", "address": "1320 YONGE ST", "city": "TORONTO", "province": "ON", "country": "CA", "postalCode": "M4T1X2", "twitter": "None", "instagram": "None", "facebook": "None", "youtube": "None", "website": "None", "summary": "None", "logo": "None", "latitude": 43.68465257784642, "longitude": -79.39270616406004}, "137208906RR0001": {"name": "THE YORK UNIVERSITY STUDENT CENTRE CHILDCARE", "designationCode": "C", "categoryCode": "01", "address": "201-4700 KEELE ST", "city": "NORTH YORK", "province": "ON", "country": "CA", "postalCode": "M3J1P3", "twitter": "None", "instagram": "None", "facebook": "None", "youtube": "None", "website": "None", "summary": "None", "logo": "None", "latitude": 43.77448979818479, "longitude": -79.4939737399481}, "108226598RR0001": {"name": "THE YORK-SUNBURY HISTORICAL SOCIETY, LTD.", "designationCode": "C", "categoryCode": "50", "address": "PO BOX 1312  STN A", "city": "FREDERICTON", "province": "NB", "country": "CA", "postalCode": "E3B5C8", "twitter": "None", "instagram": "None", "facebook": "None", "youtube": "None", "website": "None", "summary": "None", "logo": "None", "latitude": 45.96062100000006, "longitude": -66.63911299999994}, "130913866RR0001": {"name": "THE YORKMINSTRELS", "designationCode": "C", "categoryCode": "22", "address": "94 PARK HOME AVE", "city": "TORONTO", "province": "ON", "country": "CA", "postalCode": "M2N1W8", "twitter": "None", "instagram": "None", "facebook": "None", "youtube": "None", "website": "None", "summary": "None", "logo": "None", "latitude": 43.767829172369936, "longitude": -79.41949818096826}}