{"119213551RR0001": {"name": "THE ARTS CLUB OF VANCOUVER THEATRE SOCIETY", "designationCode": "C", "categoryCode": "22", "address": "203 - 162 1ST AVE W", "city": "VANCOUVER", "province": "BC", "country": "CA", "postalCode": "V5Y0H6", "twitter": "None", "instagram": "None", "facebook": "None", "youtube": "None", "website": "None", "summary": "None", "logo": "None", "latitude": 49.27014921211808, "longitude": -123.1083731451992}, "837537323RR0001": {"name": "THE ARTS COUNCIL AT CHRIST'S CHURCH CATHEDRAL, HAMILTON, ONTARIO", "designationCode": "C", "categoryCode": "22", "address": "252 JAMES ST. NORTH", "city": "HAMILTON", "province": "ON", "country": "CA", "postalCode": "L8R2L3", "twitter": "None", "instagram": "None", "facebook": "None", "youtube": "None", "website": "None", "summary": "None", "logo": "None", "latitude": 43.26303055231121, "longitude": -79.866250127359}, "108071788RR0001": {"name": "THE ARTS COUNCIL OF NEW WESTMINSTER", "designationCode": "C", "categoryCode": "22", "address": "PO BOX 16003", "city": "NEW WESTMINSTER", "province": "BC", "country": "CA", "postalCode": "V3M6W6", "twitter": "None", "instagram": "None", "facebook": "None", "youtube": "None", "website": "None", "summary": "None", "logo": "None", "latitude": 49.20705600000005, "longitude": -122.90841349999994}, "131449829RR0001": {"name": "THE ARTS COUNCIL OF SAULT STE. MARIE AND DISTRICT", "designationCode": "C", "categoryCode": "22", "address": "104A-369 QUEEN STREET EAST", "city": "SAULT STE-MARIE", "province": "ON", "country": "CA", "postalCode": "P6A1Z4", "twitter": "None", "instagram": "None", "facebook": "None", "youtube": "None", "website": "None", "summary": "None", "logo": "None", "latitude": 46.51241470301238, "longitude": -84.3342426122971}, "119213569RR0001": {"name": "THE ARTS JASPER SOCIETY", "designationCode": "C", "categoryCode": "22", "address": "BOX 1859", "city": "JASPER", "province": "AB", "country": "CA", "postalCode": "T0E1E0", "twitter": "None", "instagram": "None", "facebook": "None", "youtube": "None", "website": "None", "summary": "None", "logo": "None", "latitude": 52.877214088900075, "longitude": -118.08111710055249}, "871113353RR0001": {"name": "THE ARTS PROJECT LONDON", "designationCode": "C", "categoryCode": "22", "address": "203 DUNDAS STREET", "city": "LONDON", "province": "ON", "country": "CA", "postalCode": "N6A1G4", "twitter": "None", "instagram": "None", "facebook": "None", "youtube": "None", "website": "None", "summary": "None", "logo": "None", "latitude": 42.98413302080337, "longitude": -81.24807650346244}, "848008165RR0001": {"name": "THE ARYAH AND FAIGE LEBOVIC CHARITABLE TRUST", "designationCode": "B", "categoryCode": "03", "address": "75 HILLMOUNT AVENUE", "city": "TORONTO", "province": "ON", "country": "CA", "postalCode": "M6B1X5", "twitter": "None", "instagram": "None", "facebook": "None", "youtube": "None", "website": "None", "summary": "None", "logo": "None", "latitude": 43.710384867592026, "longitude": -79.43251717984307}, "860242833RR0001": {"name": "THE ASCENSION FOUNDATION", "designationCode": "B", "categoryCode": "03", "address": "1801-1139 WEST CORDOVA STREET", "city": "VANCOUVER", "province": "BC", "country": "CA", "postalCode": "V6C0A2", "twitter": "None", "instagram": "None", "facebook": "None", "youtube": "None", "website": "None", "summary": "None", "logo": "None", "latitude": 49.28871105248409, "longitude": -123.1201660876855}, "801382219RR0001": {"name": "THE ASCENTA FOUNDATION FOR HEALTH AND EDUCATION OUTREACH", "designationCode": "C", "categoryCode": "09", "address": "1510 - 999 HASTINGS ST W", "city": "VANCOUVER", "province": "BC", "country": "CA", "postalCode": "V6C2W2", "twitter": "None", "instagram": "None", "facebook": "None", "youtube": "None", "website": "None", "summary": "None", "logo": "None", "latitude": 49.28691929811281, "longitude": -123.11643029791125}, "868988338RR0001": {"name": "THE ASHERN EARLY YEARS SCHOOL PARENT ADVISORY COUNCIL", "designationCode": "C", "categoryCode": "21", "address": "P.O. BOX 1400", "city": "ASHERN", "province": "MB", "country": "CA", "postalCode": "R0C0E0", "twitter": "None", "instagram": "None", "facebook": "None", "youtube": "None", "website": "None", "summary": "None", "logo": "None", "latitude": 51.18065000000007, "longitude": -98.35010999999997}, "106726425RR0001": {"name": "THE ASHMONT AND DISTRICT AGRICULTURAL SOCIETY", "designationCode": "C", "categoryCode": "56", "address": "BOX 23", "city": "ASHMONT", "province": "AB", "country": "CA", "postalCode": "T0A0C0", "twitter": "None", "instagram": "None", "facebook": "None", "youtube": "None", "website": "None", "summary": "None", "logo": "None", "latitude": 54.12807000000004, "longitude": -111.56830999999994}, "867338287RR0001": {"name": "THE ASIAN CHRISTIAN FELLOWSHIP OF LONDON, CANADA", "designationCode": "C", "categoryCode": "39", "address": "10 WOODGATE PL", "city": "LONDON", "province": "ON", "country": "CA", "postalCode": "N6K4A4", "twitter": "None", "instagram": "None", "facebook": "None", "youtube": "None", "website": "None", "summary": "None", "logo": "None", "latitude": 42.957479345288114, "longitude": -81.35026210895023}, "867148033RR0001": {"name": "THE ASLAN FOUNDATION", "designationCode": "B", "categoryCode": "03", "address": "701-150 ATHLETES WAY", "city": "VANCOUVER", "province": "BC", "country": "CA", "postalCode": "V5Y0B5", "twitter": "None", "instagram": "None", "facebook": "None", "youtube": "None", "website": "None", "summary": "None", "logo": "None", "latitude": 49.271551535634124, "longitude": -123.10737147016562}, "880163720RR0001": {"name": "THE ASPER FOUNDATION", "designationCode": "B", "categoryCode": "03", "address": "1504- 201 PORTAGE AVENUE", "city": "WINNIPEG", "province": "MB", "country": "CA", "postalCode": "R3B3K6", "twitter": "None", "instagram": "None", "facebook": "None", "youtube": "None", "website": "None", "summary": "None", "logo": "None", "latitude": 49.895359615067065, "longitude": -97.13919299627776}, "875619066RR0001": {"name": "THE ASSEMBLIES OF YAHWEH IN CANADA SOCIETY", "designationCode": "C", "categoryCode": "47", "address": "PO BOX 2068 RPO SQUARE ONE", "city": "MISSISSAUGA", "province": "ON", "country": "CA", "postalCode": "L5B3C6", "twitter": "None", "instagram": "None", "facebook": "None", "youtube": "None", "website": "None", "summary": "None", "logo": "None", "latitude": 43.59298005179072, "longitude": -79.64057002943034}, "872118641RR0001": {"name": "THE ASSEMBLY OF GOD IN EDMONTON", "designationCode": "C", "categoryCode": "39", "address": "82 PANAMOUNT SQUARE NW", "city": "CALGARY", "province": "AB", "country": "CA", "postalCode": "T3K5T4", "twitter": "None", "instagram": "None", "facebook": "None", "youtube": "None", "website": "None", "summary": "None", "logo": "None", "latitude": 51.15871172384441, "longitude": -114.08135026977895}, "136925377RR0001": {"name": "THE ASSEMBLY OF GOD IN VANCOUVER", "designationCode": "C", "categoryCode": "39", "address": "8850 SELKIRK ST", "city": "VANCOUVER", "province": "BC", "country": "CA", "postalCode": "V6P4J8", "twitter": "None", "instagram": "None", "facebook": "None", "youtube": "None", "website": "None", "summary": "None", "logo": "None", "latitude": 49.20483348542905, "longitude": -123.13336908933029}, "892815564RR0001": {"name": "THE ASSEMBLY OF GOD'S PEOPLE CHURCH", "designationCode": "C", "categoryCode": "36", "address": "440 WINONA DRIVE, SUITE 122", "city": "TORONTO", "province": "ON", "country": "CA", "postalCode": "M6C3T8", "twitter": "None", "instagram": "None", "facebook": "None", "youtube": "None", "website": "None", "summary": "None", "logo": "None", "latitude": 43.68852009518733, "longitude": -79.43523759484061}, "119213601RR0001": {"name": "THE ASSEMBLY OF PEACE", "designationCode": "C", "categoryCode": "39", "address": "P.O. BOX 155", "city": "SIMCOE", "province": "ON", "country": "CA", "postalCode": "N3Y4L1", "twitter": "None", "instagram": "None", "facebook": "None", "youtube": "None", "website": "None", "summary": "None", "logo": "None", "latitude": 42.846171000000055, "longitude": -80.32952149999993}, "107911240RR0001": {"name": "THE ASSINIBOIA ROMANIAN ORTHODOX CHURCH \"THE DESCENT OF THE HOLY GHOST\" INC.", "designationCode": "C", "categoryCode": "39", "address": "BOX 285", "city": "ASSINIBOIA", "province": "SK", "country": "CA", "postalCode": "S0H0B0", "twitter": "None", "instagram": "None", "facebook": "None", "youtube": "None", "website": "None", "summary": "None", "logo": "None", "latitude": 49.63287300000006, "longitude": -105.99348049999993}, "119213635RR0001": {"name": "THE ASSOCIATED ALUMNI OF THE UNIVERSITY OF NEW BRUNSWICK", "designationCode": "C", "categoryCode": "23", "address": "OFFICE OF ALUMNI AFFAIRS      P.O. BOX 4400", "city": "FREDERICTON", "province": "NB", "country": "CA", "postalCode": "E3B5A3", "twitter": "None", "instagram": "None", "facebook": "None", "youtube": "None", "website": "None", "summary": "None", "logo": "None", "latitude": 45.96062100000006, "longitude": -66.63911299999994}, "119213650RR0001": {"name": "THE ASSOCIATES OF THE TORONTO SYMPHONY INC.", "designationCode": "A", "categoryCode": "22", "address": "28 EDGEWOOD CRESCENT", "city": "TORONTO", "province": "ON", "country": "CA", "postalCode": "M4W3A9", "twitter": "None", "instagram": "None", "facebook": "None", "youtube": "None", "website": "None", "summary": "None", "logo": "None", "latitude": 43.68798125673722, "longitude": -79.37288920180029}, "813009743RR0001": {"name": "THE ASSOCIATION CLASSIS ALBERTA NORTH OF THE CHRISTIAN REFORMED CHURCH IN NORTH AMERICA", "designationCode": "C", "categoryCode": "49", "address": "19010 87 AVE NW", "city": "EDMONTON", "province": "AB", "country": "CA", "postalCode": "T5T6P2", "twitter": "None", "instagram": "None", "facebook": "None", "youtube": "None", "website": "None", "summary": "None", "logo": "None", "latitude": 53.521381523803534, "longitude": -113.65163248306311}, "129944989RR0001": {"name": "THE ASSOCIATION FOR CHRISTIAN EDUCATION OF PRINCE GEORGE", "designationCode": "C", "categoryCode": "20", "address": "701 NORTH NECHAKO RD", "city": "PRINCE GEORGE", "province": "BC", "country": "CA", "postalCode": "V2K1A2", "twitter": "None", "instagram": "None", "facebook": "None", "youtube": "None", "website": "None", "summary": "None", "logo": "None", "latitude": 53.93122210360884, "longitude": -122.78397546161598}, "119213676RR0001": {"name": "THE ASSOCIATION FOR CHRISTIAN EDUCATION OF ST. CATHARINES", "designationCode": "C", "categoryCode": "20", "address": "300 SCOTT ST", "city": "ST CATHERINES", "province": "ON", "country": "CA", "postalCode": "L2N1J3", "twitter": "None", "instagram": "None", "facebook": "None", "youtube": "None", "website": "None", "summary": "None", "logo": "None", "latitude": 43.185909360985185, "longitude": -79.2375720666806}, "133298349RR0001": {"name": "THE ASSOCIATION FOR DIFFERENTLY ABLED PEOPLE TOGETHER OF ONTARIO", "designationCode": "C", "categoryCode": "11", "address": "194 EAGLE ST", "city": "NEWMARKET", "province": "ON", "country": "CA", "postalCode": "L3Y1J6", "twitter": "None", "instagram": "None", "facebook": "None", "youtube": "None", "website": "None", "summary": "None", "logo": "None", "latitude": 44.04754488144184, "longitude": -79.46858786461958}, "898229331RR0002": {"name": "THE ASSOCIATION FOR EVERGREEN YOUTH", "designationCode": "C", "categoryCode": "01", "address": "38 EVERGREEN COMMUNITY", "city": "EDMONTON", "province": "AB", "country": "CA", "postalCode": "T5Y4M2", "twitter": "None", "instagram": "None", "facebook": "None", "youtube": "None", "website": "None", "summary": "None", "logo": "None", "latitude": 53.63057728533663, "longitude": -113.35001543772313}, "119213700RR0001": {"name": "THE ASSOCIATION FOR NATIVE DEVELOPMENT IN THE PERFORMING AND VISUAL ARTS", "designationCode": "C", "categoryCode": "22", "address": "10-160 BALDWIN ST.", "city": "TORONTO", "province": "ON", "country": "CA", "postalCode": "M5T3K7", "twitter": "None", "instagram": "None", "facebook": "None", "youtube": "None", "website": "None", "summary": "None", "logo": "None", "latitude": 43.6549471906918, "longitude": -79.39988684569214}, "140599507RR0001": {"name": "THE ASSOCIATION FOR THE REHABILITATION OF THE BRAIN INJURED", "designationCode": "C", "categoryCode": "11", "address": "3412 SPRUCE DRIVE S.W.", "city": "CALGARY", "province": "AB", "country": "CA", "postalCode": "T3C3A4", "twitter": "None", "instagram": "None", "facebook": "None", "youtube": "None", "website": "None", "summary": "None", "logo": "None", "latitude": 51.05042195962686, "longitude": -114.13595146040423}, "892874967RR0001": {"name": "THE ASSOCIATION OF CANADIAN DELEGATES TO THE GULF OF MAINE COUNCIL ON THE MARINE ENVIRONMENT/L'ASSOCIATION DES D\u00c9L\u00c9GU\u00c9S DU CANADA AU CONSEIL DU GULF OF MAINE SUR LE MILIEU MAR", "designationCode": "C", "categoryCode": "59", "address": "P.O. BOX 2044", "city": "HALIFAX", "province": "NS", "country": "CA", "postalCode": "B3J2Z1", "twitter": "None", "instagram": "None", "facebook": "None", "youtube": "None", "website": "None", "summary": "None", "logo": "None", "latitude": 44.645478000000054, "longitude": -63.576552499999934}, "108071895RR0001": {"name": "THE ASSOCIATION OF COMMUNITY INFORMATION CENTRES IN ONTARIO", "designationCode": "C", "categoryCode": "59", "address": "3010 FOREST GLADE DR", "city": "WINDSOR", "province": "ON", "country": "CA", "postalCode": "N8R1L5", "twitter": "None", "instagram": "None", "facebook": "None", "youtube": "None", "website": "None", "summary": "None", "logo": "None", "latitude": 42.307525832102144, "longitude": -82.9146418505109}, "119213791RR0001": {"name": "THE ASSOCIATION OF CONSORT & DISTRICT SENIORS", "designationCode": "C", "categoryCode": "56", "address": "BAG SERVICE 1001, 4530-52ND AVCONSORT LODGE", "city": "CONSORT", "province": "AB", "country": "CA", "postalCode": "T0C1B0", "twitter": "None", "instagram": "None", "facebook": "None", "youtube": "None", "website": "None", "summary": "None", "logo": "None", "latitude": 52.00809900000006, "longitude": -110.76608149999993}, "106732779RR0001": {"name": "THE ASSOCIATION OF FACULTIES OF MEDICINE OF CANADA - L'ASSOCIATION DES FACULTES DE MEDECINE DU CANADA", "designationCode": "C", "categoryCode": "19", "address": "100 - 2733 LANCASTER RD", "city": "OTTAWA", "province": "ON", "country": "CA", "postalCode": "K1B0A9", "twitter": "None", "instagram": "None", "facebook": "None", "youtube": "None", "website": "None", "summary": "None", "logo": "None", "latitude": 45.39681519403868, "longitude": -75.60689732468722}, "892406760RR0001": {"name": "THE ASSOCIATION OF FACULTIES OF PHARMACY OF CANADA/L'ASSOCIATION DES FACULTES DE PHARMACIE DU CANADA", "designationCode": "C", "categoryCode": "21", "address": "PO BOX 59025 RPO ALTA VISTA", "city": "OTTAWA", "province": "ON", "country": "CA", "postalCode": "K1G5T7", "twitter": "None", "instagram": "None", "facebook": "None", "youtube": "None", "website": "None", "summary": "None", "logo": "None", "latitude": 45.40538558440377, "longitude": -75.66012959815696}, "108071960RR0001": {"name": "THE ASSOCIATION OF FELLOWSHIP BAPTIST CHURCHES OF SOUTH CENTRAL B.C.", "designationCode": "C", "categoryCode": "56", "address": "3915 SUNNYBRAE CANOE POINT RD", "city": "TAPPEN", "province": "BC", "country": "CA", "postalCode": "V0E2X1", "twitter": "None", "instagram": "None", "facebook": "None", "youtube": "None", "website": "None", "summary": "None", "logo": "None", "latitude": 50.77005215098963, "longitude": -119.27559266723404}, "121126221RR0001": {"name": "THE ASSOCIATION OF NEWFOUNDLAND AND LABRADOR ARCHIVES CORPORATION", "designationCode": "C", "categoryCode": "50", "address": "PO 23155                      RPO CHURCHILL SQUARE", "city": "ST. JOHNS", "province": "NL", "country": "CA", "postalCode": "A1B4J9", "twitter": "None", "instagram": "None", "facebook": "None", "youtube": "None", "website": "None", "summary": "None", "logo": "None", "latitude": 47.57470538694076, "longitude": -52.7226658486743}, "134568161RR0001": {"name": "THE ASSOCIATION OF ONTARIO LAND SURVEYORS EDUCATIONAL FOUNDATION", "designationCode": "C", "categoryCode": "21", "address": "1043 MCNICOLL AVENUE", "city": "SCARBOROUGH", "province": "ON", "country": "CA", "postalCode": "M1W3W6", "twitter": "None", "instagram": "None", "facebook": "None", "youtube": "None", "website": "None", "summary": "None", "logo": "None", "latitude": 43.80417784927016, "longitude": -79.33401708702168}, "888372844RR0001": {"name": "THE ASSOCIATION OF PARENT SUPPORT GROUPS IN ONTARIO INC.", "designationCode": "C", "categoryCode": "09", "address": "41 BRANDWOOD SQ", "city": "AJAX", "province": "ON", "country": "CA", "postalCode": "L1Z2C1", "twitter": "None", "instagram": "None", "facebook": "None", "youtube": "None", "website": "None", "summary": "None", "logo": "None", "latitude": 43.89599935391511, "longitude": -79.01182334612483}, "867057762RR0001": {"name": "THE ASSOCIATION OF PROFESSIONAL ENGINEERS AND GEOSCIENTISTS OF NEWFOUNDLAND FUTURE SCIENTISTS, ENGINEERS & TECHNOLOGISTS", "designationCode": "C", "categoryCode": "21", "address": "10 FORT WILLIAM PLACE BOX21207BAINE JOHNSTON CENTRE", "city": "ST JOHN'S", "province": "NL", "country": "CA", "postalCode": "A1A5B2", "twitter": "None", "instagram": "None", "facebook": "None", "youtube": "None", "website": "None", "summary": "None", "logo": "None", "latitude": 47.57191104553053, "longitude": -52.69939176744169}, "873768675RR0001": {"name": "THE ASSOCIATION OF SAM LIVINGSTON SCHOOL COUNCIL", "designationCode": "C", "categoryCode": "20", "address": "12011 BONAVENTURE DR SE", "city": "CALGARY", "province": "AB", "country": "CA", "postalCode": "T2J3G7", "twitter": "None", "instagram": "None", "facebook": "None", "youtube": "None", "website": "None", "summary": "None", "logo": "None", "latitude": 50.945599676380624, "longitude": -114.06034498765075}, "106864218RR0001": {"name": "THE ASSOCIATION OF THE APOSTLESHIP OF PRAYER", "designationCode": "C", "categoryCode": "47", "address": "43 QUEEN'S PARK CRES E", "city": "TORONTO", "province": "ON", "country": "CA", "postalCode": "M5S2C3", "twitter": "None", "instagram": "None", "facebook": "None", "youtube": "None", "website": "None", "summary": "None", "logo": "None", "latitude": 43.66441275021635, "longitude": -79.39092008350191}, "108071994RR0001": {"name": "THE ASSOCIATION OF THE COVENANT PEOPLE", "designationCode": "C", "categoryCode": "47", "address": "7730 EDMONDS STREET", "city": "BURNABY", "province": "BC", "country": "CA", "postalCode": "V3N1B8", "twitter": "None", "instagram": "None", "facebook": "None", "youtube": "None", "website": "None", "summary": "None", "logo": "None", "latitude": 49.224295702425415, "longitude": -122.94042266632746}, "885015313RR0001": {"name": "THE ASSOCIATION OF THE DEVON CHRISTMAS ELVES", "designationCode": "C", "categoryCode": "09", "address": "SUITE 25, 20 HAVEN AVE", "city": "DEVON", "province": "AB", "country": "CA", "postalCode": "T9G2B9", "twitter": "None", "instagram": "None", "facebook": "None", "youtube": "None", "website": "None", "summary": "None", "logo": "None", "latitude": 53.3620834727331, "longitude": -113.729724}, "896262342RR0001": {"name": "THE ASSOCIATION OF THE INSIDE OUT INTEGRATED THEATRE PROJECT", "designationCode": "C", "categoryCode": "22", "address": "600-630 8TH AVE SW", "city": "CALGARY", "province": "AB", "country": "CA", "postalCode": "T2P1G6", "twitter": "None", "instagram": "None", "facebook": "None", "youtube": "None", "website": "None", "summary": "None", "logo": "None", "latitude": 51.04590663887669, "longitude": -114.07575818403993}, "864531496RR0001": {"name": "THE ASSOCIATION OF TRUE BUDDHA SOCIETY OF NORTH TORONTO", "designationCode": "C", "categoryCode": "35", "address": "327-200 SILVERSTAR BLVD", "city": "SCARBOROUGH", "province": "ON", "country": "CA", "postalCode": "M1V5H4", "twitter": "None", "instagram": "None", "facebook": "None", "youtube": "None", "website": "None", "summary": "None", "logo": "None", "latitude": 43.8101603488088, "longitude": -79.29309453384417}, "140685769RR0001": {"name": "THE ASSOCIATION OF VIETNAMESE ALLIANCE CHURCHES IN CANADA (AVAC)", "designationCode": "C", "categoryCode": "49", "address": "215-1155 MIDLAND AVE", "city": "SCARBOROUGH", "province": "ON", "country": "CA", "postalCode": "M1K3H4", "twitter": "None", "instagram": "None", "facebook": "None", "youtube": "None", "website": "None", "summary": "None", "logo": "None", "latitude": 43.74557286346574, "longitude": -79.26269111509666}, "864270707RR0001": {"name": "THE ASSOCIATION OF VOLUNTEERS IN SERVICE OF CANADA", "designationCode": "C", "categoryCode": "10", "address": "100 DAVENPORT ROAD", "city": "TORONTO", "province": "ON", "country": "CA", "postalCode": "M5R1H7", "twitter": "None", "instagram": "None", "facebook": "None", "youtube": "None", "website": "None", "summary": "None", "logo": "None", "latitude": 43.67370275105307, "longitude": -79.3913290429917}, "107307191RR0050": {"name": "THE ASSUMPTION OF OUR LADY PARISH", "designationCode": "C", "categoryCode": "38", "address": "BOX 79", "city": "KERROBERT", "province": "SK", "country": "CA", "postalCode": "S0L1R0", "twitter": "None", "instagram": "None", "facebook": "None", "youtube": "None", "website": "None", "summary": "None", "logo": "None", "latitude": 51.920060000000035, "longitude": -109.13800999999995}, "887648590RR0001": {"name": "THE ASSUMPTION OF THE BLESSED VIRGIN MARY-UKRAINIAN CATHOLICCHURCH", "designationCode": "C", "categoryCode": "38", "address": "BOX 82", "city": "GLENDON", "province": "AB", "country": "CA", "postalCode": "T0A1P0", "twitter": "None", "instagram": "None", "facebook": "None", "youtube": "None", "website": "None", "summary": "None", "logo": "None", "latitude": 54.247190000000046, "longitude": -111.15382999999997}, "893328211RR0001": {"name": "THE ASSYRIAN CHURCH OF THE EAST-DIOCESE OF CANADA-HAMILTON PARISH", "designationCode": "C", "categoryCode": "39", "address": "63 STONECHURCH RD W", "city": "HAMILTON", "province": "ON", "country": "CA", "postalCode": "L9B1A1", "twitter": "None", "instagram": "None", "facebook": "None", "youtube": "None", "website": "None", "summary": "None", "logo": "None", "latitude": 43.212120000000056, "longitude": -79.89333649999993}, "125422386RR0001": {"name": "THE ASTOR THEATRE SOCIETY", "designationCode": "C", "categoryCode": "22", "address": "PO BOX 1148", "city": "LIVERPOOL", "province": "NS", "country": "CA", "postalCode": "B0T1K0", "twitter": "None", "instagram": "None", "facebook": "None", "youtube": "None", "website": "None", "summary": "None", "logo": "None", "latitude": 44.03577000000007, "longitude": -64.72067999999996}, "888118197RR0001": {"name": "THE ASTRA SOCIETY OF HAMILTON & DISTRICT", "designationCode": "C", "categoryCode": "59", "address": "73 ROBERT STREET", "city": "HAMILTON", "province": "ON", "country": "CA", "postalCode": "L8L2P2", "twitter": "None", "instagram": "None", "facebook": "None", "youtube": "None", "website": "None", "summary": "None", "logo": "None", "latitude": 43.261511110767906, "longitude": -79.86341471689084}, "873814719RR0001": {"name": "THE ATA EDUCATIONAL TRUST", "designationCode": "C", "categoryCode": "21", "address": "11010-142STREET NW", "city": "EDMONTON", "province": "AB", "country": "CA", "postalCode": "T5N2R1", "twitter": "None", "instagram": "None", "facebook": "None", "youtube": "None", "website": "None", "summary": "None", "logo": "None", "latitude": 53.55744000000006, "longitude": -113.56597249999993}, "140466491RR0001": {"name": "THE ATHABASCA CONGREGATION OF JEHOVAH'S WITNESSES", "designationCode": "C", "categoryCode": "61", "address": "BOX 92", "city": "ATHABASCA", "province": "AB", "country": "CA", "postalCode": "T9S2A2", "twitter": "None", "instagram": "None", "facebook": "None", "youtube": "None", "website": "None", "summary": "None", "logo": "None", "latitude": 54.721284000000054, "longitude": -113.28321049999994}, "891196347RR0001": {"name": "THE ATHENIAN POLICY FORUM INC.", "designationCode": "C", "categoryCode": "21", "address": "DEPT OF ECONOMICS, RYERSON U  350 VICTORIA STREET", "city": "TORONTO", "province": "ON", "country": "CA", "postalCode": "M5B2K3", "twitter": "None", "instagram": "None", "facebook": "None", "youtube": "None", "website": "None", "summary": "None", "logo": "None", "latitude": 43.65780337745978, "longitude": -79.38023396699161}, "878069525RR0001": {"name": "THE ATID CHARITABLE FOUNDATION", "designationCode": "B", "categoryCode": "03", "address": "111 PROGRESS AVE", "city": "SCARBOROUGH", "province": "ON", "country": "CA", "postalCode": "M1P2Y9", "twitter": "None", "instagram": "None", "facebook": "None", "youtube": "None", "website": "None", "summary": "None", "logo": "None", "latitude": 43.772418375411895, "longitude": -79.27490277857977}, "119213874RR0001": {"name": "THE ATKINSON CHARITABLE FOUNDATION", "designationCode": "B", "categoryCode": "03", "address": "1 YONGE STREET                7TH FLOOR", "city": "TORONTO", "province": "ON", "country": "CA", "postalCode": "M5E1E5", "twitter": "None", "instagram": "None", "facebook": "None", "youtube": "None", "website": "None", "summary": "None", "logo": "None", "latitude": 43.64240744465904, "longitude": -79.3749228855681}, "887399061RR0001": {"name": "THE ATLANTIC AGRICULTURAL HALL OF FAME", "designationCode": "C", "categoryCode": "50", "address": "P.O. BOX 550", "city": "TRURO", "province": "NS", "country": "CA", "postalCode": "B2N5E3", "twitter": "None", "instagram": "None", "facebook": "None", "youtube": "None", "website": "None", "summary": "None", "logo": "None", "latitude": 45.36602700000006, "longitude": -63.289042999999936}, "881920607RR0001": {"name": "THE ATLANTIC CANADA PENTECOSTAL CAMPMEETING FELLOWSHIP", "designationCode": "C", "categoryCode": "49", "address": "4005 ROUTE 560", "city": "LOWER KNOXFORD", "province": "NB", "country": "CA", "postalCode": "E7K2R8", "twitter": "None", "instagram": "None", "facebook": "None", "youtube": "None", "website": "None", "summary": "None", "logo": "None", "latitude": 46.35521700000005, "longitude": -67.69787749999993}, "106736242RR0001": {"name": "THE ATLANTIC DISTRICT OF THE WESLEYAN CHURCH", "designationCode": "C", "categoryCode": "39", "address": "1830 MOUNTAIN RD", "city": "MONCTON", "province": "NB", "country": "CA", "postalCode": "E1G1A9", "twitter": "None", "instagram": "None", "facebook": "None", "youtube": "None", "website": "None", "summary": "None", "logo": "None", "latitude": 46.12170880930823, "longitude": -64.84815592951118}, "106736309RR0001": {"name": "THE ATLANTIC JEWISH COUNCIL", "designationCode": "C", "categoryCode": "56", "address": "309-5670 SPRING GARDEN RD", "city": "HALIFAX", "province": "NS", "country": "CA", "postalCode": "B3J1H6", "twitter": "None", "instagram": "None", "facebook": "None", "youtube": "None", "website": "None", "summary": "None", "logo": "None", "latitude": 44.64321800521938, "longitude": -63.57617228611219}, "863702528RR0001": {"name": "THE ATTOE FOUNDATION", "designationCode": "B", "categoryCode": "03", "address": "119 PRIDEAUX ST.              BOX 1003", "city": "NIAGARA ON THE LAKE", "province": "ON", "country": "CA", "postalCode": "L0S1J0", "twitter": "None", "instagram": "None", "facebook": "None", "youtube": "None", "website": "None", "summary": "None", "logo": "None", "latitude": 43.25784179462168, "longitude": -79.07348736205209}, "863735155RR0001": {"name": "THE AUBREY AND MARLA DAN CHARITABLE FOUNDATION", "designationCode": "B", "categoryCode": "05", "address": "197 SHEPPARD AVENUE WEST", "city": "TORONTO", "province": "ON", "country": "CA", "postalCode": "M2N1M9", "twitter": "None", "instagram": "None", "facebook": "None", "youtube": "None", "website": "None", "summary": "None", "logo": "None", "latitude": 43.7593548420568, "longitude": -79.42050748666979}, "119214559RR0001": {"name": "THE AUDETTE FOUNDATION/LA FONDATION AUDETTE", "designationCode": "B", "categoryCode": "13", "address": "451 BESSERER STREET", "city": "OTTAWA", "province": "ON", "country": "CA", "postalCode": "K1N6C2", "twitter": "None", "instagram": "None", "facebook": "None", "youtube": "None", "website": "None", "summary": "None", "logo": "None", "latitude": 45.430982192076776, "longitude": -75.67844528241667}, "874601370RR0001": {"name": "THE AUDEY STANLEIGH LEUKEMIA RESEARCH FOUNDATION", "designationCode": "A", "categoryCode": "13", "address": "20 YORK MILLS ROAD            SUITE 100", "city": "TORONTO", "province": "ON", "country": "CA", "postalCode": "M2P2C2", "twitter": "None", "instagram": "None", "facebook": "None", "youtube": "None", "website": "None", "summary": "None", "logo": "None", "latitude": 43.74436650764604, "longitude": -79.40470994018698}, "893356568RR0001": {"name": "THE AUDREY AND DONALD CAMPBELL FOUNDATION", "designationCode": "B", "categoryCode": "25", "address": "18 VARSVILLE PLACE NW", "city": "CALGARY", "province": "AB", "country": "CA", "postalCode": "T3A0A8", "twitter": "None", "instagram": "None", "facebook": "None", "youtube": "None", "website": "None", "summary": "None", "logo": "None", "latitude": 51.08519243104038, "longitude": -114.14286010491085}, "879436426RR0001": {"name": "THE AUSABLE COMMUNITY CENTRE", "designationCode": "C", "categoryCode": "56", "address": "183 MAIN ST", "city": "LUCAN", "province": "ON", "country": "CA", "postalCode": "N0M2J0", "twitter": "None", "instagram": "None", "facebook": "None", "youtube": "None", "website": "None", "summary": "None", "logo": "None", "latitude": 43.188535507781495, "longitude": -81.40485018069118}, "856623871RR0001": {"name": "THE AUTISM CENTRE OF CANADA", "designationCode": "C", "categoryCode": "11", "address": "33 GLENDALE AVE", "city": "LONDON", "province": "ON", "country": "CA", "postalCode": "N6J2H9", "twitter": "None", "instagram": "None", "facebook": "None", "youtube": "None", "website": "None", "summary": "None", "logo": "None", "latitude": 42.94245768884546, "longitude": -81.26152731141434}, "863598165RR0001": {"name": "THE AUXILIARY OF DAWSON COURT", "designationCode": "C", "categoryCode": "19", "address": "32 RUTTAN ST", "city": "THUNDER BAY", "province": "ON", "country": "CA", "postalCode": "P7A5C3", "twitter": "None", "instagram": "None", "facebook": "None", "youtube": "None", "website": "None", "summary": "None", "logo": "None", "latitude": 48.44526087261234, "longitude": -89.21639056592986}, "891441545RR0001": {"name": "THE AUXILIARY OF GUYSBOROUGH MEMORIAL HOSPITAL", "designationCode": "C", "categoryCode": "19", "address": "PO BOX 181", "city": "GUYSBOROUGH", "province": "NS", "country": "CA", "postalCode": "B0H1N0", "twitter": "None", "instagram": "None", "facebook": "None", "youtube": "None", "website": "None", "summary": "None", "logo": "None", "latitude": 45.37026600000006, "longitude": -61.50474349999993}, "119214633RR0001": {"name": "THE AUXILIARY OF HASTINGS CENTENNIAL MANOR", "designationCode": "C", "categoryCode": "19", "address": "BOX 1315", "city": "BANCROFT", "province": "ON", "country": "CA", "postalCode": "K0L1C0", "twitter": "None", "instagram": "None", "facebook": "None", "youtube": "None", "website": "None", "summary": "None", "logo": "None", "latitude": 45.03567300000006, "longitude": -77.98000849999994}, "890813991RR0001": {"name": "THE AUXILIARY OF HILLEL LODGE", "designationCode": "C", "categoryCode": "09", "address": "1702 - 3590 RIVERGATE WAY", "city": "OTTAWA", "province": "ON", "country": "CA", "postalCode": "K1V1V6", "twitter": "None", "instagram": "None", "facebook": "None", "youtube": "None", "website": "None", "summary": "None", "logo": "None", "latitude": 45.34570609654366, "longitude": -75.6930267269888}, "858502586RR0001": {"name": "THE AUXILIARY OF LAKERIDGE HEALTH OSHAWA", "designationCode": "C", "categoryCode": "19", "address": "1 HOSPITAL COURT", "city": "OSHAWA", "province": "ON", "country": "CA", "postalCode": "L1G2B9", "twitter": "None", "instagram": "None", "facebook": "None", "youtube": "None", "website": "None", "summary": "None", "logo": "None", "latitude": 43.90625233270865, "longitude": -78.86963183493035}, "119214641RR0001": {"name": "THE AUXILIARY OF THE IWK HEALTH CENTRE", "designationCode": "C", "categoryCode": "19", "address": "5850/5980 UNIVERSITY AVE      PO BOX 9700", "city": "HALIFAX", "province": "NS", "country": "CA", "postalCode": "B3K6R8", "twitter": "None", "instagram": "None", "facebook": "None", "youtube": "None", "website": "None", "summary": "None", "logo": "None", "latitude": 44.63807180860951, "longitude": -63.58525377169834}, "892805565RR0001": {"name": "THE AUXILIARY OF THE LAKESHORE GENERAL HOSPITAL", "designationCode": "C", "categoryCode": "19", "address": "160 STILLVIEW RD", "city": "POINTE-CLAIRE", "province": "QC", "country": "CA", "postalCode": "H9R2Y2", "twitter": "None", "instagram": "None", "facebook": "None", "youtube": "None", "website": "None", "summary": "None", "logo": "None", "latitude": 45.44963096165417, "longitude": -73.8323363844993}, "889452041RR0001": {"name": "THE AUXILIARY OF THE ROYAL VICTORIA HOSPITAL", "designationCode": "C", "categoryCode": "19", "address": "337 - 8300 BOUL DECARIE", "city": "MONTREAL", "province": "QC", "country": "CA", "postalCode": "H4P2P5", "twitter": "None", "instagram": "None", "facebook": "None", "youtube": "None", "website": "None", "summary": "None", "logo": "None", "latitude": 45.499640596976356, "longitude": -73.66202108052947}, "126635739RR0001": {"name": "THE AUXILIARY OF THE WEST PARRY SOUND HEALTH CENTRE", "designationCode": "C", "categoryCode": "19", "address": "6 ALBERT STREET", "city": "PARRY SOUND", "province": "ON", "country": "CA", "postalCode": "P2A3A4", "twitter": "None", "instagram": "None", "facebook": "None", "youtube": "None", "website": "None", "summary": "None", "logo": "None", "latitude": 45.34190277268198, "longitude": -80.01937494825869}, "119253144RR0001": {"name": "THE AUXILIARY TO BRITISH COLUMBIA'S WOMEN'S HOSPITAL AND HEALTH CENTRE", "designationCode": "C", "categoryCode": "19", "address": "4500 OAK ST", "city": "VANCOUVER", "province": "BC", "country": "CA", "postalCode": "V6H3N1", "twitter": "None", "instagram": "None", "facebook": "None", "youtube": "None", "website": "None", "summary": "None", "logo": "None", "latitude": 49.245341714296835, "longitude": -123.12762421429682}, "132486390RR0001": {"name": "THE AUXILIARY TO SAANICH PENINSULA HOSPITAL", "designationCode": "C", "categoryCode": "19", "address": "2166 MT. NEWTON X ROAD", "city": "SAANICHTON", "province": "BC", "country": "CA", "postalCode": "V8M2B2", "twitter": "None", "instagram": "None", "facebook": "None", "youtube": "None", "website": "None", "summary": "None", "logo": "None", "latitude": 48.59419492048082, "longitude": -123.4100479829488}, "119214757RR0001": {"name": "THE AUXILIARY TO THE CORNWALL COMMUNITY HOSPITAL/LES AUXILIAIRES DE L'HOPITAL COMMUNAUTAIRE DE CORNWALL", "designationCode": "C", "categoryCode": "19", "address": "540 MCCONNELL", "city": "CORNWALL", "province": "ON", "country": "CA", "postalCode": "K6H5S5", "twitter": "None", "instagram": "None", "facebook": "None", "youtube": "None", "website": "None", "summary": "None", "logo": "None"}, "131273690RR0001": {"name": "THE AUXILIARY TO THE LIONS GATE HOSPITAL", "designationCode": "C", "categoryCode": "19", "address": "231 E 15TH ST", "city": "NORTH VANCOUVER", "province": "BC", "country": "CA", "postalCode": "V7L2L7", "twitter": "None", "instagram": "None", "facebook": "None", "youtube": "None", "website": "None", "summary": "None", "logo": "None"}, "119214781RR0001": {"name": "THE AUXILIARY TO THE SOUTH MUSKOKA MEMORIAL HOSPITAL", "designationCode": "A", "categoryCode": "15", "address": "P. O. BOX 448", "city": "BRACEBRIDGE", "province": "ON", "country": "CA", "postalCode": "P1L1T7", "twitter": "None", "instagram": "None", "facebook": "None", "youtube": "None", "website": "None", "summary": "None", "logo": "None", "latitude": 45.055572000000055, "longitude": -79.28863099999994}, "130356223RR0001": {"name": "THE AUXILIARY, ESPANOLA GENERAL HOSPITAL", "designationCode": "C", "categoryCode": "19", "address": "825 MCKINNON DR", "city": "ESPANOLA", "province": "ON", "country": "CA", "postalCode": "P5E1R4", "twitter": "None", "instagram": "None", "facebook": "None", "youtube": "None", "website": "None", "summary": "None", "logo": "None", "latitude": 46.24785217762567, "longitude": -81.78006821715525}, "892913369RR0001": {"name": "THE AUXILIUM FOUNDATION", "designationCode": "B", "categoryCode": "03", "address": "96 STERLING SPRINGS CRES SW", "city": "CALGARY", "province": "AB", "country": "CA", "postalCode": "T3Z3J7", "twitter": "None", "instagram": "None", "facebook": "None", "youtube": "None", "website": "None", "summary": "None", "logo": "None", "latitude": 51.054646314761214, "longitude": -114.30106912481924}, "878647569RR0001": {"name": "THE AVALOKITESVARA BUDDHIST TEMPLE SOCIETY INC", "designationCode": "C", "categoryCode": "35", "address": "2220 - 20TH ST WEST", "city": "SASKATOON", "province": "SK", "country": "CA", "postalCode": "S7M1B1", "twitter": "None", "instagram": "None", "facebook": "None", "youtube": "None", "website": "None", "summary": "None", "logo": "None", "latitude": 52.126200511541185, "longitude": -106.70555233236193}, "119214831RR0001": {"name": "THE AVELINO GOMEZ MEMORIAL FOUNDATION", "designationCode": "C", "categoryCode": "09", "address": "PO BOX 156 STN B              SEC-TREASURER / 555 REXDALE BL", "city": "TORONTO", "province": "ON", "country": "CA", "postalCode": "M9W5L2", "twitter": "None", "instagram": "None", "facebook": "None", "youtube": "None", "website": "None", "summary": "None", "logo": "None", "latitude": 43.719061489783854, "longitude": -79.6035760049786}, "893744623RR0001": {"name": "THE AVILA FOUNDATION", "designationCode": "B", "categoryCode": "43", "address": "2025 MAIN ST W", "city": "NORTH BAY", "province": "ON", "country": "CA", "postalCode": "P1B2X6", "twitter": "None", "instagram": "None", "facebook": "None", "youtube": "None", "website": "None", "summary": "None", "logo": "None", "latitude": 46.32472054833007, "longitude": -79.49626561962603}, "899357768RR0001": {"name": "THE AVON RIVER HERITAGE SOCIETY", "designationCode": "C", "categoryCode": "50", "address": "17 BELMONT ROAD               RR 2", "city": "NEWPORT", "province": "NS", "country": "CA", "postalCode": "B0N2A0", "twitter": "None", "instagram": "None", "facebook": "None", "youtube": "None", "website": "None", "summary": "None", "logo": "None", "latitude": 45.02216049293086, "longitude": -64.13040298961263}, "891197972RR0001": {"name": "THE AVON TRAIL", "designationCode": "C", "categoryCode": "56", "address": "BOX 21148", "city": "STRATFORD", "province": "ON", "country": "CA", "postalCode": "N5A7V4", "twitter": "None", "instagram": "None", "facebook": "None", "youtube": "None", "website": "None", "summary": "None", "logo": "None", "latitude": 43.37013300000005, "longitude": -80.98191349999993}, "119214856RR0001": {"name": "THE AVONGLEN GOSPEL MISSION", "designationCode": "C", "categoryCode": "39", "address": "RR 1", "city": "IRMA", "province": "AB", "country": "CA", "postalCode": "T0B2H0", "twitter": "None", "instagram": "None", "facebook": "None", "youtube": "None", "website": "None", "summary": "None", "logo": "None", "latitude": 52.91172000000006, "longitude": -111.23200999999995}, "848012969RR0001": {"name": "THE AVROM AND SUSIE LEBOVIC CHARITABLE TRUST", "designationCode": "B", "categoryCode": "03", "address": "21 FRONTENAC AVENUE", "city": "TORONTO", "province": "ON", "country": "CA", "postalCode": "M5N1Z4", "twitter": "None", "instagram": "None", "facebook": "None", "youtube": "None", "website": "None", "summary": "None", "logo": "None", "latitude": 43.71822782763008, "longitude": -79.4222553985516}, "858293947RR0001": {"name": "THE AYN RAND INSTITUTE (CANADA): THE CENTRE FOR THE ADVANCEMENT OF OBJECTIVISM IN CANADA", "designationCode": "C", "categoryCode": "21", "address": "812-6540 E HASTINGS ST", "city": "BURNABY", "province": "BC", "country": "CA", "postalCode": "V5B4Z5", "twitter": "None", "instagram": "None", "facebook": "None", "youtube": "None", "website": "None", "summary": "None", "logo": "None", "latitude": 49.28034742864649, "longitude": -122.97762727805875}, "874392160RR0001": {"name": "THE AZAMRA INSTITUTE (CANADA)", "designationCode": "C", "categoryCode": "49", "address": "501-80 RICHMOND STREET WEST", "city": "TORONTO", "province": "ON", "country": "CA", "postalCode": "M5H2A4", "twitter": "None", "instagram": "None", "facebook": "None", "youtube": "None", "website": "None", "summary": "None", "logo": "None", "latitude": 43.6510710302671, "longitude": -79.38181068445937}, "892425166RR0001": {"name": "THE AZRIELI FOUNDATION / LA FONDATION AZRIELI", "designationCode": "A", "categoryCode": "03", "address": "1010 ST. CATHERINE ST. WEST   SUITE 1200", "city": "MONTREAL", "province": "QC", "country": "CA", "postalCode": "H3B3S3", "twitter": "None", "instagram": "None", "facebook": "None", "youtube": "None", "website": "None", "summary": "None", "logo": "None", "latitude": 45.50034272188251, "longitude": -73.57251951800474}, "119215333RR0001": {"name": "THE B C LIONS ALUMNI ASSOCIATION FOUNDATION", "designationCode": "A", "categoryCode": "63", "address": "2900 - 550 BURRARD STREET", "city": "VANCOUVER", "province": "BC", "country": "CA", "postalCode": "V6C0A3", "twitter": "None", "instagram": "None", "facebook": "None", "youtube": "None", "website": "None", "summary": "None", "logo": "None", "latitude": 49.28596391921073, "longitude": -123.11870289255033}, "119215929RR0001": {"name": "THE B I GHERT FAMILY FOUNDATION", "designationCode": "B", "categoryCode": "03", "address": "250 DAVISVILLE AVE            SUITE 108", "city": "TORONTO", "province": "ON", "country": "CA", "postalCode": "M4S1H2", "twitter": "None", "instagram": "None", "facebook": "None", "youtube": "None", "website": "None", "summary": "None", "logo": "None", "latitude": 43.70042313240798, "longitude": -79.38643651333021}, "136905387RR0001": {"name": "THE B KATHLEEN DROST AND G EDWARD DROST EDUCATION AWARD", "designationCode": "C", "categoryCode": "21", "address": "4049 ROUTE 640", "city": "HARVEY STATION", "province": "NB", "country": "CA", "postalCode": "E6K2Y7", "twitter": "None", "instagram": "None", "facebook": "None", "youtube": "None", "website": "None", "summary": "None", "logo": "None", "latitude": 45.7703830281461, "longitude": -66.90248027835301}, "866659436RR0001": {"name": "THE B P SERVICE ASSOCIATION", "designationCode": "C", "categoryCode": "29", "address": "157 BREARS ROAD", "city": "QUESNEL", "province": "BC", "country": "CA", "postalCode": "V2J4G3", "twitter": "None", "instagram": "None", "facebook": "None", "youtube": "None", "website": "None", "summary": "None", "logo": "None", "latitude": 52.97740200000001, "longitude": -122.43174666146297}, "885404848RR0001": {"name": "THE B PADDISON FAMILY TRUST", "designationCode": "B", "categoryCode": "25", "address": "BOX 363", "city": "QUATHIASKI COVE", "province": "BC", "country": "CA", "postalCode": "V0P1N0", "twitter": "None", "instagram": "None", "facebook": "None", "youtube": "None", "website": "None", "summary": "None", "logo": "None", "latitude": 50.042146929765416, "longitude": -125.2168640925508}, "119214914RR0001": {"name": "THE B. A. HIMEL FAMILY FOUNDATION", "designationCode": "B", "categoryCode": "03", "address": "3636 WESTON RD", "city": "TORONTO", "province": "ON", "country": "CA", "postalCode": "M9L1W2", "twitter": "None", "instagram": "None", "facebook": "None", "youtube": "None", "website": "None", "summary": "None", "logo": "None", "latitude": 43.759110814588354, "longitude": -79.54412631816541}}