{"892810763RR0001": {"name": "CANADIAN RURAL REVITALIZATION FOUNDATION", "designationCode": "C", "categoryCode": "21", "address": "420 14TH STREET", "city": "BRANDON", "province": "MB", "country": "CA", "postalCode": "R7A4T3", "twitter": "None", "instagram": "None", "facebook": "None", "youtube": "None", "website": "None", "summary": "None", "logo": "None", "latitude": 49.84331336081135, "longitude": -99.95693412839726}, "859362840RR0001": {"name": "CANADIAN SAMARITANS FOR AFRICA", "designationCode": "B", "categoryCode": "03", "address": "174-99 BRISTOL RD EAST", "city": "MISSISSAUGA", "province": "ON", "country": "CA", "postalCode": "L4Z3P4", "twitter": "None", "instagram": "None", "facebook": "None", "youtube": "None", "website": "None", "summary": "None", "logo": "None", "latitude": 43.61580568243533, "longitude": -79.66182308220188}, "890334840RR0001": {"name": "CANADIAN SCHOLARSHIP FUND OF OHR HAMEIR", "designationCode": "C", "categoryCode": "25", "address": "230 QUERBES", "city": "OUTREMONT", "province": "QC", "country": "CA", "postalCode": "H2V3W2", "twitter": "None", "instagram": "None", "facebook": "None", "youtube": "None", "website": "None", "summary": "None", "logo": "None", "latitude": 45.51862589174227, "longitude": -73.60039236193653}, "134591346RR0001": {"name": "CANADIAN SCIENCE AND TECHNOLOGY HISTORICAL ASSOCIATION", "designationCode": "C", "categoryCode": "21", "address": "PO BOX 9724 STN T CSC", "city": "OTTAWA", "province": "ON", "country": "CA", "postalCode": "K1G5A3", "twitter": "None", "instagram": "None", "facebook": "None", "youtube": "None", "website": "None", "summary": "None", "logo": "None", "latitude": 45.4075526747762, "longitude": -75.65114751410245}, "885018762RR0001": {"name": "CANADIAN SEARCH DOG ASSOCIATION", "designationCode": "C", "categoryCode": "59", "address": "PO BOX 37103                  LYNNWOOD POSTAL OUTLET", "city": "EDMONTON", "province": "AB", "country": "CA", "postalCode": "T5R5Y2", "twitter": "None", "instagram": "None", "facebook": "None", "youtube": "None", "website": "None", "summary": "None", "logo": "None", "latitude": 53.51406257466714, "longitude": -113.5791513640878}, "892499740RR0001": {"name": "CANADIAN SECURITIES INSTITUTE RESEARCH FOUNDATION", "designationCode": "C", "categoryCode": "23", "address": "1500 - 200 WELLINGTON ST W", "city": "TORONTO", "province": "ON", "country": "CA", "postalCode": "M5V3C7", "twitter": "None", "instagram": "None", "facebook": "None", "youtube": "None", "website": "None", "summary": "None", "logo": "None", "latitude": 43.64244993859917, "longitude": -79.40306966835217}, "118836139RR0001": {"name": "CANADIAN SEPHARDIC HERITAGE FOUNDATION", "designationCode": "C", "categoryCode": "20", "address": "5151, AV. BOURRET", "city": "MONTREAL", "province": "QC", "country": "CA", "postalCode": "H3W1L6", "twitter": "None", "instagram": "None", "facebook": "None", "youtube": "None", "website": "None", "summary": "None", "logo": "None", "latitude": 45.48988884791385, "longitude": -73.63766726521999}, "861221778RR0001": {"name": "CANADIAN SERBIAN HUMANITARIAN FOUNDATION STARA RASKA", "designationCode": "C", "categoryCode": "09", "address": "5486 EIGHTH LINE", "city": "MILTON", "province": "ON", "country": "CA", "postalCode": "L9E1A6", "twitter": "None", "instagram": "None", "facebook": "None", "youtube": "None", "website": "None", "summary": "None", "logo": "None", "latitude": 43.537348837181646, "longitude": -79.76014917733106}, "845720275RR0001": {"name": "CANADIAN SERVANTS OF THE HOLY FAMILY", "designationCode": "C", "categoryCode": "39", "address": "P.P. BOX 1296                 STATION B", "city": "OTTAWA", "province": "ON", "country": "CA", "postalCode": "K1P8E3", "twitter": "None", "instagram": "None", "facebook": "None", "youtube": "None", "website": "None", "summary": "None", "logo": "None", "latitude": 45.420815000000005, "longitude": -75.69872591282052}, "106866718RR0001": {"name": "CANADIAN SHAARE ZEDEK HOSPITAL FOUNDATION/FONDATION CANADIENNE DE L'HOPITAL SHAARE ZEDEK", "designationCode": "C", "categoryCode": "21", "address": "205-3089 BATHURST STREET", "city": "TORONTO", "province": "ON", "country": "CA", "postalCode": "M6A2A4", "twitter": "None", "instagram": "None", "facebook": "None", "youtube": "None", "website": "None", "summary": "None", "logo": "None", "latitude": 43.72029554232787, "longitude": -79.42995586952526}, "118836154RR0001": {"name": "CANADIAN SIKH STUDY AND TEACHING SOCIETY", "designationCode": "C", "categoryCode": "62", "address": "BOX 60153 FRASER POSTAL OUTLET", "city": "VANCOUVER", "province": "BC", "country": "CA", "postalCode": "V5W4B5", "twitter": "None", "instagram": "None", "facebook": "None", "youtube": "None", "website": "None", "summary": "None", "logo": "None", "latitude": 49.23284580727792, "longitude": -123.09059392308654}, "871392320RR0001": {"name": "CANADIAN SINFONIETTA", "designationCode": "C", "categoryCode": "22", "address": "107 GLENGROVE AVE. WEST", "city": "TORONTO", "province": "ON", "country": "CA", "postalCode": "M4R1P1", "twitter": "None", "instagram": "None", "facebook": "None", "youtube": "None", "website": "None", "summary": "None", "logo": "None", "latitude": 43.71825978377298, "longitude": -79.40695768275727}, "869370106RR0001": {"name": "CANADIAN SKIN CANCER FOUNDATION", "designationCode": "C", "categoryCode": "11", "address": "PO BOX 67178                  MEADOWKARK RPO", "city": "EDMONTON", "province": "AB", "country": "CA", "postalCode": "T5R5Y3", "twitter": "None", "instagram": "None", "facebook": "None", "youtube": "None", "website": "None", "summary": "None", "logo": "None", "latitude": 53.52145406559799, "longitude": -113.5958369896544}, "893410969RR0001": {"name": "CANADIAN SLEEP SOCIETY/SOCIETE CANADIENNE DU SOMMEIL", "designationCode": "C", "categoryCode": "23", "address": "500 GLENRIDGE AVE", "city": "ST CATHARINES", "province": "ON", "country": "CA", "postalCode": "L2S3A1", "twitter": "None", "instagram": "None", "facebook": "None", "youtube": "None", "website": "None", "summary": "None", "logo": "None", "latitude": 43.121313000000015, "longitude": -79.24346910257358}, "118836170RR0001": {"name": "CANADIAN SOCIETY FOR ASIAN ARTS", "designationCode": "C", "categoryCode": "22", "address": "260-5655 CAMBIE ST", "city": "VANCOUVER", "province": "BC", "country": "CA", "postalCode": "V5Z3A4", "twitter": "None", "instagram": "None", "facebook": "None", "youtube": "None", "website": "None", "summary": "None", "logo": "None", "latitude": 49.23398812101101, "longitude": -123.1163924689535}, "869339440RR0001": {"name": "CANADIAN SOCIETY FOR CIVIL ENGINEERING FOUNDATION TRUSTEES/A", "designationCode": "C", "categoryCode": "21", "address": "4877 RUE SHERBROOKE OUEST     WESTMOUNT", "city": "MONTREAL", "province": "QC", "country": "CA", "postalCode": "H3Z1G9", "twitter": "None", "instagram": "None", "facebook": "None", "youtube": "None", "website": "None", "summary": "None", "logo": "None", "latitude": 45.47850948433253, "longitude": -73.60405243799394}, "887091197RR0001": {"name": "CANADIAN SOCIETY FOR EDUCATION THROUGH ART/SOCIETE CANADIENNE D'EDUCATION PAR L'ART", "designationCode": "C", "categoryCode": "22", "address": "PO BOX 1700,STN CSC, UNIV OF  VICTORIA FAC OF ED DEPT CURRIC", "city": "VICTORIA", "province": "BC", "country": "CA", "postalCode": "V8W2Y2", "twitter": "None", "instagram": "None", "facebook": "None", "youtube": "None", "website": "None", "summary": "None", "logo": "None", "latitude": 48.42854700000005, "longitude": -123.36445249999994}, "873837363RR0001": {"name": "CANADIAN SOCIETY FOR EIGHTEENTH-CENTURY STUDIES/SOCIETE CANAdienne d'etude du dix-huitieme siecle", "designationCode": "C", "categoryCode": "21", "address": "1125 COLONEL BY DRIVE", "city": "OTTAWA", "province": "ON", "country": "CA", "postalCode": "K1S5B6", "twitter": "None", "instagram": "None", "facebook": "None", "youtube": "None", "website": "None", "summary": "None", "logo": "None", "latitude": 45.38847501361867, "longitude": -75.70004668749007}, "139789614RR0001": {"name": "CANADIAN SOCIETY FOR ENVIRONMENTAL MEDICINE", "designationCode": "C", "categoryCode": "21", "address": "3364 CARLING AVENUE", "city": "OTTAWA", "province": "ON", "country": "CA", "postalCode": "K2H5A8", "twitter": "None", "instagram": "None", "facebook": "None", "youtube": "None", "website": "None", "summary": "None", "logo": "None", "latitude": 45.351189075192025, "longitude": -75.83038189399262}, "888708047RR0001": {"name": "CANADIAN SOCIETY FOR INFORMATION CHILDREN", "designationCode": "C", "categoryCode": "09", "address": "SIMON FRASER UNIVERSITY, SFU. DISCOVERY PARK, ROOM 133 & 135", "city": "BURNABY", "province": "BC", "country": "CA", "postalCode": "V5A1S6", "twitter": "None", "instagram": "None", "facebook": "None", "youtube": "None", "website": "None", "summary": "None", "logo": "None", "latitude": 49.27742000000006, "longitude": -122.91973999999999}, "889006391RR0001": {"name": "CANADIAN SOCIETY FOR MESOAMERICAN STUDIES/ SOCIETE CANADIENNE D'ETUDES MESOAMERICAINES", "designationCode": "C", "categoryCode": "21", "address": "24 SPRINGFIELD ROAD           APT 203", "city": "OTTAWA", "province": "ON", "country": "CA", "postalCode": "K1M1C9", "twitter": "None", "instagram": "None", "facebook": "None", "youtube": "None", "website": "None", "summary": "None", "logo": "None", "latitude": 45.44071300582837, "longitude": -75.67661951915858}, "886794197RR0001": {"name": "CANADIAN SOCIETY FOR PSYCHOMOTOR LEARNING AND SPORT PSYCHOLOGY", "designationCode": "C", "categoryCode": "11", "address": "352 - 125 UNIVERSITE PVT", "city": "OTTAWA", "province": "ON", "country": "CA", "postalCode": "K1N6N5", "twitter": "None", "instagram": "None", "facebook": "None", "youtube": "None", "website": "None", "summary": "None", "logo": "None", "latitude": 45.422457989586825, "longitude": -75.6825260472164}, "106866874RR0001": {"name": "CANADIAN SOCIETY FOR THE STUDY OF EDUCATION-SOCIETE CANADIENNE POUR L'ETUDE DE L'EDUCATION", "designationCode": "C", "categoryCode": "21", "address": "204-260 DALHOUSIE ST", "city": "OTTAWA", "province": "ON", "country": "CA", "postalCode": "K1N7E4", "twitter": "None", "instagram": "None", "facebook": "None", "youtube": "None", "website": "None", "summary": "None", "logo": "None", "latitude": 45.430645002769964, "longitude": -75.69270559368677}, "126493626RR0001": {"name": "CANADIAN SOCIETY FOR THE STUDY OF HIGHER EDUCATION/LA SOCIETE CANADIENNE POUR L'ETUDE DE L'ENSEIGNEMENT SUPERIEUR", "designationCode": "C", "categoryCode": "21", "address": "260 DALHOUSIE STREET          SUITE 204", "city": "OTTAWA", "province": "ON", "country": "CA", "postalCode": "K1N7E4", "twitter": "None", "instagram": "None", "facebook": "None", "youtube": "None", "website": "None", "summary": "None", "logo": "None", "latitude": 45.430645002769964, "longitude": -75.69270559368677}, "890866965RR0001": {"name": "CANADIAN SOCIETY FOR THE STUDY OF NAMES", "designationCode": "C", "categoryCode": "21", "address": "1469, RUE MATTAGAMI", "city": "OTTAWA", "province": "ON", "country": "CA", "postalCode": "K1T2T8", "twitter": "None", "instagram": "None", "facebook": "None", "youtube": "None", "website": "None", "summary": "None", "logo": "None", "latitude": 45.35066514639807, "longitude": -75.63859071516111}, "894471622RR0001": {"name": "CANADIAN SOCIETY FOR UKRAINIAN LABOUR RESEARCH", "designationCode": "C", "categoryCode": "21", "address": "595 PRITCHARD AVE", "city": "WINNIPEG", "province": "MB", "country": "CA", "postalCode": "R2W2K4", "twitter": "None", "instagram": "None", "facebook": "None", "youtube": "None", "website": "None", "summary": "None", "logo": "None", "latitude": 49.91780199030513, "longitude": -97.14885251927416}, "118836246RR0001": {"name": "CANADIAN SOCIETY FOR YAD VASHEM", "designationCode": "C", "categoryCode": "21", "address": "218-265 RIMROCK RD", "city": "TORONTO", "province": "ON", "country": "CA", "postalCode": "M3J3C6", "twitter": "None", "instagram": "None", "facebook": "None", "youtube": "None", "website": "None", "summary": "None", "logo": "None", "latitude": 43.75731783758474, "longitude": -79.46672738063377}, "891378762RR0001": {"name": "CANADIAN SOCIETY OF ADDICTION MEDICINE / LA SOCIETE MEDICALE CANADIENNE SUR L'ADDICTION", "designationCode": "C", "categoryCode": "11", "address": "47 TUSCANY RIDGE TERRACE NW", "city": "CALGARY", "province": "AB", "country": "CA", "postalCode": "T3L3A5", "twitter": "None", "instagram": "None", "facebook": "None", "youtube": "None", "website": "None", "summary": "None", "logo": "None", "latitude": 51.12282894393788, "longitude": -114.25604513018628}, "889721684RR0001": {"name": "CANADIAN SOCIETY OF BIBLICAL STUDIES / SOCIETE CANADIENNE DES ETUDES BIBLIQUES", "designationCode": "C", "categoryCode": "21", "address": "75 UNIVERSITY AVENUE WEST", "city": "WATERLOO", "province": "ON", "country": "CA", "postalCode": "N2L3C5", "twitter": "None", "instagram": "None", "facebook": "None", "youtube": "None", "website": "None", "summary": "None", "logo": "None", "latitude": 43.474871381037815, "longitude": -80.52850186744779}, "886343391RR0001": {"name": "CANADIAN SOCIETY OF DECORATIVE ARTS", "designationCode": "C", "categoryCode": "22", "address": "23 CHICORA AVE", "city": "TORONTO", "province": "ON", "country": "CA", "postalCode": "M5R1T7", "twitter": "None", "instagram": "None", "facebook": "None", "youtube": "None", "website": "None", "summary": "None", "logo": "None", "latitude": 43.67612582763008, "longitude": -79.3982881470945}, "106866932RR0001": {"name": "CANADIAN SOCIETY OF FORENSIC SCIENCE/LA SOCIETE CANADIENNE DES SCIENCES JUDICIAIRES", "designationCode": "C", "categoryCode": "21", "address": "PO BOX 37040                  3332 MCCARTHY ROAD", "city": "OTTAWA", "province": "ON", "country": "CA", "postalCode": "K1V0W0", "twitter": "None", "instagram": "None", "facebook": "None", "youtube": "None", "website": "None", "summary": "None", "logo": "None", "latitude": 45.35131173544385, "longitude": -75.67025572719129}, "118836204RR0001": {"name": "CANADIAN SOCIETY OF PHARMACOLOGY AND THERAPEUTICS - SOCI\u00c9T\u00c9 CANADIENNE DE LA PHARMACOLOGIE ET DE LA TH\u00c9RAPEUTIQUE", "designationCode": "C", "categoryCode": "21", "address": "62 TRAGINA AVENUE SOUTH", "city": "HAMILTON", "province": "ON", "country": "CA", "postalCode": "L8K2Z3", "twitter": "None", "instagram": "None", "facebook": "None", "youtube": "None", "website": "None", "summary": "None", "logo": "None", "latitude": 43.23623281571351, "longitude": -79.80624465003734}, "118836311RR0001": {"name": "CANADIAN SOCIETY PROMOTING ENVIRONMENTAL CONSERVATION", "designationCode": "C", "categoryCode": "59", "address": "2305 7TH AVE W", "city": "VANCOUVER", "province": "BC", "country": "CA", "postalCode": "V6K1Y4", "twitter": "None", "instagram": "None", "facebook": "None", "youtube": "None", "website": "None", "summary": "None", "logo": "None", "latitude": 49.26569751875454, "longitude": -123.15805077407813}, "118836329RR0001": {"name": "CANADIAN SOUTH AMERICA MISSION INC.", "designationCode": "C", "categoryCode": "47", "address": "1633 DOUGALL AVENUE", "city": "WINDSOR", "province": "ON", "country": "CA", "postalCode": "N8X1S4", "twitter": "None", "instagram": "None", "facebook": "None", "youtube": "None", "website": "None", "summary": "None", "logo": "None", "latitude": 42.29646169080736, "longitude": -83.02910926299829}, "132291642RR0001": {"name": "CANADIAN SOUTHERN BAPTIST SEMINARY", "designationCode": "C", "categoryCode": "49", "address": "200 SEMINARY VIEW", "city": "COCHRANE", "province": "AB", "country": "CA", "postalCode": "T4C2G1", "twitter": "None", "instagram": "None", "facebook": "None", "youtube": "None", "website": "None", "summary": "None", "logo": "None", "latitude": 51.20739311396453, "longitude": -114.48783494088971}, "119159515RR0001": {"name": "CANADIAN SPINAL RESEARCH ORGANIZATION", "designationCode": "C", "categoryCode": "11", "address": "601 - 90 EGLINTON AVE E", "city": "TORONTO", "province": "ON", "country": "CA", "postalCode": "M4P2Y3", "twitter": "None", "instagram": "None", "facebook": "None", "youtube": "None", "website": "None", "summary": "None", "logo": "None", "latitude": 43.7089009100495, "longitude": -79.38780176683875}, "118836386RR0001": {"name": "CANADIAN STUDENT DEBATING FEDERATION/FEDERATION CANADIENNE DES DEBATS D'ETUDIANTS", "designationCode": "C", "categoryCode": "21", "address": "74158-148-555 STRATHCONA BLVD SW", "city": "CALGARY", "province": "AB", "country": "CA", "postalCode": "T3H3B6", "twitter": "None", "instagram": "None", "facebook": "None", "youtube": "None", "website": "None", "summary": "None", "logo": "None", "latitude": 51.048614964481466, "longitude": -114.18470687082332}, "882505514RR0001": {"name": "CANADIAN STUDENT LEADERSHIP ASSOCIATION", "designationCode": "C", "categoryCode": "22", "address": "2460 TANNER RD", "city": "VICTORIA", "province": "BC", "country": "CA", "postalCode": "V8Z5R1", "twitter": "None", "instagram": "None", "facebook": "None", "youtube": "None", "website": "None", "summary": "None", "logo": "None", "latitude": 48.554384770321114, "longitude": -123.39752882716543}, "889744645RR0001": {"name": "CANADIAN STUDY OF PARLIAMENT GROUP/GROUPE CANADIEN D'\u00c9TUDE DES PARLEMENTS", "designationCode": "C", "categoryCode": "29", "address": "131 QUEEN STREET, 4TH FLOOR", "city": "OTTAWA", "province": "ON", "country": "CA", "postalCode": "K1A0A6", "twitter": "None", "instagram": "None", "facebook": "None", "youtube": "None", "website": "None", "summary": "None", "logo": "None", "latitude": 45.42124536890182, "longitude": -75.69938371462021}, "830606943RR0001": {"name": "CANADIAN STUTTERING ASSOCIATION / ASSOCIATION CANADIENNE DESPERSONNES QUI B\u00c9GAIENT", "designationCode": "C", "categoryCode": "09", "address": "PO BOX 69001                  RPO ST CLAIR CENTRE", "city": "TORONTO", "province": "ON", "country": "CA", "postalCode": "M4T3A1", "twitter": "None", "instagram": "None", "facebook": "None", "youtube": "None", "website": "None", "summary": "None", "logo": "None", "latitude": 43.690058011175346, "longitude": -79.38485244552025}, "118836485RR0001": {"name": "CANADIAN SUOMI FOUNDATION", "designationCode": "A", "categoryCode": "23", "address": "BOX 21076", "city": "THUNDER BAY", "province": "ON", "country": "CA", "postalCode": "P7A3S0", "twitter": "None", "instagram": "None", "facebook": "None", "youtube": "None", "website": "None", "summary": "None", "logo": "None", "latitude": 48.53862000000015, "longitude": -89.0482247603486}, "840283162RR0001": {"name": "CANADIAN SUPERIOR COURTS JUDGES ASSOCIATION FOUNDATION / FONDATION DE L'ASSOCIATION CANADIENNE DES JUGES DES COURS SUPERIEURES", "designationCode": "C", "categoryCode": "21", "address": "275 SLATER STREET             14TH FLOOR", "city": "OTTAWA", "province": "ON", "country": "CA", "postalCode": "K1P5H9", "twitter": "None", "instagram": "None", "facebook": "None", "youtube": "None", "website": "None", "summary": "None", "logo": "None", "latitude": 45.418732385250046, "longitude": -75.7012450535806}, "892050246RR0001": {"name": "CANADIAN SURGICAL EYE EXPEDITIONS", "designationCode": "C", "categoryCode": "11", "address": "18231 COUNTY ROAD 2           RR 1", "city": "CORNWALL", "province": "ON", "country": "CA", "postalCode": "K6H5R5", "twitter": "None", "instagram": "None", "facebook": "None", "youtube": "None", "website": "None", "summary": "None", "logo": "None", "latitude": 45.035792288360625, "longitude": -74.64633511587418}, "118836493RR0001": {"name": "CANADIAN SURGICAL RESEARCH FUND/LE FONDS CANADIAN DE LA RECHERCHE EN CHIRURGIE", "designationCode": "C", "categoryCode": "21", "address": "STATION B                     BOX 1428", "city": "OTTAWA", "province": "ON", "country": "CA", "postalCode": "K1P5R4", "twitter": "None", "instagram": "None", "facebook": "None", "youtube": "None", "website": "None", "summary": "None", "logo": "None", "latitude": 45.42177300000006, "longitude": -75.69115999999994}, "856308366RR0001": {"name": "CANADIAN TAI CHI ACADEMY", "designationCode": "C", "categoryCode": "20", "address": "203B - 1220 STELLAR DR", "city": "NEWMARKET", "province": "ON", "country": "CA", "postalCode": "L3Y7B9", "twitter": "None", "instagram": "None", "facebook": "None", "youtube": "None", "website": "None", "summary": "None", "logo": "None", "latitude": 44.07733989976369, "longitude": -79.42823587342039}, "856852934RR0001": {"name": "CANADIAN THEATRE FESTIVAL SOCIETY", "designationCode": "C", "categoryCode": "22", "address": "1895 VENABLES ST", "city": "VANCOUVER", "province": "BC", "country": "CA", "postalCode": "V5L2H6", "twitter": "None", "instagram": "None", "facebook": "None", "youtube": "None", "website": "None", "summary": "None", "logo": "None", "latitude": 49.27675255504182, "longitude": -123.0658637775209}, "858551641RR0001": {"name": "CANADIAN THEOLOGICAL FORUM", "designationCode": "C", "categoryCode": "49", "address": "390 CHRISTINA ST N", "city": "SARNIA", "province": "ON", "country": "CA", "postalCode": "N7T5V9", "twitter": "None", "instagram": "None", "facebook": "None", "youtube": "None", "website": "None", "summary": "None", "logo": "None", "latitude": 42.9794106374735, "longitude": -82.40355645246765}, "137929451RR0002": {"name": "CANADIAN TIRE JUMPSTART CHARITIES/OEUVRE BON DEPART DE CANADIAN TIRE", "designationCode": "B", "categoryCode": "03", "address": "P.O. BOX 770, STATION K       2180 YONGE STREET", "city": "TORONTO", "province": "ON", "country": "CA", "postalCode": "M4P2V8", "twitter": "None", "instagram": "None", "facebook": "None", "youtube": "None", "website": "None", "summary": "None", "logo": "None", "latitude": 43.70678839299048, "longitude": -79.39838019177257}, "891343949RR0001": {"name": "CANADIAN TRANSIT HERITAGE FOUNDATION/FONDATION CANADIENNE DU PATRIMOINE DU TRANSPORT URBAIN", "designationCode": "C", "categoryCode": "50", "address": "PO BOX 30                     260 ADELAIDE STREET EAST", "city": "TORONTO", "province": "ON", "country": "CA", "postalCode": "M5A1N1", "twitter": "None", "instagram": "None", "facebook": "None", "youtube": "None", "website": "None", "summary": "None", "logo": "None", "latitude": 43.651775146834694, "longitude": -79.37042615251885}, "131815862RR0001": {"name": "CANADIAN TRANSPLANT ASSOCIATION/L'ASSOCIATION CANADIEN NE POUR LES GREFFES", "designationCode": "C", "categoryCode": "59", "address": "PO BOX 74", "city": "TAVISTOCK", "province": "ON", "country": "CA", "postalCode": "N0B2R0", "twitter": "None", "instagram": "None", "facebook": "None", "youtube": "None", "website": "None", "summary": "None", "logo": "None", "latitude": 43.32137000000006, "longitude": -80.83615999999995}, "887814234RR0001": {"name": "CANADIAN TRANSPORTATION RESEARCH FORUM (CTRF) SCHOLARSHIP FUND", "designationCode": "C", "categoryCode": "21", "address": "PO BOX-23033", "city": "WOODSTOCK", "province": "ON", "country": "CA", "postalCode": "N4T1R9", "twitter": "None", "instagram": "None", "facebook": "None", "youtube": "None", "website": "None", "summary": "None", "logo": "None", "latitude": 43.13010300000006, "longitude": -80.75657149999994}, "100773365RR0001": {"name": "CANADIAN TURFGRASS RESEARCH FOUNDATION", "designationCode": "A", "categoryCode": "03", "address": "PO BOX 698", "city": "HOPE", "province": "BC", "country": "CA", "postalCode": "V0X1L0", "twitter": "None", "instagram": "None", "facebook": "None", "youtube": "None", "website": "None", "summary": "None", "logo": "None", "latitude": 49.37911800000006, "longitude": -121.44296149999994}, "855403234RR0001": {"name": "CANADIAN TURKISH FRIENDSHIP COMMUNITY", "designationCode": "C", "categoryCode": "20", "address": "265 QUEENS DR.", "city": "NORTH YORK", "province": "ON", "country": "CA", "postalCode": "M6L3C6", "twitter": "None", "instagram": "None", "facebook": "None", "youtube": "None", "website": "None", "summary": "None", "logo": "None", "latitude": 43.70743994030256, "longitude": -79.50437518122807}, "106867534RR0001": {"name": "CANADIAN UKRAINIAN IMMIGRANT AID SOCIETY", "designationCode": "C", "categoryCode": "09", "address": "2383 BLOOR ST W, 2ND FLOOR", "city": "TORONTO", "province": "ON", "country": "CA", "postalCode": "M6S1P6", "twitter": "None", "instagram": "None", "facebook": "None", "youtube": "None", "website": "None", "summary": "None", "logo": "None", "latitude": 43.6497908748054, "longitude": -79.48226654495362}, "106867567RR0001": {"name": "CANADIAN UKRAINIAN INSTITUTE PROSVITA", "designationCode": "C", "categoryCode": "59", "address": "777 PRITCHARD AVE", "city": "WINNIPEG", "province": "MB", "country": "CA", "postalCode": "R2X0E8", "twitter": "None", "instagram": "None", "facebook": "None", "youtube": "None", "website": "None", "summary": "None", "logo": "None", "latitude": 49.92020588095089, "longitude": -97.15633224228183}, "118836642RR0001": {"name": "CANADIAN UKRAINIAN OPERA ASSOCIATION", "designationCode": "C", "categoryCode": "22", "address": "620 SPADINA AVE", "city": "TORONTO", "province": "ON", "country": "CA", "postalCode": "M5S2H4", "twitter": "None", "instagram": "None", "facebook": "None", "youtube": "None", "website": "None", "summary": "None", "logo": "None", "latitude": 43.662010778233075, "longitude": -79.40183629173616}, "122680572RR0001": {"name": "CANADIAN UNICEF COMMITTEE - COMITE UNICEF CANADA", "designationCode": "C", "categoryCode": "09", "address": "1100-2200 YONGE ST", "city": "TORONTO", "province": "ON", "country": "CA", "postalCode": "M4S2C6", "twitter": "None", "instagram": "None", "facebook": "None", "youtube": "None", "website": "None", "summary": "None", "logo": "None", "latitude": 43.7060606230885, "longitude": -79.3982105809335}, "106868474RR0001": {"name": "CANADIAN UNITARIAN COUNCIL", "designationCode": "C", "categoryCode": "49", "address": "400 - 215 SPADINA AVE", "city": "TORONTO", "province": "ON", "country": "CA", "postalCode": "M5T2C7", "twitter": "None", "instagram": "None", "facebook": "None", "youtube": "None", "website": "None", "summary": "None", "logo": "None", "latitude": 43.65063316348313, "longitude": -79.39697013165816}, "893501213RR0001": {"name": "CANADIAN UNIVERSITY COLLEGE FOUNDATION", "designationCode": "A", "categoryCode": "23", "address": "6730 UNIVERSITY DRIVE         RM A109", "city": "LACOMBE", "province": "AB", "country": "CA", "postalCode": "T4L2E5", "twitter": "None", "instagram": "None", "facebook": "None", "youtube": "None", "website": "None", "summary": "None", "logo": "None", "latitude": 52.48727894640265, "longitude": -113.73755482996671}, "121844419RR0001": {"name": "CANADIAN URBAN INSTITUTE", "designationCode": "C", "categoryCode": "29", "address": "30 ST PATRICK 5TH FLOOR", "city": "TORONTO", "province": "ON", "country": "CA", "postalCode": "M5T3A3", "twitter": "None", "instagram": "None", "facebook": "None", "youtube": "None", "website": "None", "summary": "None", "logo": "None", "latitude": 43.651333603381644, "longitude": -79.38901415295153}, "118836717RR0001": {"name": "CANADIAN UROLOGICAL ASSOCIATION SCHOLARSHIP FOUNDATION-LA FONDATION BOURSIERE DE L'ASSOCIATION CANADIENNE D'UROLOGIE", "designationCode": "C", "categoryCode": "21", "address": "401 - 185 AV DORVAL", "city": "DORVAL", "province": "QC", "country": "CA", "postalCode": "H9S5J9", "twitter": "None", "instagram": "None", "facebook": "None", "youtube": "None", "website": "None", "summary": "None", "logo": "None", "latitude": 45.44067781210684, "longitude": -73.73995489586855}, "889795175RR0001": {"name": "CANADIAN VISION CARE", "designationCode": "C", "categoryCode": "11", "address": "9018 SCURFIELD DR NW", "city": "CALGARY", "province": "AB", "country": "CA", "postalCode": "T3L1V4", "twitter": "None", "instagram": "None", "facebook": "None", "youtube": "None", "website": "None", "summary": "None", "logo": "None", "latitude": 51.12457952207277, "longitude": -114.22096180099832}, "866065733RR0001": {"name": "CANADIAN VOLUNTEER FIRE SERVICES ASSOCIATION/L'ASSOCIATION CANADIENNE DES SERVICES D'INCENDIE VOLONTAIRE", "designationCode": "C", "categoryCode": "59", "address": "5-2600 SKYMARK AVENUE         SUITE 100", "city": "MISSISSAUGA", "province": "ON", "country": "CA", "postalCode": "L4W5B2", "twitter": "None", "instagram": "None", "facebook": "None", "youtube": "None", "website": "None", "summary": "None", "logo": "None", "latitude": 43.65846057865447, "longitude": -79.59871498066852}, "106868599RR0001": {"name": "CANADIAN WARPLANE HERITAGE", "designationCode": "C", "categoryCode": "52", "address": "9280 AIRPORT RD", "city": "MOUNT HOPE", "province": "ON", "country": "CA", "postalCode": "L0R1W0", "twitter": "None", "instagram": "None", "facebook": "None", "youtube": "None", "website": "None", "summary": "None", "logo": "None", "latitude": 43.15889609085858, "longitude": -79.92534440559206}, "861248821RR0001": {"name": "CANADIAN WATER RESEARCH SOCIETY", "designationCode": "C", "categoryCode": "59", "address": "2497 MARINE DRIVE", "city": "WEST VANCOUVER", "province": "BC", "country": "CA", "postalCode": "V7V1L3", "twitter": "None", "instagram": "None", "facebook": "None", "youtube": "None", "website": "None", "summary": "None", "logo": "None", "latitude": 49.335000726561375, "longitude": -123.1822559507825}, "100773779RR0001": {"name": "CANADIAN WATER RESOURCES ASSOCIATION (ASSOCIATION CANADIENNE DES RESSOURCES HYDRIQUES)", "designationCode": "C", "categoryCode": "59", "address": "320-176 GLOUCESTER ST", "city": "OTTAWA", "province": "ON", "country": "CA", "postalCode": "K2P0A6", "twitter": "None", "instagram": "None", "facebook": "None", "youtube": "None", "website": "None", "summary": "None", "logo": "None", "latitude": 45.41805064028518, "longitude": -75.69826147195461}, "121412068RR0001": {"name": "CANADIAN WESTERN AGRIBITION SCHOLARSHIP FUND", "designationCode": "C", "categoryCode": "21", "address": "BOX 3535", "city": "REGINA", "province": "SK", "country": "CA", "postalCode": "S4P3J8", "twitter": "None", "instagram": "None", "facebook": "None", "youtube": "None", "website": "None", "summary": "None", "logo": "None", "latitude": 50.448246000000054, "longitude": -104.59517299999993}, "888615606RR0001": {"name": "CANADIAN WHEELCHAIR FOUNDATION / LA FONDATION DE CHAISE ROULANTE CANADA", "designationCode": "C", "categoryCode": "09", "address": "P.O. BOX 75038                RPO WHITE ROCK", "city": "SURREY", "province": "BC", "country": "CA", "postalCode": "V4A0B1", "twitter": "None", "instagram": "None", "facebook": "None", "youtube": "None", "website": "None", "summary": "None", "logo": "None", "latitude": 49.043630016734454, "longitude": -122.79103008165461}, "118836790RR0001": {"name": "CANADIAN WOMANS CHRISTIAN TEMPERANCE UNION", "designationCode": "C", "categoryCode": "57", "address": "946958 TWP. RD. 14", "city": "PLATTSVILLE", "province": "ON", "country": "CA", "postalCode": "N0J1S0", "twitter": "None", "instagram": "None", "facebook": "None", "youtube": "None", "website": "None", "summary": "None", "logo": "None", "latitude": 43.319942739915916, "longitude": -80.59709602094759}, "890010796RR0001": {"name": "CANADIAN WOMEN IN TIMBER SOCIETY", "designationCode": "C", "categoryCode": "21", "address": "BOX 20", "city": "TAPPEN", "province": "BC", "country": "CA", "postalCode": "V0E2X0", "twitter": "None", "instagram": "None", "facebook": "None", "youtube": "None", "website": "None", "summary": "None", "logo": "None", "latitude": 50.764757926244144, "longitude": -119.33285837345547}, "134104033RR0001": {"name": "CANADIAN WOMEN MINISTERS INTERNATIONAL", "designationCode": "C", "categoryCode": "49", "address": "4031 PROSPECT LAKE ROAD", "city": "VICTORIA", "province": "BC", "country": "CA", "postalCode": "V9E1H7", "twitter": "None", "instagram": "None", "facebook": "None", "youtube": "None", "website": "None", "summary": "None", "logo": "None", "latitude": 48.481181036903536, "longitude": -123.44064853733715}, "840000566RR0001": {"name": "CANADIAN WOMEN VOTERS CONGRESS", "designationCode": "C", "categoryCode": "20", "address": "303 - 15041 PROSPECT AVE", "city": "WHITE ROCK", "province": "BC", "country": "CA", "postalCode": "V4B2B5", "twitter": "None", "instagram": "None", "facebook": "None", "youtube": "None", "website": "None", "summary": "None", "logo": "None", "latitude": 49.024805446044034, "longitude": -122.80572094310116}, "129855607RR0001": {"name": "CANADIAN WOMEN'S FOUNDATION / FONDATION CANADIENNE DES FEMMES", "designationCode": "A", "categoryCode": "03", "address": "133 RICHMOND ST. WEST         SUITE 504", "city": "TORONTO", "province": "ON", "country": "CA", "postalCode": "M5H2L3", "twitter": "None", "instagram": "None", "facebook": "None", "youtube": "None", "website": "None", "summary": "None", "logo": "None", "latitude": 43.65035575823779, "longitude": -79.3848452694905}, "867535544RR0001": {"name": "CANADIAN WORLD EDUCATION FOUNDATION", "designationCode": "C", "categoryCode": "21", "address": "3815 HUNTINGTON AVE", "city": "WINDSOR", "province": "ON", "country": "CA", "postalCode": "N9E3N4", "twitter": "None", "instagram": "None", "facebook": "None", "youtube": "None", "website": "None", "summary": "None", "logo": "None", "latitude": 42.25841032999601, "longitude": -82.99986131115455}, "126079375RR0001": {"name": "CANADIAN WORLDWIDE MARRIAGE ENCOUNTER INC", "designationCode": "C", "categoryCode": "49", "address": "9273 212A ST", "city": "LANGLEY", "province": "BC", "country": "CA", "postalCode": "V1M1K3", "twitter": "None", "instagram": "None", "facebook": "None", "youtube": "None", "website": "None", "summary": "None", "logo": "None", "latitude": 49.17040545712386, "longitude": -122.63396301656151}, "131770844RR0001": {"name": "CANADIAN YEARLY MEETING OF THE RELIGIOUS SOCIETY OF FRIENDS,", "designationCode": "C", "categoryCode": "39", "address": "91A FOURTH AVE.", "city": "OTTAWA", "province": "ON", "country": "CA", "postalCode": "K1S2L1", "twitter": "None", "instagram": "None", "facebook": "None", "youtube": "None", "website": "None", "summary": "None", "logo": "None", "latitude": 45.4029232763105, "longitude": -75.68690762015902}, "868910811RR0001": {"name": "CANADIAN YOGA INSTITUTE", "designationCode": "C", "categoryCode": "19", "address": "1238 B -3 AVE S", "city": "LETHBRIDGE", "province": "AB", "country": "CA", "postalCode": "T1J0J9", "twitter": "None", "instagram": "None", "facebook": "None", "youtube": "None", "website": "None", "summary": "None", "logo": "None", "latitude": 49.69635255063776, "longitude": -112.82691235928213}, "867461543RR0001": {"name": "CANADIAN YOUTH NETWORK", "designationCode": "C", "categoryCode": "49", "address": "12 AILSA DRIVE", "city": "KESWICK", "province": "ON", "country": "CA", "postalCode": "L4P3N5", "twitter": "None", "instagram": "None", "facebook": "None", "youtube": "None", "website": "None", "summary": "None", "logo": "None", "latitude": 44.24295615901107, "longitude": -79.45806551927416}, "862824349RR0001": {"name": "CANADIAN-COMMONWEALTH OF INDEPENDENT STATES (C.I.S.) FUNDING SOCIETY", "designationCode": "C", "categoryCode": "09", "address": "10607-277 STREET", "city": "MAPLE RIDGE", "province": "BC", "country": "CA", "postalCode": "V2W1M7", "twitter": "None", "instagram": "None", "facebook": "None", "youtube": "None", "website": "None", "summary": "None", "logo": "None", "latitude": 49.195304664723864, "longitude": -122.45328308335675}, "855666632RR0001": {"name": "CANADIAN-IRANIAN FOUNDATION", "designationCode": "B", "categoryCode": "59", "address": "P.O.BOX 91231", "city": "WEST VANCOUVER", "province": "BC", "country": "CA", "postalCode": "V7V3N6", "twitter": "None", "instagram": "None", "facebook": "None", "youtube": "None", "website": "None", "summary": "None", "logo": "None", "latitude": 49.331148000000056, "longitude": -123.16023349999993}, "861247708RR0001": {"name": "CANADIANA FOUNDATION - FONDATION CANADIANA", "designationCode": "A", "categoryCode": "53", "address": "1500 - 45 O'CONNOR ST", "city": "OTTAWA", "province": "ON", "country": "CA", "postalCode": "K1P1A4", "twitter": "None", "instagram": "None", "facebook": "None", "youtube": "None", "website": "None", "summary": "None", "logo": "None", "latitude": 45.421524000000005, "longitude": -75.6975825}, "862490703RR0001": {"name": "CANADIANS ABREAST-MESSENGERS OF HOPE NATIONAL BREAST CANCER SURVIVORS DRAGON BOAT TEAM", "designationCode": "C", "categoryCode": "11", "address": "1445 DRANOEL RD.              P.O. BOX 57", "city": "BETHANY", "province": "ON", "country": "CA", "postalCode": "L0A1A0", "twitter": "None", "instagram": "None", "facebook": "None", "youtube": "None", "website": "None", "summary": "None", "logo": "None"}, "887240075RR0001": {"name": "CANADIANS FOR CHILDREN AT HEALTH RISK", "designationCode": "C", "categoryCode": "19", "address": "308 - 60 MOUNTVIEW AVE", "city": "TORONTO", "province": "ON", "country": "CA", "postalCode": "M6P2L4", "twitter": "None", "instagram": "None", "facebook": "None", "youtube": "None", "website": "None", "summary": "None", "logo": "None", "latitude": 43.656933217035075, "longitude": -79.4620244309248}, "106846371RR0001": {"name": "CANADIANS FOR HEALTH RESEARCH-LES CANADIENS POUR LA RECHERCHE MEDICALE", "designationCode": "C", "categoryCode": "11", "address": "B5 - 3647 RUE PEEL", "city": "MONTREAL", "province": "QC", "country": "CA", "postalCode": "H3A1X1", "twitter": "None", "instagram": "None", "facebook": "None", "youtube": "None", "website": "None", "summary": "None", "logo": "None", "latitude": 45.50357115211481, "longitude": -73.57985072909585}, "866844913RR0001": {"name": "CANADIANS FOR LOVE OF HUMANITY (CLOH)", "designationCode": "C", "categoryCode": "03", "address": "397 CEREMONIAL DRIVE", "city": "MISSISSAUGA", "province": "ON", "country": "CA", "postalCode": "L5R2C8", "twitter": "None", "instagram": "None", "facebook": "None", "youtube": "None", "website": "None", "summary": "None", "logo": "None", "latitude": 43.60114457259495, "longitude": -79.66579677964671}, "885650358RR0001": {"name": "CANADIANS HELPING KIDS IN VIETNAM INCORPORATED", "designationCode": "C", "categoryCode": "09", "address": "802 ELLICE AVE", "city": "WINNIPEG", "province": "MB", "country": "CA", "postalCode": "R3G0B9", "twitter": "None", "instagram": "None", "facebook": "None", "youtube": "None", "website": "None", "summary": "None", "logo": "None", "latitude": 49.89320550678067, "longitude": -97.16825189217495}, "118836881RR0001": {"name": "CANADORE COLLEGE OF APPLIED ARTS AND TECHNOLOGY SCHOLARSHIP", "designationCode": "C", "categoryCode": "21", "address": "PO BOX 5001", "city": "NORTH BAY", "province": "ON", "country": "CA", "postalCode": "P1B8K9", "twitter": "None", "instagram": "None", "facebook": "None", "youtube": "None", "website": "None", "summary": "None", "logo": "None", "latitude": 46.30661700000006, "longitude": -79.45993249999994}, "100774843RR0001": {"name": "CANAL SAVOIR", "designationCode": "C", "categoryCode": "20", "address": "2200, RUE STE-CATHERINE EST   1ER \u00c9TAGE", "city": "MONTR\u00c9AL", "province": "QC", "country": "CA", "postalCode": "H2K2J1", "twitter": "None", "instagram": "None", "facebook": "None", "youtube": "None", "website": "None", "summary": "None", "logo": "None", "latitude": 45.52663809322543, "longitude": -73.54860823362617}, "897543013RR0001": {"name": "CANARM CHILDREN'S RELIEF FOUNDATION/FONDATION DE SECOURS DESENFANTS CANARM", "designationCode": "B", "categoryCode": "03", "address": "1002 SHERBROOKE WEST          SUITE #540", "city": "MONTREAL", "province": "QC", "country": "CA", "postalCode": "H3A3L6", "twitter": "None", "instagram": "None", "facebook": "None", "youtube": "None", "website": "None", "summary": "None", "logo": "None", "latitude": 45.502789852876845, "longitude": -73.57558716772498}, "871039400RR0001": {"name": "CANARY RESEARCH INSTITUTE FOR MINING, ENVIRONMENT, AND HEALTH", "designationCode": "C", "categoryCode": "21", "address": "250 CITY CENTRE AVE           SUITE 508", "city": "OTTAWA", "province": "ON", "country": "CA", "postalCode": "K1R6K7", "twitter": "None", "instagram": "None", "facebook": "None", "youtube": "None", "website": "None", "summary": "None", "logo": "None", "latitude": 45.408701589214715, "longitude": -75.71772291222757}, "871864070RR0001": {"name": "CANASIAN DANCE FESTIVAL", "designationCode": "C", "categoryCode": "22", "address": "509 PARLIAMENT ST. 2ND FLOOR", "city": "TORONTO", "province": "ON", "country": "CA", "postalCode": "M4X1P3", "twitter": "None", "instagram": "None", "facebook": "None", "youtube": "None", "website": "None", "summary": "None", "logo": "None", "latitude": 43.66507158396327, "longitude": -79.36825969092293}, "140262759RR0001": {"name": "CANCER ASSISTANCE PROGRAM CITY OF HAMILTON & DISTRICT", "designationCode": "C", "categoryCode": "11", "address": "569 CONCESSION ST", "city": "HAMILTON", "province": "ON", "country": "CA", "postalCode": "L8V1B2", "twitter": "None", "instagram": "None", "facebook": "None", "youtube": "None", "website": "None", "summary": "None", "logo": "None", "latitude": 43.24076710687275, "longitude": -79.85105734456695}, "898404918RR0001": {"name": "CANCER ASSISTANCE SERVICES OF HALTON HILLS", "designationCode": "C", "categoryCode": "11", "address": "222 MOUNTAINVIEW ROAD NORTH", "city": "GEORGETOWN", "province": "ON", "country": "CA", "postalCode": "L7G3R2", "twitter": "None", "instagram": "None", "facebook": "None", "youtube": "None", "website": "None", "summary": "None", "logo": "None", "latitude": 43.66126041595647, "longitude": -79.91830192186208}, "860684232RR0001": {"name": "CANCER CARE ONTARIO", "designationCode": "C", "categoryCode": "11", "address": "620 UNIVERSITY AVE SUITE 1500", "city": "TORONTO", "province": "ON", "country": "CA", "postalCode": "M5G2L7", "twitter": "None", "instagram": "None", "facebook": "None", "youtube": "None", "website": "None", "summary": "None", "logo": "None", "latitude": 43.658493056610375, "longitude": -79.39006430714383}, "893974469RR0001": {"name": "CANCER-AIDE LANAUDIERE", "designationCode": "C", "categoryCode": "09", "address": "2 RUE SAINT-CHARLES-BORROMEE N", "city": "JOLIETTE", "province": "QC", "country": "CA", "postalCode": "J6E4R2", "twitter": "None", "instagram": "None", "facebook": "None", "youtube": "None", "website": "None", "summary": "None", "logo": "None", "latitude": 46.02706174689812, "longitude": -73.43820616406099}, "843744871RR0001": {"name": "CANCER-ASSISTANCE DU QUEBEC", "designationCode": "C", "categoryCode": "01", "address": "111, RUE LAVALLEE", "city": "ST-PHILIPPE", "province": "QC", "country": "CA", "postalCode": "J0L2K0", "twitter": "None", "instagram": "None", "facebook": "None", "youtube": "None", "website": "None", "summary": "None", "logo": "None", "latitude": 45.35436803384511, "longitude": -73.47962860961405}, "107863847RR0005": {"name": "CANCERCARE MANITOBA", "designationCode": "C", "categoryCode": "11", "address": "4022-675 MCDERMOT AVENUE", "city": "WINNIPEG", "province": "MB", "country": "CA", "postalCode": "R3E0V9", "twitter": "None", "instagram": "None", "facebook": "None", "youtube": "None", "website": "None", "summary": "None", "logo": "None", "latitude": 49.902940998095424, "longitude": -97.15868222297902}, "886886746RR0001": {"name": "CANCERCARE MANITOBA FOUNDATION INC.", "designationCode": "A", "categoryCode": "13", "address": "675 MCDERMOT AVENUE", "city": "WINNIPEG", "province": "MB", "country": "CA", "postalCode": "R3E0V9", "twitter": "None", "instagram": "None", "facebook": "None", "youtube": "None", "website": "None", "summary": "None", "logo": "None", "latitude": 49.902940998095424, "longitude": -97.15868222297902}, "880584107RR0001": {"name": "CANDLE LAKE CITIZENS ON PATROL PROGRAM INC.", "designationCode": "C", "categoryCode": "59", "address": "BOX 293", "city": "CANDLE LAKE", "province": "SK", "country": "CA", "postalCode": "S0J3E0", "twitter": "None", "instagram": "None", "facebook": "None", "youtube": "None", "website": "None", "summary": "None", "logo": "None", "latitude": 53.818899932363315, "longitude": -105.39813699657849}, "886663889RR0001": {"name": "CANDLE LAKE COMMUNITY CHURCH", "designationCode": "C", "categoryCode": "39", "address": "PO BOX 90", "city": "CANDLE LAKE", "province": "SK", "country": "CA", "postalCode": "S0J3E0", "twitter": "None", "instagram": "None", "facebook": "None", "youtube": "None", "website": "None", "summary": "None", "logo": "None", "latitude": 53.818899932363315, "longitude": -105.39813699657849}}