{"118922285RR0001": {"name": "FONDATION DU BARREAU DU QUEBEC-QUEBEC BAR FOUNDATION", "designationCode": "C", "categoryCode": "21", "address": "445, BOULEVARD ST-LAURENT", "city": "MONTREAL", "province": "QC", "country": "CA", "postalCode": "H2Y3T8", "twitter": "None", "instagram": "None", "facebook": "None", "youtube": "None", "website": "None", "summary": "None", "logo": "None", "latitude": 45.50597272773956, "longitude": -73.55490483429519}, "898930748RR0001": {"name": "FONDATION DU BEL AGE INC.", "designationCode": "C", "categoryCode": "09", "address": "114 AVE LAURIER", "city": "DOLBEAU-MISTASSINI", "province": "QC", "country": "CA", "postalCode": "G8L1S3", "twitter": "None", "instagram": "None", "facebook": "None", "youtube": "None", "website": "None", "summary": "None", "logo": "None", "latitude": 48.869841762132914, "longitude": -72.2195053956374}, "894457886RR0001": {"name": "FONDATION DU BUREAU INTERNATIONAL DES DROITS DES ENFANTS / FOUNDATION FOR THE INTERNATIONAL BUREAU FOR CHILDREN'S RIGHTS", "designationCode": "A", "categoryCode": "53", "address": "805 RUE VILLERAY", "city": "MONTREAL", "province": "QC", "country": "CA", "postalCode": "H2R1J4", "twitter": "None", "instagram": "None", "facebook": "None", "youtube": "None", "website": "None", "summary": "None", "logo": "None", "latitude": 45.544567661953906, "longitude": -73.62075407106575}, "881280671RR0001": {"name": "FONDATION DU C\u00c9GEP BEAUCE-APPALACHES", "designationCode": "C", "categoryCode": "23", "address": "1055 RUE 116IEME", "city": "ST GEORGES", "province": "QC", "country": "CA", "postalCode": "G5Y3G1", "twitter": "None", "instagram": "None", "facebook": "None", "youtube": "None", "website": "None", "summary": "None", "logo": "None", "latitude": 46.12605986987104, "longitude": -70.66877744760188}, "877901363RR0001": {"name": "FONDATION DU C\u00c9GEP DE CHICOUTIMI", "designationCode": "A", "categoryCode": "23", "address": "534 JACQUES-CARTIER EST", "city": "CHICOUTIMI", "province": "QC", "country": "CA", "postalCode": "G7H1Z6", "twitter": "None", "instagram": "None", "facebook": "None", "youtube": "None", "website": "None", "summary": "None", "logo": "None", "latitude": 48.42537619302888, "longitude": -71.05218586638489}, "846758126RR0001": {"name": "FONDATION DU C\u00c9GEP DE L'OUTAOUAIS", "designationCode": "A", "categoryCode": "23", "address": "125 BOUL SACRE-COEUR", "city": "GATINEAU", "province": "QC", "country": "CA", "postalCode": "J8X1C5", "twitter": "None", "instagram": "None", "facebook": "None", "youtube": "None", "website": "None", "summary": "None", "logo": "None", "latitude": 45.43736546436589, "longitude": -75.71318169470248}, "899283725RR0001": {"name": "FONDATION DU C\u00c9GEP DE LIMOILOU", "designationCode": "C", "categoryCode": "23", "address": "1300 8IEME AVENUE", "city": "QUEBEC", "province": "QC", "country": "CA", "postalCode": "G1J5L5", "twitter": "None", "instagram": "None", "facebook": "None", "youtube": "None", "website": "None", "summary": "None", "logo": "None", "latitude": 46.829775026660414, "longitude": -71.22772646831928}, "890915598RR0001": {"name": "FONDATION DU C\u00c9GEP DE MATANE", "designationCode": "A", "categoryCode": "23", "address": "616 AVENUE SAINT-R\u00c9DEMPTEUR", "city": "MATANE", "province": "QC", "country": "CA", "postalCode": "G4W1L1", "twitter": "None", "instagram": "None", "facebook": "None", "youtube": "None", "website": "None", "summary": "None", "logo": "None", "latitude": 48.83924911888921, "longitude": -67.49887143789218}, "118922558RR0001": {"name": "FONDATION DU C\u00c9GEP DE RIVI\u00c8RE-DU-LOUP INC.", "designationCode": "C", "categoryCode": "21", "address": "80 RUE FRONTENAC", "city": "RIVIERE-DU-LOUP", "province": "QC", "country": "CA", "postalCode": "G5R1R1", "twitter": "None", "instagram": "None", "facebook": "None", "youtube": "None", "website": "None", "summary": "None", "logo": "None", "latitude": 47.82714655176295, "longitude": -69.53773842576025}, "892683285RR0001": {"name": "FONDATION DU C\u00c9GEP DE SAINT-J\u00c9R\u00d4ME", "designationCode": "A", "categoryCode": "23", "address": "455 RUE FOURNIER", "city": "ST-J\u00c9R\u00d4ME", "province": "QC", "country": "CA", "postalCode": "J7Z4V2", "twitter": "None", "instagram": "None", "facebook": "None", "youtube": "None", "website": "None", "summary": "None", "logo": "None", "latitude": 45.77986404360637, "longitude": -74.00101809399733}, "138699533RR0001": {"name": "FONDATION DU C\u00c9GEP DE SAINT-LAURENT", "designationCode": "A", "categoryCode": "21", "address": "625, BOULEVARD STE-CROIX", "city": "ST-LAURENT", "province": "QC", "country": "CA", "postalCode": "H4L3X7", "twitter": "None", "instagram": "None", "facebook": "None", "youtube": "None", "website": "None", "summary": "None", "logo": "None", "latitude": 45.512593990569705, "longitude": -73.67392814798066}, "889246153RR0001": {"name": "FONDATION DU C\u00c9GEP DE SEPT-\u00ceLES", "designationCode": "A", "categoryCode": "23", "address": "175 RUE DE LA VERENDRYE", "city": "SEPT-ILES", "province": "QC", "country": "CA", "postalCode": "G4R5B7", "twitter": "None", "instagram": "None", "facebook": "None", "youtube": "None", "website": "None", "summary": "None", "logo": "None", "latitude": 50.2261766208686, "longitude": -66.35283598037758}, "869333849RR0001": {"name": "FONDATION DU C\u00c9GEP DE SOREL-TRACY", "designationCode": "C", "categoryCode": "21", "address": "3000 BOUL DE TRACY", "city": "SOREL-TRACY", "province": "QC", "country": "CA", "postalCode": "J3R5B9", "twitter": "None", "instagram": "None", "facebook": "None", "youtube": "None", "website": "None", "summary": "None", "logo": "None", "latitude": 46.01554949783656, "longitude": -73.14889028559065}, "107391666RR0001": {"name": "FONDATION DU C\u00c9GEP DE THETFORD", "designationCode": "A", "categoryCode": "23", "address": "671 BOULEVARD FRONTENAC", "city": "THETFORD MINES", "province": "QC", "country": "CA", "postalCode": "G6G1N1", "twitter": "None", "instagram": "None", "facebook": "None", "youtube": "None", "website": "None", "summary": "None", "logo": "None", "latitude": 46.097582117177026, "longitude": -71.32218017328836}, "118922319RR0001": {"name": "FONDATION DU C\u00c9GEP DE TROIS-RIVI\u00c8RES", "designationCode": "C", "categoryCode": "21", "address": "3500 RUE DE COURVAL", "city": "TROIS-RIVIERES", "province": "QC", "country": "CA", "postalCode": "G9A5E6", "twitter": "None", "instagram": "None", "facebook": "None", "youtube": "None", "website": "None", "summary": "None", "logo": "None", "latitude": 46.35491085431915, "longitude": -72.57354779343919}, "825521743RR0001": {"name": "FONDATION DU C\u00c9GEP R\u00c9GIONAL DE LANAUDI\u00c8RE", "designationCode": "C", "categoryCode": "23", "address": "781 NOTRE-DAME", "city": "REPENTIGNY", "province": "QC", "country": "CA", "postalCode": "J5Y1B4", "twitter": "None", "instagram": "None", "facebook": "None", "youtube": "None", "website": "None", "summary": "None", "logo": "None", "latitude": 45.75961654206808, "longitude": -73.42551854570341}, "889256913RR0001": {"name": "FONDATION DU C\u00c9GEP SAINT-JEAN-SUR-RICHELIEU", "designationCode": "A", "categoryCode": "23", "address": "30 BOUL DU SEMINAIRE N", "city": "SAINT-JEAN-SUR-RICHELIEU", "province": "QC", "country": "CA", "postalCode": "J3B5J4", "twitter": "None", "instagram": "None", "facebook": "None", "youtube": "None", "website": "None", "summary": "None", "logo": "None", "latitude": 45.297200086074675, "longitude": -73.26675905139663}, "875354300RR0001": {"name": "FONDATION DU CANCER DE GASPE / GASPE CANCER FOUNDATION", "designationCode": "C", "categoryCode": "19", "address": "P.O. BOX 6078", "city": "GASPE", "province": "QC", "country": "CA", "postalCode": "G4X2R6", "twitter": "None", "instagram": "None", "facebook": "None", "youtube": "None", "website": "None", "summary": "None", "logo": "None"}, "883465304RR0001": {"name": "FONDATION DU CANCER HEREDITAIRE DU SEIN ET DES OVAIRES/HEREDITARY BREAST AND OVARIAN CANCER FOUNDATION", "designationCode": "C", "categoryCode": "11", "address": "5791 FERNCROFT ROAD", "city": "HAMPSTEAD", "province": "QC", "country": "CA", "postalCode": "H3X1C6", "twitter": "None", "instagram": "None", "facebook": "None", "youtube": "None", "website": "None", "summary": "None", "logo": "None", "latitude": 45.48504225069125, "longitude": -73.65099052611156}, "831030549RR0001": {"name": "FONDATION DU CANCER MONIQUE MALENFANT-PINIZZOTTO / MONIQUE MALENFANT-PINIZZOTTO CANCER FOUNDATION", "designationCode": "A", "categoryCode": "03", "address": "154, RUE PAPINEAU", "city": "CHATEAUGUAY", "province": "QC", "country": "CA", "postalCode": "J6J2J7", "twitter": "None", "instagram": "None", "facebook": "None", "youtube": "None", "website": "None", "summary": "None", "logo": "None", "latitude": 45.364329533181284, "longitude": -73.73698238773154}, "890629942RR0001": {"name": "FONDATION DU CAPT. J.E. BERNIER", "designationCode": "A", "categoryCode": "53", "address": "55, CHEMIN DES PIONNIERS EST", "city": "L'ISLET", "province": "QC", "country": "CA", "postalCode": "G0R2B0", "twitter": "None", "instagram": "None", "facebook": "None", "youtube": "None", "website": "None", "summary": "None", "logo": "None", "latitude": 47.128490873997315, "longitude": -70.37105414599799}, "886602473RR0001": {"name": "FONDATION DU CARREFOUR JEUNESSE-EMPLOI DE D'AUTRAY-JOLIETTE", "designationCode": "A", "categoryCode": "23", "address": "580 RUE RICHARD", "city": "JOLIETTE", "province": "QC", "country": "CA", "postalCode": "J6E2T4", "twitter": "None", "instagram": "None", "facebook": "None", "youtube": "None", "website": "None", "summary": "None", "logo": "None", "latitude": 46.02657386987103, "longitude": -73.44574880549905}, "866785629RR0001": {"name": "FONDATION DU CARREFOUR JEUNESSE-EMPLOI DE L'OUEST DE L'\u00ceLE", "designationCode": "C", "categoryCode": "03", "address": "225-F, BOULEVARD HYMUS", "city": "POINTE-CLAIRE", "province": "QC", "country": "CA", "postalCode": "H9R1G4", "twitter": "None", "instagram": "None", "facebook": "None", "youtube": "None", "website": "None", "summary": "None", "logo": "None", "latitude": 45.459030161838356, "longitude": -73.82360699890349}, "886314996RR0001": {"name": "FONDATION DU CARREFOUR JEUNESSE-EMPLOI DE L'OUTAOUAIS", "designationCode": "C", "categoryCode": "21", "address": "350 BOUL. DE LA GAPPE", "city": "GATINEAU", "province": "QC", "country": "CA", "postalCode": "J8T7T9", "twitter": "None", "instagram": "None", "facebook": "None", "youtube": "None", "website": "None", "summary": "None", "logo": "None", "latitude": 45.47734883262173, "longitude": -75.70277980373963}, "121149025RR0001": {"name": "FONDATION DU CEGEP ANDR\u00c9-LAURENDEAU", "designationCode": "C", "categoryCode": "21", "address": "1111, RUE LAPIERRE", "city": "LASALLE", "province": "QC", "country": "CA", "postalCode": "H8N2J4", "twitter": "None", "instagram": "None", "facebook": "None", "youtube": "None", "website": "None", "summary": "None", "logo": "None", "latitude": 45.43528724681121, "longitude": -73.60580767788119}, "836176362RR0001": {"name": "FONDATION DU CEGEP DE DRUMMONDVILLE", "designationCode": "C", "categoryCode": "21", "address": "960 RUE SAINT-GEORGES", "city": "DRUMMONDVILLE", "province": "QC", "country": "CA", "postalCode": "J2C6A2", "twitter": "None", "instagram": "None", "facebook": "None", "youtube": "None", "website": "None", "summary": "None", "logo": "None", "latitude": 45.87415953727415, "longitude": -72.50711751288861}, "886494954RR0001": {"name": "FONDATION DU CEGEP DE L\u00c9VIS-LAUZON", "designationCode": "C", "categoryCode": "21", "address": "205, RUE MGR BOURGET", "city": "LEVIS", "province": "QC", "country": "CA", "postalCode": "G6V6Z9", "twitter": "None", "instagram": "None", "facebook": "None", "youtube": "None", "website": "None", "summary": "None", "logo": "None", "latitude": 46.81692322621033, "longitude": -71.15371747556131}, "120839022RR0001": {"name": "FONDATION DU CEGEP DE LA POCATI\u00c8RE", "designationCode": "A", "categoryCode": "20", "address": "140-4 IEME AVENUE", "city": "LA POCATIERE", "province": "QC", "country": "CA", "postalCode": "G0R1Z0", "twitter": "None", "instagram": "None", "facebook": "None", "youtube": "None", "website": "None", "summary": "None", "logo": "None", "latitude": 47.36021100000005, "longitude": -70.05913099999994}, "118922301RR0001": {"name": "FONDATION DU CEGEP DE SAINT-HYACINTHE", "designationCode": "C", "categoryCode": "21", "address": "3000 RUE BOULLE", "city": "SAINT-HYACINTHE", "province": "QC", "country": "CA", "postalCode": "J2S1H9", "twitter": "None", "instagram": "None", "facebook": "None", "youtube": "None", "website": "None", "summary": "None", "logo": "None", "latitude": 45.617154032228996, "longitude": -72.97457397616688}, "890102445RR0001": {"name": "FONDATION DU CENTENAIRE DE L'\u00c9GLISE DE ST-COME BEAUCE", "designationCode": "A", "categoryCode": "43", "address": "1555 19E RUE", "city": "ST-COME LINIERE", "province": "QC", "country": "CA", "postalCode": "G0M1J0", "twitter": "None", "instagram": "None", "facebook": "None", "youtube": "None", "website": "None", "summary": "None", "logo": "None", "latitude": 46.0576114582204, "longitude": -70.52085375535222}, "888986437RR0001": {"name": "FONDATION DU CENTENAIRE DE L'UNIT\u00c9 INC.", "designationCode": "C", "categoryCode": "09", "address": "670 AVENUE CHAMBLY", "city": "ST HYACINTHE", "province": "QC", "country": "CA", "postalCode": "J2S6V4", "twitter": "None", "instagram": "None", "facebook": "None", "youtube": "None", "website": "None", "summary": "None", "logo": "None", "latitude": 45.60552425313055, "longitude": -72.97281304480937}, "118922335RR0001": {"name": "FONDATION DU CENTRE D'ACCUEIL DE COWANSVILLE INC.", "designationCode": "C", "categoryCode": "01", "address": "200 PRINCIPALE", "city": "COWANSVILLE", "province": "QC", "country": "CA", "postalCode": "J2K1J2", "twitter": "None", "instagram": "None", "facebook": "None", "youtube": "None", "website": "None", "summary": "None", "logo": "None", "latitude": 45.20824866662844, "longitude": -72.7431657285476}, "865741177RR0001": {"name": "FONDATION DU CENTRE D'ACCUEIL ST-NARCISSE INC", "designationCode": "C", "categoryCode": "19", "address": "361 DU COLLEGE", "city": "ST-NARCISSE", "province": "QC", "country": "CA", "postalCode": "G0X2Y0", "twitter": "None", "instagram": "None", "facebook": "None", "youtube": "None", "website": "None", "summary": "None", "logo": "None", "latitude": 46.565558079635444, "longitude": -72.47043996145169}, "107391708RR0001": {"name": "FONDATION DU CENTRE D'ACTION B\u00c9N\u00c9VOLE DU RIVAGE", "designationCode": "C", "categoryCode": "09", "address": "521 B NOTRE-DAME EST", "city": "TROIS-RIVIERES", "province": "QC", "country": "CA", "postalCode": "G8T8L9", "twitter": "None", "instagram": "None", "facebook": "None", "youtube": "None", "website": "None", "summary": "None", "logo": "None", "latitude": 46.36710208355923, "longitude": -72.50067308260694}, "839287273RR0001": {"name": "FONDATION DU CENTRE D'ACTION B\u00c9N\u00c9VOLE L'ACTUEL", "designationCode": "A", "categoryCode": "03", "address": "88, RUE ADELE", "city": "VAUDREUIL-DORION", "province": "QC", "country": "CA", "postalCode": "J7V1S7", "twitter": "None", "instagram": "None", "facebook": "None", "youtube": "None", "website": "None", "summary": "None", "logo": "None", "latitude": 45.38722282234996, "longitude": -74.0119601226558}, "850788720RR0001": {"name": "FONDATION DU CENTRE D'AIDE POUR HOMMES DE LANAUDI\u00c8RE CAHo", "designationCode": "A", "categoryCode": "13", "address": "688 BOULEVARD MANSEAU", "city": "JOLIETTE", "province": "QC", "country": "CA", "postalCode": "J6E3E6", "twitter": "None", "instagram": "None", "facebook": "None", "youtube": "None", "website": "None", "summary": "None", "logo": "None", "latitude": 46.02262884375891, "longitude": -73.44338100141364}, "880150156RR0001": {"name": "FONDATION DU CENTRE D'H\u00c9BERGEMENT DE LACHINE", "designationCode": "A", "categoryCode": "03", "address": "650 PLACE D'ACCUEIL", "city": "LACHINE", "province": "QC", "country": "CA", "postalCode": "H8S3Z5", "twitter": "None", "instagram": "None", "facebook": "None", "youtube": "None", "website": "None", "summary": "None", "logo": "None", "latitude": 45.44028781406873, "longitude": -73.69041547230132}, "888656857RR0001": {"name": "FONDATION DU CENTRE D'H\u00c9BERGEMENT ET DE SOINS DE LONGUE DUR\u00c9E HORACE-BOIVIN", "designationCode": "A", "categoryCode": "19", "address": "71 RUE COURT", "city": "GRANBY", "province": "QC", "country": "CA", "postalCode": "J2G4Y7", "twitter": "None", "instagram": "None", "facebook": "None", "youtube": "None", "website": "None", "summary": "None", "logo": "None", "latitude": 45.40161593836931, "longitude": -72.72398041404617}, "887933430RR0001": {"name": "FONDATION DU CENTRE D'H\u00c9BERGEMENT ST-FRAN\u00c7OIS", "designationCode": "C", "categoryCode": "19", "address": "4105 MONTEE MASSON", "city": "LAVAL", "province": "QC", "country": "CA", "postalCode": "H7B1B6", "twitter": "None", "instagram": "None", "facebook": "None", "youtube": "None", "website": "None", "summary": "None", "logo": "None", "latitude": 45.68559300000001, "longitude": -73.62694033781494}, "835059726RR0001": {"name": "FONDATION DU CENTRE D'H\u00c9BERGEMENT ST-JUDE", "designationCode": "B", "categoryCode": "13", "address": "4410, BOULEVARD ST-MARTIN O", "city": "LAVAL", "province": "QC", "country": "CA", "postalCode": "H7T1C3", "twitter": "None", "instagram": "None", "facebook": "None", "youtube": "None", "website": "None", "summary": "None", "logo": "None", "latitude": 45.54842602278177, "longitude": -73.76916282852395}, "882885361RR0001": {"name": "FONDATION DU CENTRE D'HEBERGEMENT DENIS-BENJAMIN VIGER", "designationCode": "A", "categoryCode": "13", "address": "3292 BOUL CHERRIER", "city": "ILE BIZARD", "province": "QC", "country": "CA", "postalCode": "H9C1E4", "twitter": "None", "instagram": "None", "facebook": "None", "youtube": "None", "website": "None", "summary": "None", "logo": "None", "latitude": 45.491089969704255, "longitude": -73.87062569741514}, "863459681RR0001": {"name": "FONDATION DU CENTRE D'HEBERGEMENT ST-JEAN-EUDES", "designationCode": "C", "categoryCode": "09", "address": "6000 3E AVENUE OUEST", "city": "CHARLESBOURG", "province": "QC", "country": "CA", "postalCode": "G1H7J5", "twitter": "None", "instagram": "None", "facebook": "None", "youtube": "None", "website": "None", "summary": "None", "logo": "None", "latitude": 46.84983079692751, "longitude": -71.26155349976402}, "890123748RR0001": {"name": "FONDATION DU CENTRE D'INTEGRATION SCOLAIRE DE MONTREAL INC.", "designationCode": "C", "categoryCode": "21", "address": "6361 - 6E AVENUE", "city": "MONTREAL", "province": "QC", "country": "CA", "postalCode": "H1Y2R7", "twitter": "None", "instagram": "None", "facebook": "None", "youtube": "None", "website": "None", "summary": "None", "logo": "None", "latitude": 45.55183390980433, "longitude": -73.5872322418778}, "889296570RR0001": {"name": "FONDATION DU CENTRE D'INTERPRETATION DE L'INDUSTRIE DE SHAWINIGAN INC.", "designationCode": "A", "categoryCode": "50", "address": "1000 AVENUE MELVILLE", "city": "SHAWINIGAN", "province": "QC", "country": "CA", "postalCode": "G9N6T9", "twitter": "None", "instagram": "None", "facebook": "None", "youtube": "None", "website": "None", "summary": "None", "logo": "None", "latitude": 46.53539389042666, "longitude": -72.75544289761073}, "107391864RR0001": {"name": "FONDATION DU CENTRE DE CONSERVATION DE LA BIODIVERSIT\u00c9 BOR\u00c9ALE (CCBB)", "designationCode": "A", "categoryCode": "50", "address": "2230 BOUL DU JARDIN", "city": "ST-FELICIEN", "province": "QC", "country": "CA", "postalCode": "G8K2P8", "twitter": "None", "instagram": "None", "facebook": "None", "youtube": "None", "website": "None", "summary": "None", "logo": "None", "latitude": 48.68520152468169, "longitude": -72.50381107404507}, "856473129RR0001": {"name": "FONDATION DU CENTRE DE FORMATION LE CHANTIER", "designationCode": "C", "categoryCode": "21", "address": "2875 BOULEVARD INDUSTRIEL", "city": "LAVAL", "province": "QC", "country": "CA", "postalCode": "H7L3V8", "twitter": "None", "instagram": "None", "facebook": "None", "youtube": "None", "website": "None", "summary": "None", "logo": "None", "latitude": 45.587449401090424, "longitude": -73.73878927664654}, "892239807RR0001": {"name": "FONDATION DU CENTRE DE FORMATION PROFESSIONNELLE MONT-LAURIER", "designationCode": "C", "categoryCode": "21", "address": "850 RUE TACHE", "city": "MONT-LAURIER", "province": "QC", "country": "CA", "postalCode": "J9L2K2", "twitter": "None", "instagram": "None", "facebook": "None", "youtube": "None", "website": "None", "summary": "None", "logo": "None", "latitude": 46.55855631965462, "longitude": -75.50565897206923}, "863618625RR0001": {"name": "FONDATION DU CENTRE DE FORMATION PROFESSIONNELLE 24-JUIN", "designationCode": "C", "categoryCode": "21", "address": "639, RUE DU 24-JUIN", "city": "FLEURIMONT", "province": "QC", "country": "CA", "postalCode": "J1E1H1", "twitter": "None", "instagram": "None", "facebook": "None", "youtube": "None", "website": "None", "summary": "None", "logo": "None", "latitude": 45.422071476051315, "longitude": -71.87778369317328}, "816976872RR0001": {"name": "FONDATION DU CENTRE DE LA FAMILLE VALCARTIER", "designationCode": "A", "categoryCode": "03", "address": "EDIFICE 93 C.P. 1000          SUCCURSALE FORCES", "city": "COURCELETTE", "province": "QC", "country": "CA", "postalCode": "G0A4Z0", "twitter": "None", "instagram": "None", "facebook": "None", "youtube": "None", "website": "None", "summary": "None", "logo": "None", "latitude": 46.88734200000006, "longitude": -71.50947199999993}, "856177670RR0001": {"name": "FONDATION DU CENTRE DE R\u00c9ADAPTATION DE LA GASP\u00c9SIE INC.", "designationCode": "C", "categoryCode": "09", "address": "230 ROUTE DU PARC", "city": "SAINTE-ANNE-DES-MONTS", "province": "QC", "country": "CA", "postalCode": "G4V2C4", "twitter": "None", "instagram": "None", "facebook": "None", "youtube": "None", "website": "None", "summary": "None", "logo": "None", "latitude": 49.11972667502432, "longitude": -66.47925420584059}, "888446846RR0001": {"name": "FONDATION DU CENTRE DE R\u00c9ADAPTATION EN D\u00c9FICIENCE INTELLECTUELLE DE QU\u00c9BEC", "designationCode": "C", "categoryCode": "09", "address": "7843 RUE DES SANTOLINES", "city": "QUEBEC", "province": "QC", "country": "CA", "postalCode": "G1G0G3", "twitter": "None", "instagram": "None", "facebook": "None", "youtube": "None", "website": "None", "summary": "None", "logo": "None", "latitude": 46.89260712851283, "longitude": -71.29616830045006}, "885343020RR0001": {"name": "FONDATION DU CENTRE DE R\u00c9ADAPTATION EN D\u00c9FICIENCE INTELLECTUELLE DU SAGUENAY - LAC-SAINT-JEAN", "designationCode": "C", "categoryCode": "13", "address": "400, BOUL. CHAMPLAIN SUD", "city": "ALMA", "province": "QC", "country": "CA", "postalCode": "G8B3N8", "twitter": "None", "instagram": "None", "facebook": "None", "youtube": "None", "website": "None", "summary": "None", "logo": "None", "latitude": 48.547644348058064, "longitude": -71.66453693222287}, "869456509RR0001": {"name": "FONDATION DU CENTRE DE READAPTATION EN DEFICIENCE PHYSIQUE CHAUDIERE-APPALACHES INC.", "designationCode": "A", "categoryCode": "13", "address": "9500 BLD.DU CENTRE HOSPITALIER", "city": "CHARNY", "province": "QC", "country": "CA", "postalCode": "G6X0A1", "twitter": "None", "instagram": "None", "facebook": "None", "youtube": "None", "website": "None", "summary": "None", "logo": "None", "latitude": 46.72549212509784, "longitude": -71.25421199276693}, "860468560RR0001": {"name": "FONDATION DU CENTRE DE RECHERCHE SUR LES BIOTECHNOLOGIES MARINES", "designationCode": "C", "categoryCode": "21", "address": "265 2E RUE EST", "city": "RIMOUSKI", "province": "QC", "country": "CA", "postalCode": "G5L9H3", "twitter": "None", "instagram": "None", "facebook": "None", "youtube": "None", "website": "None", "summary": "None", "logo": "None", "latitude": 48.45129303520142, "longitude": -68.50823450894505}, "118922376RR0001": {"name": "FONDATION DU CENTRE DE REFERENCE DU GRAND MONTREAL/INFORMATION AND REFERRAL CENTRE OF GREATER MONTREAL FOUNDATION", "designationCode": "A", "categoryCode": "53", "address": "3155 RUE HOCHELAGA            BUREAU 101", "city": "MONTREAL", "province": "QC", "country": "CA", "postalCode": "H1W1G4", "twitter": "None", "instagram": "None", "facebook": "None", "youtube": "None", "website": "None", "summary": "None", "logo": "None", "latitude": 45.542420024986974, "longitude": -73.55416159259026}, "891554149RR0001": {"name": "FONDATION DU CENTRE DE SANT\u00c9 DE LA MINGANIE", "designationCode": "C", "categoryCode": "03", "address": "1035, PROMENADE DES ANCIENS", "city": "HAVRE-SAINT-PIERRE", "province": "QC", "country": "CA", "postalCode": "G0G1P0", "twitter": "None", "instagram": "None", "facebook": "None", "youtube": "None", "website": "None", "summary": "None", "logo": "None", "latitude": 50.237269330053344, "longitude": -63.60499624842733}, "887561959RR0001": {"name": "FONDATION DU CENTRE DE SANT\u00c9 ET DE SERVICES SOCIAUX DE LA MITIS", "designationCode": "A", "categoryCode": "11", "address": "800 AVE CU SANATORIUM", "city": "MONT-JOLI", "province": "QC", "country": "CA", "postalCode": "G5H3L6", "twitter": "None", "instagram": "None", "facebook": "None", "youtube": "None", "website": "None", "summary": "None", "logo": "None", "latitude": 48.57784829145308, "longitude": -68.2081435420023}, "118921725RR0001": {"name": "FONDATION DU CENTRE DE SANT\u00c9 ET DE SERVICES SOCIAUX DOMAINE-DU-ROY", "designationCode": "A", "categoryCode": "13", "address": "450 RUE BRASSARD", "city": "ROBERVAL", "province": "QC", "country": "CA", "postalCode": "G8H1B9", "twitter": "None", "instagram": "None", "facebook": "None", "youtube": "None", "website": "None", "summary": "None", "logo": "None", "latitude": 48.50887729447746, "longitude": -72.21875087760401}, "886054592RR0001": {"name": "FONDATION DU CENTRE DE SANT\u00c9 ET DE SERVICES SOCIAUX DU HAUT-SAINT-FRAN\u00c7OIS", "designationCode": "A", "categoryCode": "13", "address": "120 RUE ROUSSEAU", "city": "EAST ANGUS", "province": "QC", "country": "CA", "postalCode": "J0B1R0", "twitter": "None", "instagram": "None", "facebook": "None", "youtube": "None", "website": "None", "summary": "None", "logo": "None", "latitude": 45.47739242016302, "longitude": -71.66967883432383}, "118923259RR0001": {"name": "FONDATION DU CENTRE DE SANT\u00c9 ET DE SERVICES SOCIAUX DU HAUT-SAINT-MAURICE INC.", "designationCode": "A", "categoryCode": "13", "address": "885 BOUL DUCHARME", "city": "LA TUQUE", "province": "QC", "country": "CA", "postalCode": "G9X1C1", "twitter": "None", "instagram": "None", "facebook": "None", "youtube": "None", "website": "None", "summary": "None", "logo": "None", "latitude": 47.42960194795819, "longitude": -72.78519154324367}, "889938353RR0001": {"name": "FONDATION DU CENTRE DE SANT\u00c9 ET DE SERVICES SOCIAUX DU ROCHER-PERC\u00c9", "designationCode": "A", "categoryCode": "13", "address": "451 RUE MGR ROSS EST", "city": "CHANDLER", "province": "QC", "country": "CA", "postalCode": "G0C1K0", "twitter": "None", "instagram": "None", "facebook": "None", "youtube": "None", "website": "None", "summary": "None", "logo": "None", "latitude": 48.35404770468824, "longitude": -64.67171926402565}, "141512400RR0001": {"name": "FONDATION DU CENTRE DE SANT\u00c9 ET DE SERVICES SOCIAUX DU VAL-SAINT-FRAN\u00c7OIS", "designationCode": "A", "categoryCode": "13", "address": "23 RUE AMBROISE-DEARDEN", "city": "WINDSOR", "province": "QC", "country": "CA", "postalCode": "J1S1G8", "twitter": "None", "instagram": "None", "facebook": "None", "youtube": "None", "website": "None", "summary": "None", "logo": "None", "latitude": 45.57044496615489, "longitude": -72.00463347420497}, "885296756RR0001": {"name": "FONDATION DU CENTRE DE SANT\u00c9 ET DE SERVICES SPCIAUX DE MANICOUAGAN", "designationCode": "A", "categoryCode": "13", "address": "635 BOUL JOLIET", "city": "BAIE-COMEAU", "province": "QC", "country": "CA", "postalCode": "G5C1P1", "twitter": "None", "instagram": "None", "facebook": "None", "youtube": "None", "website": "None", "summary": "None", "logo": "None", "latitude": 49.19121987049493, "longitude": -68.25199988538904}, "126800432RR0001": {"name": "FONDATION DU CENTRE DE SANT\u00c9 VALL\u00c9E-DE-LA-GATINEAU (CSVG)", "designationCode": "A", "categoryCode": "13", "address": "C.P. 113", "city": "MANIWAKI", "province": "QC", "country": "CA", "postalCode": "J9E3B3", "twitter": "None", "instagram": "None", "facebook": "None", "youtube": "None", "website": "None", "summary": "None", "logo": "None", "latitude": 46.426633561395754, "longitude": -75.73974127451007}, "138039862RR0001": {"name": "FONDATION DU CENTRE DE SERVICES GUIGUES INC.", "designationCode": "C", "categoryCode": "09", "address": "159 RUE MURRAY", "city": "OTTAWA", "province": "ON", "country": "CA", "postalCode": "K1N5M7", "twitter": "None", "instagram": "None", "facebook": "None", "youtube": "None", "website": "None", "summary": "None", "logo": "None", "latitude": 45.43076335250147, "longitude": -75.69116327228912}, "120778386RR0001": {"name": "FONDATION DU CENTRE DES FEMMES de Montreal /FOUNDATION OF THE WOMEN'S CENTRE OF MONTREAL", "designationCode": "C", "categoryCode": "03", "address": "3585 RUE SAINT-URBAIN", "city": "MONTREAL", "province": "QC", "country": "CA", "postalCode": "H2X2N6", "twitter": "None", "instagram": "None", "facebook": "None", "youtube": "None", "website": "None", "summary": "None", "logo": "None", "latitude": 45.51247223593385, "longitude": -73.57306964819101}, "888380722RR0001": {"name": "FONDATION DU CENTRE DES SCIENCES DE MONTREAL/MONTREAL SCIENCE CENTRE FOUNDATION", "designationCode": "A", "categoryCode": "21", "address": "333 RUE DE LA COMMUNE O", "city": "MONTREAL", "province": "QC", "country": "CA", "postalCode": "H2Y2E2", "twitter": "None", "instagram": "None", "facebook": "None", "youtube": "None", "website": "None", "summary": "None", "logo": "None", "latitude": 45.50002979571823, "longitude": -73.55320953124803}, "101835460RR0001": {"name": "FONDATION DU CENTRE HOSPITALIER DE GASP\u00c9", "designationCode": "A", "categoryCode": "13", "address": "215 BOUL DE YORK O", "city": "GASPE", "province": "QC", "country": "CA", "postalCode": "G4X2W2", "twitter": "None", "instagram": "None", "facebook": "None", "youtube": "None", "website": "None", "summary": "None", "logo": "None", "latitude": 48.814180408329875, "longitude": -64.49604981068742}, "118922418RR0001": {"name": "FONDATION DU CENTRE HOSPITALIER DE GRANBY INC.", "designationCode": "A", "categoryCode": "13", "address": "205 BOUL. LECLERC", "city": "GRANBY", "province": "QC", "country": "CA", "postalCode": "J2G1T7", "twitter": "None", "instagram": "None", "facebook": "None", "youtube": "None", "website": "None", "summary": "None", "logo": "None", "latitude": 45.410031365543226, "longitude": -72.72222665098964}, "883429961RR0001": {"name": "FONDATION DU CENTRE HOSPITALIER DE L'UNIVERSIT\u00c9 DE MONTR\u00c9AL", "designationCode": "A", "categoryCode": "13", "address": "1405-500 PLACE D'ARMES", "city": "MONTREAL", "province": "QC", "country": "CA", "postalCode": "H2Y2W2", "twitter": "None", "instagram": "None", "facebook": "None", "youtube": "None", "website": "None", "summary": "None", "logo": "None", "latitude": 45.50457147596533, "longitude": -73.55741375203401}, "118925098RR0001": {"name": "FONDATION DU CENTRE HOSPITALIER DE VAL D'OR INC.", "designationCode": "A", "categoryCode": "13", "address": "CP 715 SUCC BUREAU-CHEF", "city": "VAL-D'OR", "province": "QC", "country": "CA", "postalCode": "J9P4P6", "twitter": "None", "instagram": "None", "facebook": "None", "youtube": "None", "website": "None", "summary": "None", "logo": "None", "latitude": 48.11084700000005, "longitude": -77.79766399999993}, "897642146RR0001": {"name": "FONDATION DU CENTRE HOSPITALIER DES LAURENTIDES ET CENTRE D'ACCUEIL ET DE READAPTATION DES HAUTES-VALLEES (CHDL/CARH-V)", "designationCode": "A", "categoryCode": "13", "address": "1525,RUE L'ANNOCIATION NORD", "city": "RIVIERE ROUGE", "province": "QC", "country": "CA", "postalCode": "J0T1T0", "twitter": "None", "instagram": "None", "facebook": "None", "youtube": "None", "website": "None", "summary": "None", "logo": "None", "latitude": 46.42171575171709, "longitude": -74.8824755062986}, "132097288RR0001": {"name": "FONDATION DU CENTRE HOSPITALIER MONT-LAURIER", "designationCode": "A", "categoryCode": "19", "address": "2561 CH DE LA LIEVRE S", "city": "MONT-LAURIER", "province": "QC", "country": "CA", "postalCode": "J9L3G3", "twitter": "None", "instagram": "None", "facebook": "None", "youtube": "None", "website": "None", "summary": "None", "logo": "None", "latitude": 46.549558852738706, "longitude": -75.51669093248387}, "897302964RR0001": {"name": "FONDATION DU CENTRE HOSPITALIER UNIVERSITAIRE DE SHERBROOKE INC.", "designationCode": "A", "categoryCode": "13", "address": "530 10E AVENUE SUD", "city": "SHERBROOKE", "province": "QC", "country": "CA", "postalCode": "J1G2R9", "twitter": "None", "instagram": "None", "facebook": "None", "youtube": "None", "website": "None", "summary": "None", "logo": "None", "latitude": 45.39941994754457, "longitude": -71.87241390137982}, "890311269RR0001": {"name": "FONDATION DU CENTRE JEUNESSE DE LA MONT\u00c9R\u00c9GIE", "designationCode": "C", "categoryCode": "09", "address": "575 RUE ADONCOUR", "city": "LONGUEUIL", "province": "QC", "country": "CA", "postalCode": "J4G2M6", "twitter": "None", "instagram": "None", "facebook": "None", "youtube": "None", "website": "None", "summary": "None", "logo": "None", "latitude": 45.55420573022105, "longitude": -73.4843660997463}, "884905365RR0001": {"name": "FONDATION DU CENTRE JEUNESSE DE LAVAL", "designationCode": "A", "categoryCode": "03", "address": "308 BOUL CARTIER OUEST", "city": "LAVAL", "province": "QC", "country": "CA", "postalCode": "H7N2J2", "twitter": "None", "instagram": "None", "facebook": "None", "youtube": "None", "website": "None", "summary": "None", "logo": "None", "latitude": 45.5563346193241, "longitude": -73.69948047432479}, "890791940RR0001": {"name": "FONDATION DU CENTRE JEUNESSE DE QU\u00c9BEC", "designationCode": "C", "categoryCode": "09", "address": "2915 AVE BOURG ROYAL", "city": "BEAUPORT", "province": "QC", "country": "CA", "postalCode": "G1C3S2", "twitter": "None", "instagram": "None", "facebook": "None", "youtube": "None", "website": "None", "summary": "None", "logo": "None", "latitude": 46.85761368743182, "longitude": -71.21932888712504}, "898629944RR0001": {"name": "FONDATION DU CENTRE JEUNESSE DU BAS-SAINT-LAURENT", "designationCode": "A", "categoryCode": "03", "address": "287, RUE PIERRE-SAINDON       C.P. 3500", "city": "RIMOUSKI", "province": "QC", "country": "CA", "postalCode": "G5L8V5", "twitter": "None", "instagram": "None", "facebook": "None", "youtube": "None", "website": "None", "summary": "None", "logo": "None", "latitude": 48.444930757660856, "longitude": -68.52429804827183}, "813757143RR0001": {"name": "FONDATION DU CENTRE LE HAVRE", "designationCode": "A", "categoryCode": "03", "address": "1486, RUE BREBEUF", "city": "TROIS-RIVIERES", "province": "QC", "country": "CA", "postalCode": "G8Z2A1", "twitter": "None", "instagram": "None", "facebook": "None", "youtube": "None", "website": "None", "summary": "None", "logo": "None", "latitude": 46.34207287373753, "longitude": -72.55704373798265}, "892449364RR0001": {"name": "FONDATION DU CENTRE LOCAL DES SERVICES COMMUNAUTAIRES PONTIAC", "designationCode": "C", "categoryCode": "09", "address": "160, CHEMIN DE LA CHUTE       C. P. 430", "city": "MANSFIELD", "province": "QC", "country": "CA", "postalCode": "J0X1V0", "twitter": "None", "instagram": "None", "facebook": "None", "youtube": "None", "website": "None", "summary": "None", "logo": "None", "latitude": 45.847745918374024, "longitude": -76.73035799619177}, "861308104RR0001": {"name": "FONDATION DU CENTRE MATAP\u00c9DIEN D'\u00c9TUDES COLL\u00c9GIALES INC.", "designationCode": "C", "categoryCode": "21", "address": "92, RUE DESBIENS", "city": "AMQUI", "province": "QC", "country": "CA", "postalCode": "G5J3P6", "twitter": "None", "instagram": "None", "facebook": "None", "youtube": "None", "website": "None", "summary": "None", "logo": "None", "latitude": 48.467365374430024, "longitude": -67.42961500715603}, "873520514RR0001": {"name": "FONDATION DU CENTRE MONT\u00c9R\u00c9GIEN R\u00c9ADAPTATION", "designationCode": "A", "categoryCode": "13", "address": "5300, CHEMIN CHAMBLY", "city": "ST-HUBERT", "province": "QC", "country": "CA", "postalCode": "J3Y3N7", "twitter": "None", "instagram": "None", "facebook": "None", "youtube": "None", "website": "None", "summary": "None", "logo": "None", "latitude": 45.50439033865166, "longitude": -73.42228006670926}, "894529585RR0001": {"name": "FONDATION DU CENTRE NORMAND LEVEILLE", "designationCode": "A", "categoryCode": "53", "address": "950, CHEMIN HEMMING           C.P. 306", "city": "DRUMMONDVILLE", "province": "QC", "country": "CA", "postalCode": "J2B6W3", "twitter": "None", "instagram": "None", "facebook": "None", "youtube": "None", "website": "None", "summary": "None", "logo": "None", "latitude": 45.86750383793053, "longitude": -72.45944283080406}, "118922467RR0001": {"name": "FONDATION DU CENTRE NOTRE-DAME DE L'ENFANT (SHERBROOKE) INC.", "designationCode": "C", "categoryCode": "13", "address": "DIRECTEUR                     1621 RUE PROSPECT", "city": "SHERBROOKE", "province": "QC", "country": "CA", "postalCode": "J1J1K4", "twitter": "None", "instagram": "None", "facebook": "None", "youtube": "None", "website": "None", "summary": "None", "logo": "None", "latitude": 45.40929045830635, "longitude": -71.91522250429917}, "118922475RR0001": {"name": "FONDATION DU CENTRE PSYCHO-PEDAGOGIQUE DE QUEBEC INC.", "designationCode": "A", "categoryCode": "53", "address": "1000 RUE DU JOLI-BOIS", "city": "QUEBEC", "province": "QC", "country": "CA", "postalCode": "G1V3Z6", "twitter": "None", "instagram": "None", "facebook": "None", "youtube": "None", "website": "None", "summary": "None", "logo": "None", "latitude": 46.77533160029456, "longitude": -71.28887116062626}, "855280475RR0001": {"name": "FONDATION DU CENTRE PSYCHO-SOCIAL POUR ENFANTS ET FAMILLES D'OTTAWA", "designationCode": "A", "categoryCode": "03", "address": "150 CHEMIN MONTREAL           BUREAU 300", "city": "OTTAWA", "province": "ON", "country": "CA", "postalCode": "K1L8H2", "twitter": "None", "instagram": "None", "facebook": "None", "youtube": "None", "website": "None", "summary": "None", "logo": "None", "latitude": 45.43476938435603, "longitude": -75.66491331305912}, "133327445RR0001": {"name": "FONDATION DU CENTRE R\u00c9GIONALE DE SANT\u00c9 ET DE SERVICES SOCIAUX RIMOUSKI INC.", "designationCode": "A", "categoryCode": "13", "address": "150 RUE ROULEAU", "city": "RIMOUSKI", "province": "QC", "country": "CA", "postalCode": "G5L5T1", "twitter": "None", "instagram": "None", "facebook": "None", "youtube": "None", "website": "None", "summary": "None", "logo": "None", "latitude": 48.446824833411064, "longitude": -68.5319686278583}, "890767452RR0001": {"name": "FONDATION DU CENTRE ROGER SEGUIN", "designationCode": "C", "categoryCode": "19", "address": "435 LEMAY", "city": "CLARENCE CREEK", "province": "ON", "country": "CA", "postalCode": "K0A1N0", "twitter": "None", "instagram": "None", "facebook": "None", "youtube": "None", "website": "None", "summary": "None", "logo": "None", "latitude": 45.51016050240307, "longitude": -75.21654774844164}, "868433947RR0001": {"name": "FONDATION DU CENTRE UNIVERSITAIRE DE SANT\u00c9 MCGILL/MCGILL UNIVERSITY HEALTH CENTRE FOUNDATION", "designationCode": "A", "categoryCode": "03", "address": "5100 BOUL DE MAISONNEUVE O    UNITE 700", "city": "MONTREAL", "province": "QC", "country": "CA", "postalCode": "H4A3T2", "twitter": "None", "instagram": "None", "facebook": "None", "youtube": "None", "website": "None", "summary": "None", "logo": "None", "latitude": 45.475014595591375, "longitude": -73.60313088657772}, "887531614RR0001": {"name": "FONDATION DU CHSLD DE LA C\u00d4TE BOIS\u00c9E", "designationCode": "C", "categoryCode": "09", "address": "4300, RUE ANGORA", "city": "TERREBONNE", "province": "QC", "country": "CA", "postalCode": "J6X4P1", "twitter": "None", "instagram": "None", "facebook": "None", "youtube": "None", "website": "None", "summary": "None", "logo": "None", "latitude": 45.71334654227055, "longitude": -73.66174275382302}, "120592803RR0001": {"name": "FONDATION DU CLSC DES MILLE-ILES / CHSLD LAVAL", "designationCode": "A", "categoryCode": "09", "address": "5436, BOUL. L\u00c9VESQUE EST", "city": "LAVAL", "province": "QC", "country": "CA", "postalCode": "H7C1N7", "twitter": "None", "instagram": "None", "facebook": "None", "youtube": "None", "website": "None", "summary": "None", "logo": "None", "latitude": 45.615664154019406, "longitude": -73.64450487186254}, "809032873RR0001": {"name": "FONDATION DU CLSC DU VIEUX LA CHINE", "designationCode": "A", "categoryCode": "03", "address": "1900 RUE NOTRE-DAME", "city": "LACHINE", "province": "QC", "country": "CA", "postalCode": "H8S2G2", "twitter": "None", "instagram": "None", "facebook": "None", "youtube": "None", "website": "None", "summary": "None", "logo": "None", "latitude": 45.43508043883067, "longitude": -73.6814942231519}, "118922517RR0001": {"name": "FONDATION DU CLSC ST-HENRI", "designationCode": "C", "categoryCode": "09", "address": "3833 RUE NOTRE-DAME O", "city": "MONTREAL", "province": "QC", "country": "CA", "postalCode": "H4C1P8", "twitter": "None", "instagram": "None", "facebook": "None", "youtube": "None", "website": "None", "summary": "None", "logo": "None", "latitude": 45.478354660309144, "longitude": -73.58333652778559}, "870612645RR0001": {"name": "FONDATION DU CLSC VALLEE DE LA BATISCAN", "designationCode": "A", "categoryCode": "13", "address": "1795 CHEMIN ST GEORGES", "city": "SAINTE-THECLE", "province": "QC", "country": "CA", "postalCode": "G0X3G0", "twitter": "None", "instagram": "None", "facebook": "None", "youtube": "None", "website": "None", "summary": "None", "logo": "None"}, "892878356RR0001": {"name": "FONDATION DU CLSC-CHSLD DES PATRIOTES", "designationCode": "A", "categoryCode": "03", "address": "300 RUE SERGE-PEPIN", "city": "BELOEIL", "province": "QC", "country": "CA", "postalCode": "J3G0B8", "twitter": "None", "instagram": "None", "facebook": "None", "youtube": "None", "website": "None", "summary": "None", "logo": "None", "latitude": 45.592763545723194, "longitude": -73.2026507653702}, "862334125RR0001": {"name": "FONDATION DU CLUB DE HOCKEY CANADIEN POUR L'ENFANCE/THE MONTREAL CANADIENS CHILDREN'S FOUNDATION", "designationCode": "A", "categoryCode": "05", "address": "1275, RUE SAINT-ANTOINE OUEST", "city": "MONTR\u00c9AL", "province": "QC", "country": "CA", "postalCode": "H3C5L2", "twitter": "None", "instagram": "None", "facebook": "None", "youtube": "None", "website": "None", "summary": "None", "logo": "None", "latitude": 45.49539392506777, "longitude": -73.5687908005943}, "893057588RR0001": {"name": "FONDATION DU CLUB KIWANIS SAINT-LAURENT DE MONTR\u00c9AL INC.", "designationCode": "A", "categoryCode": "03", "address": "2780-630 BOUL REN\u00c9-L\u00c9VEQUE O.", "city": "MONTR\u00c9AL", "province": "QC", "country": "CA", "postalCode": "H3B1S6", "twitter": "None", "instagram": "None", "facebook": "None", "youtube": "None", "website": "None", "summary": "None", "logo": "None", "latitude": 45.50216587702709, "longitude": -73.56700637477672}, "868532094RR0001": {"name": "FONDATION DU CLUB ROTARY DE DRUMMONDVILLE (QUEBEC, CANADA) INC.", "designationCode": "C", "categoryCode": "23", "address": "1875 BOUL. ST-JOSEPH", "city": "DRUMMONDVILLE", "province": "QC", "country": "CA", "postalCode": "J2B1B4", "twitter": "None", "instagram": "None", "facebook": "None", "youtube": "None", "website": "None", "summary": "None", "logo": "None", "latitude": 45.87829688314394, "longitude": -72.48862808272251}, "860239409RR0001": {"name": "FONDATION DU CLUB ROTARY DE LAVAL", "designationCode": "A", "categoryCode": "63", "address": "2540 BOULEVARD DANIEL-JOHNSON BUREAU 400", "city": "LAVAL", "province": "QC", "country": "CA", "postalCode": "H7T2S3", "twitter": "None", "instagram": "None", "facebook": "None", "youtube": "None", "website": "None", "summary": "None", "logo": "None", "latitude": 45.567061785446434, "longitude": -73.75546153915388}, "889691994RR0001": {"name": "FONDATION DU CLUB ROTARY DE QUEBEC", "designationCode": "C", "categoryCode": "09", "address": "1505 RUE PAMPHILE-LE MAY", "city": "QUEBEC", "province": "QC", "country": "CA", "postalCode": "G1Y3C3", "twitter": "None", "instagram": "None", "facebook": "None", "youtube": "None", "website": "None", "summary": "None", "logo": "None", "latitude": 46.738412328899486, "longitude": -71.35913184759671}}