{"137973129RR0001": {"name": "CANADIAN MENTAL HEALTH ASSOCIATION SHUSWAP/REVELSTOKE BRANCH", "designationCode": "C", "categoryCode": "11", "address": "PO BOX 3275", "city": "SALMON ARM", "province": "BC", "country": "CA", "postalCode": "V1E4S1", "twitter": "None", "instagram": "None", "facebook": "None", "youtube": "None", "website": "None", "summary": "None", "logo": "None", "latitude": 50.70318000000006, "longitude": -119.26884049999992}, "898860887RR0001": {"name": "CANADIAN MENTAL HEALTH ASSOCIATION SWAN VALLEY BRANCH INC.", "designationCode": "C", "categoryCode": "11", "address": "PO BOX 1593", "city": "SWAN RIVER", "province": "MB", "country": "CA", "postalCode": "R0L1Z0", "twitter": "None", "instagram": "None", "facebook": "None", "youtube": "None", "website": "None", "summary": "None", "logo": "None", "latitude": 52.11672730414978, "longitude": -101.25989472758229}, "106863731RR0001": {"name": "CANADIAN MENTAL HEALTH ASSOCIATION VERNON AND DISTRICT BRANCH", "designationCode": "C", "categoryCode": "11", "address": "3100 28TH AVE", "city": "VERNON", "province": "BC", "country": "CA", "postalCode": "V1T1W3", "twitter": "None", "instagram": "None", "facebook": "None", "youtube": "None", "website": "None", "summary": "None", "logo": "None", "latitude": 50.26218053952925, "longitude": -119.27241055536962}, "106863434RR0001": {"name": "CANADIAN MENTAL HEALTH ASSOCIATION WESTMAN REGION, INC.", "designationCode": "C", "categoryCode": "01", "address": "23-12TH ST", "city": "BRANDON", "province": "MB", "country": "CA", "postalCode": "R7A4L6", "twitter": "None", "instagram": "None", "facebook": "None", "youtube": "None", "website": "None", "summary": "None", "logo": "None", "latitude": 49.84894800000001, "longitude": -99.95413141098776}, "106864036RR0001": {"name": "CANADIAN MENTAL HEALTH ASSOCIATION WINDSOR ESSEX COUNTY BRANCH", "designationCode": "C", "categoryCode": "11", "address": "1400 WINDSOR AVENUE", "city": "WINDSOR", "province": "ON", "country": "CA", "postalCode": "N8X3L9", "twitter": "None", "instagram": "None", "facebook": "None", "youtube": "None", "website": "None", "summary": "None", "logo": "None", "latitude": 42.30352304330884, "longitude": -83.02632493057904}, "118834316RR0001": {"name": "CANADIAN MENTAL HEALTH ASSOCIATION-EDMONTON REGION", "designationCode": "C", "categoryCode": "11", "address": "300-10010 105 ST NW", "city": "EDMONTON", "province": "AB", "country": "CA", "postalCode": "T5J1C4", "twitter": "None", "instagram": "None", "facebook": "None", "youtube": "None", "website": "None", "summary": "None", "logo": "None", "latitude": 53.5390551618097, "longitude": -113.50114817822697}, "118834217RR0001": {"name": "CANADIAN MENTAL HEALTH ASSOCIATION-OXFORD COUNTY BRANCH", "designationCode": "C", "categoryCode": "11", "address": "522 PEEL STREET", "city": "WOODSTOCK", "province": "ON", "country": "CA", "postalCode": "N4S1K3", "twitter": "None", "instagram": "None", "facebook": "None", "youtube": "None", "website": "None", "summary": "None", "logo": "None", "latitude": 43.1294617621329, "longitude": -80.75475820399333}, "123921363RR0001": {"name": "CANADIAN MENTAL HEALTH ASSOCIATION/L'ASSOCIATION CANADIENNE POUR LA SANTE MENTALE-FILIALE S D & G/PRESCOTT-RUSSELL BRANCH", "designationCode": "C", "categoryCode": "11", "address": "329 PITT STREET", "city": "CORNWALL", "province": "ON", "country": "CA", "postalCode": "K6J3R1", "twitter": "None", "instagram": "None", "facebook": "None", "youtube": "None", "website": "None", "summary": "None", "logo": "None", "latitude": 45.020416840412025, "longitude": -74.7298502561603}, "129778882RR0001": {"name": "CANADIAN MENTAL HEALTH ASSOCIATION/PEEL BRANCH", "designationCode": "C", "categoryCode": "11", "address": "7700 HURONTARIO STREET        UNIT 601", "city": "BRAMPTON", "province": "ON", "country": "CA", "postalCode": "L6Y4M3", "twitter": "None", "instagram": "None", "facebook": "None", "youtube": "None", "website": "None", "summary": "None", "logo": "None", "latitude": 43.66015379664278, "longitude": -79.7255409433323}, "891502148RR0001": {"name": "CANADIAN MENTAL HEALTH ASSOCIATION, ALBERTA CENTRAL REGION, 1991", "designationCode": "C", "categoryCode": "11", "address": "5017 50 AVE", "city": "RED DEER", "province": "AB", "country": "CA", "postalCode": "T4N4B2", "twitter": "None", "instagram": "None", "facebook": "None", "youtube": "None", "website": "None", "summary": "None", "logo": "None", "latitude": 52.269705000000016, "longitude": -113.81402807184516}, "888861234RR0001": {"name": "CANADIAN MENTAL HEALTH ASSOCIATION, ALBERTA SOUTH REGION, 19", "designationCode": "C", "categoryCode": "11", "address": "426-6TH STREET SOUTH", "city": "LETHBRIDGE", "province": "AB", "country": "CA", "postalCode": "T1J2C9", "twitter": "None", "instagram": "None", "facebook": "None", "youtube": "None", "website": "None", "summary": "None", "logo": "None", "latitude": 49.69322987454559, "longitude": -112.83849347732071}, "884292368RR0001": {"name": "CANADIAN MENTAL HEALTH ASSOCIATION, ALBERTA SOUTHEAST REGION", "designationCode": "C", "categoryCode": "11", "address": "204-1865 DUNMORE RD SE", "city": "MEDICINE HAT", "province": "AB", "country": "CA", "postalCode": "T1A1Z8", "twitter": "None", "instagram": "None", "facebook": "None", "youtube": "None", "website": "None", "summary": "None", "logo": "None", "latitude": 50.01681840966011, "longitude": -110.65797184970285}, "863433397RR0001": {"name": "CANADIAN MENTAL HEALTH ASSOCIATION, BATTLEFORDS BRANCH, INC.", "designationCode": "C", "categoryCode": "09", "address": "1602 103RD ST", "city": "NORTH BATTLEFORD", "province": "SK", "country": "CA", "postalCode": "S9A1L7", "twitter": "None", "instagram": "None", "facebook": "None", "youtube": "None", "website": "None", "summary": "None", "logo": "None", "latitude": 52.7813544970858, "longitude": -108.29452554729087}, "873057095RR0001": {"name": "CANADIAN MENTAL HEALTH ASSOCIATION, CAPE BRETON BRANCH", "designationCode": "C", "categoryCode": "11", "address": "1482 GEORGE ST", "city": "SYDNEY", "province": "NS", "country": "CA", "postalCode": "B1P1P3", "twitter": "None", "instagram": "None", "facebook": "None", "youtube": "None", "website": "None", "summary": "None", "logo": "None", "latitude": 46.11692119151504, "longitude": -60.17025110247075}, "139905772RR0001": {"name": "CANADIAN MENTAL HEALTH ASSOCIATION, COWICHAN VALLEY BRANCH /992", "designationCode": "C", "categoryCode": "19", "address": "371 FESTUBERT ST", "city": "DUNCAN", "province": "BC", "country": "CA", "postalCode": "V9L3T1", "twitter": "None", "instagram": "None", "facebook": "None", "youtube": "None", "website": "None", "summary": "None", "logo": "None", "latitude": 48.77820016763806, "longitude": -123.70208418085271}, "118834084RR0001": {"name": "CANADIAN MENTAL HEALTH ASSOCIATION, DURHAM BRANCH", "designationCode": "C", "categoryCode": "11", "address": "60  BOND STREET W", "city": "OSHAWA", "province": "ON", "country": "CA", "postalCode": "L1G1A5", "twitter": "None", "instagram": "None", "facebook": "None", "youtube": "None", "website": "None", "summary": "None", "logo": "None", "latitude": 43.89790111076791, "longitude": -78.86640803165206}, "118834233RR0001": {"name": "CANADIAN MENTAL HEALTH ASSOCIATION, ELGIN BRANCH", "designationCode": "C", "categoryCode": "11", "address": "110 CENTRE ST.", "city": "ST-THOMAS", "province": "ON", "country": "CA", "postalCode": "N5R2Z9", "twitter": "None", "instagram": "None", "facebook": "None", "youtube": "None", "website": "None", "summary": "None", "logo": "None", "latitude": 42.777900546742615, "longitude": -81.20013277990651}, "106863681RR0001": {"name": "CANADIAN MENTAL HEALTH ASSOCIATION, FORT FRANCES BRANCH", "designationCode": "C", "categoryCode": "11", "address": "PO BOX 446", "city": "FORT FRANCES", "province": "ON", "country": "CA", "postalCode": "P9A3M8", "twitter": "None", "instagram": "None", "facebook": "None", "youtube": "None", "website": "None", "summary": "None", "logo": "None", "latitude": 48.610023000000055, "longitude": -93.39111349999993}, "129834248RR0001": {"name": "CANADIAN MENTAL HEALTH ASSOCIATION, GREY BRUCE BRANCH", "designationCode": "C", "categoryCode": "11", "address": "1024 2ND AVE E", "city": "OWEN SOUND", "province": "ON", "country": "CA", "postalCode": "N4K2H7", "twitter": "None", "instagram": "None", "facebook": "None", "youtube": "None", "website": "None", "summary": "None", "logo": "None", "latitude": 44.56818679906508, "longitude": -80.94309189220361}, "106863889RR0001": {"name": "CANADIAN MENTAL HEALTH ASSOCIATION, HALIBURTON, KAWARTHA, PINE RIDGE BRANCH", "designationCode": "C", "categoryCode": "11", "address": "466 GEORGE STREET NORTH", "city": "PETERBOROUGH", "province": "ON", "country": "CA", "postalCode": "K9H3R7", "twitter": "None", "instagram": "None", "facebook": "None", "youtube": "None", "website": "None", "summary": "None", "logo": "None", "latitude": 44.307955372468115, "longitude": -78.32017374851425}, "106863475RR0001": {"name": "CANADIAN MENTAL HEALTH ASSOCIATION, HALTON REGION BRANCH", "designationCode": "C", "categoryCode": "11", "address": "102-1540 CORNWALL RD", "city": "OAKVILLE", "province": "ON", "country": "CA", "postalCode": "L6J7W5", "twitter": "None", "instagram": "None", "facebook": "None", "youtube": "None", "website": "None", "summary": "None", "logo": "None", "latitude": 43.47878142325009, "longitude": -79.65891842518333}, "126583855RR0001": {"name": "CANADIAN MENTAL HEALTH ASSOCIATION, HAMILTON BRANCH", "designationCode": "C", "categoryCode": "11", "address": "131 JOHN ST SOUTH", "city": "HAMILTON", "province": "ON", "country": "CA", "postalCode": "L8N2C3", "twitter": "None", "instagram": "None", "facebook": "None", "youtube": "None", "website": "None", "summary": "None", "logo": "None", "latitude": 43.25236157118132, "longitude": -79.86799918353667}, "106863574RR0001": {"name": "CANADIAN MENTAL HEALTH ASSOCIATION, HASTINGS & PRINCE EDWARD COUNTIES BRANCH", "designationCode": "C", "categoryCode": "09", "address": "41 OCTAVIA STREET", "city": "BELLEVILLE", "province": "ON", "country": "CA", "postalCode": "K8P3P1", "twitter": "None", "instagram": "None", "facebook": "None", "youtube": "None", "website": "None", "summary": "None", "logo": "None", "latitude": 44.16354572497134, "longitude": -77.3914106762266}, "118834225RR0001": {"name": "CANADIAN MENTAL HEALTH ASSOCIATION, HURON-PERTH BRANCH", "designationCode": "C", "categoryCode": "11", "address": "540 HURON STREET", "city": "STRATFORD", "province": "ON", "country": "CA", "postalCode": "N5A5T9", "twitter": "None", "instagram": "None", "facebook": "None", "youtube": "None", "website": "None", "summary": "None", "logo": "None", "latitude": 43.380328210398645, "longitude": -81.00205839243476}, "107774408RR0001": {"name": "CANADIAN MENTAL HEALTH ASSOCIATION, KAMLOOPS BRANCH", "designationCode": "C", "categoryCode": "11", "address": "857 SEYMOUR ST", "city": "KAMLOOPS", "province": "BC", "country": "CA", "postalCode": "V2C2H6", "twitter": "None", "instagram": "None", "facebook": "None", "youtube": "None", "website": "None", "summary": "None", "logo": "None", "latitude": 50.6748894740321, "longitude": -120.31966180252755}, "118834068RR0001": {"name": "CANADIAN MENTAL HEALTH ASSOCIATION, KINGSTON BRANCH", "designationCode": "C", "categoryCode": "11", "address": "11 - 400 ELLIOTT AVE", "city": "KINGSTON", "province": "ON", "country": "CA", "postalCode": "K7K6M9", "twitter": "None", "instagram": "None", "facebook": "None", "youtube": "None", "website": "None", "summary": "None", "logo": "None", "latitude": 44.25628254227055, "longitude": -76.49807858950318}, "118834050RR0001": {"name": "CANADIAN MENTAL HEALTH ASSOCIATION, LEEDS-GRENVILLE BRANCH", "designationCode": "C", "categoryCode": "11", "address": "25 FRONT AVE. WEST            SUITE 3", "city": "BROCKVILLE", "province": "ON", "country": "CA", "postalCode": "K6V4J2", "twitter": "None", "instagram": "None", "facebook": "None", "youtube": "None", "website": "None", "summary": "None", "logo": "None", "latitude": 44.59801180515327, "longitude": -75.68906457755796}, "837106319RR0001": {"name": "CANADIAN MENTAL HEALTH ASSOCIATION, MID ISLAND BRANCH", "designationCode": "C", "categoryCode": "11", "address": "437 WESLEY STREET", "city": "NANAIMO", "province": "BC", "country": "CA", "postalCode": "V9R2T8", "twitter": "None", "instagram": "None", "facebook": "None", "youtube": "None", "website": "None", "summary": "None", "logo": "None", "latitude": 49.16299486537033, "longitude": -123.9389252455418}, "130532955RR0001": {"name": "CANADIAN MENTAL HEALTH ASSOCIATION, NIAGARA BRANCH", "designationCode": "C", "categoryCode": "11", "address": "15 WELLINGTON ST", "city": "ST CATHARINES", "province": "ON", "country": "CA", "postalCode": "L2R5P7", "twitter": "None", "instagram": "None", "facebook": "None", "youtube": "None", "website": "None", "summary": "None", "logo": "None", "latitude": 43.159956245340254, "longitude": -79.24976557245073}, "106863848RR0001": {"name": "CANADIAN MENTAL HEALTH ASSOCIATION, NIPISSING REGIONAL BRANCH", "designationCode": "C", "categoryCode": "11", "address": "156 MCINTYRE STREET WEST", "city": "NORTH BAY", "province": "ON", "country": "CA", "postalCode": "P1B2Y6", "twitter": "None", "instagram": "None", "facebook": "None", "youtube": "None", "website": "None", "summary": "None", "logo": "None", "latitude": 46.311888498211, "longitude": -79.46375868119941}, "131377061RR0001": {"name": "CANADIAN MENTAL HEALTH ASSOCIATION, PRINCE GEORGE BRANCH", "designationCode": "C", "categoryCode": "11", "address": "1152 THIRD AVE                PRINCE", "city": "PRINCE GEORGE", "province": "BC", "country": "CA", "postalCode": "V2L3E5", "twitter": "None", "instagram": "None", "facebook": "None", "youtube": "None", "website": "None", "summary": "None", "logo": "None", "latitude": 53.91641608301804, "longitude": -122.74367870547644}, "118834290RR0001": {"name": "CANADIAN MENTAL HEALTH ASSOCIATION, SAULT STE. MARIE BRANCH", "designationCode": "C", "categoryCode": "11", "address": "386 QUEEN STREET EAST", "city": "SAULT STE-MARIE", "province": "ON", "country": "CA", "postalCode": "P6A1Z1", "twitter": "None", "instagram": "None", "facebook": "None", "youtube": "None", "website": "None", "summary": "None", "logo": "None", "latitude": 46.51230036248479, "longitude": -84.33399340270653}, "118834126RR0001": {"name": "CANADIAN MENTAL HEALTH ASSOCIATION, SIMCOE COUNTY BRANCH", "designationCode": "C", "categoryCode": "11", "address": "128 ANNE STREET SOUTH", "city": "BARRIE", "province": "ON", "country": "CA", "postalCode": "L4N6A2", "twitter": "None", "instagram": "None", "facebook": "None", "youtube": "None", "website": "None", "summary": "None", "logo": "None", "latitude": 44.37408069885744, "longitude": -79.6980782714524}, "132727538RR0001": {"name": "CANADIAN MENTAL HEALTH ASSOCIATION, SOUTH OKANAGAN SIMILKAMEEN BRANCH", "designationCode": "C", "categoryCode": "11", "address": "2852 SKAHA LAKE RD", "city": "PENTICTON", "province": "BC", "country": "CA", "postalCode": "V2A6G1", "twitter": "None", "instagram": "None", "facebook": "None", "youtube": "None", "website": "None", "summary": "None", "logo": "None", "latitude": 49.46522843213692, "longitude": -119.58670925324611}, "106863939RR0001": {"name": "CANADIAN MENTAL HEALTH ASSOCIATION, SUDBURY BRANCH", "designationCode": "C", "categoryCode": "11", "address": "111 ELM ST                    SUITE 100", "city": "SUDBURY", "province": "ON", "country": "CA", "postalCode": "P3C1T3", "twitter": "None", "instagram": "None", "facebook": "None", "youtube": "None", "website": "None", "summary": "None", "logo": "None", "latitude": 46.49299381736797, "longitude": -80.99838403353289}, "881871610RR0001": {"name": "CANADIAN MENTAL HEALTH ASSOCIATION, SWIFT CURRENT BRANCH, INC.", "designationCode": "C", "categoryCode": "11", "address": "176 4TH AVE NW", "city": "SWIFT CURRENT", "province": "SK", "country": "CA", "postalCode": "S9H0T6", "twitter": "None", "instagram": "None", "facebook": "None", "youtube": "None", "website": "None", "summary": "None", "logo": "None", "latitude": 50.2846340291419, "longitude": -107.80546433697823}, "130140577RR0001": {"name": "CANADIAN MENTAL HEALTH ASSOCIATION, THOMPSON REGION INC.", "designationCode": "C", "categoryCode": "11", "address": "43 FOX BAY", "city": "THOMPSON", "province": "MB", "country": "CA", "postalCode": "R8N1E9", "twitter": "None", "instagram": "None", "facebook": "None", "youtube": "None", "website": "None", "summary": "None", "logo": "None", "latitude": 55.7400652862225, "longitude": -97.86443971506115}, "130293327RR0001": {"name": "CANADIAN MENTAL HEALTH ASSOCIATION, THUNDER BAY BRANCH", "designationCode": "C", "categoryCode": "11", "address": "200 VAN NORMAN ST", "city": "THUNDER BAY", "province": "ON", "country": "CA", "postalCode": "P7A4B8", "twitter": "None", "instagram": "None", "facebook": "None", "youtube": "None", "website": "None", "summary": "None", "logo": "None", "latitude": 48.43612922482535, "longitude": -89.21933999596064}, "123635534RR0001": {"name": "CANADIAN MENTAL HEALTH ASSOCIATION, YORK REGION BRANCH", "designationCode": "C", "categoryCode": "11", "address": "5 - 1101 NICHOLSON RD", "city": "NEWMARKET", "province": "ON", "country": "CA", "postalCode": "L3Y9C3", "twitter": "None", "instagram": "None", "facebook": "None", "youtube": "None", "website": "None", "summary": "None", "logo": "None", "latitude": 44.05682916792654, "longitude": -79.4273701365056}, "118834449RR0001": {"name": "CANADIAN METEOROLOGICAL & OCEANOGRAPHIC SOCIETY SOCIETE CANADIENNE METEOROLOGIE ET D'OCEANOGRAPHIE", "designationCode": "C", "categoryCode": "21", "address": "PO BOX 3211 STN D", "city": "OTTAWA", "province": "ON", "country": "CA", "postalCode": "K1P6H7", "twitter": "None", "instagram": "None", "facebook": "None", "youtube": "None", "website": "None", "summary": "None", "logo": "None", "latitude": 45.42177300000006, "longitude": -75.69115999999994}, "896657863RR0001": {"name": "CANADIAN METIS HERITAGE CORP.", "designationCode": "C", "categoryCode": "11", "address": "P. O. BOX 2818", "city": "MELFORT", "province": "SK", "country": "CA", "postalCode": "S0E1A0", "twitter": "None", "instagram": "None", "facebook": "None", "youtube": "None", "website": "None", "summary": "None", "logo": "None", "latitude": 52.85637, "longitude": -104.63436225000001}, "118834456RR0001": {"name": "CANADIAN MIDWEST DISTRICT OF THE CHRISTIAN & MISSIONARY ALLIANCE", "designationCode": "C", "categoryCode": "39", "address": "2950 ARENS RD E", "city": "REGINA", "province": "SK", "country": "CA", "postalCode": "S4V1N8", "twitter": "None", "instagram": "None", "facebook": "None", "youtube": "None", "website": "None", "summary": "None", "logo": "None", "latitude": 50.43948207960407, "longitude": -104.5419177307495}, "138265590RR0001": {"name": "CANADIAN MILITARY HERITAGE MUSEUM OF BRANT COUNTY", "designationCode": "C", "categoryCode": "50", "address": "P.O. BOX 27033                794 COLBORNE ST", "city": "BRANTFORD", "province": "ON", "country": "CA", "postalCode": "N3S7V1", "twitter": "None", "instagram": "None", "facebook": "None", "youtube": "None", "website": "None", "summary": "None", "logo": "None", "latitude": 43.143912044139725, "longitude": -80.22602760888155}, "118834464RR0001": {"name": "CANADIAN MILITARY HERITAGE SOCIETY", "designationCode": "C", "categoryCode": "29", "address": "759 KILLALY ST. EAST", "city": "PORT COLBORNE", "province": "ON", "country": "CA", "postalCode": "L3K5V3", "twitter": "None", "instagram": "None", "facebook": "None", "youtube": "None", "website": "None", "summary": "None", "logo": "None", "latitude": 42.89179250173169, "longitude": -79.222104}, "118834472RR0001": {"name": "CANADIAN MINERAL INDUSTRY EDUCATION FOUNDATION FONDATION INDUSTRIE MINIERE CANADIENNE POUR L'EDUCATION", "designationCode": "C", "categoryCode": "21", "address": "P.O. BOX 459                  31 ADELAIDE STREET EAST", "city": "TORONTO", "province": "ON", "country": "CA", "postalCode": "M5C2J5", "twitter": "None", "instagram": "None", "facebook": "None", "youtube": "None", "website": "None", "summary": "None", "logo": "None", "latitude": 43.650717853165304, "longitude": -79.37698425644875}, "891567190RR0001": {"name": "CANADIAN MISSION TO UNREACHED PEOPLES SOCIETY", "designationCode": "C", "categoryCode": "47", "address": "35669 HAWKSVIEW PL", "city": "ABBOTSFORD", "province": "BC", "country": "CA", "postalCode": "V3G2Y1", "twitter": "None", "instagram": "None", "facebook": "None", "youtube": "None", "website": "None", "summary": "None", "logo": "None", "latitude": 49.06480313379296, "longitude": -122.23650605081066}, "890745599RR0001": {"name": "CANADIAN MORAVIAN HISTORICAL SOCIETY - EDMONTON CHAPTER", "designationCode": "C", "categoryCode": "50", "address": "2304 38 STREET", "city": "EDMONTON", "province": "AB", "country": "CA", "postalCode": "T6L4K9", "twitter": "None", "instagram": "None", "facebook": "None", "youtube": "None", "website": "None", "summary": "None", "logo": "None", "latitude": 53.45473869830919, "longitude": -113.3990652277682}, "106864325RR0001": {"name": "CANADIAN MOTHERCRAFT OF OTTAWA-CARLETON", "designationCode": "C", "categoryCode": "09", "address": "475 EVERED AVE", "city": "OTTAWA", "province": "ON", "country": "CA", "postalCode": "K1Z5K9", "twitter": "None", "instagram": "None", "facebook": "None", "youtube": "None", "website": "None", "summary": "None", "logo": "None", "latitude": 45.390066882884135, "longitude": -75.75027271423644}, "124122979RR0001": {"name": "CANADIAN MOTHERCRAFT SOCIETY,", "designationCode": "C", "categoryCode": "19", "address": "32 HEATH ST WEST", "city": "TORONTO", "province": "ON", "country": "CA", "postalCode": "M4V1T3", "twitter": "None", "instagram": "None", "facebook": "None", "youtube": "None", "website": "None", "summary": "None", "logo": "None", "latitude": 43.68991727119261, "longitude": -79.39643863517794}, "118834514RR0001": {"name": "CANADIAN MOTHERS' UNION", "designationCode": "C", "categoryCode": "49", "address": "40 BARTLETT AVE", "city": "HAMPTON", "province": "NB", "country": "CA", "postalCode": "E5N5J1", "twitter": "None", "instagram": "None", "facebook": "None", "youtube": "None", "website": "None", "summary": "None", "logo": "None", "latitude": 45.52376750150055, "longitude": -65.8120129452073}, "876995671RR0001": {"name": "CANADIAN MOUNTAIN ARTS FOUNDATION", "designationCode": "C", "categoryCode": "22", "address": "PO BOX 8521 STN MAIN", "city": "CANMORE", "province": "AB", "country": "CA", "postalCode": "T1W2V2", "twitter": "None", "instagram": "None", "facebook": "None", "youtube": "None", "website": "None", "summary": "None", "logo": "None", "latitude": 51.08922900000002, "longitude": -115.35869075104875}, "864973250RR0001": {"name": "CANADIAN MULTICULTURAL DISABILITY CENTRE INC.", "designationCode": "C", "categoryCode": "21", "address": "305A - 2385 PEMBINA HWY", "city": "WINNIPEG", "province": "MB", "country": "CA", "postalCode": "R3T2H4", "twitter": "None", "instagram": "None", "facebook": "None", "youtube": "None", "website": "None", "summary": "None", "logo": "None", "latitude": 49.80579581166487, "longitude": -97.15557124730648}, "895989044RR0001": {"name": "CANADIAN MULTIPLE ENDOCRINE NEOPLASM TYPE 1 SOCIETY INC.", "designationCode": "C", "categoryCode": "09", "address": "1432 107TH ST", "city": "NORTH BATTLEFORD", "province": "SK", "country": "CA", "postalCode": "S9A1Z9", "twitter": "None", "instagram": "None", "facebook": "None", "youtube": "None", "website": "None", "summary": "None", "logo": "None", "latitude": 52.7786372514571, "longitude": -108.2886646200014}, "106864358RR0001": {"name": "CANADIAN MUSEUM OF FLIGHT ASSOCIATION", "designationCode": "C", "categoryCode": "50", "address": "HANGAR 3 5333 216 ST", "city": "LANGLEY", "province": "BC", "country": "CA", "postalCode": "V2Y2N3", "twitter": "None", "instagram": "None", "facebook": "None", "youtube": "None", "website": "None", "summary": "None", "logo": "None", "latitude": 49.098195000000004, "longitude": -122.62460349564259}, "806434742RR0001": {"name": "CANADIAN MUSEUM OF INUIT ART", "designationCode": "C", "categoryCode": "50", "address": "700 - 5255 YONGE ST", "city": "NORTH YORK", "province": "ON", "country": "CA", "postalCode": "M2N6P4", "twitter": "None", "instagram": "None", "facebook": "None", "youtube": "None", "website": "None", "summary": "None", "logo": "None", "latitude": 43.77202105635056, "longitude": -79.41357454711799}, "741324099RR0001": {"name": "CANADIAN MUSEUM OF NATURE FOUNDATION", "designationCode": "A", "categoryCode": "53", "address": "240 MCLEOD STREET", "city": "OTTAWA", "province": "ON", "country": "CA", "postalCode": "K2P2R1", "twitter": "None", "instagram": "None", "facebook": "None", "youtube": "None", "website": "None", "summary": "None", "logo": "None", "latitude": 45.41317580436544, "longitude": -75.68903458632127}, "106864374RR0001": {"name": "CANADIAN MUSEUMS ASSOCIATION- ASSOCIATION DES MUS\u00c9ES CANADIENS", "designationCode": "C", "categoryCode": "50", "address": "400-280 METCALFE ST", "city": "OTTAWA", "province": "ON", "country": "CA", "postalCode": "K2P1R7", "twitter": "None", "instagram": "None", "facebook": "None", "youtube": "None", "website": "None", "summary": "None", "logo": "None", "latitude": 45.415873457931916, "longitude": -75.69139676149774}, "125703249RR0001": {"name": "CANADIAN MUSIC CENTRE-PRAIRIE REGION ASSOCIATION", "designationCode": "C", "categoryCode": "22", "address": "2500 UNIVERSITY DR. NW", "city": "CALGARY", "province": "AB", "country": "CA", "postalCode": "T2N1N4", "twitter": "None", "instagram": "None", "facebook": "None", "youtube": "None", "website": "None", "summary": "None", "logo": "None", "latitude": 51.074918604189705, "longitude": -114.1284997045416}, "118834605RR0001": {"name": "CANADIAN MUSIC COMPETITIONS - TORONTO REGION", "designationCode": "C", "categoryCode": "22", "address": "300 CHARTWELL ROAD", "city": "OAKVILLE", "province": "ON", "country": "CA", "postalCode": "L6J3Z9", "twitter": "None", "instagram": "None", "facebook": "None", "youtube": "None", "website": "None", "summary": "None", "logo": "None", "latitude": 43.459150663050444, "longitude": -79.66596864974889}, "138828785RR0001": {"name": "CANADIAN MUSIC COMPETITIONS OF BRITISH COLUMBIA SOCIETY", "designationCode": "C", "categoryCode": "22", "address": "9 BROADWAY E", "city": "VANCOUVER", "province": "BC", "country": "CA", "postalCode": "V5T1V4", "twitter": "None", "instagram": "None", "facebook": "None", "youtube": "None", "website": "None", "summary": "None", "logo": "None", "latitude": 49.26301950043269, "longitude": -123.10446099708581}, "125857110RR0001": {"name": "CANADIAN MUSIC EDUCATORS' ASSOCIATION-L'ASSOCIATION CANADIENNE DES EDUCATEURS DE MUSIQUE", "designationCode": "C", "categoryCode": "22", "address": "722 ROSEBANK ROAD", "city": "PICKERING", "province": "ON", "country": "CA", "postalCode": "L1W4B2", "twitter": "None", "instagram": "None", "facebook": "None", "youtube": "None", "website": "None", "summary": "None", "logo": "None", "latitude": 43.809476252421256, "longitude": -79.12215086024374}, "885510008RR0001": {"name": "CANADIAN MUSIC THERAPY TRUST FUND", "designationCode": "C", "categoryCode": "19", "address": "1175 BLOOR STREET WEST", "city": "TORONTO", "province": "ON", "country": "CA", "postalCode": "M6H1M9", "twitter": "None", "instagram": "None", "facebook": "None", "youtube": "None", "website": "None", "summary": "None", "logo": "None", "latitude": 43.65919877655964, "longitude": -79.43844728919734}, "867189243RR0001": {"name": "CANADIAN NATIONAL AUTISM FOUNDATION", "designationCode": "C", "categoryCode": "11", "address": "38 KING STREET EAST           PO BOX 66512", "city": "STONEY CREEK", "province": "ON", "country": "CA", "postalCode": "L8G5E5", "twitter": "None", "instagram": "None", "facebook": "None", "youtube": "None", "website": "None", "summary": "None", "logo": "None", "latitude": 43.216563060765324, "longitude": -79.75636732168611}, "106844640RR0001": {"name": "CANADIAN NATIONAL BAPTIST CONVENTION", "designationCode": "C", "categoryCode": "49", "address": "100 CONVENTION WAY", "city": "COCHRANE", "province": "AB", "country": "CA", "postalCode": "T4C2G2", "twitter": "None", "instagram": "None", "facebook": "None", "youtube": "None", "website": "None", "summary": "None", "logo": "None", "latitude": 51.20903163221897, "longitude": -114.48780473147403}, "892864943RR0001": {"name": "CANADIAN NATIONAL BAPTIST CONVENTION FOUNDATION (2009)", "designationCode": "A", "categoryCode": "43", "address": "100 CONVENTION WAY", "city": "COCHRANE", "province": "AB", "country": "CA", "postalCode": "T4C2G2", "twitter": "None", "instagram": "None", "facebook": "None", "youtube": "None", "website": "None", "summary": "None", "logo": "None", "latitude": 51.20903163221897, "longitude": -114.48780473147403}, "863736310RR0001": {"name": "CANADIAN NATIONAL CHRISTIAN FOUNDATION", "designationCode": "A", "categoryCode": "03", "address": "89 AURIGA DR", "city": "OTTAWA", "province": "ON", "country": "CA", "postalCode": "K2E7Z2", "twitter": "None", "instagram": "None", "facebook": "None", "youtube": "None", "website": "None", "summary": "None", "logo": "None", "latitude": 45.32790875685278, "longitude": -75.71363925033192}, "118834639RR0001": {"name": "CANADIAN NATIONAL EXHIBITION FOUNDATION", "designationCode": "A", "categoryCode": "53", "address": "210 PRINCES' BLVD             EXHIBITION PLACE", "city": "TORONTO", "province": "ON", "country": "CA", "postalCode": "M6K3C3", "twitter": "None", "instagram": "None", "facebook": "None", "youtube": "None", "website": "None", "summary": "None", "logo": "None", "latitude": 43.63232625229383, "longitude": -79.42161663460102}, "129904447RR0001": {"name": "CANADIAN NATIVE FRIENDSHIP CENTRE", "designationCode": "C", "categoryCode": "56", "address": "11728 95 ST", "city": "EDMONTON", "province": "AB", "country": "CA", "postalCode": "T5G1L9", "twitter": "None", "instagram": "None", "facebook": "None", "youtube": "None", "website": "None", "summary": "None", "logo": "None", "latitude": 53.569475696087494, "longitude": -113.48726677979094}, "118834712RR0001": {"name": "CANADIAN NATUROPATHIC FOUNDATION", "designationCode": "C", "categoryCode": "21", "address": "200-20 HOLLY STREET", "city": "TORONTO", "province": "ON", "country": "CA", "postalCode": "M4S3B1", "twitter": "None", "instagram": "None", "facebook": "None", "youtube": "None", "website": "None", "summary": "None", "logo": "None", "latitude": 43.70500419732823, "longitude": -79.39608419640459}, "118834720RR0001": {"name": "CANADIAN NAVAL MEMORIAL TRUST", "designationCode": "C", "categoryCode": "52", "address": "PO BOX 99000-STN FORCES", "city": "HALIFAX", "province": "NS", "country": "CA", "postalCode": "B3K5X5", "twitter": "None", "instagram": "None", "facebook": "None", "youtube": "None", "website": "None", "summary": "None", "logo": "None", "latitude": 44.645478000000054, "longitude": -63.576552499999934}, "890765399RR0001": {"name": "CANADIAN NAZARENE COLLEGE FOUNDATION INC", "designationCode": "A", "categoryCode": "23", "address": "1311 RYAN STREET", "city": "MONCTON", "province": "NB", "country": "CA", "postalCode": "E1G2V4", "twitter": "None", "instagram": "None", "facebook": "None", "youtube": "None", "website": "None", "summary": "None", "logo": "None", "latitude": 46.12032662115526, "longitude": -64.8832964168448}, "118834738RR0001": {"name": "CANADIAN NAZARENE COLLEGE LTD.", "designationCode": "C", "categoryCode": "20", "address": "150 AMBROSE CIR SW", "city": "CALGARY", "province": "AB", "country": "CA", "postalCode": "T3H0L5", "twitter": "None", "instagram": "None", "facebook": "None", "youtube": "None", "website": "None", "summary": "None", "logo": "None", "latitude": 51.034709269349904, "longitude": -114.19338623831791}, "887158053RR0001": {"name": "CANADIAN NETWORK FOR ARTS AND LEARNING FOUNDATION", "designationCode": "C", "categoryCode": "20", "address": "10 CASTERTON AVE.", "city": "KINGSTON", "province": "ON", "country": "CA", "postalCode": "K7M1R5", "twitter": "None", "instagram": "None", "facebook": "None", "youtube": "None", "website": "None", "summary": "None", "logo": "None", "latitude": 44.23304568163209, "longitude": -76.5257085262277}, "140621095RR0001": {"name": "CANADIAN NETWORK FOR RESPIRATORY CARE/R\u00c9SEAU CANADIEN POUR LES SOINS RESPIRATOIRES", "designationCode": "C", "categoryCode": "11", "address": "16851 MOUNT WOLFE RD", "city": "CALEDON", "province": "ON", "country": "CA", "postalCode": "L7E3P6", "twitter": "None", "instagram": "None", "facebook": "None", "youtube": "None", "website": "None", "summary": "None", "logo": "None", "latitude": 43.97381192831088, "longitude": -79.79597332260137}, "856973920RR0001": {"name": "CANADIAN NEWF RESCUE INC.", "designationCode": "C", "categoryCode": "54", "address": "329 HIGHLAND AVE", "city": "OSHAWA", "province": "ON", "country": "CA", "postalCode": "L1H6B1", "twitter": "None", "instagram": "None", "facebook": "None", "youtube": "None", "website": "None", "summary": "None", "logo": "None", "latitude": 43.8932674535172, "longitude": -78.84103848095698}, "133119362RR0001": {"name": "CANADIAN NON-THEATRICAL FILM AND VIDEO CORPORATION", "designationCode": "C", "categoryCode": "81", "address": "10 HOWDEN AVENUE", "city": "OTTAWA", "province": "ON", "country": "CA", "postalCode": "K2G3H4", "twitter": "None", "instagram": "None", "facebook": "None", "youtube": "None", "website": "None", "summary": "None", "logo": "None", "latitude": 45.34474346153862, "longitude": -75.75224387564211}, "118834753RR0001": {"name": "CANADIAN NORTHERN (MEETING CREEK) HISTORICAL SOCIETY", "designationCode": "C", "categoryCode": "52", "address": "P.O. BOX 1174", "city": "CAMROSE", "province": "AB", "country": "CA", "postalCode": "T4V1X2", "twitter": "None", "instagram": "None", "facebook": "None", "youtube": "None", "website": "None", "summary": "None", "logo": "None", "latitude": 53.02423500000006, "longitude": -112.82978149999994}, "129870713RR0001": {"name": "CANADIAN NURSES FOUNDATION - FONDATION DES INFIRMIERES ET INFIRMIERS DU CANADA", "designationCode": "C", "categoryCode": "21", "address": "50 THE DRIVEWAY", "city": "OTTAWA", "province": "ON", "country": "CA", "postalCode": "K2P1E2", "twitter": "None", "instagram": "None", "facebook": "None", "youtube": "None", "website": "None", "summary": "None", "logo": "None", "latitude": 45.419056737981784, "longitude": -75.68297828577435}, "118834795RR0001": {"name": "CANADIAN OCCUPATIONAL THERAPY FOUNDATION LA FONDATION CANADIENNE D'ERGOTHERAPIE", "designationCode": "C", "categoryCode": "21", "address": "64 - 2420 BANK ST", "city": "OTTAWA", "province": "ON", "country": "CA", "postalCode": "K1V8S1", "twitter": "None", "instagram": "None", "facebook": "None", "youtube": "None", "website": "None", "summary": "None", "logo": "None", "latitude": 45.35444402798807, "longitude": -75.649529239829}, "124034620RR0001": {"name": "CANADIAN OFFICE PRODUCTS ASSOCIATION SCHOLARSHIP FUND", "designationCode": "C", "categoryCode": "21", "address": "101 - 1335 MORNINGSIDE AVE", "city": "SCARBOROUGH", "province": "ON", "country": "CA", "postalCode": "M1B5M4", "twitter": "None", "instagram": "None", "facebook": "None", "youtube": "None", "website": "None", "summary": "None", "logo": "None", "latitude": 43.8065203297362, "longitude": -79.20143804977238}, "817729346RR0001": {"name": "CANADIAN OLYMPIC FOUNDATION/ FONDATION OLYMPIQUE CANADIENNE", "designationCode": "A", "categoryCode": "03", "address": "900-21 ST CLAIR AVE E", "city": "TORONTO", "province": "ON", "country": "CA", "postalCode": "M4T1L9", "twitter": "None", "instagram": "None", "facebook": "None", "youtube": "None", "website": "None", "summary": "None", "logo": "None", "latitude": 43.690058011175346, "longitude": -79.38485244552025}, "118834829RR0001": {"name": "CANADIAN OPERA COMPANY", "designationCode": "C", "categoryCode": "22", "address": "227 FRONT STREET EAST", "city": "TORONTO", "province": "ON", "country": "CA", "postalCode": "M5A1E8", "twitter": "None", "instagram": "None", "facebook": "None", "youtube": "None", "website": "None", "summary": "None", "logo": "None", "latitude": 43.650919834843435, "longitude": -79.36542553774024}, "119219558RR0001": {"name": "CANADIAN OPERA FOUNDATION", "designationCode": "A", "categoryCode": "22", "address": "227 FRONT STREET EAST", "city": "TORONTO", "province": "ON", "country": "CA", "postalCode": "M5A1E8", "twitter": "None", "instagram": "None", "facebook": "None", "youtube": "None", "website": "None", "summary": "None", "logo": "None", "latitude": 43.650919834843435, "longitude": -79.36542553774024}, "888747177RR0001": {"name": "CANADIAN OPERA HOUSE CORPORATION", "designationCode": "C", "categoryCode": "22", "address": "227 FRONT ST E", "city": "TORONTO", "province": "ON", "country": "CA", "postalCode": "M5A1E8", "twitter": "None", "instagram": "None", "facebook": "None", "youtube": "None", "website": "None", "summary": "None", "logo": "None", "latitude": 43.650919834843435, "longitude": -79.36542553774024}, "118834852RR0001": {"name": "CANADIAN OPTOMETRIC EDUCATION TRUST FUND", "designationCode": "C", "categoryCode": "25", "address": "219 CASTLEFRANK RD", "city": "KANATA", "province": "ON", "country": "CA", "postalCode": "K2L1T4", "twitter": "None", "instagram": "None", "facebook": "None", "youtube": "None", "website": "None", "summary": "None", "logo": "None", "latitude": 45.28699551985109, "longitude": -75.8812252825609}, "896513355RR0001": {"name": "CANADIAN ORGANIZATION FOR RARE DISORDERS (CORD)", "designationCode": "C", "categoryCode": "13", "address": "SUITE 600                     151 BLOOR ST WEST", "city": "TORONTO", "province": "ON", "country": "CA", "postalCode": "M5S1S4", "twitter": "None", "instagram": "None", "facebook": "None", "youtube": "None", "website": "None", "summary": "None", "logo": "None", "latitude": 43.66886577266448, "longitude": -79.39323632915928}, "890096183RR0001": {"name": "CANADIAN ORGANIZATION FOR TROPICAL EDUCATION AND RAINFOREST CONSERVATION", "designationCode": "C", "categoryCode": "21", "address": "PO BOX 335", "city": "PICKERING", "province": "ON", "country": "CA", "postalCode": "L1V2R6", "twitter": "None", "instagram": "None", "facebook": "None", "youtube": "None", "website": "None", "summary": "None", "logo": "None", "latitude": 43.837818000000055, "longitude": -79.08191449999994}, "876470022RR0001": {"name": "CANADIAN ORGANIZATION OF SENIOR ARTISTS AND PERFORMERS", "designationCode": "C", "categoryCode": "22", "address": "56 WELLESLEY ST E             #10", "city": "TORONTO", "province": "ON", "country": "CA", "postalCode": "M4Y1G2", "twitter": "None", "instagram": "None", "facebook": "None", "youtube": "None", "website": "None", "summary": "None", "logo": "None", "latitude": 43.66547308191445, "longitude": -79.38207682988043}, "134012400RR0001": {"name": "CANADIAN ORPHEUS MALE CHOIR (HAMILTON)", "designationCode": "C", "categoryCode": "22", "address": "177 OLD ANCASTER RD", "city": "DUNDAS", "province": "ON", "country": "CA", "postalCode": "L9H3R3", "twitter": "None", "instagram": "None", "facebook": "None", "youtube": "None", "website": "None", "summary": "None", "logo": "None", "latitude": 43.25305603828852, "longitude": -79.96073405923609}, "888581261RR0001": {"name": "CANADIAN OTOLARYNGOLOGY - HEAD AND NECK SURGERY FUND/FONDS CANADIEN D'OTOLARYNGOLOGIE ET DE CHIRURGIE CERVICO-FACIALE", "designationCode": "C", "categoryCode": "11", "address": "68 GILKISON ST", "city": "ELORA", "province": "ON", "country": "CA", "postalCode": "N0B1S0", "twitter": "None", "instagram": "None", "facebook": "None", "youtube": "None", "website": "None", "summary": "None", "logo": "None", "latitude": 43.688073620871286, "longitude": -80.40579286032549}, "863008694RR0001": {"name": "CANADIAN PACHINESI SENIOR CITIZENS CENTRE/VILLA MEDITERRANEO NURSING HOME", "designationCode": "C", "categoryCode": "10", "address": "28 COUNTRY ESTATES", "city": "UNIONVILLE", "province": "ON", "country": "CA", "postalCode": "L6C1A4", "twitter": "None", "instagram": "None", "facebook": "None", "youtube": "None", "website": "None", "summary": "None", "logo": "None", "latitude": 43.87702248268775, "longitude": -79.33757944310116}, "118920412RR0001": {"name": "CANADIAN PAEDIATRIC FOUNDATION/FONDATION CANADIENNE DE P\u00c9DIATRIE", "designationCode": "C", "categoryCode": "11", "address": "100 - 2305 ST. LAURENT BLVD", "city": "OTTAWA", "province": "ON", "country": "CA", "postalCode": "K1G4J8", "twitter": "None", "instagram": "None", "facebook": "None", "youtube": "None", "website": "None", "summary": "None", "logo": "None", "latitude": 45.38483640989125, "longitude": -75.61769047720607}, "871587473RR0001": {"name": "CANADIAN PALESTINIAN CENTRE FOR CAPITAL REGION INC", "designationCode": "C", "categoryCode": "09", "address": "2674 ALTA VISTA DRIVE", "city": "OTTAWA", "province": "ON", "country": "CA", "postalCode": "K1V7T4", "twitter": "None", "instagram": "None", "facebook": "None", "youtube": "None", "website": "None", "summary": "None", "logo": "None", "latitude": 45.37308829228441, "longitude": -75.66352621957388}, "118835024RR0001": {"name": "CANADIAN PARAPLEGIC ASSOCIATION (B.C.)", "designationCode": "C", "categoryCode": "11", "address": "780 SW MARINE DR", "city": "VANCOUVER", "province": "BC", "country": "CA", "postalCode": "V6P5Y7", "twitter": "None", "instagram": "None", "facebook": "None", "youtube": "None", "website": "None", "summary": "None", "logo": "None", "latitude": 49.207299508713916, "longitude": -123.12382893141574}, "118835131RR0001": {"name": "CANADIAN PARENTS FOR FRENCH", "designationCode": "C", "categoryCode": "22", "address": "1104-170 LAURIER AVENUE WEST", "city": "OTTAWA", "province": "ON", "country": "CA", "postalCode": "K1P5V5", "twitter": "None", "instagram": "None", "facebook": "None", "youtube": "None", "website": "None", "summary": "None", "logo": "None", "latitude": 45.42029261474995, "longitude": -75.69473903023841}, "100769835RR0001": {"name": "CANADIAN PARENTS FOR FRENCH (NEWFOUNDLAND AND LABRADOR)", "designationCode": "C", "categoryCode": "21", "address": "PO BOX 8601 STATION A", "city": "ST JOHN'S", "province": "NL", "country": "CA", "postalCode": "A1B3P2", "twitter": "None", "instagram": "None", "facebook": "None", "youtube": "None", "website": "None", "summary": "None", "logo": "None", "latitude": 47.56938900000006, "longitude": -52.78609699999993}, "129599395RR0001": {"name": "CANADIAN PARENTS FOR FRENCH (ONTARIO)", "designationCode": "C", "categoryCode": "21", "address": "2055 DUNDAS ST E STE 103", "city": "MISSISSAUGA", "province": "ON", "country": "CA", "postalCode": "L4X1M2", "twitter": "None", "instagram": "None", "facebook": "None", "youtube": "None", "website": "None", "summary": "None", "logo": "None"}, "106865231RR0001": {"name": "CANADIAN PARENTS FOR FRENCH - SASKATCHEWAN INC.", "designationCode": "C", "categoryCode": "21", "address": "303-115 2 AVE N", "city": "SASKATOON", "province": "SK", "country": "CA", "postalCode": "S7K2B1", "twitter": "None", "instagram": "None", "facebook": "None", "youtube": "None", "website": "None", "summary": "None", "logo": "None", "latitude": 52.129106412718514, "longitude": -106.66371625330342}, "141076299RR0001": {"name": "CANADIAN PARENTS FOR FRENCH - WETASKIWIN AND AREA ASSOCIATION", "designationCode": "C", "categoryCode": "21", "address": "PO BOX 6985", "city": "WETASKIWIN", "province": "AB", "country": "CA", "postalCode": "T9A2Y9", "twitter": "None", "instagram": "None", "facebook": "None", "youtube": "None", "website": "None", "summary": "None", "logo": "None", "latitude": 52.96987500000006, "longitude": -113.37725149999994}, "106865173RR0001": {"name": "CANADIAN PARENTS FOR FRENCH MANITOBA INCORPORATED", "designationCode": "C", "categoryCode": "21", "address": "101-475 PROVENCHER BLVD.", "city": "WINNIPEG", "province": "MB", "country": "CA", "postalCode": "R2J4A7", "twitter": "None", "instagram": "None", "facebook": "None", "youtube": "None", "website": "None", "summary": "None", "logo": "None", "latitude": 49.89598412519462, "longitude": -97.10750728172417}}