{"139867188RR0001": {"name": "ASSOCIATION COOPERATIVE D'ECONOMIE FAMILIALE RIMOUSKI-NEIGETTE ET MITIS", "designationCode": "C", "categoryCode": "59", "address": "303A - 161 AV ROULEAU", "city": "RIMOUSKI", "province": "QC", "country": "CA", "postalCode": "G5L5T3", "twitter": "None", "instagram": "None", "facebook": "None", "youtube": "None", "website": "None", "summary": "None", "logo": "None", "latitude": 48.446468697184, "longitude": -68.53160926146907}, "864754924RR0001": {"name": "ASSOCIATION CORANIQUE DE MONTREAL/KORANIK ASSOCIATION OF MONTREAL", "designationCode": "C", "categoryCode": "43", "address": "2465 BELANGER EST", "city": "MONTREAL", "province": "QC", "country": "CA", "postalCode": "H2G1E6", "twitter": "None", "instagram": "None", "facebook": "None", "youtube": "None", "website": "None", "summary": "None", "logo": "None", "latitude": 45.55167490619764, "longitude": -73.59896568861431}, "131877532RR0001": {"name": "ASSOCIATION CROATE CATHOLIQUE MONTR\u00c9AL-THE CROAT CATHOLIC A SSOCIATION OF MONTREAL", "designationCode": "C", "categoryCode": "38", "address": "4990 PLACE DE LA SAVANE", "city": "MONTR\u00c9AL", "province": "QC", "country": "CA", "postalCode": "H4P1Z6", "twitter": "None", "instagram": "None", "facebook": "None", "youtube": "None", "website": "None", "summary": "None", "logo": "None", "latitude": 45.49921914625778, "longitude": -73.65384580131544}, "144978863RR0001": {"name": "ASSOCIATION CULTURELLE ET ARTISTIQUE DE LA MAISON V\u00c9ZINA", "designationCode": "C", "categoryCode": "52", "address": "171, RUE DES GRENADIERS", "city": "BOISCHATEL", "province": "QC", "country": "CA", "postalCode": "G0A1H0", "twitter": "None", "instagram": "None", "facebook": "None", "youtube": "None", "website": "None", "summary": "None", "logo": "None", "latitude": 46.89193652734037, "longitude": -71.14180700220504}, "892416363RR0001": {"name": "ASSOCIATION CULTURELLE ISLAMIQUE DE L'ESTRIE (A.C.I.E.)", "designationCode": "C", "categoryCode": "49", "address": "1200, RUE MASSE", "city": "SHERBROOKE", "province": "QC", "country": "CA", "postalCode": "J1H5X2", "twitter": "None", "instagram": "None", "facebook": "None", "youtube": "None", "website": "None", "summary": "None", "logo": "None", "latitude": 45.38629523561675, "longitude": -71.90618220953324}, "119213668RR0001": {"name": "ASSOCIATION D'\u00c9TUDES CANADIENNES/ASSOCIATION FOR CANADIAN STUDIES", "designationCode": "C", "categoryCode": "21", "address": "1822 A RUE SHERBROOKE OUEST", "city": "MONTREAL", "province": "QC", "country": "CA", "postalCode": "H3H1E4", "twitter": "None", "instagram": "None", "facebook": "None", "youtube": "None", "website": "None", "summary": "None", "logo": "None", "latitude": 45.4952733852214, "longitude": -73.58284627904114}, "871305389RR0001": {"name": "ASSOCIATION D'ANEMIE FALCIFORME DU QUEBEC", "designationCode": "C", "categoryCode": "11", "address": "7333 RUE SAINT-DENIS #3", "city": "MONTR\u00c9AL", "province": "QC", "country": "CA", "postalCode": "H2R2E5", "twitter": "None", "instagram": "None", "facebook": "None", "youtube": "None", "website": "None", "summary": "None", "logo": "None", "latitude": 45.53926088816424, "longitude": -73.6174749822264}, "118792563RR0001": {"name": "ASSOCIATION D'EGLISES BAPTISTES EVANGELIQUES DU QUEBEC", "designationCode": "C", "categoryCode": "31", "address": "9780 RUE SHERBROOKE EST", "city": "MONTREAL", "province": "QC", "country": "CA", "postalCode": "H1L6N6", "twitter": "None", "instagram": "None", "facebook": "None", "youtube": "None", "website": "None", "summary": "None", "logo": "None", "latitude": 45.613468373016374, "longitude": -73.52511019966549}, "890913197RR0001": {"name": "ASSOCIATION D'ENTRAIDE COMMUNAUTAIRE LA FONTAINE", "designationCode": "C", "categoryCode": "09", "address": "1510 RTE DU PRESIDENT KENNEDY NORD", "city": "SAINTE-MARIE", "province": "QC", "country": "CA", "postalCode": "G6E3P1", "twitter": "None", "instagram": "None", "facebook": "None", "youtube": "None", "website": "None", "summary": "None", "logo": "None", "latitude": 46.464097703041055, "longitude": -71.05093538043222}, "890558893RR0001": {"name": "ASSOCIATION D'ENTRAIDE D'ARTHRITE DE L'OUEST DE L'ILE DE MONTREAL INC.", "designationCode": "C", "categoryCode": "11", "address": "103-640 BORD-DU-LAC LAKESHORE", "city": "DORVAL", "province": "QC", "country": "CA", "postalCode": "H9S2B6", "twitter": "None", "instagram": "None", "facebook": "None", "youtube": "None", "website": "None", "summary": "None", "logo": "None", "latitude": 45.43990035298809, "longitude": -73.73552530469485}, "102987625RR0001": {"name": "ASSOCIATION D'ENTRAIDE LE CHA\u00ceNON INC.", "designationCode": "C", "categoryCode": "01", "address": "4373 AV DE L'ESPLANADE", "city": "MONTREAL", "province": "QC", "country": "CA", "postalCode": "H2W1T2", "twitter": "None", "instagram": "None", "facebook": "None", "youtube": "None", "website": "None", "summary": "None", "logo": "None", "latitude": 45.5175812287205, "longitude": -73.58617118093962}, "100300748RR0001": {"name": "ASSOCIATION D'ENTRAIDE VIVE CHEZ-NOUS", "designationCode": "C", "categoryCode": "09", "address": "84 RUE ST FIDELE", "city": "LA MALBAIE", "province": "QC", "country": "CA", "postalCode": "G5A2K9", "twitter": "None", "instagram": "None", "facebook": "None", "youtube": "None", "website": "None", "summary": "None", "logo": "None", "latitude": 47.737892994200294, "longitude": -69.99355005150314}, "895654671RR0001": {"name": "ASSOCIATION D'ENTRAIDE-HABITATION \"MONSIEUR VINCENT\"", "designationCode": "C", "categoryCode": "09", "address": "8011 RUE GARNIER", "city": "MONTREAL", "province": "QC", "country": "CA", "postalCode": "H2E2A9", "twitter": "None", "instagram": "None", "facebook": "None", "youtube": "None", "website": "None", "summary": "None", "logo": "None", "latitude": 45.55090022482537, "longitude": -73.61927880140236}, "889878245RR0001": {"name": "ASSOCIATION DE CHARITE LA GUIGNOLEE DE LACHINE", "designationCode": "C", "categoryCode": "09", "address": "2901, BOUL. ST. JOSEPH", "city": "LACHINE", "province": "QC", "country": "CA", "postalCode": "H8S4B7", "twitter": "None", "instagram": "None", "facebook": "None", "youtube": "None", "website": "None", "summary": "None", "logo": "None", "latitude": 45.43354570716732, "longitude": -73.68965918858565}, "861493583RR0001": {"name": "ASSOCIATION DE CONSERVATION DE LA NATURE DE STUKELY-SUD", "designationCode": "C", "categoryCode": "52", "address": "165, CHEMIN DE LA DILIGENCE", "city": "STUKELY-SUD", "province": "QC", "country": "CA", "postalCode": "J0E2J0", "twitter": "None", "instagram": "None", "facebook": "None", "youtube": "None", "website": "None", "summary": "None", "logo": "None", "latitude": 45.32100751485942, "longitude": -72.45734344463038}, "860697572RR0001": {"name": "ASSOCIATION DE CONSERVATION DU MONT ECHO (ACME) / MONT ECHO CONSERVATION ASSOCIATION (MECA)", "designationCode": "C", "categoryCode": "52", "address": "546 TURKEY HILL ROAD", "city": "BROME", "province": "QC", "country": "CA", "postalCode": "J0E1K0", "twitter": "None", "instagram": "None", "facebook": "None", "youtube": "None", "website": "None", "summary": "None", "logo": "None", "latitude": 45.15836043812313, "longitude": -72.50745030453051}, "891776049RR0001": {"name": "ASSOCIATION DE CONTRIBUTION \u00c0 L'\u00c9DUCATION DES JEUNES BURUNDAIS D\u00c9MUNIS, ACEJBD", "designationCode": "C", "categoryCode": "21", "address": "57, RUE DE L'\u00c9LAN", "city": "GATINEAU", "province": "QC", "country": "CA", "postalCode": "J9J2Y1", "twitter": "None", "instagram": "None", "facebook": "None", "youtube": "None", "website": "None", "summary": "None", "logo": "None", "latitude": 45.412182072998995, "longitude": -75.85481273385638}, "888387628RR0001": {"name": "ASSOCIATION DE DEFENSE DES DROITS SOCIAUX (A.D.D.S.) DE LA RIVE-SUD", "designationCode": "C", "categoryCode": "59", "address": "11 RUE ST EDOUARD", "city": "LEVIS", "province": "QC", "country": "CA", "postalCode": "G6V6E5", "twitter": "None", "instagram": "None", "facebook": "None", "youtube": "None", "website": "None", "summary": "None", "logo": "None", "latitude": 46.79928786597589, "longitude": -71.18647338144183}, "845243278RR0001": {"name": "ASSOCIATION DE FIBROMYALGIE DU BAS-RICHELIEU", "designationCode": "C", "categoryCode": "11", "address": "220-71 RUE RAMESAY", "city": "SOREL-TRACY", "province": "QC", "country": "CA", "postalCode": "J3P3Z1", "twitter": "None", "instagram": "None", "facebook": "None", "youtube": "None", "website": "None", "summary": "None", "logo": "None", "latitude": 46.044942202060085, "longitude": -73.10901753771158}, "844057521RR0001": {"name": "ASSOCIATION DE FIBROMYALGIE ET FATIGUE CHRONIQUE DE VAUDREUIL-SOULANGES", "designationCode": "C", "categoryCode": "11", "address": "168 AVE ST-CHARLES", "city": "VAUDREUIL-DORION", "province": "QC", "country": "CA", "postalCode": "J7V2L1", "twitter": "None", "instagram": "None", "facebook": "None", "youtube": "None", "website": "None", "summary": "None", "logo": "None", "latitude": 45.38784740492824, "longitude": -74.01370278201264}, "892454760RR0001": {"name": "ASSOCIATION DE FIBROMYALGIE R\u00c9GION DE QU\u00c9BEC", "designationCode": "C", "categoryCode": "11", "address": "287 - 245 RUE SOUMANDE", "city": "QUEBEC", "province": "QC", "country": "CA", "postalCode": "G1M3H6", "twitter": "None", "instagram": "None", "facebook": "None", "youtube": "None", "website": "None", "summary": "None", "logo": "None", "latitude": 46.818563848981704, "longitude": -71.25255374473375}, "107472763RR0001": {"name": "ASSOCIATION DE HEARST ET DE LA REGION POUR L'INTEGRATION COMMUNAUTAIRE/HEARST AND AREA ASSOCIATION FOR COMMUNITY LIVING", "designationCode": "C", "categoryCode": "11", "address": "905 GEORGE STREET             S.P/P.O. BAG 12000", "city": "HEARST", "province": "ON", "country": "CA", "postalCode": "P0L1N0", "twitter": "None", "instagram": "None", "facebook": "None", "youtube": "None", "website": "None", "summary": "None", "logo": "None", "latitude": 49.68503700000005, "longitude": -83.65433749999994}, "891134348RR0001": {"name": "ASSOCIATION DE L'ACIDOSE LACTIQUE DUSAGUENAY - LAC-SAINT-JE AN", "designationCode": "C", "categoryCode": "11", "address": "592 SUCC. PLACE CENTRE VILLE", "city": "JONQUIERE", "province": "QC", "country": "CA", "postalCode": "G7X7W4", "twitter": "None", "instagram": "None", "facebook": "None", "youtube": "None", "website": "None", "summary": "None", "logo": "None", "latitude": 48.41346300000005, "longitude": -71.25355249999993}, "118792621RR0001": {"name": "ASSOCIATION DE L'ARBRE DE NOEL DES ENFANTS PAUVRES DE QUEBEC INC.", "designationCode": "C", "categoryCode": "09", "address": "120 ST-FRANCOIS OUEST", "city": "QUEBEC", "province": "QC", "country": "CA", "postalCode": "G1K1J2", "twitter": "None", "instagram": "None", "facebook": "None", "youtube": "None", "website": "None", "summary": "None", "logo": "None", "latitude": 46.81257896087477, "longitude": -71.23372577754057}, "848700365RR0001": {"name": "ASSOCIATION DE L'EAU VIVANTE INTERNATIONALE/LIVING WATERS INTERNATIONAL FELLOWSHIP", "designationCode": "C", "categoryCode": "39", "address": "130 PLACE LAFRAMBOISE", "city": "STE GENEVIEVE", "province": "QC", "country": "CA", "postalCode": "H9H2P3", "twitter": "None", "instagram": "None", "facebook": "None", "youtube": "None", "website": "None", "summary": "None", "logo": "None", "latitude": 45.48546799471988, "longitude": -73.86616026591247}, "107965642RR0001": {"name": "ASSOCIATION DE L'ECOLE SEDBERGH / SEDBERGH SCHOOL ASSOCIATION", "designationCode": "C", "categoryCode": "21", "address": "230 SAINT DOMINIQUE ST.       PO BOX 1643", "city": "MONTEBELLO", "province": "QC", "country": "CA", "postalCode": "J0V1L0", "twitter": "None", "instagram": "None", "facebook": "None", "youtube": "None", "website": "None", "summary": "None", "logo": "None", "latitude": 45.651714317790976, "longitude": -74.94336088147048}, "105645196RR0001": {"name": "ASSOCIATION DE L'OUEST DE L'ILE POUR LES HANDICAPES INTELLECTUELS INC.- WEST ISLAND ASSOCIATION FOR THE INTELLECTUALLY HANDICAPPED INC.", "designationCode": "C", "categoryCode": "11", "address": "111, RUE DONEGANI", "city": "POINTE-CLAIRE", "province": "QC", "country": "CA", "postalCode": "H9R2W3", "twitter": "None", "instagram": "None", "facebook": "None", "youtube": "None", "website": "None", "summary": "None", "logo": "None", "latitude": 45.450077467684125, "longitude": -73.79088586525474}, "106728702RR0001": {"name": "ASSOCIATION DE LA COMMUNAUTE NOIRE DE COTE DES NEIGES / COTE DES NEIGES BLACK COMMUNITY ASSOCIATION INC.", "designationCode": "C", "categoryCode": "59", "address": "6585 CH DE LA COTE-DES-NEIGES", "city": "MONTREAL", "province": "QC", "country": "CA", "postalCode": "H3S2A5", "twitter": "None", "instagram": "None", "facebook": "None", "youtube": "None", "website": "None", "summary": "None", "logo": "None", "latitude": 45.50235426536422, "longitude": -73.63542183746917}, "884314766RR0001": {"name": "ASSOCIATION DE LA COMMUNAUTE NOIRE DE L'OUEST DE L'ILE/THE WEST ISLAND BLACK COMMUNITY ASSOCIATION", "designationCode": "C", "categoryCode": "59", "address": "48C 4E AV S", "city": "ROXBORO", "province": "QC", "country": "CA", "postalCode": "H8Y2M2", "twitter": "None", "instagram": "None", "facebook": "None", "youtube": "None", "website": "None", "summary": "None", "logo": "None", "latitude": 45.50897960792487, "longitude": -73.80634553932141}, "866047517RR0001": {"name": "ASSOCIATION DE LA CULTURE ET DU PATRIMOINE D'ABERCORN (ACPA)", "designationCode": "C", "categoryCode": "52", "address": "10, CHEMIN DES EGLISES, OUEST", "city": "ABERCORN", "province": "QC", "country": "CA", "postalCode": "J0E1B0", "twitter": "None", "instagram": "None", "facebook": "None", "youtube": "None", "website": "None", "summary": "None", "logo": "None", "latitude": 45.03569993170421, "longitude": -72.65955546407743}, "106734270RR0001": {"name": "ASSOCIATION DE LA DEFICIENCE INTELLECTUELLE (REGION RIMOUSKI)", "designationCode": "C", "categoryCode": "11", "address": "215 RUE TESSIER", "city": "RIMOUSKI", "province": "QC", "country": "CA", "postalCode": "G5L8X9", "twitter": "None", "instagram": "None", "facebook": "None", "youtube": "None", "website": "None", "summary": "None", "logo": "None", "latitude": 48.44190126449883, "longitude": -68.53436279395785}, "102988755RR0001": {"name": "ASSOCIATION DE LA DEFICIENCE INTELLECTUELLE DE LA REGION DE SOREL", "designationCode": "C", "categoryCode": "09", "address": "1275 CH DES PATRIOTES", "city": "SOREL-TRACY", "province": "QC", "country": "CA", "postalCode": "J3P2N4", "twitter": "None", "instagram": "None", "facebook": "None", "youtube": "None", "website": "None", "summary": "None", "logo": "None", "latitude": 46.00553705049352, "longitude": -73.1312052426572}, "875112476RR0001": {"name": "ASSOCIATION DE LA FIBROMYALGIE (FIBROSITE) DU SAGUENAY-LAC-ST-JEAN", "designationCode": "C", "categoryCode": "11", "address": "40012 - 150 RUE PINEL", "city": "CHICOUTIMI", "province": "QC", "country": "CA", "postalCode": "G7G3N8", "twitter": "None", "instagram": "None", "facebook": "None", "youtube": "None", "website": "None", "summary": "None", "logo": "None", "latitude": 48.45048314066053, "longitude": -71.07768374248431}, "889312054RR0001": {"name": "ASSOCIATION DE LA FIBROMYALGIE DE L'ABITIBI-TEMISCAMINGUE", "designationCode": "C", "categoryCode": "09", "address": "380 AVE RICHARD BUREAU 208", "city": "ROUYN-NORANDA", "province": "QC", "country": "CA", "postalCode": "J9X4L3", "twitter": "None", "instagram": "None", "facebook": "None", "youtube": "None", "website": "None", "summary": "None", "logo": "None", "latitude": 48.232449115182646, "longitude": -79.01576169294215}, "896600533RR0001": {"name": "ASSOCIATION DE LA FIBROMYALGIE DE L'ESTRIE", "designationCode": "C", "categoryCode": "09", "address": "1013 RUE GALT OUEST", "city": "SHERBROOKE", "province": "QC", "country": "CA", "postalCode": "J1H1Z9", "twitter": "None", "instagram": "None", "facebook": "None", "youtube": "None", "website": "None", "summary": "None", "logo": "None", "latitude": 45.391534784238175, "longitude": -71.90292486522976}, "891828444RR0001": {"name": "ASSOCIATION DE LA FIBROMYALGIE DE LAVAL", "designationCode": "C", "categoryCode": "09", "address": "2465, RUE HONOR\u00c9 MERCIER      LOCAL 225", "city": "LAVAL", "province": "QC", "country": "CA", "postalCode": "H7L2S9", "twitter": "None", "instagram": "None", "facebook": "None", "youtube": "None", "website": "None", "summary": "None", "logo": "None", "latitude": 45.60411285815697, "longitude": -73.78189520347372}, "890436918RR0001": {"name": "ASSOCIATION DE LA FIBROMYALGIE DES LAURENTIDES", "designationCode": "C", "categoryCode": "11", "address": "366 RUE LAVIOLETTE", "city": "SAINT-JEROME", "province": "QC", "country": "CA", "postalCode": "J7Y2S9", "twitter": "None", "instagram": "None", "facebook": "None", "youtube": "None", "website": "None", "summary": "None", "logo": "None", "latitude": 45.77801506855558, "longitude": -74.00693016628175}, "888098191RR0001": {"name": "ASSOCIATION DE LA FIBROMYALGIE ET DE LA FATIGUE CHRONIQUE DE MANICOUAGAN ET LA HAUTE COTE-NORD INC.", "designationCode": "C", "categoryCode": "11", "address": "1250 RUE LESTRAT R-134", "city": "BAIE-COMEAU", "province": "QC", "country": "CA", "postalCode": "G5C1T8", "twitter": "None", "instagram": "None", "facebook": "None", "youtube": "None", "website": "None", "summary": "None", "logo": "None", "latitude": 49.18384500000006, "longitude": -68.25979699999993}, "864370697RR0001": {"name": "ASSOCIATION DE LA FIBROMYALGIE MAURICIE/CENTRE-DU-QUEBEC", "designationCode": "C", "categoryCode": "11", "address": "109 RUE BRUNELLE, BUR 2", "city": "TROIS-RIVIERES", "province": "QC", "country": "CA", "postalCode": "G8T6A3", "twitter": "None", "instagram": "None", "facebook": "None", "youtube": "None", "website": "None", "summary": "None", "logo": "None", "latitude": 46.363435334987685, "longitude": -72.5121406608574}, "890175193RR0001": {"name": "ASSOCIATION DE LA FIBROMYALGIE REGION CHAUDI\u00c8RE-APPALACHES", "designationCode": "C", "categoryCode": "11", "address": "81 RUE SAINT-ANTOINE          PORTE 127", "city": "SAINTE-MARIE", "province": "QC", "country": "CA", "postalCode": "G6E4B4", "twitter": "None", "instagram": "None", "facebook": "None", "youtube": "None", "website": "None", "summary": "None", "logo": "None", "latitude": 46.438893367736256, "longitude": -71.02315982128209}, "889691747RR0001": {"name": "ASSOCIATION DE LA FIBROMYALGIE REGION ILE-DE-MONTREAL", "designationCode": "C", "categoryCode": "11", "address": "CP 48681 CSP VAN HORNE", "city": "OUTREMONT", "province": "QC", "country": "CA", "postalCode": "H2V4T9", "twitter": "None", "instagram": "None", "facebook": "None", "youtube": "None", "website": "None", "summary": "None", "logo": "None", "latitude": 45.5194344225877, "longitude": -73.6158500331843}, "118792613RR0001": {"name": "ASSOCIATION DE LA JEUNESSE UKRAINIENNE PLAST DU QUEBEC/PLAST UKRAINIAN YOUTH ASSOCIATION OF QUEBEC", "designationCode": "C", "categoryCode": "29", "address": "6741-31 AVE", "city": "MONTREAL", "province": "QC", "country": "CA", "postalCode": "H1T3E8", "twitter": "None", "instagram": "None", "facebook": "None", "youtube": "None", "website": "None", "summary": "None", "logo": "None", "latitude": 45.56911689537762, "longitude": -73.57956469802072}, "122853617RR0001": {"name": "ASSOCIATION DE LA NEUROFIBROMATOSE DU QUEBEC", "designationCode": "C", "categoryCode": "09", "address": "1195 RUE PRIEUR E", "city": "MONTREAL", "province": "QC", "country": "CA", "postalCode": "H2C1K7", "twitter": "None", "instagram": "None", "facebook": "None", "youtube": "None", "website": "None", "summary": "None", "logo": "None", "latitude": 45.560056033585305, "longitude": -73.66167230933686}, "107867756RR0001": {"name": "ASSOCIATION DE LA RIVE-SUD POUR LA DEFICIENCE INTELLECTUELLE/SOUTH SHORE ASSOCIATION FOR THE INTELLECTUALLY HANDICAPPED", "designationCode": "C", "categoryCode": "11", "address": "240 RUE SAINT-LAURENT", "city": "SAINT-LAMBERT", "province": "QC", "country": "CA", "postalCode": "J4R2S2", "twitter": "None", "instagram": "None", "facebook": "None", "youtube": "None", "website": "None", "summary": "None", "logo": "None", "latitude": 45.49818246768412, "longitude": -73.50655088773155}, "896186632RR0001": {"name": "ASSOCIATION DE LA SCLEROSE EN PLAQUES DE L'ESTRIE INC.", "designationCode": "C", "categoryCode": "09", "address": "321 RUE MARQUETTE", "city": "SHERBROOKE", "province": "QC", "country": "CA", "postalCode": "J1H1M2", "twitter": "None", "instagram": "None", "facebook": "None", "youtube": "None", "website": "None", "summary": "None", "logo": "None", "latitude": 45.40115014628643, "longitude": -71.89561947005004}, "128409489RR0001": {"name": "ASSOCIATION DE LA SCLEROSE EN PLAQUES SECTION SOREL-TRACY", "designationCode": "C", "categoryCode": "09", "address": "151A-71 RUE RAMEZAY", "city": "SOREL-TRACY", "province": "QC", "country": "CA", "postalCode": "J3P3Z1", "twitter": "None", "instagram": "None", "facebook": "None", "youtube": "None", "website": "None", "summary": "None", "logo": "None", "latitude": 46.044942202060085, "longitude": -73.10901753771158}, "888481678RR0001": {"name": "ASSOCIATION DE LA VALLEE DU RICHELIEU POUR LA DEFICIENCE INTELLECTUELLE INC. / RICHELIEU VALLEY ASSOCIATION FOR THE INTELLECTUALLY HANDICAPPED INC.", "designationCode": "C", "categoryCode": "09", "address": "625 RUE LECHASSEUR", "city": "BELOEIL", "province": "QC", "country": "CA", "postalCode": "J3G2L3", "twitter": "None", "instagram": "None", "facebook": "None", "youtube": "None", "website": "None", "summary": "None", "logo": "None", "latitude": 45.56888241355523, "longitude": -73.21765344558267}, "106730229RR0001": {"name": "ASSOCIATION DE LAVAL POUR LA DEFICIENCE INTELLECTUELLE (ALDI) INC.", "designationCode": "C", "categoryCode": "11", "address": "73 BOUL. SAINT-ELZEAR O", "city": "LAVAL", "province": "QC", "country": "CA", "postalCode": "H7M1E7", "twitter": "None", "instagram": "None", "facebook": "None", "youtube": "None", "website": "None", "summary": "None", "logo": "None", "latitude": 45.59964831086608, "longitude": -73.73257696367338}, "818123275RR0001": {"name": "ASSOCIATION DE LOISIRS POUR PERSONNES \u00c0 AUTONOMIE R\u00c9DUITE", "designationCode": "C", "categoryCode": "09", "address": "5350, RUE LAFOND              LOCAL R-110", "city": "MONTREAL", "province": "QC", "country": "CA", "postalCode": "H1X2X2", "twitter": "None", "instagram": "None", "facebook": "None", "youtube": "None", "website": "None", "summary": "None", "logo": "None", "latitude": 45.55238905297504, "longitude": -73.5710193212821}, "118792662RR0001": {"name": "ASSOCIATION DE LOISIRS POUR PERSONNES HANDICAPEES DE L'ISLET-SUD", "designationCode": "C", "categoryCode": "56", "address": "164 DE L'EGLISE OUEST", "city": "ST-PAMPHILE", "province": "QC", "country": "CA", "postalCode": "G0R3X0", "twitter": "None", "instagram": "None", "facebook": "None", "youtube": "None", "website": "None", "summary": "None", "logo": "None", "latitude": 46.957914752726516, "longitude": -69.7820711830744}, "118792688RR0001": {"name": "ASSOCIATION DE MONTREAL POUR LA DEFICIENCE INTELLECTUELLE - MONTREAL ASSOCIATION FOR THE INTELLECTUALLY HANDICAPPED", "designationCode": "C", "categoryCode": "11", "address": "633 BOUL. CREMAZIE EST        BUREAU 100", "city": "MONTREAL", "province": "QC", "country": "CA", "postalCode": "H2M1L9", "twitter": "None", "instagram": "None", "facebook": "None", "youtube": "None", "website": "None", "summary": "None", "logo": "None", "latitude": 45.547439301142575, "longitude": -73.63739688372084}, "888934379RR0001": {"name": "ASSOCIATION DE PARALYSIE CEREBRALE REGION MAURICIE ET CENTREDU QUEBEC", "designationCode": "C", "categoryCode": "11", "address": "39 RUE BELLERIVE", "city": "TROIS-RIVIERES", "province": "QC", "country": "CA", "postalCode": "G8T6J4", "twitter": "None", "instagram": "None", "facebook": "None", "youtube": "None", "website": "None", "summary": "None", "logo": "None", "latitude": 46.360832280599, "longitude": -72.51229795268047}, "118792746RR0001": {"name": "ASSOCIATION DE PARENTS DE L'ENFANCE EN DIFFICULTE DE LA RIVE-SUD, MONTR\u00c9AL, LT\u00c9E", "designationCode": "C", "categoryCode": "09", "address": "360, CHERBOURG, SUITE 12", "city": "LONGUEUIL", "province": "QC", "country": "CA", "postalCode": "J4J4Z3", "twitter": "None", "instagram": "None", "facebook": "None", "youtube": "None", "website": "None", "summary": "None", "logo": "None", "latitude": 45.52426061420169, "longitude": -73.47770235925347}, "877108563RR0001": {"name": "ASSOCIATION DE PARENTS DE PERSONNES HANDICAP\u00c9ES DE BROME-MISSISQUOI", "designationCode": "C", "categoryCode": "09", "address": "302 RUE ALBERT", "city": "COWANSVILLE", "province": "QC", "country": "CA", "postalCode": "J2K2W7", "twitter": "None", "instagram": "None", "facebook": "None", "youtube": "None", "website": "None", "summary": "None", "logo": "None", "latitude": 45.21080534361468, "longitude": -72.75140827335699}, "133068098RR0001": {"name": "ASSOCIATION DE PARENTS ET AMIS DE PERSONNES ATTEINTES DE MALADIES MENTALES, LE CONTREVENT", "designationCode": "C", "categoryCode": "11", "address": "190 RUE ST-JOSEPH", "city": "LEVIS", "province": "QC", "country": "CA", "postalCode": "G6V1C9", "twitter": "None", "instagram": "None", "facebook": "None", "youtube": "None", "website": "None", "summary": "None", "logo": "None", "latitude": 46.8235193166658, "longitude": -71.16895387910455}, "890917446RR0001": {"name": "ASSOCIATION DE PARENTS PANDA DE STE-THERESE-DE-BLAINVILLE", "designationCode": "C", "categoryCode": "09", "address": "2 CHEMIN DU RAVIN", "city": "STE-THERESE", "province": "QC", "country": "CA", "postalCode": "J7E2T2", "twitter": "None", "instagram": "None", "facebook": "None", "youtube": "None", "website": "None", "summary": "None", "logo": "None", "latitude": 45.647666860253516, "longitude": -73.83689364115183}, "863422937RR0001": {"name": "ASSOCIATION DE PARENTS PANDA MRC DES MOULINS", "designationCode": "C", "categoryCode": "11", "address": "737 RUE DE LA SOEUR-MARIE-ROSE", "city": "TERREBONNE", "province": "QC", "country": "CA", "postalCode": "J6V1P1", "twitter": "None", "instagram": "None", "facebook": "None", "youtube": "None", "website": "None", "summary": "None", "logo": "None", "latitude": 45.72241346436588, "longitude": -73.51290947155059}, "888875499RR0001": {"name": "ASSOCIATION DE PARENTS POUR LA SANT\u00c9 MENTALE DE SAINT-LAURENT-BORDEAUX-CARTIERVILLE", "designationCode": "C", "categoryCode": "11", "address": "210 - 1900 BOUL THIMENS", "city": "SAINT-LAURENT", "province": "QC", "country": "CA", "postalCode": "H4R2K2", "twitter": "None", "instagram": "None", "facebook": "None", "youtube": "None", "website": "None", "summary": "None", "logo": "None", "latitude": 45.51162086343708, "longitude": -73.6947822167466}, "875231185RR0001": {"name": "ASSOCIATION DE PARENTS-ECOLE ANNE HEBERT", "designationCode": "C", "categoryCode": "21", "address": "7051, RUE KILLARNEY", "city": "VANCOUVER", "province": "BC", "country": "CA", "postalCode": "V5S2Y5", "twitter": "None", "instagram": "None", "facebook": "None", "youtube": "None", "website": "None", "summary": "None", "logo": "None", "latitude": 49.218759551531804, "longitude": -123.04566913592774}, "106727118RR0001": {"name": "ASSOCIATION DE PERSONNES HANDICAP\u00c9ES L'\u00c9VEIL DES BASQUES INC.", "designationCode": "C", "categoryCode": "09", "address": "589 RUE RICHARD", "city": "TROIS-PISTOLES", "province": "QC", "country": "CA", "postalCode": "G0L4K0", "twitter": "None", "instagram": "None", "facebook": "None", "youtube": "None", "website": "None", "summary": "None", "logo": "None", "latitude": 48.12254528449413, "longitude": -69.16532586620704}, "121029557RR0001": {"name": "ASSOCIATION DE SHERBROOKE POUR LA DEFICIENCE INTELLECTUELLE (A.S.D.I.) INC.", "designationCode": "C", "categoryCode": "09", "address": "2065 RUE BELVEDERE SUD", "city": "SHERBROOKE", "province": "QC", "country": "CA", "postalCode": "J1H5R8", "twitter": "None", "instagram": "None", "facebook": "None", "youtube": "None", "website": "None", "summary": "None", "logo": "None", "latitude": 45.37322646932888, "longitude": -71.8939114600667}, "861851517RR0001": {"name": "ASSOCIATION DE SOUTIEN ET D'INFORMATIONS FACE \u00c0 LA DOULEUR (A.S.I.D.)", "designationCode": "C", "categoryCode": "11", "address": "317 - 257 RUE SAINT-ARMAND", "city": "CHICOUTIMI", "province": "QC", "country": "CA", "postalCode": "G7G1S4", "twitter": "None", "instagram": "None", "facebook": "None", "youtube": "None", "website": "None", "summary": "None", "logo": "None", "latitude": 48.44524114797693, "longitude": -71.08687610552447}, "118793504RR0001": {"name": "ASSOCIATION DE SPINA BIFIDA ET D'HYDROCEPHALIE DE L'ESTRIE INC.", "designationCode": "C", "categoryCode": "11", "address": "928 RUE DU FEDERAL", "city": "SHERBROOKE", "province": "QC", "country": "CA", "postalCode": "J1H5A7", "twitter": "None", "instagram": "None", "facebook": "None", "youtube": "None", "website": "None", "summary": "None", "logo": "None", "latitude": 45.392014121011016, "longitude": -71.88595447971623}, "877918821RR0001": {"name": "ASSOCIATION DES A C V ET TRAUMATISES CRANIENS DE VAL-D'OR", "designationCode": "C", "categoryCode": "11", "address": "1011 6E RUE                   B.P. 106", "city": "VAL-D'OR", "province": "QC", "country": "CA", "postalCode": "J9P3W4", "twitter": "None", "instagram": "None", "facebook": "None", "youtube": "None", "website": "None", "summary": "None", "logo": "None", "latitude": 48.10132777990651, "longitude": -77.79197097530148}, "893536656RR0001": {"name": "ASSOCIATION DES ABEILLES ACTIVES DE NOTRE-DAME-DU-LAUS", "designationCode": "C", "categoryCode": "09", "address": "23 CHEMIN ROY                 C.P. 97", "city": "NOTRE DAME DU LAUS", "province": "QC", "country": "CA", "postalCode": "J0X2M0", "twitter": "None", "instagram": "None", "facebook": "None", "youtube": "None", "website": "None", "summary": "None", "logo": "None", "latitude": 46.07622601278194, "longitude": -75.60981131891616}, "100296490RR0001": {"name": "ASSOCIATION DES ACCIDENTES CEREBRO-VASCULAIRES OU TRAUMATISES CRANIENS DE L'ESTRIE", "designationCode": "C", "categoryCode": "11", "address": "68 BOUL JACQUES-CARTIER N", "city": "SHERBROOKE", "province": "QC", "country": "CA", "postalCode": "J1J2Z8", "twitter": "None", "instagram": "None", "facebook": "None", "youtube": "None", "website": "None", "summary": "None", "logo": "None", "latitude": 45.40002330391252, "longitude": -71.9186228625717}, "875620528RR0001": {"name": "ASSOCIATION DES AIDANTS(ES) NATURELS(LES) DU BAS-RICHELIEU", "designationCode": "C", "categoryCode": "09", "address": "55 PLACE FILLION", "city": "SOREL-TRACY", "province": "QC", "country": "CA", "postalCode": "J3P7Z7", "twitter": "None", "instagram": "None", "facebook": "None", "youtube": "None", "website": "None", "summary": "None", "logo": "None", "latitude": 46.03021698641002, "longitude": -73.11662494517864}, "888380490RR0001": {"name": "ASSOCIATION DES AINES ET AINEES DE L'UNIVERSITE DU QUEBEC A RIMOUSKI", "designationCode": "C", "categoryCode": "09", "address": "300, ALLEE DES URSULINES      BUREAU E-235", "city": "RIMOUSKI", "province": "QC", "country": "CA", "postalCode": "G5L3A1", "twitter": "None", "instagram": "None", "facebook": "None", "youtube": "None", "website": "None", "summary": "None", "logo": "None", "latitude": 48.45378023701654, "longitude": -68.51392655695639}, "899905343RR0001": {"name": "ASSOCIATION DES AMIS DE L'ECOLE NOTRE-DAME-DE-LIESSE", "designationCode": "C", "categoryCode": "21", "address": "7409, BOUL. BOURQUE", "city": "DEAUVILLE", "province": "QC", "country": "CA", "postalCode": "J1N3K7", "twitter": "None", "instagram": "None", "facebook": "None", "youtube": "None", "website": "None", "summary": "None", "logo": "None", "latitude": 45.34153194370676, "longitude": -72.04354935792581}, "138022769RR0001": {"name": "ASSOCIATION DES AMIS DU SILENCE", "designationCode": "C", "categoryCode": "39", "address": "120 CH. VERGER MODELE", "city": "FRELIGHSBURG", "province": "QC", "country": "CA", "postalCode": "J0J1C0", "twitter": "None", "instagram": "None", "facebook": "None", "youtube": "None", "website": "None", "summary": "None", "logo": "None", "latitude": 45.02723632179036, "longitude": -72.84327758553911}, "891632846RR0001": {"name": "ASSOCIATION DES ANCIENS DU CAMPUS ST-LAWRENCE/ST-LAWRENCE CAMPUS ALUMNI ASSOCIATION", "designationCode": "C", "categoryCode": "21", "address": "2000 - 1270 CH SAINTE-FOY", "city": "QUEBEC", "province": "QC", "country": "CA", "postalCode": "G1S2M4", "twitter": "None", "instagram": "None", "facebook": "None", "youtube": "None", "website": "None", "summary": "None", "logo": "None", "latitude": 46.795915761948145, "longitude": -71.251954217053}, "118792803RR0001": {"name": "ASSOCIATION DES ARTHRITIQUES DE QUEBEC INC.", "designationCode": "C", "categoryCode": "01", "address": "259 RUE DE BROMONT", "city": "QUEBEC", "province": "QC", "country": "CA", "postalCode": "G1C4V5", "twitter": "None", "instagram": "None", "facebook": "None", "youtube": "None", "website": "None", "summary": "None", "logo": "None", "latitude": 46.87526254731953, "longitude": -71.2143212616133}, "891129793RR0001": {"name": "ASSOCIATION DES ARTHRITIQUES DU SAGUENAY LAC ST-JEAN", "designationCode": "C", "categoryCode": "11", "address": "124 RUE D'ORLEANS", "city": "CHICOUTIMI", "province": "QC", "country": "CA", "postalCode": "G7G1H4", "twitter": "None", "instagram": "None", "facebook": "None", "youtube": "None", "website": "None", "summary": "None", "logo": "None", "latitude": 48.45063327451082, "longitude": -71.08635918567145}, "889675229RR0001": {"name": "ASSOCIATION DES ARTILLEURS DE LA MAURICIE", "designationCode": "C", "categoryCode": "50", "address": "3022 BEAUPRE", "city": "SHAWINIGAN", "province": "QC", "country": "CA", "postalCode": "G9N7S8", "twitter": "None", "instagram": "None", "facebook": "None", "youtube": "None", "website": "None", "summary": "None", "logo": "None", "latitude": 46.57557362225176, "longitude": -72.75784586092692}, "100301464RR0001": {"name": "ASSOCIATION DES AVENTURIERS DE BADEN-POWELL ADVENTURERS ASSOCIATION OF BADEN-POWELL", "designationCode": "C", "categoryCode": "29", "address": "200, RANG DE LA GRANDE-TERRE", "city": "SAINT-FRANCOIS-DU-LAC", "province": "QC", "country": "CA", "postalCode": "J0G1M0", "twitter": "None", "instagram": "None", "facebook": "None", "youtube": "None", "website": "None", "summary": "None", "logo": "None", "latitude": 46.07813293614761, "longitude": -72.86144908967607}, "118839596RR0001": {"name": "ASSOCIATION DES B\u00c9N\u00c9VOLES DE L'H\u00d4PITAL STE-CROIX", "designationCode": "C", "categoryCode": "19", "address": "570 RUE HERIOT", "city": "DRUMMONDVILLE", "province": "QC", "country": "CA", "postalCode": "J2B1C1", "twitter": "None", "instagram": "None", "facebook": "None", "youtube": "None", "website": "None", "summary": "None", "logo": "None", "latitude": 45.87954375731457, "longitude": -72.47858764576445}, "874767361RR0001": {"name": "ASSOCIATION DES B\u00c9N\u00c9VOLES DES C.H.S.L.D.-C.L.S.C. STE-ROSE DE LAVAL", "designationCode": "C", "categoryCode": "10", "address": "280 ROI DU NORD", "city": "STE-ROSE LAVAL", "province": "QC", "country": "CA", "postalCode": "H7L4L2", "twitter": "None", "instagram": "None", "facebook": "None", "youtube": "None", "website": "None", "summary": "None", "logo": "None", "latitude": 45.62473886344394, "longitude": -73.7709312639231}, "882350812RR0001": {"name": "ASSOCIATION DES B\u00c9N\u00c9VOLES DU C.H.S.L.D. BUSSEY", "designationCode": "C", "categoryCode": "19", "address": "2069, BOUL. ST-JOSEPH", "city": "LACHINE", "province": "QC", "country": "CA", "postalCode": "H8S4B7", "twitter": "None", "instagram": "None", "facebook": "None", "youtube": "None", "website": "None", "summary": "None", "logo": "None", "latitude": 45.433243782388, "longitude": -73.68314341730614}, "117176925RR0001": {"name": "ASSOCIATION DES B\u00c9N\u00c9VOLES DU CENTRE D'H\u00c9BERGEMENT DE LACHINE", "designationCode": "C", "categoryCode": "09", "address": "650, PLACE D'ACCUEIL", "city": "LACHINE", "province": "QC", "country": "CA", "postalCode": "H8S3Z5", "twitter": "None", "instagram": "None", "facebook": "None", "youtube": "None", "website": "None", "summary": "None", "logo": "None", "latitude": 45.44028781406873, "longitude": -73.69041547230132}, "144138880RR0001": {"name": "ASSOCIATION DES B\u00c9N\u00c9VOLES DU CENTRE HOSPITALIER ST-EUSTACHE", "designationCode": "A", "categoryCode": "13", "address": "520, BOUL. ARTHUR-SAUVE", "city": "SAINT-EUSTACHE", "province": "QC", "country": "CA", "postalCode": "J7R5B1", "twitter": "None", "instagram": "None", "facebook": "None", "youtube": "None", "website": "None", "summary": "None", "logo": "None", "latitude": 45.572075455998686, "longitude": -73.91253606621832}, "118792860RR0001": {"name": "ASSOCIATION DES B\u00c9N\u00c9VOLES DU CHSLD VIGI BROSSARD INC.", "designationCode": "C", "categoryCode": "19", "address": "5955, GRANDE ALLEE", "city": "BROSSARD", "province": "QC", "country": "CA", "postalCode": "J4Z3G4", "twitter": "None", "instagram": "None", "facebook": "None", "youtube": "None", "website": "None", "summary": "None", "logo": "None", "latitude": 45.46941303520143, "longitude": -73.43554753182495}, "136971595RR0001": {"name": "ASSOCIATION DES B\u00c9N\u00c9VOLES DU CHSLD VIGI MONT\u00c9R\u00c9GIE INC.", "designationCode": "C", "categoryCode": "09", "address": "2042 BOUL MARIE", "city": "SAINT-HUBERT", "province": "QC", "country": "CA", "postalCode": "J4T2B4", "twitter": "None", "instagram": "None", "facebook": "None", "youtube": "None", "website": "None", "summary": "None", "logo": "None", "latitude": 45.498749689970644, "longitude": -73.481498697184}, "879347912RR0001": {"name": "ASSOCIATION DES B\u00c9N\u00c9VOLES DU CHSLD VIGI SHERMONT INC.", "designationCode": "C", "categoryCode": "19", "address": "3220 12E AVENUE N", "city": "FLEURIMONT", "province": "QC", "country": "CA", "postalCode": "J1H5H3", "twitter": "None", "instagram": "None", "facebook": "None", "youtube": "None", "website": "None", "summary": "None", "logo": "None", "latitude": 45.44960345709521, "longitude": -71.86155500741583}, "120395512RR0001": {"name": "ASSOCIATION DES B\u00c9N\u00c9VOLES DU CHSLD VIGI YVES-BLAIS INC.", "designationCode": "C", "categoryCode": "09", "address": "2893 AVENUE DES ANCETRES", "city": "MASCOUCHE", "province": "QC", "country": "CA", "postalCode": "J7K1X6", "twitter": "None", "instagram": "None", "facebook": "None", "youtube": "None", "website": "None", "summary": "None", "logo": "None", "latitude": 45.7446297904954, "longitude": -73.60604532941909}, "118792902RR0001": {"name": "ASSOCIATION DES B\u00c9N\u00c9VOLES DU CHUL INC.", "designationCode": "C", "categoryCode": "09", "address": "2705, BOULEVARD LAURIER       LOCAL RC-240", "city": "QU\u00c9BEC", "province": "QC", "country": "CA", "postalCode": "G1V4G2", "twitter": "None", "instagram": "None", "facebook": "None", "youtube": "None", "website": "None", "summary": "None", "logo": "None", "latitude": 46.76955306327547, "longitude": -71.28357752677597}, "888228269RR0001": {"name": "ASSOCIATION DES B\u00c9N\u00c9VOLES DU PAVILLON STE-DOROTH\u00c9E", "designationCode": "C", "categoryCode": "09", "address": "350 BOUL SAMSON", "city": "LAVAL", "province": "QC", "country": "CA", "postalCode": "H7Y1X4", "twitter": "None", "instagram": "None", "facebook": "None", "youtube": "None", "website": "None", "summary": "None", "logo": "None", "latitude": 45.524311725460535, "longitude": -73.80412835504029}, "892635855RR0001": {"name": "ASSOCIATION DES BENEVOLES DE C.H. LE CHATEAU DE BERTHIER", "designationCode": "C", "categoryCode": "15", "address": "1231 RUE DR OLIVIER-M. GENDRONC.P. 240", "city": "BERTHIERVILLE", "province": "QC", "country": "CA", "postalCode": "J0K1A0", "twitter": "None", "instagram": "None", "facebook": "None", "youtube": "None", "website": "None", "summary": "None", "logo": "None", "latitude": 46.070752229297405, "longitude": -73.18224203494162}, "892525163RR0001": {"name": "ASSOCIATION DES BENEVOLES DE L'HOPITAL DU SACRE-COEUR DE MONTREAL", "designationCode": "C", "categoryCode": "19", "address": "5400 BOUL. GOUIN OUEST", "city": "MONTREAL", "province": "QC", "country": "CA", "postalCode": "H4J1C5", "twitter": "None", "instagram": "None", "facebook": "None", "youtube": "None", "website": "None", "summary": "None", "logo": "None", "latitude": 45.53401666106287, "longitude": -73.7161646987599}, "851396432RR0001": {"name": "ASSOCIATION DES BENEVOLES DU C.H. ST-FRANCOIS INC.", "designationCode": "C", "categoryCode": "19", "address": "1604, 1IERE AVENUE", "city": "QUEBEC", "province": "QC", "country": "CA", "postalCode": "G1L3L6", "twitter": "None", "instagram": "None", "facebook": "None", "youtube": "None", "website": "None", "summary": "None", "logo": "None", "latitude": 46.82949000000005, "longitude": -71.23692499999993}, "883145328RR0001": {"name": "ASSOCIATION DES BENEVOLES DU CENTRE D'ACCUEIL REAL MOREL INC", "designationCode": "C", "categoryCode": "19", "address": "3500 WELLINGTON", "city": "VERDUN", "province": "QC", "country": "CA", "postalCode": "H4G1T3", "twitter": "None", "instagram": "None", "facebook": "None", "youtube": "None", "website": "None", "summary": "None", "logo": "None", "latitude": 45.4688295109356, "longitude": -73.56557787558478}, "140199092RR0001": {"name": "ASSOCIATION DES BENEVOLES DU CENTRE D'ACCUEIL ST-RAYMOND ET DU CENTRE HOSPITALIER PORTNEUF", "designationCode": "C", "categoryCode": "19", "address": "700 RUE ST-CYRILLE", "city": "ST-RAYMOND", "province": "QC", "country": "CA", "postalCode": "G3L1W1", "twitter": "None", "instagram": "None", "facebook": "None", "youtube": "None", "website": "None", "summary": "None", "logo": "None", "latitude": 46.89622179286841, "longitude": -71.82262843369905}, "118792837RR0001": {"name": "ASSOCIATION DES BENEVOLES DU CENTRE D'HEBERGEMENT ET DE SOINS DE LONGUE DUREE NOTRE-DAME DE LOURDES INC.", "designationCode": "C", "categoryCode": "11", "address": "80 PRINCIPALE                 C.P. 10", "city": "ST-MICHEL", "province": "QC", "country": "CA", "postalCode": "G0R3S0", "twitter": "None", "instagram": "None", "facebook": "None", "youtube": "None", "website": "None", "summary": "None", "logo": "None", "latitude": 46.8753533260722, "longitude": -70.90968361930891}, "895448934RR0001": {"name": "ASSOCIATION DES BENEVOLES DU CENTRE D'HEBERGEMENT ET DE SOINS DE LONGUE DUREE ST-AUGUSTIN INC.", "designationCode": "C", "categoryCode": "01", "address": "4954 CLEMENT LOCKQUELL", "city": "SAINT-AUGUSTIN-DE-DESMAURES", "province": "QC", "country": "CA", "postalCode": "G3A1V5", "twitter": "None", "instagram": "None", "facebook": "None", "youtube": "None", "website": "None", "summary": "None", "logo": "None", "latitude": 46.73882410413147, "longitude": -71.39073971720795}, "120291596RR0001": {"name": "ASSOCIATION DES BENEVOLES DU CENTRE FREDERICK-GEORGE-HERIOT INC.", "designationCode": "C", "categoryCode": "09", "address": "75 RUE SAINT-GEORGES", "city": "DRUMMONDVILLE", "province": "QC", "country": "CA", "postalCode": "J2C4G6", "twitter": "None", "instagram": "None", "facebook": "None", "youtube": "None", "website": "None", "summary": "None", "logo": "None", "latitude": 45.88728075051623, "longitude": -72.49250233416161}, "140455965RR0001": {"name": "ASSOCIATION DES BENEVOLES DU CHSLD VIGI DE L'OUTAOUAIS INC.", "designationCode": "C", "categoryCode": "09", "address": "565 BOULEVARD DE L'HOPITAL", "city": "GATINEAU", "province": "QC", "country": "CA", "postalCode": "J8V3T4", "twitter": "None", "instagram": "None", "facebook": "None", "youtube": "None", "website": "None", "summary": "None", "logo": "None", "latitude": 45.49516295062865, "longitude": -75.68951972740857}, "886557594RR0001": {"name": "ASSOCIATION DES BENEVOLES DU CHSLD VIGI L'ORCHIDEE BLANCHE", "designationCode": "C", "categoryCode": "19", "address": "2577 BOULEVARD RENE-LAENNEC", "city": "LAVAL", "province": "QC", "country": "CA", "postalCode": "H7K3V4", "twitter": "None", "instagram": "None", "facebook": "None", "youtube": "None", "website": "None", "summary": "None", "logo": "None", "latitude": 45.61920256483335, "longitude": -73.7230502290672}, "871409835RR0001": {"name": "ASSOCIATION DES BENEVOLES DU CHSLD VIGI LES CHUTES", "designationCode": "C", "categoryCode": "09", "address": "5000, AVE ALBERT TESSIER", "city": "SHAWINIGAN", "province": "QC", "country": "CA", "postalCode": "G9N8P9", "twitter": "None", "instagram": "None", "facebook": "None", "youtube": "None", "website": "None", "summary": "None", "logo": "None", "latitude": 46.57324861668318, "longitude": -72.73317814553663}, "896541067RR0001": {"name": "ASSOCIATION DES BENEVOLES DU CHSLD VIGI MONT-ROYAL INC.", "designationCode": "C", "categoryCode": "19", "address": "275 AVE BRITTANY", "city": "VILLE MONT-ROYAL", "province": "QC", "country": "CA", "postalCode": "H3P3C2", "twitter": "None", "instagram": "None", "facebook": "None", "youtube": "None", "website": "None", "summary": "None", "logo": "None", "latitude": 45.52488370803269, "longitude": -73.65059000115383}, "120117981RR0001": {"name": "ASSOCIATION DES BENEVOLES DU CHSLD VIGI-REINE-ELISABETH INC.", "designationCode": "C", "categoryCode": "19", "address": "2055 NORTHCLIFFE AVENUE", "city": "MONTREAL", "province": "QC", "country": "CA", "postalCode": "H4A3K6", "twitter": "None", "instagram": "None", "facebook": "None", "youtube": "None", "website": "None", "summary": "None", "logo": "None", "latitude": 45.473891268682436, "longitude": -73.60624186689952}, "876604422RR0001": {"name": "ASSOCIATION DES BENEVOLES DU DON DE SANG", "designationCode": "C", "categoryCode": "11", "address": "1715, THOMAS D'ORSONNENS", "city": "LAVAL", "province": "QC", "country": "CA", "postalCode": "H7M3R1", "twitter": "None", "instagram": "None", "facebook": "None", "youtube": "None", "website": "None", "summary": "None", "logo": "None", "latitude": 45.60755728893756, "longitude": -73.7068459299152}}