{"119246635RR0077": {"name": "THE NAVY LEAGUE OF CANADA-TRANSCONA BRANCH", "designationCode": "C", "categoryCode": "29", "address": "PO BOX 62004 RPO TRANSCONA", "city": "WINNIPEG", "province": "MB", "country": "CA", "postalCode": "R2C5G2", "twitter": "None", "instagram": "None", "facebook": "None", "youtube": "None", "website": "None", "summary": "None", "logo": "None", "latitude": 49.90015262318507, "longitude": -97.02950803629832}, "119246635RR0059": {"name": "THE NAVY LEAGUE OF CANADA-VICTORIA BRANCH", "designationCode": "C", "categoryCode": "29", "address": "204-2840 NANAIMO STREET", "city": "VICTORIA", "province": "BC", "country": "CA", "postalCode": "V8T4W9", "twitter": "None", "instagram": "None", "facebook": "None", "youtube": "None", "website": "None", "summary": "None", "logo": "None", "latitude": 48.440713641958624, "longitude": -123.36522056027437}, "119246635RR0002": {"name": "THE NAVY LEAGUE OF CANADA, ALBERTA DIVISION", "designationCode": "C", "categoryCode": "29", "address": "336 TRAFFORD DR NW", "city": "CALGARY", "province": "AB", "country": "CA", "postalCode": "T2K2S9", "twitter": "None", "instagram": "None", "facebook": "None", "youtube": "None", "website": "None", "summary": "None", "logo": "None", "latitude": 51.097203376911516, "longitude": -114.0686738284668}, "119246635RR0030": {"name": "THE NAVY LEAGUE OF CANADA, BRITISH COLUMBIA MAINLAND DIVISION", "designationCode": "C", "categoryCode": "29", "address": "BOX 4123                      107-2070 SUMAS WAY", "city": "ABBOTSFORD", "province": "BC", "country": "CA", "postalCode": "V2S8R1", "twitter": "None", "instagram": "None", "facebook": "None", "youtube": "None", "website": "None", "summary": "None", "logo": "None", "latitude": 49.03902222736418, "longitude": -122.27026752429447}, "119246635RR0081": {"name": "THE NAVY LEAGUE OF CANADA, EDMONTON BRANCH", "designationCode": "C", "categoryCode": "29", "address": "P.O. BOX 1717,MAIN POST OFFICE", "city": "EDMONTON", "province": "AB", "country": "CA", "postalCode": "T5J2P1", "twitter": "None", "instagram": "None", "facebook": "None", "youtube": "None", "website": "None", "summary": "None", "logo": "None", "latitude": 53.54623500000005, "longitude": -113.49037249999994}, "119246635RR0019": {"name": "THE NAVY LEAGUE OF CANADA, KELOWNA BRANCH", "designationCode": "C", "categoryCode": "29", "address": "PO BOX 24024                  RPO TOWN CENTRE", "city": "KELOWNA", "province": "BC", "country": "CA", "postalCode": "V1Y9H2", "twitter": "None", "instagram": "None", "facebook": "None", "youtube": "None", "website": "None", "summary": "None", "logo": "None", "latitude": 49.88697900000005, "longitude": -119.49661249999994}, "119246635RR0011": {"name": "THE NAVY LEAGUE OF CANADA, NEW BRUNSWICK DIVISION", "designationCode": "C", "categoryCode": "29", "address": "20 BARKER ST", "city": "OROMOCTO", "province": "NB", "country": "CA", "postalCode": "E2V2K5", "twitter": "None", "instagram": "None", "facebook": "None", "youtube": "None", "website": "None", "summary": "None", "logo": "None", "latitude": 45.83212319620304, "longitude": -66.51626751252213}, "863531737RR0001": {"name": "THE NAVY LEAGUE OF CANADA, NORTH AND WEST VANCOUVER BRANCH", "designationCode": "C", "categoryCode": "29", "address": "1555 FORBES AVENUE", "city": "NORTH VANCOUVER", "province": "BC", "country": "CA", "postalCode": "V7M2Y4", "twitter": "None", "instagram": "None", "facebook": "None", "youtube": "None", "website": "None", "summary": "None", "logo": "None", "latitude": 49.322742114652534, "longitude": -123.0848258677535}, "894230887RR0001": {"name": "THE NAZARENE SPIRITUAL BAPTIST TABERNACLE OF TORONTO", "designationCode": "C", "categoryCode": "31", "address": "5 PENVILL TRAIL", "city": "BARRIE", "province": "ON", "country": "CA", "postalCode": "L4N1T7", "twitter": "None", "instagram": "None", "facebook": "None", "youtube": "None", "website": "None", "summary": "None", "logo": "None", "latitude": 44.34923881320335, "longitude": -79.73748817262972}, "119246759RR0001": {"name": "THE NECESSARY ANGEL THEATRE COMPANY", "designationCode": "C", "categoryCode": "22", "address": "205 - 401 RICHMOND ST W", "city": "TORONTO", "province": "ON", "country": "CA", "postalCode": "M5V3A8", "twitter": "None", "instagram": "None", "facebook": "None", "youtube": "None", "website": "None", "summary": "None", "logo": "None", "latitude": 43.64792255983254, "longitude": -79.39538964100468}, "885176214RR0001": {"name": "THE NEERLANDIA HISTORICAL SOCIETY", "designationCode": "C", "categoryCode": "50", "address": "3502 TWP RD 631", "city": "COUNTY OF BARRHEAD", "province": "AB", "country": "CA", "postalCode": "T0G1R1", "twitter": "None", "instagram": "None", "facebook": "None", "youtube": "None", "website": "None", "summary": "None", "logo": "None", "latitude": 54.428794964766695, "longitude": -114.43029451270932}, "853357879RR0001": {"name": "THE NEIGHBOURHOOD COMMUNITY CHURCH", "designationCode": "C", "categoryCode": "39", "address": "9 WOODYCREST DRIVE", "city": "GUELPH", "province": "ON", "country": "CA", "postalCode": "N1H6E6", "twitter": "None", "instagram": "None", "facebook": "None", "youtube": "None", "website": "None", "summary": "None", "logo": "None", "latitude": 43.53124581874328, "longitude": -80.2632783334298}, "106887284RR0002": {"name": "THE NEIGHBOURHOOD GROUP COMMUNITY SERVICES", "designationCode": "C", "categoryCode": "09", "address": "349 ONTARIO ST", "city": "TORONTO", "province": "ON", "country": "CA", "postalCode": "M5A2V8", "twitter": "None", "instagram": "None", "facebook": "None", "youtube": "None", "website": "None", "summary": "None", "logo": "None", "latitude": 43.660444944774625, "longitude": -79.36915641684479}, "862336948RR0001": {"name": "THE NELLIE MCCLUNG FOUNDATION", "designationCode": "C", "categoryCode": "50", "address": "2700 - 360 MAIN ST", "city": "WINNIPEG", "province": "MB", "country": "CA", "postalCode": "R3C4G9", "twitter": "None", "instagram": "None", "facebook": "None", "youtube": "None", "website": "None", "summary": "None", "logo": "None", "latitude": 49.89459781320337, "longitude": -97.1381563866637}, "107767212RR0001": {"name": "THE NELSON COMMUNITY SERVICES CENTRE", "designationCode": "C", "categoryCode": "59", "address": "201 518 LAKE ST", "city": "NELSON", "province": "BC", "country": "CA", "postalCode": "V1L4C6", "twitter": "None", "instagram": "None", "facebook": "None", "youtube": "None", "website": "None", "summary": "None", "logo": "None", "latitude": 49.493655112199875, "longitude": -117.2950185041709}, "865206734RR0001": {"name": "THE NELSON HISTORY THEATRE SOCIETY", "designationCode": "C", "categoryCode": "22", "address": "3215 THE MIDDLE ROAD", "city": "NELSON", "province": "BC", "country": "CA", "postalCode": "V1L6M3", "twitter": "None", "instagram": "None", "facebook": "None", "youtube": "None", "website": "None", "summary": "None", "logo": "None", "latitude": 49.58553476118133, "longitude": -117.22197700470555}, "139209613RR0001": {"name": "THE NEMETZ FOUNDATION", "designationCode": "B", "categoryCode": "03", "address": "1001-1050 BURRARD ST", "city": "VANCOUVER", "province": "BC", "country": "CA", "postalCode": "V6Z2S3", "twitter": "None", "instagram": "None", "facebook": "None", "youtube": "None", "website": "None", "summary": "None", "logo": "None", "latitude": 49.280200310157404, "longitude": -123.1272627864795}, "133373803RR0001": {"name": "THE NEPEAN CHOIR", "designationCode": "C", "categoryCode": "22", "address": "BOX 16071", "city": "OTTAWA", "province": "ON", "country": "CA", "postalCode": "K2C3S9", "twitter": "None", "instagram": "None", "facebook": "None", "youtube": "None", "website": "None", "summary": "None", "logo": "None", "latitude": 45.34429200000005, "longitude": -75.76434349999994}, "889409777RR0001": {"name": "THE NEPTIS FOUNDATION", "designationCode": "B", "categoryCode": "03", "address": "501 - 1240 BAY ST", "city": "TORONTO", "province": "ON", "country": "CA", "postalCode": "M5R2A7", "twitter": "None", "instagram": "None", "facebook": "None", "youtube": "None", "website": "None", "summary": "None", "logo": "None", "latitude": 43.67039708076062, "longitude": -79.38980700654952}, "895951416RR0001": {"name": "THE NETHERWOOD CHAPEL KIDS CLUB FOUNDATION", "designationCode": "B", "categoryCode": "49", "address": "7 MAIDEN LANE", "city": "ROTHESAY", "province": "NB", "country": "CA", "postalCode": "E2E5S2", "twitter": "None", "instagram": "None", "facebook": "None", "youtube": "None", "website": "None", "summary": "None", "logo": "None", "latitude": 45.38509626237387, "longitude": -65.99535751934226}, "883241630RR0001": {"name": "THE NEUCHATEL JUNIOR COLLEGE FUND", "designationCode": "C", "categoryCode": "21", "address": "44 VICTORIA ST, UNIT 1310", "city": "TORONTO", "province": "ON", "country": "CA", "postalCode": "M5C1Y2", "twitter": "None", "instagram": "None", "facebook": "None", "youtube": "None", "website": "None", "summary": "None", "logo": "None", "latitude": 43.65039498389985, "longitude": -79.3771861788908}, "119246858RR0001": {"name": "THE NEUFELD CHARITABLE FOUNDATION", "designationCode": "B", "categoryCode": "03", "address": "1200 - 410 - 22ND STREET EAST", "city": "SASKATOON", "province": "SK", "country": "CA", "postalCode": "S7K5T6", "twitter": "None", "instagram": "None", "facebook": "None", "youtube": "None", "website": "None", "summary": "None", "logo": "None", "latitude": 52.129097687794655, "longitude": -106.66598560188571}, "888106432RR0001": {"name": "THE NEUFELD FOUNDATION - CANADA", "designationCode": "B", "categoryCode": "56", "address": "16070 CARRS LANDING RD", "city": "LAKE COUNTRY", "province": "BC", "country": "CA", "postalCode": "V4V1C4", "twitter": "None", "instagram": "None", "facebook": "None", "youtube": "None", "website": "None", "summary": "None", "logo": "None", "latitude": 50.11617862080279, "longitude": -119.46205397810242}, "890884265RR0001": {"name": "THE NEUSTADT-NORMANBY-CARRICK AGRICULTURAL SOCIETY", "designationCode": "C", "categoryCode": "56", "address": "BOX 67, 236 FORLER ST.", "city": "NEUSTADT", "province": "ON", "country": "CA", "postalCode": "N0G2M0", "twitter": "None", "instagram": "None", "facebook": "None", "youtube": "None", "website": "None", "summary": "None", "logo": "None", "latitude": 44.07444861555801, "longitude": -80.993598171793}, "119246874RR0001": {"name": "THE NEUTRAL HILLS AGRICULTURAL SOCIETY", "designationCode": "C", "categoryCode": "56", "address": "PO BOX 321", "city": "CONSORT", "province": "AB", "country": "CA", "postalCode": "T0C1B0", "twitter": "None", "instagram": "None", "facebook": "None", "youtube": "None", "website": "None", "summary": "None", "logo": "None", "latitude": 51.97709700000001, "longitude": -110.57295375000001}, "137698502RR0001": {"name": "THE NEW BRUNSWICK ASSOCIATION OF HEALTH CARE AUXILIARIES", "designationCode": "C", "categoryCode": "19", "address": "26 EVERGREEN ST", "city": "FREDERICTON", "province": "NB", "country": "CA", "postalCode": "E3B6N4", "twitter": "None", "instagram": "None", "facebook": "None", "youtube": "None", "website": "None", "summary": "None", "logo": "None", "latitude": 45.93863527061567, "longitude": -66.70631578489818}, "107768822RR0001": {"name": "THE NEW BRUNSWICK COMMUNITY RESIDENCES INC.", "designationCode": "C", "categoryCode": "09", "address": "530 NEEDHAM ST", "city": "FREDERICTON", "province": "NB", "country": "CA", "postalCode": "E3B1P3", "twitter": "None", "instagram": "None", "facebook": "None", "youtube": "None", "website": "None", "summary": "None", "logo": "None", "latitude": 45.957329392723224, "longitude": -66.64429312767611}, "119246916RR0001": {"name": "THE NEW BRUNSWICK DIVISION OF THE CANADIAN RAILROAD HISTORICAL ASSOCIATION INC", "designationCode": "C", "categoryCode": "52", "address": "146 CHAMPLAIN AVENUE", "city": "ST. ANDREWS", "province": "NB", "country": "CA", "postalCode": "E5B2K9", "twitter": "None", "instagram": "None", "facebook": "None", "youtube": "None", "website": "None", "summary": "None", "logo": "None", "latitude": 45.083424602025325, "longitude": -67.05573577904113}, "119246940RR0001": {"name": "THE NEW BRUNSWICK HEART AND STROKE FOUNDATION", "designationCode": "C", "categoryCode": "11", "address": "B210 - 580 MAIN ST", "city": "SAINT JOHN", "province": "NB", "country": "CA", "postalCode": "E2K1J5", "twitter": "None", "instagram": "None", "facebook": "None", "youtube": "None", "website": "None", "summary": "None", "logo": "None", "latitude": 45.276248505395685, "longitude": -66.07099135830119}, "879762821RR0001": {"name": "THE NEW BRUNSWICK INTERNMENT CAMP HERITAGE COMMITTEE INC", "designationCode": "C", "categoryCode": "50", "address": "420 PLEASENT DR               UNIT 1", "city": "MINTO", "province": "NB", "country": "CA", "postalCode": "E4B2T3", "twitter": "None", "instagram": "None", "facebook": "None", "youtube": "None", "website": "None", "summary": "None", "logo": "None", "latitude": 46.07188521005285, "longitude": -66.06230476040214}, "892285446RR0001": {"name": "THE NEW BRUNSWICK MUSEUM FOUNDATION. INC.", "designationCode": "A", "categoryCode": "53", "address": "277 DOUGLAS AVENUE", "city": "SAINT JOHN", "province": "NB", "country": "CA", "postalCode": "E2K1E5", "twitter": "None", "instagram": "None", "facebook": "None", "youtube": "None", "website": "None", "summary": "None", "logo": "None", "latitude": 45.26893714071786, "longitude": -66.08182870748443}, "869847277RR0001": {"name": "THE NEW CITY INSTITUTE", "designationCode": "C", "categoryCode": "21", "address": "13 - 721 MILLYARD", "city": "VANCOUVER", "province": "BC", "country": "CA", "postalCode": "V5Z3Z9", "twitter": "None", "instagram": "None", "facebook": "None", "youtube": "None", "website": "None", "summary": "None", "logo": "None", "latitude": 49.26672188616979, "longitude": -123.12077357721044}, "872781646RR0001": {"name": "THE NEW COVENANT CHURCH OF JESUS CHRIST (APOSTOLIC) OF ONTARIO", "designationCode": "C", "categoryCode": "39", "address": "230 SANDALWOOD PKWY BOX 41546", "city": "BRAMPTON", "province": "ON", "country": "CA", "postalCode": "L6Z1R3", "twitter": "None", "instagram": "None", "facebook": "None", "youtube": "None", "website": "None", "summary": "None", "logo": "None", "latitude": 43.73045281046205, "longitude": -79.78977413465834}, "831077342RR0001": {"name": "THE NEW EDMONTON WIND SINFONIA SOCIETY", "designationCode": "C", "categoryCode": "22", "address": "9912 87 ST NW", "city": "EDMONTON", "province": "AB", "country": "CA", "postalCode": "T5H1N3", "twitter": "None", "instagram": "None", "facebook": "None", "youtube": "None", "website": "None", "summary": "None", "logo": "None", "latitude": 53.54174120457024, "longitude": -113.46487144134082}, "860156314RR0001": {"name": "THE NEW GLASGOW DRAGON BOAT SOCIETY", "designationCode": "A", "categoryCode": "03", "address": "PO BOX 641 STN MAIN", "city": "NEW GLASGOW", "province": "NS", "country": "CA", "postalCode": "B2H5E7", "twitter": "None", "instagram": "None", "facebook": "None", "youtube": "None", "website": "None", "summary": "None", "logo": "None", "latitude": 45.591837000000055, "longitude": -62.643414499999935}, "809594872RR0001": {"name": "THE NEW HOPE FOUNDATION", "designationCode": "B", "categoryCode": "03", "address": "1001 - 2225 SHEPPARD AVE E", "city": "NORTH YORK", "province": "ON", "country": "CA", "postalCode": "M2J5C2", "twitter": "None", "instagram": "None", "facebook": "None", "youtube": "None", "website": "None", "summary": "None", "logo": "None", "latitude": 43.77572210359478, "longitude": -79.34397475891957}, "119247120RR0001": {"name": "THE NEW HORIZONS ASSOCIAITON OF UNITY INC", "designationCode": "C", "categoryCode": "56", "address": "PO BOX 1951", "city": "UNITY", "province": "SK", "country": "CA", "postalCode": "S0K4L0", "twitter": "None", "instagram": "None", "facebook": "None", "youtube": "None", "website": "None", "summary": "None", "logo": "None", "latitude": 52.437110000000075, "longitude": -109.14557999999994}, "894551753RR0001": {"name": "THE NEW JERUSALEM SAINTS CHURCH INC.", "designationCode": "C", "categoryCode": "39", "address": "2901 B 5TH AVENUE", "city": "REGINA", "province": "SK", "country": "CA", "postalCode": "S4T0L4", "twitter": "None", "instagram": "None", "facebook": "None", "youtube": "None", "website": "None", "summary": "None", "logo": "None", "latitude": 50.46138247403208, "longitude": -104.62291102553523}, "119247138RR0001": {"name": "THE NEW JERUSALEM SPANISH PENTECOSTAL CHURCH OF TORONTO", "designationCode": "C", "categoryCode": "39", "address": "312 OAKWOOD AVE", "city": "TORONTO", "province": "ON", "country": "CA", "postalCode": "M6E2V6", "twitter": "None", "instagram": "None", "facebook": "None", "youtube": "None", "website": "None", "summary": "None", "logo": "None", "latitude": 43.68529082347514, "longitude": -79.43802410286204}, "873346365RR0001": {"name": "THE NEW JOSHUA GENERATION FELLOWSHIP INTERNATIONAL", "designationCode": "C", "categoryCode": "39", "address": "PO BOX 19420 RPO METROTOWN", "city": "BURNABY", "province": "BC", "country": "CA", "postalCode": "V5H4J8", "twitter": "None", "instagram": "None", "facebook": "None", "youtube": "None", "website": "None", "summary": "None", "logo": "None", "latitude": 49.22476000000006, "longitude": -123.00116999999995}, "868059338RR0001": {"name": "THE NEW LIGHT KOREAN PRESBYTERIAN CHURCH OF TORONTO", "designationCode": "C", "categoryCode": "39", "address": "123 WHITNEY PLACE", "city": "THORNHILL", "province": "ON", "country": "CA", "postalCode": "L4J6V3", "twitter": "None", "instagram": "None", "facebook": "None", "youtube": "None", "website": "None", "summary": "None", "logo": "None", "latitude": 43.792797940042746, "longitude": -79.45115271942966}, "860673094RR0001": {"name": "THE NEW MARINE CENTRE SOCIETY", "designationCode": "C", "categoryCode": "50", "address": "9811 SEAPORT PL", "city": "SIDNEY", "province": "BC", "country": "CA", "postalCode": "V8L4X3", "twitter": "None", "instagram": "None", "facebook": "None", "youtube": "None", "website": "None", "summary": "None", "logo": "None", "latitude": 48.649082822361855, "longitude": -123.3950052083472}, "881924559RR0001": {"name": "THE NEW TECUMSETH SINGERS", "designationCode": "C", "categoryCode": "22", "address": "PO BOX 17", "city": "ALLISTON", "province": "ON", "country": "CA", "postalCode": "L9R1T9", "twitter": "None", "instagram": "None", "facebook": "None", "youtube": "None", "website": "None", "summary": "None", "logo": "None", "latitude": 44.15432100000005, "longitude": -79.86752449999993}, "107771958RR0001": {"name": "THE NEW TESTAMENT BAPTIST CHURCH OF HAMILTON", "designationCode": "C", "categoryCode": "31", "address": "21 JAMESTON AVE", "city": "HAMILTON", "province": "ON", "country": "CA", "postalCode": "L9C2R9", "twitter": "None", "instagram": "None", "facebook": "None", "youtube": "None", "website": "None", "summary": "None", "logo": "None", "latitude": 43.22305487870054, "longitude": -79.88541777200065}, "871298212RR0001": {"name": "THE NEW TESTAMENT CHURCH OF CHRIST THE REDEEMER OF CANADA", "designationCode": "C", "categoryCode": "39", "address": "2200 MARKHAM RD  UNIT 1 & 2", "city": "SCARBOROUGH", "province": "ON", "country": "CA", "postalCode": "M1B2W4", "twitter": "None", "instagram": "None", "facebook": "None", "youtube": "None", "website": "None", "summary": "None", "logo": "None", "latitude": 43.80702129225577, "longitude": -79.24406891231449}, "892200569RR0001": {"name": "THE NEW TORONTO CHURCH OF GOD OF PROPHECY", "designationCode": "C", "categoryCode": "39", "address": "80 BIRMINGHAM STREET          UNIT 10", "city": "ETOBICOKE", "province": "ON", "country": "CA", "postalCode": "M8V3W6", "twitter": "None", "instagram": "None", "facebook": "None", "youtube": "None", "website": "None", "summary": "None", "logo": "None", "latitude": 43.603576165156554, "longitude": -79.50486759714924}, "888914595RR0001": {"name": "THE NEW UNIVERSITY-LEVEL ADULT EDUCATION LEARNING CENTRE OF TORONTO", "designationCode": "C", "categoryCode": "20", "address": "155 LYNDEN ROAD UNIT 2", "city": "BRANTFORD", "province": "ON", "country": "CA", "postalCode": "N3R8A7", "twitter": "None", "instagram": "None", "facebook": "None", "youtube": "None", "website": "None", "summary": "None", "logo": "None", "latitude": 43.17478350089023, "longitude": -80.23379717078858}, "108090127RR0002": {"name": "THE NEW VISTA SOCIETY", "designationCode": "C", "categoryCode": "09", "address": "7550 ROSEWOOD ST", "city": "BURNABY", "province": "BC", "country": "CA", "postalCode": "V5E3Z3", "twitter": "None", "instagram": "None", "facebook": "None", "youtube": "None", "website": "None", "summary": "None", "logo": "None", "latitude": 49.224461996624456, "longitude": -122.94597837241079}, "872404967RR0001": {"name": "THE NEW WINESKINS SOCIETY", "designationCode": "C", "categoryCode": "39", "address": "10311 ALBION ROAD", "city": "RICHMOND", "province": "BC", "country": "CA", "postalCode": "V7A3E5", "twitter": "None", "instagram": "None", "facebook": "None", "youtube": "None", "website": "None", "summary": "None", "logo": "None", "latitude": 49.14163552322661, "longitude": -123.10981272300768}, "864408943RR0001": {"name": "THE NEWALL FAMILY FOUNDATION", "designationCode": "B", "categoryCode": "05", "address": "2060-130 ADELAIDE ST W", "city": "TORONTO", "province": "ON", "country": "CA", "postalCode": "M5H3P5", "twitter": "None", "instagram": "None", "facebook": "None", "youtube": "None", "website": "None", "summary": "None", "logo": "None", "latitude": 43.64931314741162, "longitude": -79.38362708272251}, "119247070RR0001": {"name": "THE NEWFOUNDLAND AND LABRADOR WILDLIFE FEDERATION", "designationCode": "C", "categoryCode": "54", "address": "15 CONRAN STREET", "city": "ST. JOHN'S", "province": "NL", "country": "CA", "postalCode": "A1E5L8", "twitter": "None", "instagram": "None", "facebook": "None", "youtube": "None", "website": "None", "summary": "None", "logo": "None", "latitude": 47.530700885913895, "longitude": -52.7725992932367}, "892321241RR0001": {"name": "THE NEWFOUNDLAND FEDERATION OF MUSIC FESTIVALS INC", "designationCode": "C", "categoryCode": "22", "address": "1 MARIGOLD PLACE", "city": "ST. JOHNS", "province": "NL", "country": "CA", "postalCode": "A1A3T1", "twitter": "None", "instagram": "None", "facebook": "None", "youtube": "None", "website": "None", "summary": "None", "logo": "None", "latitude": 47.603838980581635, "longitude": -52.69488920884075}, "119054948RR0001": {"name": "THE NEWFOUNDLAND HISTORICAL SOCIETY", "designationCode": "C", "categoryCode": "50", "address": "PO BOX 23154 CHURCHILL SQ", "city": "ST JOHN'S", "province": "NL", "country": "CA", "postalCode": "A1B4J9", "twitter": "None", "instagram": "None", "facebook": "None", "youtube": "None", "website": "None", "summary": "None", "logo": "None", "latitude": 47.57470538694076, "longitude": -52.7226658486743}, "899123053RR0001": {"name": "THE NEWFOUNDLAND PONY SOCIETY", "designationCode": "C", "categoryCode": "54", "address": "PO BOX 8132                   STN A", "city": "ST JOHN'S", "province": "NL", "country": "CA", "postalCode": "A1B3M9", "twitter": "None", "instagram": "None", "facebook": "None", "youtube": "None", "website": "None", "summary": "None", "logo": "None", "latitude": 47.56938900000006, "longitude": -52.78609699999993}, "119056240RR0001": {"name": "THE NEWMAN ASSOCIATION OF MONTREAL INC.", "designationCode": "C", "categoryCode": "38", "address": "3484, PEEL ST", "city": "MONTREAL", "province": "QC", "country": "CA", "postalCode": "H3A3T6", "twitter": "None", "instagram": "None", "facebook": "None", "youtube": "None", "website": "None", "summary": "None", "logo": "None", "latitude": 45.502899183161325, "longitude": -73.57864696269245}, "119247146RR0001": {"name": "THE NEWMAN FOUNDATION OF TORONTO", "designationCode": "B", "categoryCode": "23", "address": "89 ST. GEORGE ST", "city": "TORONTO", "province": "ON", "country": "CA", "postalCode": "M5S2E8", "twitter": "None", "instagram": "None", "facebook": "None", "youtube": "None", "website": "None", "summary": "None", "logo": "None", "latitude": 43.66436610519933, "longitude": -79.39850015329824}, "867288045RR0001": {"name": "THE NEWMAN INSTITUTE OF CATHOLIC STUDIES", "designationCode": "C", "categoryCode": "47", "address": "630 SHERBROOKE OUEST #400", "city": "MONTREAL", "province": "QC", "country": "CA", "postalCode": "H3A1E4", "twitter": "None", "instagram": "None", "facebook": "None", "youtube": "None", "website": "None", "summary": "None", "logo": "None", "latitude": 45.505404, "longitude": -73.5724035}, "892155649RR0001": {"name": "THE NEWMARKET HISTORICAL SOCIETY", "designationCode": "C", "categoryCode": "50", "address": "134 MAIN ST SOUTH", "city": "NEWMARKET", "province": "ON", "country": "CA", "postalCode": "L3Y3Y7", "twitter": "None", "instagram": "None", "facebook": "None", "youtube": "None", "website": "None", "summary": "None", "logo": "None"}, "898348537RR0001": {"name": "THE NEWMARKET KOREAN CHURCH", "designationCode": "C", "categoryCode": "39", "address": "49 GLENBOROUGH PARK CRES", "city": "NORTH YORK", "province": "ON", "country": "CA", "postalCode": "M2R2G4", "twitter": "None", "instagram": "None", "facebook": "None", "youtube": "None", "website": "None", "summary": "None", "logo": "None", "latitude": 43.77619876519132, "longitude": -79.43412554789646}, "107772097RR0001": {"name": "THE NEWTOWN-LUMSDEN PASTORAL CHARGE", "designationCode": "C", "categoryCode": "44", "address": "PO BOX 40", "city": "LUMSDEN", "province": "NL", "country": "CA", "postalCode": "A0G3E0", "twitter": "None", "instagram": "None", "facebook": "None", "youtube": "None", "website": "None", "summary": "None", "logo": "None", "latitude": 49.29988000000003, "longitude": -53.59803999999997}, "886571991RR0001": {"name": "THE NIAGARA AMPUTEE ASSOCIATION", "designationCode": "C", "categoryCode": "09", "address": "130 LOCKHART DR", "city": "ST. CATHERINES", "province": "ON", "country": "CA", "postalCode": "L2T1W5", "twitter": "None", "instagram": "None", "facebook": "None", "youtube": "None", "website": "None", "summary": "None", "logo": "None", "latitude": 43.123963432685166, "longitude": -79.25106088245143}, "130689722RR0001": {"name": "THE NIAGARA DISTRICT HOMES COMMITTEE FOR THE PHYSICALLY DISABLED", "designationCode": "C", "categoryCode": "01", "address": "675 TANGUAY AVENUE", "city": "WELLAND", "province": "ON", "country": "CA", "postalCode": "L3B6A1", "twitter": "None", "instagram": "None", "facebook": "None", "youtube": "None", "website": "None", "summary": "None", "logo": "None", "latitude": 42.989790451093, "longitude": -79.22207163722675}, "805879095RR0001": {"name": "THE NIAGARA ESCARPMENT FOUNDATION", "designationCode": "C", "categoryCode": "21", "address": "93 LORNE ST", "city": "INGLEWOOD", "province": "ON", "country": "CA", "postalCode": "L7C1L3", "twitter": "None", "instagram": "None", "facebook": "None", "youtube": "None", "website": "None", "summary": "None", "logo": "None", "latitude": 43.79608221648681, "longitude": -79.93513401887013}, "889140190RR0001": {"name": "THE NIAGARA FALLS ROTARY CLUB FOUNDATION", "designationCode": "A", "categoryCode": "63", "address": "843 QUEENSTON ROAD, RR4", "city": "NIAGARA ON THE LAKE", "province": "ON", "country": "CA", "postalCode": "L0S1J0", "twitter": "None", "instagram": "None", "facebook": "None", "youtube": "None", "website": "None", "summary": "None", "logo": "None", "latitude": 43.16506252510255, "longitude": -79.13245046863639}, "119247294RR0001": {"name": "THE NIAGARA FOUNDATION", "designationCode": "C", "categoryCode": "52", "address": "P.O. BOX 790", "city": "NIAGARA ON THE LAKE", "province": "ON", "country": "CA", "postalCode": "L0S1J0", "twitter": "None", "instagram": "None", "facebook": "None", "youtube": "None", "website": "None", "summary": "None", "logo": "None", "latitude": 43.23448500000005, "longitude": -79.16177149999993}, "892188566RR0001": {"name": "THE NIAGARA FOUNDATION FOR CATHOLIC EDUCATION", "designationCode": "A", "categoryCode": "13", "address": "4625 ONTARIO AVE., PO BOX 897", "city": "NIAGARA FALLS", "province": "ON", "country": "CA", "postalCode": "L2E6V6", "twitter": "None", "instagram": "None", "facebook": "None", "youtube": "None", "website": "None", "summary": "None", "logo": "None", "latitude": 43.106931220093486, "longitude": -79.06518764643067}, "892527367RR0001": {"name": "THE NIAGARA ON THE LAKE CONSERVANCY SOCIETY", "designationCode": "C", "categoryCode": "52", "address": "P.O. BOX 1582", "city": "NIAGARA ON THE LAKE", "province": "ON", "country": "CA", "postalCode": "L0S1J0", "twitter": "None", "instagram": "None", "facebook": "None", "youtube": "None", "website": "None", "summary": "None", "logo": "None", "latitude": 43.23448500000005, "longitude": -79.16177149999993}, "899564116RR0001": {"name": "THE NIAGARA PARKS FOUNDATION", "designationCode": "C", "categoryCode": "53", "address": "7400 PORTAGE RD SOUTH         P.O. BOX 150", "city": "NIAGARA FALLS", "province": "ON", "country": "CA", "postalCode": "L2E6Y2", "twitter": "None", "instagram": "None", "facebook": "None", "youtube": "None", "website": "None", "summary": "None", "logo": "None", "latitude": 43.139471077543135, "longitude": -79.08284290210928}, "119057511RR0001": {"name": "THE NIAGARA PENINSULA CONSERVATION FOUNDATION", "designationCode": "A", "categoryCode": "52", "address": "250 THOROLD ROAD W 3RD FLOOR", "city": "WELLAND", "province": "ON", "country": "CA", "postalCode": "L3C3W2", "twitter": "None", "instagram": "None", "facebook": "None", "youtube": "None", "website": "None", "summary": "None", "logo": "None", "latitude": 43.00381513723964, "longitude": -79.27018363723964}, "899254395RR0001": {"name": "THE NIAGARA PUMPHOUSE VISUAL ART CENTRE", "designationCode": "C", "categoryCode": "22", "address": "P.O. 676                      247 RICARDO STREET", "city": "NIAGARA-ON-THE-LAKE", "province": "ON", "country": "CA", "postalCode": "L0S1J0", "twitter": "None", "instagram": "None", "facebook": "None", "youtube": "None", "website": "None", "summary": "None", "logo": "None", "latitude": 43.25301866362735, "longitude": -79.06086807395128}, "119247328RR0001": {"name": "THE NIAGARA SYMPHONY ASSOCIATION", "designationCode": "C", "categoryCode": "22", "address": "207 - 11 BOND ST", "city": "ST CATHARINES", "province": "ON", "country": "CA", "postalCode": "L2R4Z4", "twitter": "None", "instagram": "None", "facebook": "None", "youtube": "None", "website": "None", "summary": "None", "logo": "None", "latitude": 43.159284554273114, "longitude": -79.24053898721806}, "871422234RR0001": {"name": "THE NICHOLAAS NOORT FAMILY FOUNDATION", "designationCode": "B", "categoryCode": "03", "address": "101-403 6TH ST", "city": "NEW WESTMINSTER", "province": "BC", "country": "CA", "postalCode": "V3L3B1", "twitter": "None", "instagram": "None", "facebook": "None", "youtube": "None", "website": "None", "summary": "None", "logo": "None", "latitude": 49.21038208371541, "longitude": -122.91674673083386}, "896657129RR0001": {"name": "THE NICOLA VALLEY AND DISTRICT FOOD BANK SOCIETY", "designationCode": "C", "categoryCode": "09", "address": "2026 QUILCHENA AVENUE         BOX 2719", "city": "MERRITT", "province": "BC", "country": "CA", "postalCode": "V1K1M6", "twitter": "None", "instagram": "None", "facebook": "None", "youtube": "None", "website": "None", "summary": "None", "logo": "None", "latitude": 50.110000849270165, "longitude": -120.78883786262901}, "107774523RR0001": {"name": "THE NICOLA VALLEY EVANGELICAL FREE CHURCH", "designationCode": "C", "categoryCode": "47", "address": "1950 MAXWELL AVENUE", "city": "MERRITT", "province": "BC", "country": "CA", "postalCode": "V1K1L9", "twitter": "None", "instagram": "None", "facebook": "None", "youtube": "None", "website": "None", "summary": "None", "logo": "None", "latitude": 50.11654079877665, "longitude": -120.78753661449015}, "119247351RR0001": {"name": "THE NICTAUX CEMETERY COMPANY", "designationCode": "C", "categoryCode": "59", "address": "9549 HIGHWAY 10               RR 3", "city": "MIDDLETON", "province": "NS", "country": "CA", "postalCode": "B0S1P0", "twitter": "None", "instagram": "None", "facebook": "None", "youtube": "None", "website": "None", "summary": "None", "logo": "None", "latitude": 44.934672981296835, "longitude": -65.05448170765068}, "895122885RR0001": {"name": "THE NIGHTINGALE ARTS COUNCIL", "designationCode": "C", "categoryCode": "22", "address": "110-401 RICHMOND ST W", "city": "TORONTO", "province": "ON", "country": "CA", "postalCode": "M5V3A8", "twitter": "None", "instagram": "None", "facebook": "None", "youtube": "None", "website": "None", "summary": "None", "logo": "None", "latitude": 43.64792255983254, "longitude": -79.39538964100468}, "129851747RR0001": {"name": "THE NIGHTINGALE RESEARCH FOUNDATION", "designationCode": "C", "categoryCode": "11", "address": "121 IONA ST", "city": "OTTAWA", "province": "ON", "country": "CA", "postalCode": "K1Y3M1", "twitter": "None", "instagram": "None", "facebook": "None", "youtube": "None", "website": "None", "summary": "None", "logo": "None", "latitude": 45.39347573495292, "longitude": -75.73770266570482}, "840654768RR0001": {"name": "THE NIHEWAN FOUNDATION", "designationCode": "C", "categoryCode": "21", "address": "SUITE 300, 160 JOHN STREET", "city": "TORONTO", "province": "ON", "country": "CA", "postalCode": "M5V2E5", "twitter": "None", "instagram": "None", "facebook": "None", "youtube": "None", "website": "None", "summary": "None", "logo": "None", "latitude": 43.64973071273591, "longitude": -79.39110621844871}, "119247369RR0001": {"name": "THE NINE MILE RIVER CEMETARY ASSOCIATION", "designationCode": "C", "categoryCode": "59", "address": "6167 HIGHWAY 14", "city": "NINE MILE RIVER", "province": "NS", "country": "CA", "postalCode": "B2S2X2", "twitter": "None", "instagram": "None", "facebook": "None", "youtube": "None", "website": "None", "summary": "None", "logo": "None", "latitude": 45.05871757748388, "longitude": -63.59519421292521}, "891094245RR0001": {"name": "THE NIPISSING RESPIRATORY ORGANIZATION", "designationCode": "C", "categoryCode": "11", "address": "163 BEVERLY RD.", "city": "NORTH BAY", "province": "ON", "country": "CA", "postalCode": "P1B7P7", "twitter": "None", "instagram": "None", "facebook": "None", "youtube": "None", "website": "None", "summary": "None", "logo": "None", "latitude": 46.33368553621104, "longitude": -79.44607282944774}, "892982166RR0001": {"name": "THE NISBET LODGE - MCCLINTOCK MANOR FOUNDATION", "designationCode": "A", "categoryCode": "03", "address": "740 PAPE AVE", "city": "TORONTO", "province": "ON", "country": "CA", "postalCode": "M4K3S7", "twitter": "None", "instagram": "None", "facebook": "None", "youtube": "None", "website": "None", "summary": "None", "logo": "None", "latitude": 43.68058435775295, "longitude": -79.34552628354184}, "891905978RR0001": {"name": "THE NISSAN CANADA FOUNDATION-LA FONDATION NISSAN CANADA", "designationCode": "B", "categoryCode": "03", "address": "5290 ORBITOR DRIVE", "city": "MISSISSAUGA", "province": "ON", "country": "CA", "postalCode": "L4W4Z5", "twitter": "None", "instagram": "None", "facebook": "None", "youtube": "None", "website": "None", "summary": "None", "logo": "None", "latitude": 43.66062917202415, "longitude": -79.6072210547631}, "838927564RR0001": {"name": "THE NIXON CHARITABLE FOUNDATION", "designationCode": "B", "categoryCode": "05", "address": "10TH FLOOR SOUTH TOWER        200 BAY STREET, P.O. BOX 95", "city": "TORONTO", "province": "ON", "country": "CA", "postalCode": "M5J2J2", "twitter": "None", "instagram": "None", "facebook": "None", "youtube": "None", "website": "None", "summary": "None", "logo": "None", "latitude": 43.64635885622373, "longitude": -79.37932458843532}, "886434802RR0001": {"name": "THE NO STRINGS ATTACHED COMMUNITY BAND", "designationCode": "C", "categoryCode": "22", "address": "463 TURNER ST", "city": "LIVELY", "province": "ON", "country": "CA", "postalCode": "P3Y1N2", "twitter": "None", "instagram": "None", "facebook": "None", "youtube": "None", "website": "None", "summary": "None", "logo": "None", "latitude": 46.42875150874258, "longitude": -81.14985279629514}, "119247385RR0001": {"name": "THE NOBLEFORD OLDTIMERS ASSOCIATION", "designationCode": "C", "categoryCode": "56", "address": "BOX 471", "city": "NOBLEFORD", "province": "AB", "country": "CA", "postalCode": "T0L1S0", "twitter": "None", "instagram": "None", "facebook": "None", "youtube": "None", "website": "None", "summary": "None", "logo": "None", "latitude": 49.87318000000005, "longitude": -113.05139999999994}, "119247393RR0001": {"name": "THE NOEL CEMETERY COMPANY", "designationCode": "C", "categoryCode": "52", "address": "5264 HWY 215 RR1", "city": "MAITLAND", "province": "NS", "country": "CA", "postalCode": "B0N1T0", "twitter": "None", "instagram": "None", "facebook": "None", "youtube": "None", "website": "None", "summary": "None", "logo": "None", "latitude": 45.32093315351618, "longitude": -63.5008675256939}, "107776643RR0001": {"name": "THE NOKOMIS DISTRICT MUSEUM AND HERITAGE CO-OPERATIVE", "designationCode": "C", "categoryCode": "50", "address": "BOX 417", "city": "NOKOMIS", "province": "SK", "country": "CA", "postalCode": "S0G3R0", "twitter": "None", "instagram": "None", "facebook": "None", "youtube": "None", "website": "None", "summary": "None", "logo": "None", "latitude": 51.50703000000004, "longitude": -105.01040999999998}, "119259794RR0001": {"name": "THE NORFOLK COMMUNITY FOUNDATION", "designationCode": "A", "categoryCode": "03", "address": "PO BOX 999", "city": "SIMCOE", "province": "ON", "country": "CA", "postalCode": "N3Y5R3", "twitter": "None", "instagram": "None", "facebook": "None", "youtube": "None", "website": "None", "summary": "None", "logo": "None", "latitude": 42.80922499999997, "longitude": -80.35034054288286}, "123508087RR0001": {"name": "THE NORFOLK COUNTY AGRICULTURAL SOCIETY", "designationCode": "C", "categoryCode": "56", "address": "172 SOUTH DRIVE", "city": "SIMCOE", "province": "ON", "country": "CA", "postalCode": "N3Y1G6", "twitter": "None", "instagram": "None", "facebook": "None", "youtube": "None", "website": "None", "summary": "None", "logo": "None", "latitude": 42.83019967384182, "longitude": -80.3075201987132}, "892662156RR0001": {"name": "THE NORFOLK HOSPITAL NURSING HOME", "designationCode": "C", "categoryCode": "10", "address": "365 WEST STREET", "city": "SIMCOE", "province": "ON", "country": "CA", "postalCode": "N3Y1T7", "twitter": "None", "instagram": "None", "facebook": "None", "youtube": "None", "website": "None", "summary": "None", "logo": "None", "latitude": 42.834770328899495, "longitude": -80.3140876254544}, "889408175RR0001": {"name": "THE NORMAN AND MARGARET JEWISON CHARITABLE FOUNDATION", "designationCode": "B", "categoryCode": "23", "address": "18 GLOUCESTER LANE 4TH FLOOR", "city": "TORONTO", "province": "ON", "country": "CA", "postalCode": "M4Y1L5", "twitter": "None", "instagram": "None", "facebook": "None", "youtube": "None", "website": "None", "summary": "None", "logo": "None", "latitude": 43.66711617707313, "longitude": -79.384745828207}, "893373928RR0001": {"name": "THE NORMAN AND MARIAN ROBERTSON CHARITABLE FOUNDATION", "designationCode": "B", "categoryCode": "03", "address": "100-225 DUNCAN MILL ROAD", "city": "TORONTO", "province": "ON", "country": "CA", "postalCode": "M3B3K9", "twitter": "None", "instagram": "None", "facebook": "None", "youtube": "None", "website": "None", "summary": "None", "logo": "None", "latitude": 43.761781710485536, "longitude": -79.3525243297362}, "119247484RR0001": {"name": "THE NORMAN BLACK FOUNDATION", "designationCode": "B", "categoryCode": "53", "address": "306 - 45 VOGELL RD", "city": "RICHMOND HILL", "province": "ON", "country": "CA", "postalCode": "L4B3P6", "twitter": "None", "instagram": "None", "facebook": "None", "youtube": "None", "website": "None", "summary": "None", "logo": "None", "latitude": 43.86629090833337, "longitude": -79.3795718406145}, "861671857RR0001": {"name": "THE NORMAN ZAVALKOFF FAMILY FOUNDATION/LA FONDATION FAMILIALE NORMAN ZAVALKOFF", "designationCode": "B", "categoryCode": "03", "address": "5500 ROYALMOUNT AVENUE        SUITE 300", "city": "TOWN OF MOUNT ROYAL", "province": "QC", "country": "CA", "postalCode": "H4P1H7", "twitter": "None", "instagram": "None", "facebook": "None", "youtube": "None", "website": "None", "summary": "None", "logo": "None", "latitude": 45.49562799053627, "longitude": -73.66465295360409}, "867920001RR0001": {"name": "THE NORMAND AND LAURA LAMARCHE FAMILY FOUNDATION", "designationCode": "B", "categoryCode": "03", "address": "33 YONGE STREET, SUITE 600", "city": "TORONTO", "province": "ON", "country": "CA", "postalCode": "M5E1G4", "twitter": "None", "instagram": "None", "facebook": "None", "youtube": "None", "website": "None", "summary": "None", "logo": "None", "latitude": 43.64742568471917, "longitude": -79.37714104296305}, "891145401RR0001": {"name": "THE NORQUEST COLLEGE FOUNDATION", "designationCode": "A", "categoryCode": "23", "address": "A801, 10215, 108 STREET NW", "city": "EDMONTON", "province": "AB", "country": "CA", "postalCode": "T5J1L6", "twitter": "None", "instagram": "None", "facebook": "None", "youtube": "None", "website": "None", "summary": "None", "logo": "None", "latitude": 53.54323344653886, "longitude": -113.50656193688994}, "892284241RR0001": {"name": "THE NORTH AMERICAN MOBEDS COUNCIL", "designationCode": "C", "categoryCode": "49", "address": "3590 BAYVIEW AVENUE", "city": "TORONTO", "province": "ON", "country": "CA", "postalCode": "M2M3S6", "twitter": "None", "instagram": "None", "facebook": "None", "youtube": "None", "website": "None", "summary": "None", "logo": "None", "latitude": 43.80214224479199, "longitude": -79.39589806789176}, "107780074RR0001": {"name": "THE NORTH BAY LITERACY COUNCIL INC.", "designationCode": "C", "categoryCode": "20", "address": "347 SHERBROOKE STREET         SUITE 301", "city": "NORTH BAY", "province": "ON", "country": "CA", "postalCode": "P1B2C1", "twitter": "None", "instagram": "None", "facebook": "None", "youtube": "None", "website": "None", "summary": "None", "logo": "None", "latitude": 46.30787155646613, "longitude": -79.46103283706515}, "107780298RR0001": {"name": "THE NORTH BAY-MATTAWA CONSERVATION AUTHORITY", "designationCode": "C", "categoryCode": "52", "address": "15 JANEY AVENUE", "city": "NORTH BAY", "province": "ON", "country": "CA", "postalCode": "P1C1N1", "twitter": "None", "instagram": "None", "facebook": "None", "youtube": "None", "website": "None", "summary": "None", "logo": "None", "latitude": 46.338098629168506, "longitude": -79.43391456217144}, "890352578RR0001": {"name": "THE NORTH CUMBERLAND HISTORICAL SOCIETY", "designationCode": "C", "categoryCode": "50", "address": "PO BOX 353", "city": "PUGWASH", "province": "NS", "country": "CA", "postalCode": "B0K1L0", "twitter": "None", "instagram": "None", "facebook": "None", "youtube": "None", "website": "None", "summary": "None", "logo": "None", "latitude": 45.80128373751312, "longitude": -63.63643739508734}}