{"130331440RR0001": {"name": "PARKDALE UNITED CHURCH,", "designationCode": "C", "categoryCode": "44", "address": "2919 8TH AVE NW", "city": "CALGARY", "province": "AB", "country": "CA", "postalCode": "T2N1C8", "twitter": "None", "instagram": "None", "facebook": "None", "youtube": "None", "website": "None", "summary": "None", "logo": "None", "latitude": 51.05958053952926, "longitude": -114.12869319317329}, "868932799RR0001": {"name": "PARKDALE VILLAGE ARTS COLLECTIVE INC.", "designationCode": "C", "categoryCode": "22", "address": "1313 QUEEN STREET WEST", "city": "TORONTO", "province": "ON", "country": "CA", "postalCode": "M6K1L8", "twitter": "None", "instagram": "None", "facebook": "None", "youtube": "None", "website": "None", "summary": "None", "logo": "None", "latitude": 43.64124580930822, "longitude": -79.43337456327546}, "119080240RR0001": {"name": "PARKDALE-MAPLEWOOD COMMUNITY MUSEUM", "designationCode": "C", "categoryCode": "50", "address": "3005 BARSS CORNER ROAD", "city": "MAPLEWOOD", "province": "NS", "country": "CA", "postalCode": "B0R1A0", "twitter": "None", "instagram": "None", "facebook": "None", "youtube": "None", "website": "None", "summary": "None", "logo": "None", "latitude": 44.640037572018045, "longitude": -64.63079438706772}, "107815177RR0001": {"name": "PARKDALE-SHERWOOD HEADSTART PROGRAM INCORPORATED", "designationCode": "C", "categoryCode": "20", "address": "11 CHRISTIE DRIVE", "city": "CHARLOTTETOWN", "province": "PE", "country": "CA", "postalCode": "C1A5W6", "twitter": "None", "instagram": "None", "facebook": "None", "youtube": "None", "website": "None", "summary": "None", "logo": "None", "latitude": 46.25548235636794, "longitude": -63.124239502798616}, "845463363RR0001": {"name": "PARKDALE/ MAPLEWOOD COMMUNITY CENTRE ASSOCIATION", "designationCode": "C", "categoryCode": "56", "address": "2531 BARSS CORNER ROAD", "city": "MAPLEWOOD", "province": "NS", "country": "CA", "postalCode": "B0R1A0", "twitter": "None", "instagram": "None", "facebook": "None", "youtube": "None", "website": "None", "summary": "None", "logo": "None", "latitude": 44.620265713024374, "longitude": -64.62609588819289}, "861623056RR0001": {"name": "PARKER MOUNTAIN CEMETERY", "designationCode": "C", "categoryCode": "59", "address": "987 PARKER MOUNTAIN ROAD      RR 3", "city": "GRANVILLE FERRY", "province": "NS", "country": "CA", "postalCode": "B0S1K0", "twitter": "None", "instagram": "None", "facebook": "None", "youtube": "None", "website": "None", "summary": "None", "logo": "None", "latitude": 44.80214400054827, "longitude": -65.52468084113316}, "887758738RR0001": {"name": "PARKER OUTREACH INTERNATIONAL", "designationCode": "C", "categoryCode": "45", "address": "103 PORTAGE ROAD, RR #6", "city": "WOODVILLE", "province": "ON", "country": "CA", "postalCode": "K0M2T0", "twitter": "None", "instagram": "None", "facebook": "None", "youtube": "None", "website": "None", "summary": "None", "logo": "None", "latitude": 44.52084556177491, "longitude": -79.07356801156985}, "107815318RR0001": {"name": "PARKER'S COVE UNITED BAPTIST CHURCH", "designationCode": "C", "categoryCode": "31", "address": "895 PARKER MOUNTAIN RD", "city": "GRANVILLE FERRY", "province": "NS", "country": "CA", "postalCode": "B0S1K0", "twitter": "None", "instagram": "None", "facebook": "None", "youtube": "None", "website": "None", "summary": "None", "logo": "None", "latitude": 44.79830085455027, "longitude": -65.52228210857486}, "860339241RR0001": {"name": "PARKER'S RIDGE COMMUNITY CHURCH GROUP INC.", "designationCode": "C", "categoryCode": "39", "address": "2791 RTE 625", "city": "PARKER RIDGE", "province": "NB", "country": "CA", "postalCode": "E6A1H2", "twitter": "None", "instagram": "None", "facebook": "None", "youtube": "None", "website": "None", "summary": "None", "logo": "None", "latitude": 46.45563803379498, "longitude": -66.51704325268906}, "107010548RR0001": {"name": "PARKGATE COMMUNITY SERVICES SOCIETY", "designationCode": "C", "categoryCode": "59", "address": "3625 BANFF COURT", "city": "NORTH VANCOUVER", "province": "BC", "country": "CA", "postalCode": "V7H2Z8", "twitter": "None", "instagram": "None", "facebook": "None", "youtube": "None", "website": "None", "summary": "None", "logo": "None", "latitude": 49.31842945706656, "longitude": -122.97143251465786}, "812905149RR0001": {"name": "PARKHILL CHRISTIAN ACADEMY", "designationCode": "C", "categoryCode": "20", "address": "4189 MOSSLEY DRIVE", "city": "MOSSLEY", "province": "ON", "country": "CA", "postalCode": "N0L1V0", "twitter": "None", "instagram": "None", "facebook": "None", "youtube": "None", "website": "None", "summary": "None", "logo": "None", "latitude": 42.955859024414394, "longitude": -80.94591830345125}, "119288918RR1226": {"name": "PARKHILL CONGREGATION OF JEHOVAH'S WITNESSES", "designationCode": "C", "categoryCode": "61", "address": "1045-93 AVENUE", "city": "DAWSON CREEK", "province": "BC", "country": "CA", "postalCode": "V1G1E3", "twitter": "None", "instagram": "None", "facebook": "None", "youtube": "None", "website": "None", "summary": "None", "logo": "None", "latitude": 55.76971052842076, "longitude": -120.233583}, "107815433RR0001": {"name": "PARKHILL LEISURE CLUB", "designationCode": "C", "categoryCode": "56", "address": "176 BROADWAY ST.", "city": "PARKHILL", "province": "ON", "country": "CA", "postalCode": "N0M2K0", "twitter": "None", "instagram": "None", "facebook": "None", "youtube": "None", "website": "None", "summary": "None", "logo": "None", "latitude": 43.16151748343142, "longitude": -81.68665532522715}, "119080448RR0001": {"name": "PARKHILL UNITED CHURCH", "designationCode": "C", "categoryCode": "44", "address": "2 LITCHFIELD CRES", "city": "HALIFAX", "province": "NS", "country": "CA", "postalCode": "B3P2P2", "twitter": "None", "instagram": "None", "facebook": "None", "youtube": "None", "website": "None", "summary": "None", "logo": "None", "latitude": 44.6228780291419, "longitude": -63.59829304382842}, "131376311RR0001": {"name": "PARKHILL UNITED CHURCH,", "designationCode": "C", "categoryCode": "44", "address": "260 UNION ST", "city": "PARKHILL", "province": "ON", "country": "CA", "postalCode": "N0M2K0", "twitter": "None", "instagram": "None", "facebook": "None", "youtube": "None", "website": "None", "summary": "None", "logo": "None", "latitude": 43.16635942080416, "longitude": -81.6880884118307}, "108091802RR0001": {"name": "PARKINSON ASSOCIATION OF ALBERTA", "designationCode": "C", "categoryCode": "11", "address": "102 5636 BURBANK CRES SE", "city": "CALGARY", "province": "AB", "country": "CA", "postalCode": "T2H1Z6", "twitter": "None", "instagram": "None", "facebook": "None", "youtube": "None", "website": "None", "summary": "None", "logo": "None", "latitude": 51.00473380515327, "longitude": -114.04763509665922}, "108091786RR0001": {"name": "PARKINSON CANADA INC.", "designationCode": "C", "categoryCode": "11", "address": "316-4211 YONGE ST", "city": "TORONTO", "province": "ON", "country": "CA", "postalCode": "M2P2A9", "twitter": "None", "instagram": "None", "facebook": "None", "youtube": "None", "website": "None", "summary": "None", "logo": "None", "latitude": 43.748057231202, "longitude": -79.40760520422447}, "877695619RR0001": {"name": "PARKINSON QU\u00c9BEC", "designationCode": "C", "categoryCode": "11", "address": "550, RUE SHERBROOKE O. BUR.471TOUR OUEST", "city": "MONTR\u00c9AL", "province": "QC", "country": "CA", "postalCode": "H3A1B9", "twitter": "None", "instagram": "None", "facebook": "None", "youtube": "None", "website": "None", "summary": "None", "logo": "None", "latitude": 45.505940940879476, "longitude": -73.57271328890887}, "118801240RR0001": {"name": "PARKINSON SOCIETY BRITISH COLUMBIA", "designationCode": "C", "categoryCode": "11", "address": "600-890 PENDER ST W", "city": "VANCOUVER", "province": "BC", "country": "CA", "postalCode": "V6C1J9", "twitter": "None", "instagram": "None", "facebook": "None", "youtube": "None", "website": "None", "summary": "None", "logo": "None", "latitude": 49.28581170439737, "longitude": -123.11667902403467}, "833539273RR0001": {"name": "PARKINSON SOCIETY MARITIME REGION", "designationCode": "C", "categoryCode": "11", "address": "150-7071 BAYERS ROAD", "city": "HALIFAX", "province": "NS", "country": "CA", "postalCode": "B3L2C2", "twitter": "None", "instagram": "None", "facebook": "None", "youtube": "None", "website": "None", "summary": "None", "logo": "None", "latitude": 44.65370574279748, "longitude": -63.627277609595474}, "107815474RR0001": {"name": "PARKISSIMO LODGE INC.", "designationCode": "C", "categoryCode": "09", "address": "BOX 57", "city": "MINIOTA", "province": "MB", "country": "CA", "postalCode": "R0M1M0", "twitter": "None", "instagram": "None", "facebook": "None", "youtube": "None", "website": "None", "summary": "None", "logo": "None", "latitude": 50.14250000000004, "longitude": -101.03465999999997}, "860994060RR0001": {"name": "PARKLAND ASSISTED LIVING INC.", "designationCode": "C", "categoryCode": "09", "address": "405 6TH AVENUE SOUTHEAST", "city": "DAUPHIN", "province": "MB", "country": "CA", "postalCode": "R7N2C9", "twitter": "None", "instagram": "None", "facebook": "None", "youtube": "None", "website": "None", "summary": "None", "logo": "None", "latitude": 51.14067169135561, "longitude": -100.04620313892885}, "107815532RR0001": {"name": "PARKLAND BAPTIST CHURCH", "designationCode": "C", "categoryCode": "31", "address": "60 MELVILLE ROAD", "city": "SAULT STE MARIE", "province": "ON", "country": "CA", "postalCode": "P6A5J3", "twitter": "None", "instagram": "None", "facebook": "None", "youtube": "None", "website": "None", "summary": "None", "logo": "None", "latitude": 46.52383457723637, "longitude": -84.25987181269866}, "119080547RR0001": {"name": "PARKLAND BAPTIST CHURCH", "designationCode": "C", "categoryCode": "31", "address": "121 BROOKWOOD DRIVE", "city": "SPRUCE GROVE", "province": "AB", "country": "CA", "postalCode": "T7X1C4", "twitter": "None", "instagram": "None", "facebook": "None", "youtube": "None", "website": "None", "summary": "None", "logo": "None", "latitude": 53.5516275004327, "longitude": -113.89179261073923}, "119080562RR0001": {"name": "PARKLAND BIBLE CHURCH", "designationCode": "C", "categoryCode": "39", "address": "BOX 635", "city": "KIPLING", "province": "SK", "country": "CA", "postalCode": "S0G2S0", "twitter": "None", "instagram": "None", "facebook": "None", "youtube": "None", "website": "None", "summary": "None", "logo": "None", "latitude": 50.94214200000001, "longitude": -104.50606274999998}, "892487406RR0001": {"name": "PARKLAND CAMPUS KIDS INC.", "designationCode": "C", "categoryCode": "20", "address": "PO BOX 4", "city": "DAUPHIN", "province": "MB", "country": "CA", "postalCode": "R7N2T9", "twitter": "None", "instagram": "None", "facebook": "None", "youtube": "None", "website": "None", "summary": "None", "logo": "None", "latitude": 51.150138000000055, "longitude": -100.04934049999993}, "870131836RR0001": {"name": "PARKLAND CHARITABLE TRUST", "designationCode": "B", "categoryCode": "39", "address": "3425-2 AVENUE SOUTH", "city": "LETHBRIDGE", "province": "AB", "country": "CA", "postalCode": "T1J4V1", "twitter": "None", "instagram": "None", "facebook": "None", "youtube": "None", "website": "None", "summary": "None", "logo": "None", "latitude": 49.696839530439966, "longitude": -112.78914308381903}, "119080570RR0001": {"name": "PARKLAND CHRISTIAN CENTRE, INC.", "designationCode": "C", "categoryCode": "39", "address": "BOX 957", "city": "CANORA", "province": "SK", "country": "CA", "postalCode": "S0A0L0", "twitter": "None", "instagram": "None", "facebook": "None", "youtube": "None", "website": "None", "summary": "None", "logo": "None", "latitude": 51.62535661313478, "longitude": -102.4443087080291}, "892643719RR0001": {"name": "PARKLAND COMMUNITY ASSOCIATION", "designationCode": "C", "categoryCode": "52", "address": "5018 BJORNSON RD.", "city": "QUESNEL", "province": "BC", "country": "CA", "postalCode": "V2J6X7", "twitter": "None", "instagram": "None", "facebook": "None", "youtube": "None", "website": "None", "summary": "None", "logo": "None", "latitude": 53.08799823877124, "longitude": -122.44060372215337}, "107815615RR0001": {"name": "PARKLAND COMMUNITY CHURCH", "designationCode": "C", "categoryCode": "34", "address": "BOX 1670", "city": "YORKTON", "province": "SK", "country": "CA", "postalCode": "S3N3L2", "twitter": "None", "instagram": "None", "facebook": "None", "youtube": "None", "website": "None", "summary": "None", "logo": "None", "latitude": 51.20403900000005, "longitude": -102.44985199999994}, "107878639RR0001": {"name": "PARKLAND COMMUNITY LIVING AND SUPPORTS SOCIETY", "designationCode": "C", "categoryCode": "11", "address": "6010 45 AVE", "city": "RED DEER", "province": "AB", "country": "CA", "postalCode": "T4N3M4", "twitter": "None", "instagram": "None", "facebook": "None", "youtube": "None", "website": "None", "summary": "None", "logo": "None"}, "119080604RR0001": {"name": "PARKLAND CONGREGATION OF JEHOVAH'S WITNESSES", "designationCode": "C", "categoryCode": "61", "address": "PO BOX 720", "city": "ONOWAY", "province": "AB", "country": "CA", "postalCode": "T0E1V0", "twitter": "None", "instagram": "None", "facebook": "None", "youtube": "None", "website": "None", "summary": "None", "logo": "None", "latitude": 53.70302000000004, "longitude": -114.19152999999994}, "107815649RR0001": {"name": "PARKLAND CRISIS CENTRE INCORPORATED", "designationCode": "C", "categoryCode": "09", "address": "15-1 AVE SW", "city": "DAUPHIN", "province": "MB", "country": "CA", "postalCode": "R7N1R9", "twitter": "None", "instagram": "None", "facebook": "None", "youtube": "None", "website": "None", "summary": "None", "logo": "None", "latitude": 51.14893765139367, "longitude": -100.0511041788908}, "836052969RR0001": {"name": "PARKLAND EVANGELICAL FREE CHURCH INC.", "designationCode": "C", "categoryCode": "39", "address": "BOX 999", "city": "KAMSACK", "province": "SK", "country": "CA", "postalCode": "S0A1S0", "twitter": "None", "instagram": "None", "facebook": "None", "youtube": "None", "website": "None", "summary": "None", "logo": "None", "latitude": 51.63817289172365, "longitude": -101.65758543154911}, "119080638RR0001": {"name": "PARKLAND EVANGELICAL LUTHERAN CONGREGATION OF OHATON", "designationCode": "C", "categoryCode": "32", "address": "RR#1", "city": "OHATON", "province": "AB", "country": "CA", "postalCode": "T0B3P0", "twitter": "None", "instagram": "None", "facebook": "None", "youtube": "None", "website": "None", "summary": "None", "logo": "None", "latitude": 52.968900000000076, "longitude": -112.65945999999997}, "130514490RR0001": {"name": "PARKLAND FELLOWSHIP BAPTIST CHURCH", "designationCode": "C", "categoryCode": "39", "address": "9574 160 ST", "city": "SURREY", "province": "BC", "country": "CA", "postalCode": "V4N2R6", "twitter": "None", "instagram": "None", "facebook": "None", "youtube": "None", "website": "None", "summary": "None", "logo": "None", "latitude": 49.176368999999994, "longitude": -122.77882049497967}, "128510484RR0001": {"name": "PARKLAND FOOD BANK SOCIETY", "designationCode": "C", "categoryCode": "09", "address": "P.O.BOX 5213                  5B ALBERTA AVENUE", "city": "SPRUCE GROVE", "province": "AB", "country": "CA", "postalCode": "T7X3A3", "twitter": "None", "instagram": "None", "facebook": "None", "youtube": "None", "website": "None", "summary": "None", "logo": "None", "latitude": 53.53777666622602, "longitude": -113.91099243741216}, "893536375RR0001": {"name": "PARKLAND GOSPEL LIGHTHOUSE INC.", "designationCode": "C", "categoryCode": "39", "address": "PO BOX 342", "city": "LUNDAR", "province": "MB", "country": "CA", "postalCode": "R0C1Y0", "twitter": "None", "instagram": "None", "facebook": "None", "youtube": "None", "website": "None", "summary": "None", "logo": "None", "latitude": 50.697610000000054, "longitude": -98.03051999999997}, "884687351RR0001": {"name": "PARKLAND HEAD INJURY ASSOCIATION", "designationCode": "C", "categoryCode": "09", "address": "BOX 2935", "city": "STONY PLAIN", "province": "AB", "country": "CA", "postalCode": "T7Z1Y4", "twitter": "None", "instagram": "None", "facebook": "None", "youtube": "None", "website": "None", "summary": "None", "logo": "None", "latitude": 53.52878400000006, "longitude": -114.00552349999992}, "887702611RR0001": {"name": "PARKLAND HUMANE SOCIETY INC.", "designationCode": "C", "categoryCode": "54", "address": "BOX 805", "city": "DAUPHIN", "province": "MB", "country": "CA", "postalCode": "R7N3B3", "twitter": "None", "instagram": "None", "facebook": "None", "youtube": "None", "website": "None", "summary": "None", "logo": "None", "latitude": 51.150138000000055, "longitude": -100.04934049999993}, "898049762RR0001": {"name": "PARKLAND MEWS FALCONRY & BIRD OF PREY EDUCATION CENTRE INC.", "designationCode": "C", "categoryCode": "54", "address": "PO BOX 321 STATION ST NORBERT", "city": "WINNIPEG", "province": "MB", "country": "CA", "postalCode": "R3V1L7", "twitter": "None", "instagram": "None", "facebook": "None", "youtube": "None", "website": "None", "summary": "None", "logo": "None", "latitude": 49.76581500000002, "longitude": -97.15498424999998}, "866628332RR0001": {"name": "PARKLAND PENTECOSTAL CHURCH", "designationCode": "C", "categoryCode": "36", "address": "PO BOX 788", "city": "MARATHON", "province": "ON", "country": "CA", "postalCode": "P0T2E0", "twitter": "None", "instagram": "None", "facebook": "None", "youtube": "None", "website": "None", "summary": "None", "logo": "None", "latitude": 48.721610000000055, "longitude": -86.37360999999999}, "891515462RR0001": {"name": "PARKLAND REFORMED CHURCH OF PONOKA", "designationCode": "C", "categoryCode": "39", "address": "BOX 4066", "city": "PONOKA", "province": "AB", "country": "CA", "postalCode": "T4J1R6", "twitter": "None", "instagram": "None", "facebook": "None", "youtube": "None", "website": "None", "summary": "None", "logo": "None", "latitude": 52.67526900000006, "longitude": -113.58076399999993}, "132615428RR0001": {"name": "PARKLAND REGIONAL COLLEGE", "designationCode": "C", "categoryCode": "20", "address": "BOX 790                       200 9TH AVENUE EAST", "city": "MELVILLE", "province": "SK", "country": "CA", "postalCode": "S0A2P0", "twitter": "None", "instagram": "None", "facebook": "None", "youtube": "None", "website": "None", "summary": "None", "logo": "None", "latitude": 50.933726898350834, "longitude": -102.8010715496392}, "888532835RR0001": {"name": "PARKLAND REGIONAL COMMUNITY LINC, INC", "designationCode": "C", "categoryCode": "09", "address": "20 WILLIAM PLACE              BOX 1142", "city": "RUSSELL", "province": "MB", "country": "CA", "postalCode": "R0J1W0", "twitter": "None", "instagram": "None", "facebook": "None", "youtube": "None", "website": "None", "summary": "None", "logo": "None", "latitude": 50.69676379161792, "longitude": -101.40612232134879}, "119080737RR0001": {"name": "PARKLAND REGIONAL LIBRARY", "designationCode": "C", "categoryCode": "50", "address": "PO BOX 5049", "city": "YORKTON", "province": "SK", "country": "CA", "postalCode": "S3N0L9", "twitter": "None", "instagram": "None", "facebook": "None", "youtube": "None", "website": "None", "summary": "None", "logo": "None", "latitude": 51.21021300000005, "longitude": -102.46896799999993}, "891240590RR0001": {"name": "PARKLAND REGIONAL LIBRARY", "designationCode": "C", "categoryCode": "50", "address": "BOX 1870", "city": "KAMSACK", "province": "SK", "country": "CA", "postalCode": "S0A1S0", "twitter": "None", "instagram": "None", "facebook": "None", "youtube": "None", "website": "None", "summary": "None", "logo": "None", "latitude": 51.63817289172365, "longitude": -101.65758543154911}, "135528321RR0001": {"name": "PARKLAND RESIDENTIAL & VOCATIONAL SERVICES INC", "designationCode": "C", "categoryCode": "09", "address": "424 1ST AVE NE", "city": "DAUPHIN", "province": "MB", "country": "CA", "postalCode": "R7N1A9", "twitter": "None", "instagram": "None", "facebook": "None", "youtube": "None", "website": "None", "summary": "None", "logo": "None", "latitude": 51.14521300222171, "longitude": -100.04051890729417}, "140396748RR0001": {"name": "PARKLAND SCHOOL DIVISION NO 70", "designationCode": "C", "categoryCode": "20", "address": "4603 48 ST", "city": "STONY PLAIN", "province": "AB", "country": "CA", "postalCode": "T7Z2A8", "twitter": "None", "instagram": "None", "facebook": "None", "youtube": "None", "website": "None", "summary": "None", "logo": "None", "latitude": 53.533522429775175, "longitude": -114.0018083580953}, "879425023RR0001": {"name": "PARKLAND SEARCH AND RESCUE SOCIETY", "designationCode": "C", "categoryCode": "59", "address": "PO BOX 2062", "city": "STONY PLAIN", "province": "AB", "country": "CA", "postalCode": "T7Z1X6", "twitter": "None", "instagram": "None", "facebook": "None", "youtube": "None", "website": "None", "summary": "None", "logo": "None", "latitude": 53.52878400000006, "longitude": -114.00552349999992}, "853062875RR0001": {"name": "PARKLAND TURNING POINTS SOCIETY", "designationCode": "C", "categoryCode": "09", "address": "BOX 2795                      4912-51 AVENUE", "city": "STONY PLAIN", "province": "AB", "country": "CA", "postalCode": "T7Z1Y3", "twitter": "None", "instagram": "None", "facebook": "None", "youtube": "None", "website": "None", "summary": "None", "logo": "None", "latitude": 53.528762495672176, "longitude": -114.00551886358132}, "135335917RR0001": {"name": "PARKLAND UKRAINIAN PIONEER ASSOCIATION", "designationCode": "C", "categoryCode": "52", "address": "BOX 23", "city": "VISTA", "province": "MB", "country": "CA", "postalCode": "R0J2E0", "twitter": "None", "instagram": "None", "facebook": "None", "youtube": "None", "website": "None", "summary": "None", "logo": "None", "latitude": 50.62280000000004, "longitude": -100.71764999999999}, "119080802RR0001": {"name": "PARKMINSTER UNITED CHURCH", "designationCode": "C", "categoryCode": "44", "address": "275 ERB ST E", "city": "WATERLOO", "province": "ON", "country": "CA", "postalCode": "N2J1N6", "twitter": "None", "instagram": "None", "facebook": "None", "youtube": "None", "website": "None", "summary": "None", "logo": "None", "latitude": 43.471710654943045, "longitude": -80.49914724588851}, "119080851RR0001": {"name": "PARKS AND PEOPLE ASSOCIATION INC.", "designationCode": "C", "categoryCode": "52", "address": "PO BOX 2679 STN CENTRAL", "city": "CHARLOTTETOWN", "province": "PE", "country": "CA", "postalCode": "C1A8C3", "twitter": "None", "instagram": "None", "facebook": "None", "youtube": "None", "website": "None", "summary": "None", "logo": "None", "latitude": 46.23659700000006, "longitude": -63.12815449999994}, "891274144RR0001": {"name": "PARKS AND RECREATION FOUNDATION OF VICTORIA", "designationCode": "C", "categoryCode": "56", "address": "1 CENTENNIAL SQ", "city": "VICTORIA", "province": "BC", "country": "CA", "postalCode": "V8W1P6", "twitter": "None", "instagram": "None", "facebook": "None", "youtube": "None", "website": "None", "summary": "None", "logo": "None", "latitude": 48.428248899849656, "longitude": -123.36609467190857}, "119068112RR0001": {"name": "PARKS AND RECREATION PROSEEDS ONTARIO", "designationCode": "C", "categoryCode": "56", "address": "302-1 CONCORDE GATE", "city": "TORONTO", "province": "ON", "country": "CA", "postalCode": "M3C3N6", "twitter": "None", "instagram": "None", "facebook": "None", "youtube": "None", "website": "None", "summary": "None", "logo": "None", "latitude": 43.72932254616569, "longitude": -79.32924960782503}, "118988518RR0001": {"name": "PARKSIDE ALLIANCE CHURCH", "designationCode": "C", "categoryCode": "39", "address": "5846 - 50 AVE", "city": "LACOMBE", "province": "AB", "country": "CA", "postalCode": "T4L1K7", "twitter": "None", "instagram": "None", "facebook": "None", "youtube": "None", "website": "None", "summary": "None", "logo": "None", "latitude": 52.46317449048893, "longitude": -113.75050346214068}, "119080877RR0001": {"name": "PARKSIDE BAPTIST CHURCH INC.", "designationCode": "C", "categoryCode": "31", "address": "871 MOUNTAIN ROAD", "city": "MONCTON", "province": "NB", "country": "CA", "postalCode": "E1C2S1", "twitter": "None", "instagram": "None", "facebook": "None", "youtube": "None", "website": "None", "summary": "None", "logo": "None", "latitude": 46.1010389392347, "longitude": -64.81134593115594}, "130337884RR0001": {"name": "PARKSIDE CHRISTIAN SENIORS RESIDENCES", "designationCode": "C", "categoryCode": "10", "address": "72 WOODLAWN ROAD E", "city": "GUELPH", "province": "ON", "country": "CA", "postalCode": "N1H1G7", "twitter": "None", "instagram": "None", "facebook": "None", "youtube": "None", "website": "None", "summary": "None", "logo": "None", "latitude": 43.56901312898747, "longitude": -80.27210525265832}, "119288918RR1217": {"name": "PARKSIDE CONGREGATION OF JEHOVAH'S WITNESSES, CHATHAM, ONTARIO", "designationCode": "C", "categoryCode": "61", "address": "R.R. 4                        9375 RIVERLINE", "city": "CHATHAM", "province": "ON", "country": "CA", "postalCode": "N7M5J4", "twitter": "None", "instagram": "None", "facebook": "None", "youtube": "None", "website": "None", "summary": "None", "logo": "None", "latitude": 42.41102100000006, "longitude": -82.16404999999993}, "119080885RR0001": {"name": "PARKSIDE GOSPEL CHURCH", "designationCode": "C", "categoryCode": "39", "address": "PO BOX 196 STN MAIN", "city": "DAUPHIN", "province": "MB", "country": "CA", "postalCode": "R7N2V1", "twitter": "None", "instagram": "None", "facebook": "None", "youtube": "None", "website": "None", "summary": "None", "logo": "None", "latitude": 51.15237227291329, "longitude": -100.04667768863382}, "135866424RR0001": {"name": "PARKSIDE MANOR OF TABER (SENIORS)", "designationCode": "C", "categoryCode": "56", "address": "4830 50 AVE", "city": "TABER", "province": "AB", "country": "CA", "postalCode": "T1G1H1", "twitter": "None", "instagram": "None", "facebook": "None", "youtube": "None", "website": "None", "summary": "None", "logo": "None", "latitude": 49.78596747792724, "longitude": -112.15300041618097}, "866908221RR0001": {"name": "PARKSIDE PENTECOSTAL CHURCH", "designationCode": "C", "categoryCode": "36", "address": "PO BOX 114", "city": "SHELLBROOK", "province": "SK", "country": "CA", "postalCode": "S0J2E0", "twitter": "None", "instagram": "None", "facebook": "None", "youtube": "None", "website": "None", "summary": "None", "logo": "None", "latitude": 53.22621000000004, "longitude": -106.39020999999997}, "119080901RR0001": {"name": "PARKSIDE RANCH INC.", "designationCode": "C", "categoryCode": "56", "address": "1505 ALFRED DESROCHERS", "city": "ORFORD", "province": "QC", "country": "CA", "postalCode": "J1X1J4", "twitter": "None", "instagram": "None", "facebook": "None", "youtube": "None", "website": "None", "summary": "None", "logo": "None", "latitude": 45.3312513388828, "longitude": -72.16185298984378}, "118886191RR0001": {"name": "PARKSVILLE & DISTRICT HISTORICAL SOCIETY", "designationCode": "C", "categoryCode": "52", "address": "1245 ISLAND HWY E", "city": "PARKSVILLE", "province": "BC", "country": "CA", "postalCode": "V9P2E5", "twitter": "None", "instagram": "None", "facebook": "None", "youtube": "None", "website": "None", "summary": "None", "logo": "None", "latitude": 49.302318238270196, "longitude": -124.25640094765404}, "119080976RR0001": {"name": "PARKSVILLE & DISTRICT MUSICAL ASSOCIATION", "designationCode": "C", "categoryCode": "22", "address": "204 KINKADE RD", "city": "QUALICUM BEACH", "province": "BC", "country": "CA", "postalCode": "V9K2B7", "twitter": "None", "instagram": "None", "facebook": "None", "youtube": "None", "website": "None", "summary": "None", "logo": "None", "latitude": 49.36277161930542, "longitude": -124.48164928452503}, "870059334RR0001": {"name": "PARKSVILLE - QUALICUM COMMUNITY FOUNDATION", "designationCode": "A", "categoryCode": "03", "address": "101 691 BEACH RD", "city": "QUALICUM BEACH", "province": "BC", "country": "CA", "postalCode": "V9K0A7", "twitter": "None", "instagram": "None", "facebook": "None", "youtube": "None", "website": "None", "summary": "None", "logo": "None", "latitude": 49.346892, "longitude": -124.44713363269643}, "892537168RR0001": {"name": "PARKSVILLE COMMUNITY CENTRE SOCIETY", "designationCode": "C", "categoryCode": "56", "address": "132 EAST JENSEN AVE           PO BOX 1125", "city": "PARKSVILLE", "province": "BC", "country": "CA", "postalCode": "V9P2H2", "twitter": "None", "instagram": "None", "facebook": "None", "youtube": "None", "website": "None", "summary": "None", "logo": "None", "latitude": 49.31819596730806, "longitude": -124.31132807006159}, "129795340RR0001": {"name": "PARKSVILLE FELLOWSHIP BAPTIST CHURCH", "designationCode": "C", "categoryCode": "31", "address": "550 PYM ST", "city": "PARKSVILLE", "province": "BC", "country": "CA", "postalCode": "V9P1B6", "twitter": "None", "instagram": "None", "facebook": "None", "youtube": "None", "website": "None", "summary": "None", "logo": "None", "latitude": 49.33243409132084, "longitude": -124.33789477653097}, "119080984RR0001": {"name": "PARKSVILLE PASTORAL CHARGE", "designationCode": "C", "categoryCode": "44", "address": "345 PYM STREET", "city": "PARKSVILLE", "province": "BC", "country": "CA", "postalCode": "V9P1C8", "twitter": "None", "instagram": "None", "facebook": "None", "youtube": "None", "website": "None", "summary": "None", "logo": "None", "latitude": 49.32620446794391, "longitude": -124.33783179508303}, "119081016RR0001": {"name": "PARKSVILLE SENIOR'S ACTIVITY AND DROP-IN CENTRE SOCIETY", "designationCode": "C", "categoryCode": "56", "address": "144 MIDDLETON                 PO BOX 1266", "city": "PARKSVILLE", "province": "BC", "country": "CA", "postalCode": "V9P2H3", "twitter": "None", "instagram": "None", "facebook": "None", "youtube": "None", "website": "None", "summary": "None", "logo": "None", "latitude": 49.31996655785112, "longitude": -124.31067467069649}, "118818491RR0102": {"name": "PARKSVILLE SEVENTH-DAY ADVENTIST CHURCH", "designationCode": "C", "categoryCode": "41", "address": "PO 1000", "city": "ABBOTSFORD", "province": "BC", "country": "CA", "postalCode": "V2S4P5", "twitter": "None", "instagram": "None", "facebook": "None", "youtube": "None", "website": "None", "summary": "None", "logo": "None", "latitude": 49.03851300000005, "longitude": -122.29441549999993}, "119288918RR0112": {"name": "PARKTON CONGREGATION OF JEHOVAH'S WITNESSES", "designationCode": "C", "categoryCode": "61", "address": "159 HEDGEWOOD DR", "city": "MONCTON", "province": "NB", "country": "CA", "postalCode": "E1E2W8", "twitter": "None", "instagram": "None", "facebook": "None", "youtube": "None", "website": "None", "summary": "None", "logo": "None", "latitude": 46.082024695539225, "longitude": -64.80559096139437}, "119081032RR0001": {"name": "PARKVIEW ALLIANCE CHURCH", "designationCode": "C", "categoryCode": "39", "address": "4906-49 AVENUE", "city": "VERMILLION", "province": "AB", "country": "CA", "postalCode": "T9X1C6", "twitter": "None", "instagram": "None", "facebook": "None", "youtube": "None", "website": "None", "summary": "None", "logo": "None", "latitude": 53.353073460470746, "longitude": -110.84997166763806}, "825310899RR0001": {"name": "PARKVIEW CHURCH", "designationCode": "C", "categoryCode": "36", "address": "89 SPEEDVALE AVENUE EAST,", "city": "GUELPH", "province": "ON", "country": "CA", "postalCode": "N1E1M3", "twitter": "None", "instagram": "None", "facebook": "None", "youtube": "None", "website": "None", "summary": "None", "logo": "None", "latitude": 43.560469381576134, "longitude": -80.2652827448062}, "130228828RR0001": {"name": "PARKVIEW CHURCH OF THE CHRISTIAN AND MISSIONARY ALLIANCE", "designationCode": "C", "categoryCode": "39", "address": "1136 WEST 5TH ST", "city": "HAMILTON", "province": "ON", "country": "CA", "postalCode": "L9B1J6", "twitter": "None", "instagram": "None", "facebook": "None", "youtube": "None", "website": "None", "summary": "None", "logo": "None", "latitude": 43.20857340926363, "longitude": -79.8954005946611}, "119081107RR0001": {"name": "PARKVIEW UNITED CHURCH", "designationCode": "C", "categoryCode": "44", "address": "470 ONTARIO STREET", "city": "STRATFORD", "province": "ON", "country": "CA", "postalCode": "N5A3J1", "twitter": "None", "instagram": "None", "facebook": "None", "youtube": "None", "website": "None", "summary": "None", "logo": "None", "latitude": 43.371231607296004, "longitude": -80.96683060702799}, "119081115RR0001": {"name": "PARKVIEW UNITED CHURCH, VAUXHALL", "designationCode": "C", "categoryCode": "44", "address": "BOX 16", "city": "VAUXHALL", "province": "AB", "country": "CA", "postalCode": "T0K2K0", "twitter": "None", "instagram": "None", "facebook": "None", "youtube": "None", "website": "None", "summary": "None", "logo": "None", "latitude": 50.070880000000045, "longitude": -112.09733999999997}, "119081123RR0001": {"name": "PARKVIEW VILLAGE RETIREMENT COMMUNITY ASSOCIATION OF YORK REGION", "designationCode": "C", "categoryCode": "01", "address": "123 WELDON ROAD", "city": "STOUFFVILLE", "province": "ON", "country": "CA", "postalCode": "L4A0G8", "twitter": "None", "instagram": "None", "facebook": "None", "youtube": "None", "website": "None", "summary": "None", "logo": "None", "latitude": 43.966080832918784, "longitude": -79.25953911299796}, "107816845RR0001": {"name": "PARKWAY BIBLE CHURCH", "designationCode": "C", "categoryCode": "39", "address": "77 IVORDALE CRESCENT", "city": "SCARBOROUGH", "province": "ON", "country": "CA", "postalCode": "M1R2W7", "twitter": "None", "instagram": "None", "facebook": "None", "youtube": "None", "website": "None", "summary": "None", "logo": "None", "latitude": 43.755910218160246, "longitude": -79.31301291323811}, "119081156RR0001": {"name": "PARKWAY HOUSE, OTTAWA AND DISTRICT", "designationCode": "C", "categoryCode": "01", "address": "2475 REGINA STREET", "city": "OTTAWA", "province": "ON", "country": "CA", "postalCode": "K2B6X3", "twitter": "None", "instagram": "None", "facebook": "None", "youtube": "None", "website": "None", "summary": "None", "logo": "None", "latitude": 45.36955393340632, "longitude": -75.78496346699161}, "868285552RR0001": {"name": "PARKWAY PENTECOSTAL CHURCH", "designationCode": "C", "categoryCode": "36", "address": "551 MURRAY DRIVE", "city": "CORUNNA", "province": "ON", "country": "CA", "postalCode": "N0N1G0", "twitter": "None", "instagram": "None", "facebook": "None", "youtube": "None", "website": "None", "summary": "None", "logo": "None", "latitude": 42.88117656818023, "longitude": -82.45404069383711}, "814336004RR0001": {"name": "PARKWAY ROAD PENTECOSTAL CHURCH", "designationCode": "C", "categoryCode": "36", "address": "7275 PARKWAY ROAD BOX 250", "city": "GREELY", "province": "ON", "country": "CA", "postalCode": "K4P1N5", "twitter": "None", "instagram": "None", "facebook": "None", "youtube": "None", "website": "None", "summary": "None", "logo": "None", "latitude": 45.26625440414885, "longitude": -75.5522415286223}, "107816977RR0001": {"name": "PARKWOOD GARDENS COMMUNITY CHURCH UNITED BRETHREN IN CHRIST", "designationCode": "C", "categoryCode": "39", "address": "501 WHITELAW RD", "city": "GUELPH", "province": "ON", "country": "CA", "postalCode": "N1K1E7", "twitter": "None", "instagram": "None", "facebook": "None", "youtube": "None", "website": "None", "summary": "None", "logo": "None", "latitude": 43.51530270243546, "longitude": -80.28257919807804}, "131928715RR0001": {"name": "PARKWOOD GOSPEL TEMPLE OF WINDSOR", "designationCode": "C", "categoryCode": "36", "address": "3005 TEMPLE DRIVE", "city": "WINDSOR", "province": "ON", "country": "CA", "postalCode": "N8W5E5", "twitter": "None", "instagram": "None", "facebook": "None", "youtube": "None", "website": "None", "summary": "None", "logo": "None", "latitude": 42.28760827870711, "longitude": -82.97403722120919}, "119081198RR0001": {"name": "PARKWOOD HOSPITAL AUXILIARY", "designationCode": "C", "categoryCode": "19", "address": "550 WELLINGTON RD", "city": "LONDON", "province": "ON", "country": "CA", "postalCode": "N6C0A7", "twitter": "None", "instagram": "None", "facebook": "None", "youtube": "None", "website": "None", "summary": "None", "logo": "None", "latitude": 42.954920869948474, "longitude": -81.22936951474995}, "139881544RR0001": {"name": "PARKWOOD MENNONITE HOME INC", "designationCode": "C", "categoryCode": "01", "address": "726 NEW HAMPSHIRE ST", "city": "WATERLOO", "province": "ON", "country": "CA", "postalCode": "N2K4M1", "twitter": "None", "instagram": "None", "facebook": "None", "youtube": "None", "website": "None", "summary": "None", "logo": "None", "latitude": 43.51511562848324, "longitude": -80.50130090446595}, "119081230RR0001": {"name": "PARKWOOD PRESBYTERIAN CHURCH", "designationCode": "C", "categoryCode": "37", "address": "10 CHESTERTON DR.", "city": "OTTAWA", "province": "ON", "country": "CA", "postalCode": "K2E5S9", "twitter": "None", "instagram": "None", "facebook": "None", "youtube": "None", "website": "None", "summary": "None", "logo": "None", "latitude": 45.35309530417233, "longitude": -75.72942177855018}, "119081248RR0001": {"name": "PARKWOODS UNITED CHURCH", "designationCode": "C", "categoryCode": "44", "address": "85 PARKWOODS VILLAGE DR", "city": "DON MILLS", "province": "ON", "country": "CA", "postalCode": "M3A2X9", "twitter": "None", "instagram": "None", "facebook": "None", "youtube": "None", "website": "None", "summary": "None", "logo": "None", "latitude": 43.76112640357193, "longitude": -79.32388067955462}, "132239674RR0001": {"name": "PARLIAMENT COMMUNITY CHURCH MENNONITE BRETHREN", "designationCode": "C", "categoryCode": "34", "address": "4011 PASQUA ST", "city": "REGINA", "province": "SK", "country": "CA", "postalCode": "S4S6C8", "twitter": "None", "instagram": "None", "facebook": "None", "youtube": "None", "website": "None", "summary": "None", "logo": "None", "latitude": 50.41486076019967, "longitude": -104.64086749189259}, "107817082RR0001": {"name": "PARLIAMENTARY CENTRE / LE CENTRE PARLEMENTAIRE", "designationCode": "C", "categoryCode": "21", "address": "1000 - 66 SLATER ST", "city": "OTTAWA", "province": "ON", "country": "CA", "postalCode": "K1P5H1", "twitter": "None", "instagram": "None", "facebook": "None", "youtube": "None", "website": "None", "summary": "None", "logo": "None", "latitude": 45.42016999306272, "longitude": -75.69783615442333}, "885208777RR0001": {"name": "PARO CENTRE FOR WOMEN'S ENTERPRISE", "designationCode": "C", "categoryCode": "29", "address": "105 MAY STREET NORTH", "city": "THUNDER BAY", "province": "ON", "country": "CA", "postalCode": "P7C3N9", "twitter": "None", "instagram": "None", "facebook": "None", "youtube": "None", "website": "None", "summary": "None", "logo": "None", "latitude": 48.38439600000001, "longitude": -89.24553438885674}, "107876476RR0077": {"name": "PAROISE SAINT JUDE PARISH", "designationCode": "C", "categoryCode": "38", "address": "247 MEAD BLVD", "city": "ESPANOLA", "province": "ON", "country": "CA", "postalCode": "P5E1B3", "twitter": "None", "instagram": "None", "facebook": "None", "youtube": "None", "website": "None", "summary": "None", "logo": "None", "latitude": 46.26207123756966, "longitude": -81.77261707509963}, "130599442RR0029": {"name": "PAROISSE ASSOMPTION", "designationCode": "C", "categoryCode": "38", "address": "50 KIRKPATRICK                C.P.336", "city": "KIRKLAND LAKE", "province": "ON", "country": "CA", "postalCode": "P2N3J1", "twitter": "None", "instagram": "None", "facebook": "None", "youtube": "None", "website": "None", "summary": "None", "logo": "None", "latitude": 48.14866874912909, "longitude": -80.03576983719361}, "119081305RR0001": {"name": "PAROISSE CATHEDRALE (MARIE-REINE-DU-MONDE ET SAINT-JACQUES) ARCHIDIOCESE DE MONTREAL", "designationCode": "C", "categoryCode": "38", "address": "1085 RUE DE LA CATHEDRALE", "city": "MONTREAL", "province": "QC", "country": "CA", "postalCode": "H3B2V3", "twitter": "None", "instagram": "None", "facebook": "None", "youtube": "None", "website": "None", "summary": "None", "logo": "None", "latitude": 45.49899498115855, "longitude": -73.56889778778371}, "119081321RR0001": {"name": "PAROISSE CATHEDRALE ST. PAUL", "designationCode": "C", "categoryCode": "38", "address": "4609 50 AVE", "city": "ST PAUL", "province": "AB", "country": "CA", "postalCode": "T0A3A3", "twitter": "None", "instagram": "None", "facebook": "None", "youtube": "None", "website": "None", "summary": "None", "logo": "None", "latitude": 53.99135148730496, "longitude": -111.28695202553523}, "107585085RR0005": {"name": "PAROISSE CATHOLIQUE ROMAINE DE SAINT BRIEUX", "designationCode": "C", "categoryCode": "38", "address": "C.P. 370", "city": "ST. BRIEUX", "province": "SK", "country": "CA", "postalCode": "S0K3V0", "twitter": "None", "instagram": "None", "facebook": "None", "youtube": "None", "website": "None", "summary": "None", "logo": "None", "latitude": 52.001837479836674, "longitude": -104.73884246816408}, "107585085RR0012": {"name": "PAROISSE CATHOLIQUE ROMAINE DE ST-ANDRE", "designationCode": "C", "categoryCode": "38", "address": "1301-112 ST.", "city": "NORTH BATTLEFORD", "province": "SK", "country": "CA", "postalCode": "S9A2L6", "twitter": "None", "instagram": "None", "facebook": "None", "youtube": "None", "website": "None", "summary": "None", "logo": "None", "latitude": 52.77710758673322, "longitude": -108.2814169055338}, "107585085RR0008": {"name": "PAROISSE CATHOLIQUE ROMAINE DE ZENON PARK", "designationCode": "C", "categoryCode": "38", "address": "CP 70", "city": "ZENON PARK", "province": "SK", "country": "CA", "postalCode": "S0E1W0", "twitter": "None", "instagram": "None", "facebook": "None", "youtube": "None", "website": "None", "summary": "None", "logo": "None", "latitude": 53.06528000000003, "longitude": -103.75827999999996}, "119110450RR0073": {"name": "PAROISSE CATHOLIQUE ROMAINE STS-MARTYRS CANADIENS", "designationCode": "C", "categoryCode": "38", "address": "71 RUE AINSLIE NORD", "city": "CAMBRIDGE", "province": "ON", "country": "CA", "postalCode": "N1R3J7", "twitter": "None", "instagram": "None", "facebook": "None", "youtube": "None", "website": "None", "summary": "None", "logo": "None", "latitude": 43.36163789425243, "longitude": -80.31348432373494}}