{"102904737RR0001": {"name": "LA BOUSSOLE, REGROUPEMENT DES PARENTS ET AMIS DE LA PERSONNE ATTEINTE DE MALADIE MENTALE", "designationCode": "C", "categoryCode": "11", "address": "302 3E AVENUE", "city": "QUEBEC", "province": "QC", "country": "CA", "postalCode": "G1L2V8", "twitter": "None", "instagram": "None", "facebook": "None", "youtube": "None", "website": "None", "summary": "None", "logo": "None", "latitude": 46.822177151826374, "longitude": -71.22578639076131}, "140914953RR0001": {"name": "LA BUTINEUSE DE VANIER", "designationCode": "C", "categoryCode": "09", "address": "239 AVENUE PROULX", "city": "QU\u00c9BEC", "province": "QC", "country": "CA", "postalCode": "G1M1W9", "twitter": "None", "instagram": "None", "facebook": "None", "youtube": "None", "website": "None", "summary": "None", "logo": "None", "latitude": 46.81522706826714, "longitude": -71.25865824259895}, "863402194RR0001": {"name": "LA BUTTE", "designationCode": "C", "categoryCode": "09", "address": "132 BOUL. DES TRINITAIRES", "city": "ST-BASILE-LE-GRAND", "province": "QC", "country": "CA", "postalCode": "J3N1C3", "twitter": "None", "instagram": "None", "facebook": "None", "youtube": "None", "website": "None", "summary": "None", "logo": "None", "latitude": 45.53253975975468, "longitude": -73.29559566348613}, "133112821RR0001": {"name": "LA CAFETERIA COMMUNAUTAIRE MULTI CAF", "designationCode": "C", "categoryCode": "01", "address": "3600 RUE BARCLAY              BUREAU 320", "city": "MONTREAL", "province": "QC", "country": "CA", "postalCode": "H3S1K5", "twitter": "None", "instagram": "None", "facebook": "None", "youtube": "None", "website": "None", "summary": "None", "logo": "None", "latitude": 45.50239007937564, "longitude": -73.6356888918865}, "118987981RR0001": {"name": "LA CAISSE ECCLESIASTIQUE DE JOLIETTE", "designationCode": "C", "categoryCode": "09", "address": "2 RUE SAINT-CHARLES-BORROMEE N", "city": "JOLIETTE", "province": "QC", "country": "CA", "postalCode": "J6E4R2", "twitter": "None", "instagram": "None", "facebook": "None", "youtube": "None", "website": "None", "summary": "None", "logo": "None", "latitude": 46.02706174689812, "longitude": -73.43820616406099}, "118987999RR0001": {"name": "LA CAISSE ECCLESIASTIQUE DU DIOCESE D'EDMUNDSTON INC.", "designationCode": "C", "categoryCode": "49", "address": "60 RUE BOUCHARD", "city": "EDMUNSTON", "province": "NB", "country": "CA", "postalCode": "E3V3K1", "twitter": "None", "instagram": "None", "facebook": "None", "youtube": "None", "website": "None", "summary": "None", "logo": "None", "latitude": 47.37978811884661, "longitude": -68.32252017947216}, "847492386RR0001": {"name": "LA CHACUNI\u00c8RE", "designationCode": "C", "categoryCode": "09", "address": "173 36E AV", "city": "POINTE-CALUMET", "province": "QC", "country": "CA", "postalCode": "J0N1G1", "twitter": "None", "instagram": "None", "facebook": "None", "youtube": "None", "website": "None", "summary": "None", "logo": "None", "latitude": 45.498492346096164, "longitude": -73.96467946378895}, "893431874RR0001": {"name": "LA CHAINE DE SOLIDARITE HUMANITAIRE", "designationCode": "C", "categoryCode": "09", "address": "CP 112", "city": "EASTMAN", "province": "QC", "country": "CA", "postalCode": "J0E1P0", "twitter": "None", "instagram": "None", "facebook": "None", "youtube": "None", "website": "None", "summary": "None", "logo": "None", "latitude": 45.04640059683035, "longitude": -72.50107510811608}, "102918729RR0001": {"name": "LA CHAUDRONNEE DE L'ESTRIE INC.", "designationCode": "C", "categoryCode": "09", "address": "470, RUE BOWEN SUD", "city": "SHERBROOKE", "province": "QC", "country": "CA", "postalCode": "J1G2C7", "twitter": "None", "instagram": "None", "facebook": "None", "youtube": "None", "website": "None", "summary": "None", "logo": "None", "latitude": 45.40057037443001, "longitude": -71.88188542876135}, "878047307RR0001": {"name": "LA CHAUDRONNEE DES CUISINES COLLECTIVES", "designationCode": "C", "categoryCode": "09", "address": "1201 RUE CHARLES-RODRIGUE     BUREAU 101", "city": "LEVIS", "province": "QC", "country": "CA", "postalCode": "G6W0N1", "twitter": "None", "instagram": "None", "facebook": "None", "youtube": "None", "website": "None", "summary": "None", "logo": "None", "latitude": 46.786376193296796, "longitude": -71.18221569743656}, "132943143RR0001": {"name": "LA CHAUDRONNEE DU BEL AGE", "designationCode": "C", "categoryCode": "09", "address": "318 RUE VERREAULT", "city": "SAINT-JEAN-PORT-JOLI", "province": "QC", "country": "CA", "postalCode": "G0R3G0", "twitter": "None", "instagram": "None", "facebook": "None", "youtube": "None", "website": "None", "summary": "None", "logo": "None", "latitude": 47.21368916287755, "longitude": -70.26482837780556}, "120512736RR0001": {"name": "LA CHAUMIERE JEUNESSE DE RAWDON", "designationCode": "C", "categoryCode": "01", "address": "3299 14E AVENUE", "city": "RAWDON", "province": "QC", "country": "CA", "postalCode": "J0K1S0", "twitter": "None", "instagram": "None", "facebook": "None", "youtube": "None", "website": "None", "summary": "None", "logo": "None", "latitude": 46.052558359166575, "longitude": -73.71698151405135}, "890778947RR0001": {"name": "LA CHORALE DES INTREPIDES INC", "designationCode": "C", "categoryCode": "22", "address": "340 BOUL PROVENCHER", "city": "WINNIPEG", "province": "MB", "country": "CA", "postalCode": "R2H0G7", "twitter": "None", "instagram": "None", "facebook": "None", "youtube": "None", "website": "None", "summary": "None", "logo": "None", "latitude": 49.89396984869324, "longitude": -97.11442403133495}, "889905972RR0001": {"name": "LA CHORALE MADRIGAL", "designationCode": "C", "categoryCode": "22", "address": "140 RANG DU MOULIN", "city": "ST-CHRYSOSTOME", "province": "QC", "country": "CA", "postalCode": "J0S1R0", "twitter": "None", "instagram": "None", "facebook": "None", "youtube": "None", "website": "None", "summary": "None", "logo": "None", "latitude": 45.14105984984707, "longitude": -73.79024229335228}, "885012112RR0001": {"name": "LA CHRYSALIDE MAISON D'HEBERGEMENT COMMUNAUTAIRE EN SANTE MENTALE", "designationCode": "C", "categoryCode": "01", "address": "2150 NICOLAS-PERROT", "city": "BECANCOUR", "province": "QC", "country": "CA", "postalCode": "G9H3B9", "twitter": "None", "instagram": "None", "facebook": "None", "youtube": "None", "website": "None", "summary": "None", "logo": "None", "latitude": 46.34304913988115, "longitude": -72.43681892593314}, "118988385RR0001": {"name": "LA CINEMATHEQUE QUEBECOISE", "designationCode": "C", "categoryCode": "22", "address": "335 BOUL DE MAISONNEUVE EST", "city": "MONTREAL", "province": "QC", "country": "CA", "postalCode": "H2X1K1", "twitter": "None", "instagram": "None", "facebook": "None", "youtube": "None", "website": "None", "summary": "None", "logo": "None", "latitude": 45.514021494315855, "longitude": -73.56230849016092}, "107583411RR0001": {"name": "LA CITAD'ELLE DE LACHUTE", "designationCode": "C", "categoryCode": "01", "address": "CP 602", "city": "LACHUTE", "province": "QC", "country": "CA", "postalCode": "J8H4G4", "twitter": "None", "instagram": "None", "facebook": "None", "youtube": "None", "website": "None", "summary": "None", "logo": "None", "latitude": 45.65588100000005, "longitude": -74.34017449999993}, "138159983RR0002": {"name": "LA CITE DE L'ENERGIE INC", "designationCode": "C", "categoryCode": "50", "address": "1000 AVE MELVILLE             C.P. 156", "city": "SHAWINIGAN", "province": "QC", "country": "CA", "postalCode": "G9N6T9", "twitter": "None", "instagram": "None", "facebook": "None", "youtube": "None", "website": "None", "summary": "None", "logo": "None", "latitude": 46.53539389042666, "longitude": -72.75544289761073}, "888635257RR0001": {"name": "LA CITE DES MOTS", "designationCode": "C", "categoryCode": "09", "address": "204 - 465 5E RUE DE LA POINTE", "city": "SHAWINIGAN", "province": "QC", "country": "CA", "postalCode": "G9N1E5", "twitter": "None", "instagram": "None", "facebook": "None", "youtube": "None", "website": "None", "summary": "None", "logo": "None", "latitude": 46.54050641107898, "longitude": -72.74779301921652}, "118988476RR0001": {"name": "LA CL\u00c9 SUR LA PORTE, MAISON D'H\u00c9BERGEMENT POUR FEMMES VICTIMES DE VIOLENCE CONJUGALE ET LEURS ENFANTS INC.", "designationCode": "C", "categoryCode": "01", "address": "C.P. 505", "city": "ST-HYACINTHE", "province": "QC", "country": "CA", "postalCode": "J2S7B8", "twitter": "None", "instagram": "None", "facebook": "None", "youtube": "None", "website": "None", "summary": "None", "logo": "None", "latitude": 45.62664000000005, "longitude": -72.94719049999993}, "107583684RR0001": {"name": "LA CL\u00c9, CENTRE DE LECTURE ET D'\u00c9CRITURE", "designationCode": "C", "categoryCode": "20", "address": "415 RUE COLLARD", "city": "ALMA", "province": "QC", "country": "CA", "postalCode": "G8B1N1", "twitter": "None", "instagram": "None", "facebook": "None", "youtube": "None", "website": "None", "summary": "None", "logo": "None", "latitude": 48.54795372191117, "longitude": -71.64876576559536}, "888953742RR0001": {"name": "LA CLARTE-DIEU", "designationCode": "C", "categoryCode": "38", "address": "220. GRANDE ALL\u00c9E EST BUR.120", "city": "QU\u00c9BEC", "province": "QC", "country": "CA", "postalCode": "G1R2J1", "twitter": "None", "instagram": "None", "facebook": "None", "youtube": "None", "website": "None", "summary": "None", "logo": "None", "latitude": 46.80379764198727, "longitude": -71.2209974540941}, "897693842RR0001": {"name": "LA CLE DE L'ALPHA", "designationCode": "C", "categoryCode": "21", "address": "159 RUE NOTRE-DAME E          C.P. 143", "city": "THETFORD MINES", "province": "QC", "country": "CA", "postalCode": "G6G2S1", "twitter": "None", "instagram": "None", "facebook": "None", "youtube": "None", "website": "None", "summary": "None", "logo": "None", "latitude": 46.09349810242937, "longitude": -71.29786620318527}, "890660749RR0001": {"name": "LA CLE DES CHAMPS SAINTE-JULIE INC.", "designationCode": "C", "categoryCode": "56", "address": "C.P. 23", "city": "STE-JULIE", "province": "QC", "country": "CA", "postalCode": "J3E1X5", "twitter": "None", "instagram": "None", "facebook": "None", "youtube": "None", "website": "None", "summary": "None", "logo": "None", "latitude": 45.60331200000006, "longitude": -73.32863299999994}, "892372160RR0001": {"name": "LA CLE DES CHANTS DE NICOLET", "designationCode": "C", "categoryCode": "22", "address": "141 RUE LOUIS-CARON", "city": "NICOLET", "province": "QC", "country": "CA", "postalCode": "J3T1C8", "twitter": "None", "instagram": "None", "facebook": "None", "youtube": "None", "website": "None", "summary": "None", "logo": "None", "latitude": 46.22425836969815, "longitude": -72.61322935304972}, "133005934RR0001": {"name": "LA CLE DES MOTS", "designationCode": "C", "categoryCode": "21", "address": "200 RUE ST-PIERRE BUREAU 103", "city": "ST-CONSTANT", "province": "QC", "country": "CA", "postalCode": "J5A2G9", "twitter": "None", "instagram": "None", "facebook": "None", "youtube": "None", "website": "None", "summary": "None", "logo": "None", "latitude": 45.36715133250617, "longitude": -73.57031557574028}, "136672318RR0001": {"name": "LA CLE EN EDUCATION POPULAIRE DE MASKINONGE", "designationCode": "C", "categoryCode": "21", "address": "110 2EME AVE 2EME ETAGE", "city": "LOUISEVILLE", "province": "QC", "country": "CA", "postalCode": "J5V1X1", "twitter": "None", "instagram": "None", "facebook": "None", "youtube": "None", "website": "None", "summary": "None", "logo": "None", "latitude": 46.25451714625779, "longitude": -72.9359025960527}, "887715936RR0001": {"name": "LA CLEF FAMILIALE ST-BARTHELEMY", "designationCode": "C", "categoryCode": "09", "address": "1980 RUE BONIN                SALLE #03", "city": "ST-BARTHELEMY", "province": "QC", "country": "CA", "postalCode": "J0K1X0", "twitter": "None", "instagram": "None", "facebook": "None", "youtube": "None", "website": "None", "summary": "None", "logo": "None", "latitude": 46.19120122150712, "longitude": -73.11905796944446}, "861606515RR0001": {"name": "LA COALITION POUR LA VIABILITE DU SUD DU GOLFE DU SAINT-LAURENT/SOUTHERN GULF OF ST. LAWRENCE COALITION ON SUSTAINABILITY", "designationCode": "C", "categoryCode": "52", "address": "60 CELTIC LANE", "city": "STRATFORD", "province": "PE", "country": "CA", "postalCode": "C1B1L1", "twitter": "None", "instagram": "None", "facebook": "None", "youtube": "None", "website": "None", "summary": "None", "logo": "None", "latitude": 46.202392583386356, "longitude": -63.10545885192455}, "119122778RR0024": {"name": "LA COCATHEDRALE DE LA NATIVITE DE LA BIENHEUREUSE VIERGE MARIE", "designationCode": "C", "categoryCode": "38", "address": "220 CHEMIN MONTREAL", "city": "CORNWALL", "province": "ON", "country": "CA", "postalCode": "K6H1B4", "twitter": "None", "instagram": "None", "facebook": "None", "youtube": "None", "website": "None", "summary": "None", "logo": "None", "latitude": 45.0185315115412, "longitude": -74.71241058090484}, "895146652RR0001": {"name": "LA COLLINE DE BOIS/WOODEN HILL NURSERY SCHOOL", "designationCode": "C", "categoryCode": "20", "address": "NOTRE DAME 885 25TH ST E", "city": "OWEN SOUND", "province": "ON", "country": "CA", "postalCode": "N4K6X6", "twitter": "None", "instagram": "None", "facebook": "None", "youtube": "None", "website": "None", "summary": "None", "logo": "None", "latitude": 44.58881319703264, "longitude": -80.92060360970622}, "894711357RR0001": {"name": "LA COLOMBE", "designationCode": "C", "categoryCode": "09", "address": "9 LIBOIRON", "city": "SAINTE-AGATHE-DES-MONTS", "province": "QC", "country": "CA", "postalCode": "J8C2X5", "twitter": "None", "instagram": "None", "facebook": "None", "youtube": "None", "website": "None", "summary": "None", "logo": "None", "latitude": 46.04434100499166, "longitude": -74.27680023630923}, "118868389RR0001": {"name": "LA COLONIE SAINTE-JEANNE D'ARC", "designationCode": "C", "categoryCode": "56", "address": "10020 BOUL MARIE VICTORIN", "city": "CONTRECOEUR", "province": "QC", "country": "CA", "postalCode": "J0L1C0", "twitter": "None", "instagram": "None", "facebook": "None", "youtube": "None", "website": "None", "summary": "None", "logo": "None", "latitude": 45.96939686932279, "longitude": -73.18602449232435}, "861019974RR0001": {"name": "LA COMEDIE HUMAINE", "designationCode": "C", "categoryCode": "22", "address": "2835 RUE MATHYS", "city": "SAINTE-MARTHE-SUR-LE-LAC", "province": "QC", "country": "CA", "postalCode": "J0N1P0", "twitter": "None", "instagram": "None", "facebook": "None", "youtube": "None", "website": "None", "summary": "None", "logo": "None", "latitude": 45.530904372208326, "longitude": -73.91439602250546}, "118988641RR0001": {"name": "LA COMMUNAUT\u00c9 ARM\u00c9NIENNE CATHOLIQUE DE MONTR\u00c9AL", "designationCode": "C", "categoryCode": "38", "address": "858 BOUL. COTE-VERTU", "city": "SAINT-LAURENT", "province": "QC", "country": "CA", "postalCode": "H4L1Y4", "twitter": "None", "instagram": "None", "facebook": "None", "youtube": "None", "website": "None", "summary": "None", "logo": "None", "latitude": 45.515959522621046, "longitude": -73.67336436173498}, "141052746RR0001": {"name": "LA COMMUNAUT\u00c9 CULTURELLE KIMBANGUISTE DU CANADA", "designationCode": "C", "categoryCode": "39", "address": "372 RUE SAINTE-CATHERINE O    BUREAU 519", "city": "MONTREAL", "province": "QC", "country": "CA", "postalCode": "H3B1A2", "twitter": "None", "instagram": "None", "facebook": "None", "youtube": "None", "website": "None", "summary": "None", "logo": "None", "latitude": 45.505710294189015, "longitude": -73.56737639950389}, "890456924RR0001": {"name": "LA COMMUNAUT\u00c9 DE LA DAME DE TOUS LES PEUPLES INC.", "designationCode": "C", "categoryCode": "49", "address": "626 ROUTE DU SANCTUAIRE", "city": "LAC-ETCHEMIN", "province": "QC", "country": "CA", "postalCode": "G0R1S0", "twitter": "None", "instagram": "None", "facebook": "None", "youtube": "None", "website": "None", "summary": "None", "logo": "None", "latitude": 46.38889625578277, "longitude": -70.50398658702751}, "118988666RR0001": {"name": "LA COMMUNAUT\u00c9 DES SOEURS DE CHARIT\u00c9 DE LA PROVIDENCE", "designationCode": "C", "categoryCode": "46", "address": "12055 RUE GRENET", "city": "MONTREAL", "province": "QC", "country": "CA", "postalCode": "H4J2J5", "twitter": "None", "instagram": "None", "facebook": "None", "youtube": "None", "website": "None", "summary": "None", "logo": "None", "latitude": 45.528534048617615, "longitude": -73.71426693502242}, "898023825RR0001": {"name": "LA COMMUNAUTE CHRETIENNE DES DEUX-RIVES", "designationCode": "C", "categoryCode": "39", "address": "14 RUE DE LA FALAISE          RR 791", "city": "SAINT-GABRIEL-DE-VALCARTIER", "province": "QC", "country": "CA", "postalCode": "G0A4S0", "twitter": "None", "instagram": "None", "facebook": "None", "youtube": "None", "website": "None", "summary": "None", "logo": "None", "latitude": 47.006254288649075, "longitude": -71.473913854002}, "890843378RR0001": {"name": "LA COMMUNAUTE CHRETIENNE DES SOURDS DE QUEBEC", "designationCode": "C", "categoryCode": "38", "address": "775 ST-VIATEUR", "city": "CHARLESBOURG", "province": "QC", "country": "CA", "postalCode": "G2L2S2", "twitter": "None", "instagram": "None", "facebook": "None", "youtube": "None", "website": "None", "summary": "None", "logo": "None", "latitude": 46.87864693834066, "longitude": -71.24434068896102}, "891895799RR0001": {"name": "LA COMMUNAUTE DE MEDITATION CHRETIENNE/MEDITATIO MEDITATIO CHRISTIAN MEDITATION COMMUNITY", "designationCode": "C", "categoryCode": "49", "address": "P.O. BOX 52, STATION NDG", "city": "MONTREAL", "province": "QC", "country": "CA", "postalCode": "H4A3P4", "twitter": "None", "instagram": "None", "facebook": "None", "youtube": "None", "website": "None", "summary": "None", "logo": "None", "latitude": 45.47830095808482, "longitude": -73.58390179144656}, "830730149RR0001": {"name": "LA COMMUNAUTE FRANCOPHONE CHRETIENNE DE PEEL (CFCP)", "designationCode": "C", "categoryCode": "39", "address": "26 PAULINE CRESCENT", "city": "BRAMPTON", "province": "ON", "country": "CA", "postalCode": "L7A2V4", "twitter": "None", "instagram": "None", "facebook": "None", "youtube": "None", "website": "None", "summary": "None", "logo": "None", "latitude": 43.69987678544643, "longitude": -79.82369962418501}, "107584708RR0001": {"name": "LA COMMUNAUTE GRECQUE ORTHODOXE DE STE-IRENE CRYSOVALANTOU ET STE-MARKELA CHIOPOLITIS", "designationCode": "C", "categoryCode": "39", "address": "5390 RUE SAINT-URBAIN", "city": "MONTREAL", "province": "QC", "country": "CA", "postalCode": "H2T2X1", "twitter": "None", "instagram": "None", "facebook": "None", "youtube": "None", "website": "None", "summary": "None", "logo": "None", "latitude": 45.5239568151366, "longitude": -73.59853607773086}, "141038257RR0001": {"name": "LA COMMUNAUTE GRECQUE ORTHODOXE DES ARCHANGES MICHEL ET GABRIEL/THE GREEK ORTHODOX COMMUNITY OF THE ARCHANGELS MICHAEL AND GABRIEL", "designationCode": "C", "categoryCode": "39", "address": "11801 ELIE BLANCHARD AVENUE", "city": "MONTREAL", "province": "QC", "country": "CA", "postalCode": "H4J1R7", "twitter": "None", "instagram": "None", "facebook": "None", "youtube": "None", "website": "None", "summary": "None", "logo": "None"}, "890255391RR0001": {"name": "LA COMMUNAUTE JUIVE DE LA RIVE-SUD / THE SOUTH SHORE JEWISH COMMUNITY", "designationCode": "C", "categoryCode": "49", "address": "8230 BOUL. TASCHEREAU         C.P.50547", "city": "BROSSARD", "province": "QC", "country": "CA", "postalCode": "J4X1C2", "twitter": "None", "instagram": "None", "facebook": "None", "youtube": "None", "website": "None", "summary": "None", "logo": "None", "latitude": 45.44790291540919, "longitude": -73.4697385938248}, "135106607RR0001": {"name": "LA COMMUNAUTE THERAPEUTIQUE LA CHRYSALIDE INC", "designationCode": "C", "categoryCode": "10", "address": "C.P. 60194                    SUCC. SAINT-DENIS", "city": "MONTREAL", "province": "QC", "country": "CA", "postalCode": "H2J4E1", "twitter": "None", "instagram": "None", "facebook": "None", "youtube": "None", "website": "None", "summary": "None", "logo": "None", "latitude": 45.5263118591819, "longitude": -73.58805745076155}, "862574555RR0001": {"name": "LA COMPAGNIE DE CIMETIERE BROWN-LEADVILLE / BROWN-LEADVILLE CEMETERY COMPANY", "designationCode": "B", "categoryCode": "59", "address": "5785,RTE 147", "city": "WATERVILLE", "province": "QC", "country": "CA", "postalCode": "J0B3H0", "twitter": "None", "instagram": "None", "facebook": "None", "youtube": "None", "website": "None", "summary": "None", "logo": "None", "latitude": 45.313572338681965, "longitude": -71.82427480777547}, "889702346RR0001": {"name": "LA COMPAGNIE DE CIMETIERE GLENBROOK", "designationCode": "C", "categoryCode": "59", "address": "5 QUEENSLINE DR", "city": "NEPEAN", "province": "ON", "country": "CA", "postalCode": "K2H7J1", "twitter": "None", "instagram": "None", "facebook": "None", "youtube": "None", "website": "None", "summary": "None", "logo": "None", "latitude": 45.33864012851283, "longitude": -75.79838985772427}, "888837390RR0001": {"name": "LA COMPAGNIE DE DANSE HARMONIE", "designationCode": "C", "categoryCode": "22", "address": "6843 CHARLES GOULET", "city": "ANJOU", "province": "QC", "country": "CA", "postalCode": "H1K5E6", "twitter": "None", "instagram": "None", "facebook": "None", "youtube": "None", "website": "None", "summary": "None", "logo": "None", "latitude": 45.615689443533874, "longitude": -73.54371008130887}, "118988690RR0001": {"name": "LA COMPAGNIE DE DANSE MODERNE AXILE", "designationCode": "C", "categoryCode": "22", "address": "319-250 RUE DU D\u00c9P\u00d4T", "city": "SHERBROOKE", "province": "QC", "country": "CA", "postalCode": "J1H5G1", "twitter": "None", "instagram": "None", "facebook": "None", "youtube": "None", "website": "None", "summary": "None", "logo": "None", "latitude": 45.39807494806416, "longitude": -71.88814775238072}, "107584732RR0001": {"name": "LA COMPAGNIE DE JESUS", "designationCode": "C", "categoryCode": "46", "address": "25, RUE JARRY OUEST", "city": "MONTREAL", "province": "QC", "country": "CA", "postalCode": "H2P1S6", "twitter": "None", "instagram": "None", "facebook": "None", "youtube": "None", "website": "None", "summary": "None", "logo": "None", "latitude": 45.53849931447277, "longitude": -73.63160199685467}, "118988732RR0001": {"name": "LA COMPAGNIE DE THEATRE IL VA SANS DIRE", "designationCode": "C", "categoryCode": "22", "address": "1002 - 24 AV DU MONT-ROYAL O", "city": "MONTREAL", "province": "QC", "country": "CA", "postalCode": "H2T2S2", "twitter": "None", "instagram": "None", "facebook": "None", "youtube": "None", "website": "None", "summary": "None", "logo": "None", "latitude": 45.51880900855456, "longitude": -73.58749603266486}, "118988724RR0001": {"name": "LA COMPAGNIE DES FILLES DE LA CHARITE DE SAINT VINCENT DE PAUL", "designationCode": "C", "categoryCode": "46", "address": "6390 RUE DE MARSEILLE", "city": "MONTREAL", "province": "QC", "country": "CA", "postalCode": "H1N1L4", "twitter": "None", "instagram": "None", "facebook": "None", "youtube": "None", "website": "None", "summary": "None", "logo": "None", "latitude": 45.579507265883834, "longitude": -73.5404850905997}, "845933142RR0001": {"name": "LA COMPAGNIE DU CIMETIERE LAKESIDE / LAKESIDE CEMETERY COMPANY", "designationCode": "C", "categoryCode": "59", "address": "92, RUE PRINCIPAL             C.P. 168", "city": "DUDSWELL", "province": "QC", "country": "CA", "postalCode": "J0B1G0", "twitter": "None", "instagram": "None", "facebook": "None", "youtube": "None", "website": "None", "summary": "None", "logo": "None", "latitude": 45.62112939192477, "longitude": -71.58016533897961}, "101074953RR0001": {"name": "LA COMPAGNIE DU CIMETIERE SAINT-CHARLES", "designationCode": "C", "categoryCode": "59", "address": "1460, BOULEVARD WILFRID-HAMEL", "city": "QUEBEC", "province": "QC", "country": "CA", "postalCode": "G1N3Y6", "twitter": "None", "instagram": "None", "facebook": "None", "youtube": "None", "website": "None", "summary": "None", "logo": "None", "latitude": 46.80729676770148, "longitude": -71.27101934055625}, "118988757RR0001": {"name": "LA COMPAGNIE JEAN DUCEPPE INC.", "designationCode": "C", "categoryCode": "22", "address": "260 BOUL DE MAISONNEUVE O", "city": "MONTREAL", "province": "QC", "country": "CA", "postalCode": "H2X1Y9", "twitter": "None", "instagram": "None", "facebook": "None", "youtube": "None", "website": "None", "summary": "None", "logo": "None", "latitude": 45.508406327708435, "longitude": -73.56812827526383}, "103608717RR0001": {"name": "LA COMPAGNIE MARIE CHOUINARD", "designationCode": "C", "categoryCode": "22", "address": "4499, AV. DE L'ESPLANADE", "city": "MONTR\u00c9AL", "province": "QC", "country": "CA", "postalCode": "H2W1T2", "twitter": "None", "instagram": "None", "facebook": "None", "youtube": "None", "website": "None", "summary": "None", "logo": "None", "latitude": 45.518271243147225, "longitude": -73.58769058269385}, "118872084RR0001": {"name": "LA CONFERENCE DE ST-VINCENT-DE-PAUL DE CHRIST-ROI INC.", "designationCode": "C", "categoryCode": "09", "address": "5515, RUE ST-GEORGES", "city": "LEVIS", "province": "QC", "country": "CA", "postalCode": "G6V4M7", "twitter": "None", "instagram": "None", "facebook": "None", "youtube": "None", "website": "None", "summary": "None", "logo": "None", "latitude": 46.798453528737866, "longitude": -71.18260715021023}, "890220049RR0001": {"name": "LA CONFERENCE DE ST-VINCENT-DE-PAUL DE ST DAVID INC", "designationCode": "C", "categoryCode": "09", "address": "3995 RUE DE LA FABRIQUE", "city": "LEVIS", "province": "QC", "country": "CA", "postalCode": "G6W1J6", "twitter": "None", "instagram": "None", "facebook": "None", "youtube": "None", "website": "None", "summary": "None", "logo": "None", "latitude": 46.77745722736416, "longitude": -71.20055684742289}, "128863149RR0001": {"name": "LA CONGR\u00c9GATION DES T\u00c9MOINS DE J\u00c9HOVAH DE JOLIETTE-SUD", "designationCode": "C", "categoryCode": "61", "address": "328 RUE BABY", "city": "JOLIETTE", "province": "QC", "country": "CA", "postalCode": "J6E2V8", "twitter": "None", "instagram": "None", "facebook": "None", "youtube": "None", "website": "None", "summary": "None", "logo": "None", "latitude": 46.02834411685607, "longitude": -73.44117899890348}, "863336525RR0001": {"name": "LA CONGR\u00c9GATION DES T\u00c9MOINS DE J\u00c9HOVAH DE MONTR\u00c9AL-ROSEMONT", "designationCode": "C", "categoryCode": "61", "address": "7170 ST-MICHEL", "city": "MONTREAL", "province": "QC", "country": "CA", "postalCode": "H2A2Z4", "twitter": "None", "instagram": "None", "facebook": "None", "youtube": "None", "website": "None", "summary": "None", "logo": "None", "latitude": 45.558487698568975, "longitude": -73.59778338885674}, "891453391RR0001": {"name": "LA CONGREGATION BEIS CHABAD TISAMACH/CONGREGATION BEIS CHABAD TISAMACH", "designationCode": "C", "categoryCode": "42", "address": "6375 MOUNTAIN SIGHTS", "city": "MONTREAL", "province": "QC", "country": "CA", "postalCode": "H3W2Z4", "twitter": "None", "instagram": "None", "facebook": "None", "youtube": "None", "website": "None", "summary": "None", "logo": "None", "latitude": 45.491922166541535, "longitude": -73.64371796612623}, "130120801RR0001": {"name": "LA CONGREGATION DE LA FRATERNITE SACERDOTALE", "designationCode": "C", "categoryCode": "46", "address": "4565 RUE NOTRE-DAME O", "city": "MONTREAL", "province": "QC", "country": "CA", "postalCode": "H4C1S3", "twitter": "None", "instagram": "None", "facebook": "None", "youtube": "None", "website": "None", "summary": "None", "logo": "None", "latitude": 45.47400052706444, "longitude": -73.58769591355524}, "118988799RR0001": {"name": "LA CONGREGATION DES FILLES DE JESUS", "designationCode": "C", "categoryCode": "46", "address": "311 - 822 COVERDALE RD", "city": "RIVERVIEW", "province": "NB", "country": "CA", "postalCode": "E1B4V5", "twitter": "None", "instagram": "None", "facebook": "None", "youtube": "None", "website": "None", "summary": "None", "logo": "None", "latitude": 46.05201109297786, "longitude": -64.83329270656078}, "107620882RR0001": {"name": "LA CONGREGATION DES SERVANTES DE JESUS-MARIE", "designationCode": "C", "categoryCode": "46", "address": "210 RUE LAURIER", "city": "GATINEAU", "province": "QC", "country": "CA", "postalCode": "J8X3W1", "twitter": "None", "instagram": "None", "facebook": "None", "youtube": "None", "website": "None", "summary": "None", "logo": "None", "latitude": 45.43658707715392, "longitude": -75.70875447345517}, "106967649RR0001": {"name": "LA CONGREGATION DES SOEURS DE NOTRE-DAME DU BON-CONSEIL DE CHICOUTIMI", "designationCode": "C", "categoryCode": "46", "address": "700 RUE RACINE EST", "city": "CHICOUTIMI", "province": "QC", "country": "CA", "postalCode": "G7H1V2", "twitter": "None", "instagram": "None", "facebook": "None", "youtube": "None", "website": "None", "summary": "None", "logo": "None", "latitude": 48.42952547287826, "longitude": -71.04611249999999}, "889677969RR0001": {"name": "LA CONGREGATION DES SOEURS DE SAINTE-ANNE", "designationCode": "C", "categoryCode": "46", "address": "1754 RUE PROVOST", "city": "LACHINE", "province": "QC", "country": "CA", "postalCode": "H8S1P1", "twitter": "None", "instagram": "None", "facebook": "None", "youtube": "None", "website": "None", "summary": "None", "logo": "None", "latitude": 45.441969525967906, "longitude": -73.67987211226844}, "890234446RR0001": {"name": "LA CONGREGATION DES TEMOINS DE JEHOVAH D'AMOS", "designationCode": "C", "categoryCode": "61", "address": "841 8E AVE", "city": "AMOS", "province": "QC", "country": "CA", "postalCode": "J9T4G9", "twitter": "None", "instagram": "None", "facebook": "None", "youtube": "None", "website": "None", "summary": "None", "logo": "None", "latitude": 48.579530202921475, "longitude": -78.12342961113666}, "118872779RR0001": {"name": "LA CONGREGATION DES TEMOINS DE JEHOVAH DE CAP-DE-LA-MADELEINE-NORD", "designationCode": "C", "categoryCode": "61", "address": "3295 BOUL THIBEAU", "city": "TROIS-RIVIERES", "province": "QC", "country": "CA", "postalCode": "G8W2H4", "twitter": "None", "instagram": "None", "facebook": "None", "youtube": "None", "website": "None", "summary": "None", "logo": "None", "latitude": 46.427581727191274, "longitude": -72.60047509391792}, "118872548RR0001": {"name": "LA CONGREGATION DES TEMOINS DE JEHOVAH DE CHANDLER", "designationCode": "C", "categoryCode": "61", "address": "164 ROUTE HAMILTON", "city": "PABOS", "province": "QC", "country": "CA", "postalCode": "G0C2H0", "twitter": "None", "instagram": "None", "facebook": "None", "youtube": "None", "website": "None", "summary": "None", "logo": "None", "latitude": 48.38334221316859, "longitude": -64.60524234912593}, "892865445RR0001": {"name": "LA CONGREGATION DES TEMOINS DE JEHOVAH DE COATICOOK", "designationCode": "C", "categoryCode": "61", "address": "4 RUE DU VIEUX-POMMIER", "city": "COMPTON", "province": "QC", "country": "CA", "postalCode": "J0B1L0", "twitter": "None", "instagram": "None", "facebook": "None", "youtube": "None", "website": "None", "summary": "None", "logo": "None", "latitude": 45.24517529669915, "longitude": -71.82668624672523}, "130327919RR0001": {"name": "LA CONGREGATION DES TEMOINS DE JEHOVAH DE DORION", "designationCode": "C", "categoryCode": "61", "address": "2599 RUE DU MANOIR", "city": "VAUDREUIL-DORION", "province": "QC", "country": "CA", "postalCode": "J7V8W5", "twitter": "None", "instagram": "None", "facebook": "None", "youtube": "None", "website": "None", "summary": "None", "logo": "None", "latitude": 45.404270100727274, "longitude": -74.04019529626646}, "118872977RR0001": {"name": "LA CONGREGATION DES TEMOINS DE JEHOVAH DE EAST-ANGUS", "designationCode": "C", "categoryCode": "61", "address": "440 WARNER", "city": "EAST ANGUS", "province": "QC", "country": "CA", "postalCode": "J0B1R0", "twitter": "None", "instagram": "None", "facebook": "None", "youtube": "None", "website": "None", "summary": "None", "logo": "None", "latitude": 45.48158972471231, "longitude": -71.6771178374262}, "118872530RR0001": {"name": "LA CONGREGATION DES TEMOINS DE JEHOVAH DE GASPE (QUEBEC)", "designationCode": "C", "categoryCode": "61", "address": "26 CUNNINGS", "city": "GASPE", "province": "QC", "country": "CA", "postalCode": "G4X2J8", "twitter": "None", "instagram": "None", "facebook": "None", "youtube": "None", "website": "None", "summary": "None", "logo": "None", "latitude": 48.77837459394659, "longitude": -64.42490219903033}, "118873041RR0001": {"name": "LA CONGREGATION DES TEMOINS DE JEHOVAH DE GATINEAU-LE LIEVRE", "designationCode": "C", "categoryCode": "61", "address": "89, DU GRAND-DUC", "city": "GATINEAU", "province": "QC", "country": "CA", "postalCode": "J8M1W4", "twitter": "None", "instagram": "None", "facebook": "None", "youtube": "None", "website": "None", "summary": "None", "logo": "None", "latitude": 45.54027297694627, "longitude": -75.41313315277866}, "118872639RR0001": {"name": "LA CONGREGATION DES TEMOINS DE JEHOVAH DE GENTILLY", "designationCode": "C", "categoryCode": "61", "address": "517 MARIE VICTORIN", "city": "ST-PIERRE LES BACQUETS", "province": "QC", "country": "CA", "postalCode": "G0X2Z0", "twitter": "None", "instagram": "None", "facebook": "None", "youtube": "None", "website": "None", "summary": "None", "logo": "None", "latitude": 46.48072955813957, "longitude": -72.20981688297103}, "861070886RR0001": {"name": "LA CONGREGATION DES TEMOINS DE JEHOVAH DE L'ANNONCIATION", "designationCode": "C", "categoryCode": "61", "address": "1561 TOUR DU LAC", "city": "LAC NOMININGUE", "province": "QC", "country": "CA", "postalCode": "J0W1R0", "twitter": "None", "instagram": "None", "facebook": "None", "youtube": "None", "website": "None", "summary": "None", "logo": "None", "latitude": 46.39212025091601, "longitude": -74.99390237922069}, "118873348RR0001": {"name": "LA CONGREGATION DES TEMOINS DE JEHOVAH DE LACHUTE", "designationCode": "C", "categoryCode": "61", "address": "968 PRINCIPALE RR3", "city": "LACHUTE", "province": "QC", "country": "CA", "postalCode": "J8H3W7", "twitter": "None", "instagram": "None", "facebook": "None", "youtube": "None", "website": "None", "summary": "None", "logo": "None", "latitude": 45.6613008087313, "longitude": -74.3102675950431}, "118872928RR0001": {"name": "LA CONGREGATION DES TEMOINS DE JEHOVAH DE LAVAL-PONT VIAU", "designationCode": "C", "categoryCode": "61", "address": "60, RUE DE MAYENCE", "city": "LAVAL", "province": "QC", "country": "CA", "postalCode": "H7M3M3", "twitter": "None", "instagram": "None", "facebook": "None", "youtube": "None", "website": "None", "summary": "None", "logo": "None", "latitude": 45.59476834358601, "longitude": -73.7186072757229}, "126850601RR0001": {"name": "LA CONGREGATION DES TEMOINS DE JEHOVAH DE LONGUEUIL METRO", "designationCode": "C", "categoryCode": "61", "address": "1110 RUE FRONT", "city": "LONGUEUIL", "province": "QC", "country": "CA", "postalCode": "J4K2A7", "twitter": "None", "instagram": "None", "facebook": "None", "youtube": "None", "website": "None", "summary": "None", "logo": "None", "latitude": 45.516742303075816, "longitude": -73.49356090839068}, "119288918RR0763": {"name": "LA CONGREGATION DES TEMOINS DE JEHOVAH DE MARIEVILLE", "designationCode": "C", "categoryCode": "61", "address": "19 RUE LANGEVIN", "city": "CHAMBLY", "province": "QC", "country": "CA", "postalCode": "J3L2E9", "twitter": "None", "instagram": "None", "facebook": "None", "youtube": "None", "website": "None", "summary": "None", "logo": "None", "latitude": 45.445657013590015, "longitude": -73.27225847100232}, "118988914RR0001": {"name": "LA CONGREGATION DES TEMOINS DE JEHOVAH DE MATANE", "designationCode": "C", "categoryCode": "61", "address": "CP 581 MATANE", "city": "MATANE", "province": "QC", "country": "CA", "postalCode": "G4W3P5", "twitter": "None", "instagram": "None", "facebook": "None", "youtube": "None", "website": "None", "summary": "None", "logo": "None", "latitude": 48.844995000000054, "longitude": -67.52947399999994}, "134545623RR0001": {"name": "LA CONGREGATION DES TEMOINS DE JEHOVAH DE MONT-JOLI", "designationCode": "C", "categoryCode": "61", "address": "56 RUE JOLIETTE", "city": "MONT-JOLI", "province": "QC", "country": "CA", "postalCode": "G5H1L1", "twitter": "None", "instagram": "None", "facebook": "None", "youtube": "None", "website": "None", "summary": "None", "logo": "None", "latitude": 48.590264754659756, "longitude": -68.19136745741231}, "119288918RR0511": {"name": "LA CONGREGATION DES TEMOINS DE JEHOVAH DE QUEBEC-DU JARDIN", "designationCode": "C", "categoryCode": "61", "address": "7070, BOULEVARD HENRI-BOURASSA", "city": "QU\u00c9BEC", "province": "QC", "country": "CA", "postalCode": "G1H3E1", "twitter": "None", "instagram": "None", "facebook": "None", "youtube": "None", "website": "None", "summary": "None", "logo": "None", "latitude": 46.85760957536493, "longitude": -71.26197125226516}, "119288918RR1377": {"name": "LA CONGREGATION DES TEMOINS DE JEHOVAH DE QUEBEC-FRONTENAC (QUEBEC)", "designationCode": "C", "categoryCode": "61", "address": "1300 BOUL PERE-LELIEVRE       PRESIDENT", "city": "QUEBEC", "province": "QC", "country": "CA", "postalCode": "G1M3P1", "twitter": "None", "instagram": "None", "facebook": "None", "youtube": "None", "website": "None", "summary": "None", "logo": "None", "latitude": 46.813118958133465, "longitude": -71.2751313906744}, "118872670RR0001": {"name": "LA CONGREGATION DES TEMOINS DE JEHOVAH DE QUEBEC-ORLEANS", "designationCode": "C", "categoryCode": "61", "address": "1000 RUE DES QUATRE-TEMPS", "city": "BEAUPORT", "province": "QC", "country": "CA", "postalCode": "G1C5Y7", "twitter": "None", "instagram": "None", "facebook": "None", "youtube": "None", "website": "None", "summary": "None", "logo": "None", "latitude": 46.89051052063047, "longitude": -71.17325767470719}, "118873207RR0001": {"name": "LA CONGREGATION DES TEMOINS DE JEHOVAH DE REPENTIGNY", "designationCode": "C", "categoryCode": "61", "address": "280 BOUL. INDUSTRIEL", "city": "REPENTIGNY", "province": "QC", "country": "CA", "postalCode": "J6A8A9", "twitter": "None", "instagram": "None", "facebook": "None", "youtube": "None", "website": "None", "summary": "None", "logo": "None", "latitude": 45.759525760171, "longitude": -73.45447543952315}, "118989177RR0001": {"name": "LA CONGREGATION DES TEMOINS DE JEHOVAH DE RICHELIEU", "designationCode": "C", "categoryCode": "61", "address": "885 CH DE MARIEVILLE", "city": "RICHELIEU", "province": "QC", "country": "CA", "postalCode": "J3L6N4", "twitter": "None", "instagram": "None", "facebook": "None", "youtube": "None", "website": "None", "summary": "None", "logo": "None", "latitude": 45.437429800132946, "longitude": -73.22939504166403}, "134126093RR0001": {"name": "LA CONGREGATION DES TEMOINS DE JEHOVAH DE ROBERVAL", "designationCode": "C", "categoryCode": "61", "address": "570 BOUL SACRE-COEUR", "city": "ST-FELICIEN", "province": "QC", "country": "CA", "postalCode": "G8K2P6", "twitter": "None", "instagram": "None", "facebook": "None", "youtube": "None", "website": "None", "summary": "None", "logo": "None"}, "118872431RR0001": {"name": "LA CONGREGATION DES TEMOINS DE JEHOVAH DE ROUYN", "designationCode": "C", "categoryCode": "61", "address": "C.P. 1174", "city": "ROUYN-NORANDA", "province": "QC", "country": "CA", "postalCode": "J9X6E3", "twitter": "None", "instagram": "None", "facebook": "None", "youtube": "None", "website": "None", "summary": "None", "logo": "None", "latitude": 48.237252000000055, "longitude": -79.01455399999993}, "119288918RR0223": {"name": "LA CONGREGATION DES TEMOINS DE JEHOVAH DE SAGUENAY-OUEST (QUEBEC)", "designationCode": "C", "categoryCode": "61", "address": "1850 RUE MOUSSEAU", "city": "JONQUIERE", "province": "QC", "country": "CA", "postalCode": "G7Z1E5", "twitter": "None", "instagram": "None", "facebook": "None", "youtube": "None", "website": "None", "summary": "None", "logo": "None", "latitude": 48.429842648883515, "longitude": -71.26648820206009}, "136845831RR0001": {"name": "LA CONGREGATION DES TEMOINS DE JEHOVAH DE STE-AGATHE-DES-MONTS", "designationCode": "C", "categoryCode": "61", "address": "105, RUE DES RIVAGES", "city": "VAL-DAVID", "province": "QC", "country": "CA", "postalCode": "J0T2N0", "twitter": "None", "instagram": "None", "facebook": "None", "youtube": "None", "website": "None", "summary": "None", "logo": "None", "latitude": 46.04782793256958, "longitude": -74.12503071111978}, "119288918RR0537": {"name": "LA CONGREGATION DES TEMOINS DE JEHOVAH DE VALLEYFIELD-SALABERRY QUEBEC", "designationCode": "C", "categoryCode": "61", "address": "3435 BLVD MGR LANGLOIS CP 265", "city": "VALLEYFIELD", "province": "QC", "country": "CA", "postalCode": "J6S4V6", "twitter": "None", "instagram": "None", "facebook": "None", "youtube": "None", "website": "None", "summary": "None", "logo": "None", "latitude": 45.272422483264684, "longitude": -74.095794}, "119288918RR1374": {"name": "LA CONGREGATION DES TEMOINS DE JEHOVAH TROIS-RIVIERES OUEST", "designationCode": "C", "categoryCode": "61", "address": "910 RUE LAUZON", "city": "TROIS-RIVIERES", "province": "QC", "country": "CA", "postalCode": "G9A6A4", "twitter": "None", "instagram": "None", "facebook": "None", "youtube": "None", "website": "None", "summary": "None", "logo": "None", "latitude": 46.32487505857228, "longitude": -72.57844519856899}, "890417397RR0001": {"name": "LA CONGREGATION DES TEMOINS DE JHOVAH DE SEPT-\u00ceLES", "designationCode": "C", "categoryCode": "61", "address": "72 DAIGLE", "city": "SEPT ILES", "province": "QC", "country": "CA", "postalCode": "G4R4Y6", "twitter": "None", "instagram": "None", "facebook": "None", "youtube": "None", "website": "None", "summary": "None", "logo": "None", "latitude": 50.219021024121595, "longitude": -66.39778255011815}, "119288918RR0785": {"name": "LA CONGREGATION DES TEMOINS DEJEHOVAH DE CORNWALL-CHAMPLAIN (ONTARIO)", "designationCode": "C", "categoryCode": "61", "address": "1396 MARY ST.,", "city": "CORNWALL", "province": "ON", "country": "CA", "postalCode": "K6J5A1", "twitter": "None", "instagram": "None", "facebook": "None", "youtube": "None", "website": "None", "summary": "None", "logo": "None", "latitude": 45.0323664826591, "longitude": -74.75227650678066}, "128883279RR0001": {"name": "LA CONGREGATION DU ST-ESPRIT", "designationCode": "C", "categoryCode": "46", "address": "5055 RUE SAINT-DOMINIQUE", "city": "MONTREAL", "province": "QC", "country": "CA", "postalCode": "H2T1V1", "twitter": "None", "instagram": "None", "facebook": "None", "youtube": "None", "website": "None", "summary": "None", "logo": "None", "latitude": 45.523304129897824, "longitude": -73.5916818934157}, "134127232RR0001": {"name": "LA COOPERATIVE \"LE CHEZ NOUS\" LTEE", "designationCode": "C", "categoryCode": "01", "address": "PO BOX 40", "city": "WELLINGTON", "province": "PE", "country": "CA", "postalCode": "C0B2E0", "twitter": "None", "instagram": "None", "facebook": "None", "youtube": "None", "website": "None", "summary": "None", "logo": "None", "latitude": 46.451227719875675, "longitude": -63.99615305664649}, "118875509RR0001": {"name": "LA COOPERATIVE DE THEATRE L'ESCAOUETTE LTEE.", "designationCode": "C", "categoryCode": "22", "address": "170 RUE BOTSFORD", "city": "MONCTON", "province": "NB", "country": "CA", "postalCode": "E1C4X6", "twitter": "None", "instagram": "None", "facebook": "None", "youtube": "None", "website": "None", "summary": "None", "logo": "None", "latitude": 46.093999610595, "longitude": -64.77808863284066}, "126491745RR0001": {"name": "LA COOPERATIVE DES MONTAGNES LIMITEE - RADIO COMMUNAUTAIRE", "designationCode": "C", "categoryCode": "21", "address": "17, RUE COSTIGAN", "city": "EDMUNDSTON", "province": "NB", "country": "CA", "postalCode": "E3V1W7", "twitter": "None", "instagram": "None", "facebook": "None", "youtube": "None", "website": "None", "summary": "None", "logo": "None", "latitude": 47.3645417205262, "longitude": -68.32690192241337}}