{"861058113RR0001": {"name": "THE HASTINGS AND PRINCE EDWARD LEARNING FOUNDATION", "designationCode": "A", "categoryCode": "03", "address": "156 ANN ST", "city": "BELLEVILLE", "province": "ON", "country": "CA", "postalCode": "K8N3L3", "twitter": "None", "instagram": "None", "facebook": "None", "youtube": "None", "website": "None", "summary": "None", "logo": "None", "latitude": 44.16313843712855, "longitude": -77.37496451182965}, "122925266RR0001": {"name": "THE HASTINGS AND PRINCE EDWARD REGIMENTAL ASSOCIATIONS TRUST FUND", "designationCode": "A", "categoryCode": "55", "address": "40 COOK ST", "city": "LINDSAY", "province": "ON", "country": "CA", "postalCode": "K9V0C5", "twitter": "None", "instagram": "None", "facebook": "None", "youtube": "None", "website": "None", "summary": "None", "logo": "None", "latitude": 44.33597018741644, "longitude": -78.75071610553321}, "119237188RR0001": {"name": "THE HASTINGS LAKE LUTHERAN BIBLE CAMP ASSOCIATION", "designationCode": "C", "categoryCode": "56", "address": "93 - 21546 TOWNSHIP ROAD 520", "city": "SHERWOOD PARK", "province": "AB", "country": "CA", "postalCode": "T8E1G5", "twitter": "None", "instagram": "None", "facebook": "None", "youtube": "None", "website": "None", "summary": "None", "logo": "None", "latitude": 53.45825313907309, "longitude": -113.0924431612041}, "119237204RR0001": {"name": "THE HAVELOCK AREA FIRE DEPARTMENT", "designationCode": "C", "categoryCode": "59", "address": "P.O. BOX 402", "city": "WEYMOUTH", "province": "NS", "country": "CA", "postalCode": "B0W3T0", "twitter": "None", "instagram": "None", "facebook": "None", "youtube": "None", "website": "None", "summary": "None", "logo": "None", "latitude": 44.405940000000044, "longitude": -66.00887999999998}, "119237212RR0001": {"name": "THE HAVERGAL COLLEGE FOUNDATION", "designationCode": "C", "categoryCode": "23", "address": "1451 AVENUE ROAD", "city": "TORONTO", "province": "ON", "country": "CA", "postalCode": "M5N2H9", "twitter": "None", "instagram": "None", "facebook": "None", "youtube": "None", "website": "None", "summary": "None", "logo": "None", "latitude": 43.72021235166476, "longitude": -79.41497674966901}, "852239235RR0001": {"name": "THE HAVRE BOUCHER AND AREA- CULTURAL, DEVELOPMENT & RECREATION ASSOCIATION", "designationCode": "C", "categoryCode": "56", "address": "BOX 145", "city": "HAVRE BOUCHER", "province": "NS", "country": "CA", "postalCode": "B0H1P0", "twitter": "None", "instagram": "None", "facebook": "None", "youtube": "None", "website": "None", "summary": "None", "logo": "None", "latitude": 45.621447122845275, "longitude": -61.495352461841065}, "867977100RR0001": {"name": "THE HAVRE BOUCHER VETERANS ASSOCIATION", "designationCode": "C", "categoryCode": "50", "address": "305 NEW ROAD                  RR#2, HAVRE BOUCHER", "city": "ANTIGONISH COUNTY", "province": "NS", "country": "CA", "postalCode": "B0H1P0", "twitter": "None", "instagram": "None", "facebook": "None", "youtube": "None", "website": "None", "summary": "None", "logo": "None", "latitude": 45.675880009435055, "longitude": -61.55424894425501}, "119237238RR0001": {"name": "THE HAY FOUNDATION/LA FONDATION HAY", "designationCode": "B", "categoryCode": "03", "address": "1000 DE LA GAUCHETIERE WEST   SUITE 900", "city": "MONTREAL", "province": "QC", "country": "CA", "postalCode": "H3B5H4", "twitter": "None", "instagram": "None", "facebook": "None", "youtube": "None", "website": "None", "summary": "None", "logo": "None", "latitude": 45.49850304466516, "longitude": -73.56695768160344}, "865517726RR0001": {"name": "THE HAYHOE FOUNDATION", "designationCode": "B", "categoryCode": "03", "address": "68 ASTLEY AVE", "city": "TORONTO", "province": "ON", "country": "CA", "postalCode": "M4W3B4", "twitter": "None", "instagram": "None", "facebook": "None", "youtube": "None", "website": "None", "summary": "None", "logo": "None", "latitude": 43.68966355646615, "longitude": -79.37122255787978}, "889477261RR0001": {"name": "THE HAYNES COMMUNITY SOCIETY", "designationCode": "C", "categoryCode": "56", "address": "RR 2 SITE 3 BOX 24", "city": "LACOMBE", "province": "AB", "country": "CA", "postalCode": "T4L2N2", "twitter": "None", "instagram": "None", "facebook": "None", "youtube": "None", "website": "None", "summary": "None", "logo": "None", "latitude": 52.463094000000055, "longitude": -113.73671149999993}, "105200471RR0001": {"name": "THE HAYNES-CONNELL FOUNDATION", "designationCode": "B", "categoryCode": "53", "address": "1407 YONGE ST.                SUITE 503", "city": "TORONTO", "province": "ON", "country": "CA", "postalCode": "M4T1Y7", "twitter": "None", "instagram": "None", "facebook": "None", "youtube": "None", "website": "None", "summary": "None", "logo": "None", "latitude": 43.68723772468114, "longitude": -79.39369753632661}, "891279986RR0001": {"name": "THE HAZEL MCCALLION CHARITABLE FUND", "designationCode": "C", "categoryCode": "56", "address": "4141 LIVING ARTS DRIVE", "city": "MISSISSAUGA", "province": "ON", "country": "CA", "postalCode": "L5B4B8", "twitter": "None", "instagram": "None", "facebook": "None", "youtube": "None", "website": "None", "summary": "None", "logo": "None", "latitude": 43.589069651162525, "longitude": -79.64651458904183}, "899617336RR0001": {"name": "THE HAZEL STEWART FOUNDATION", "designationCode": "B", "categoryCode": "21", "address": "501 1949 BEACH AVE", "city": "VANCOUVER", "province": "BC", "country": "CA", "postalCode": "V6G1Z2", "twitter": "None", "instagram": "None", "facebook": "None", "youtube": "None", "website": "None", "summary": "None", "logo": "None", "latitude": 49.28899327006743, "longitude": -123.14346332664913}, "863452058RR0001": {"name": "THE HEAD CAP STONEAGE TABERNACLE INC.", "designationCode": "B", "categoryCode": "39", "address": "40 TYNDALL AVENUE             SUITE 502", "city": "TORONTO", "province": "ON", "country": "CA", "postalCode": "M6K2E4", "twitter": "None", "instagram": "None", "facebook": "None", "youtube": "None", "website": "None", "summary": "None", "logo": "None", "latitude": 43.635705004154936, "longitude": -79.42804452155318}, "832672877RR0001": {"name": "THE HEALEY WILLAN SINGERS", "designationCode": "C", "categoryCode": "22", "address": "92 FURROW LANE", "city": "ETOBICOKE", "province": "ON", "country": "CA", "postalCode": "M8Z0A3", "twitter": "None", "instagram": "None", "facebook": "None", "youtube": "None", "website": "None", "summary": "None", "logo": "None", "latitude": 43.63739789216787, "longitude": -79.52144062720087}, "802850875RR0001": {"name": "THE HEALING CYCLE FOUNDATION", "designationCode": "A", "categoryCode": "13", "address": "106 - 1599 HURONTARIO ST", "city": "MISSISSAUGA", "province": "ON", "country": "CA", "postalCode": "L5G4S1", "twitter": "None", "instagram": "None", "facebook": "None", "youtube": "None", "website": "None", "summary": "None", "logo": "None", "latitude": 43.56684473166335, "longitude": -79.59783695317141}, "856992334RR0001": {"name": "THE HEALTH CARE FOUNDATION OF ST. JOHN'S INC.", "designationCode": "A", "categoryCode": "13", "address": "71 GOLDSTONE ST", "city": "ST. JOHN'S", "province": "NL", "country": "CA", "postalCode": "A1B5C3", "twitter": "None", "instagram": "None", "facebook": "None", "youtube": "None", "website": "None", "summary": "None", "logo": "None", "latitude": 47.56215760502642, "longitude": -52.77701847279133}, "893304378RR0001": {"name": "THE HEALTH CENTRE ST. ANDREWS INC.", "designationCode": "C", "categoryCode": "11", "address": "10 GARRISON DRIVE", "city": "ROTHESAY", "province": "NB", "country": "CA", "postalCode": "E2H2V1", "twitter": "None", "instagram": "None", "facebook": "None", "youtube": "None", "website": "None", "summary": "None", "logo": "None", "latitude": 45.34797559391793, "longitude": -66.02885369193253}, "886814698RR0001": {"name": "THE HEALTH FOUNDATION OF EAST CENTRAL SASKATCHEWAN INC", "designationCode": "A", "categoryCode": "13", "address": "41 BETTS AVENUE", "city": "YORKTON", "province": "SK", "country": "CA", "postalCode": "S3N1M1", "twitter": "None", "instagram": "None", "facebook": "None", "youtube": "None", "website": "None", "summary": "None", "logo": "None", "latitude": 51.211736748542904, "longitude": -102.46403617317799}, "861524924RR0001": {"name": "THE HEAMAN FAMILY FOUNDATION", "designationCode": "B", "categoryCode": "03", "address": "73 FRED VARLEY DR", "city": "UNIONVILLE", "province": "ON", "country": "CA", "postalCode": "L3R1S6", "twitter": "None", "instagram": "None", "facebook": "None", "youtube": "None", "website": "None", "summary": "None", "logo": "None", "latitude": 43.8640711906918, "longitude": -79.31735676187311}, "118833045RR0001": {"name": "THE HEARING FOUNDATION OF CANADA LA FONDATION CANADIENNE DE L'OUIE", "designationCode": "C", "categoryCode": "11", "address": "1801-1 YONGE ST", "city": "TORONTO", "province": "ON", "country": "CA", "postalCode": "M5E1W7", "twitter": "None", "instagram": "None", "facebook": "None", "youtube": "None", "website": "None", "summary": "None", "logo": "None", "latitude": 43.64545122998886, "longitude": -79.37634527541341}, "119237279RR0001": {"name": "THE HEARST PUBLIC LIBRARY BOARD", "designationCode": "C", "categoryCode": "50", "address": "SAC POSTAL 5000", "city": "HEARST", "province": "ON", "country": "CA", "postalCode": "P0L1N0", "twitter": "None", "instagram": "None", "facebook": "None", "youtube": "None", "website": "None", "summary": "None", "logo": "None", "latitude": 49.68503700000005, "longitude": -83.65433749999994}, "128597192RR0001": {"name": "THE HEART OF HASTINGS HOSPICE", "designationCode": "C", "categoryCode": "01", "address": "17 MCKENZIE ST.               P.O.BOX 624", "city": "MADOC", "province": "ON", "country": "CA", "postalCode": "K0K2K0", "twitter": "None", "instagram": "None", "facebook": "None", "youtube": "None", "website": "None", "summary": "None", "logo": "None", "latitude": 44.504797869156434, "longitude": -77.46535582317877}, "885671230RR0001": {"name": "THE HEART OF RICHMOND AIDS SOCIETY", "designationCode": "C", "categoryCode": "11", "address": "200-6411 BUSWELL ST", "city": "RICHMOND", "province": "BC", "country": "CA", "postalCode": "V6Y2G5", "twitter": "None", "instagram": "None", "facebook": "None", "youtube": "None", "website": "None", "summary": "None", "logo": "None", "latitude": 49.167468502914204, "longitude": -123.13371554166403}, "119237295RR0001": {"name": "THE HEBREW CONGREGATION OF NEWFOUNDLAND", "designationCode": "C", "categoryCode": "42", "address": "P.O. BOX 724", "city": "ST. JOHN'S", "province": "NL", "country": "CA", "postalCode": "A1C5L4", "twitter": "None", "instagram": "None", "facebook": "None", "youtube": "None", "website": "None", "summary": "None", "logo": "None", "latitude": 47.56082100000006, "longitude": -52.71219349999993}, "892895368RR0001": {"name": "THE HEFFLEY CREEK COMMUNITY RECREATION ASSOCIATION", "designationCode": "C", "categoryCode": "56", "address": "6995 OLD HWY 5", "city": "KAMLOOPS", "province": "BC", "country": "CA", "postalCode": "V2H0B5", "twitter": "None", "instagram": "None", "facebook": "None", "youtube": "None", "website": "None", "summary": "None", "logo": "None", "latitude": 50.85883105274389, "longitude": -120.26745216683}, "856285531RR0001": {"name": "THE HELDERLEIGH FOUNDATION", "designationCode": "B", "categoryCode": "21", "address": "103 ROCHESTER AVE", "city": "NORTH YORK", "province": "ON", "country": "CA", "postalCode": "M4N1N9", "twitter": "None", "instagram": "None", "facebook": "None", "youtube": "None", "website": "None", "summary": "None", "logo": "None", "latitude": 43.724642794881504, "longitude": -79.3893558985516}, "890977044RR0001": {"name": "THE HELEN C MCDOWELL FRANDSEN MEMORIAL TRUST FUND", "designationCode": "B", "categoryCode": "05", "address": "1709 HOLLIS ST.,5TH FLOOR     PO BOX 457", "city": "HALIFAX", "province": "NS", "country": "CA", "postalCode": "B3P2S2", "twitter": "None", "instagram": "None", "facebook": "None", "youtube": "None", "website": "None", "summary": "None", "logo": "None", "latitude": 44.647722827370295, "longitude": -63.57286089243476}, "826561763RR0001": {"name": "THE HELENE COMAY NURSERY SCHOOL", "designationCode": "C", "categoryCode": "01", "address": "256 - 601 CHRISTIE ST", "city": "TORONTO", "province": "ON", "country": "CA", "postalCode": "M6G4C7", "twitter": "None", "instagram": "None", "facebook": "None", "youtube": "None", "website": "None", "summary": "None", "logo": "None", "latitude": 43.67978587067912, "longitude": -79.42488115174038}, "873130843RR0001": {"name": "THE HELLENIC CANADIAN FEDERATION OF B.C. CULTURAL & EDUCATIONAL FOUNDATION", "designationCode": "C", "categoryCode": "21", "address": "3230 WEST BROADWAY", "city": "VANCOUVER", "province": "BC", "country": "CA", "postalCode": "V6K2H4", "twitter": "None", "instagram": "None", "facebook": "None", "youtube": "None", "website": "None", "summary": "None", "logo": "None", "latitude": 49.26413023539573, "longitude": -123.17653800415243}, "108012584RR0001": {"name": "THE HELLENIC GREEK ORTHODOX CHURCH OF WINNIPEG INC.", "designationCode": "C", "categoryCode": "39", "address": "2255 GRANT AVE", "city": "WINNIPEG", "province": "MB", "country": "CA", "postalCode": "R3P0S2", "twitter": "None", "instagram": "None", "facebook": "None", "youtube": "None", "website": "None", "summary": "None", "logo": "None", "latitude": 49.857982519331486, "longitude": -97.22987108950318}, "132014861RR0001": {"name": "THE HELLENIC GREEK ORTHODOX COMMUNITY OF CALGARY AND DISTRICT", "designationCode": "C", "categoryCode": "39", "address": "1 TAMARAC CR. S.W.", "city": "CALGARY", "province": "AB", "country": "CA", "postalCode": "T3C3B7", "twitter": "None", "instagram": "None", "facebook": "None", "youtube": "None", "website": "None", "summary": "None", "logo": "None", "latitude": 51.04782727061568, "longitude": -114.13739707299898}, "842146086RR0001": {"name": "THE HELLER/SMITH FAMILY FOUNDATION", "designationCode": "B", "categoryCode": "03", "address": "201 DAYS ROAD                 P.O. BOX  280", "city": "GANANOQUE", "province": "ON", "country": "CA", "postalCode": "K7G2T8", "twitter": "None", "instagram": "None", "facebook": "None", "youtube": "None", "website": "None", "summary": "None", "logo": "None", "latitude": 44.33806793054079, "longitude": -76.14228286439499}, "134835776RR0001": {"name": "THE HELPING HAND GOODWILL CENTRE INC.", "designationCode": "C", "categoryCode": "09", "address": "P.O. BOX 1012", "city": "BAY ROBERTS", "province": "NL", "country": "CA", "postalCode": "A0A1G0", "twitter": "None", "instagram": "None", "facebook": "None", "youtube": "None", "website": "None", "summary": "None", "logo": "None", "latitude": 47.58335663598053, "longitude": -53.28220018500299}, "889356044RR0001": {"name": "THE HENRY AND BERENICE KAUFMANN FOUNDATION", "designationCode": "B", "categoryCode": "03", "address": "1980 SHERBROOKE STREET WEST", "city": "MONTREAL", "province": "QC", "country": "CA", "postalCode": "H3H1E8", "twitter": "None", "instagram": "None", "facebook": "None", "youtube": "None", "website": "None", "summary": "None", "logo": "None", "latitude": 45.49389047625378, "longitude": -73.58406907475934}, "119237386RR0001": {"name": "THE HENRY AND ZELDA KORENBLUM FAMILY CHARITABLE FOUNDATION", "designationCode": "B", "categoryCode": "03", "address": "1220 SHEPPARD AVE EAST        SUITE 406", "city": "TORONTO", "province": "ON", "country": "CA", "postalCode": "M2K2S5", "twitter": "None", "instagram": "None", "facebook": "None", "youtube": "None", "website": "None", "summary": "None", "logo": "None", "latitude": 43.77120017903258, "longitude": -79.36755633188012}, "136629946RR0001": {"name": "THE HENRY BUDD COLLEGE FOR MINISTRY", "designationCode": "C", "categoryCode": "20", "address": "MARION JENKINS, COORDINATOR   PO BOX 2518  STN MAIN", "city": "THE PAS", "province": "MB", "country": "CA", "postalCode": "R9A1M3", "twitter": "None", "instagram": "None", "facebook": "None", "youtube": "None", "website": "None", "summary": "None", "logo": "None", "latitude": 53.81342700000006, "longitude": -101.25038149999993}, "119237402RR0001": {"name": "THE HENRY L LAWRENCE AND AMELIA A LAWRENCE SCHOLARSHIP FUND", "designationCode": "B", "categoryCode": "21", "address": "333-3RD AVE N", "city": "SASKATOON", "province": "SK", "country": "CA", "postalCode": "S7K2M2", "twitter": "None", "instagram": "None", "facebook": "None", "youtube": "None", "website": "None", "summary": "None", "logo": "None", "latitude": 52.13288527061568, "longitude": -106.66002880437387}, "890340540RR0001": {"name": "THE HENRY VAN DER KOOI & ENA VAN DER KOOI-STAPERSMA CHARITABLE CHRISTIAN EDUCATION TRUST", "designationCode": "C", "categoryCode": "21", "address": "SITE 7 BOX 11 RR2", "city": "LACOMBE", "province": "AB", "country": "CA", "postalCode": "T4L2N2", "twitter": "None", "instagram": "None", "facebook": "None", "youtube": "None", "website": "None", "summary": "None", "logo": "None", "latitude": 52.463094000000055, "longitude": -113.73671149999993}, "886737394RR0001": {"name": "THE HENRY WHITE KINNEAR FOUNDATION", "designationCode": "B", "categoryCode": "03", "address": "SUITE 3910                    TORONTO DOMINION BANK TOWER", "city": "TORONTO", "province": "ON", "country": "CA", "postalCode": "M5K1H1", "twitter": "None", "instagram": "None", "facebook": "None", "youtube": "None", "website": "None", "summary": "None", "logo": "None", "latitude": 43.6468467508999, "longitude": -79.3819558202305}, "864179957RR0001": {"name": "THE HENTELEFF PARK FOUNDATION INC.", "designationCode": "C", "categoryCode": "56", "address": "748 BOREBANK ST", "city": "WINNIPEG", "province": "MB", "country": "CA", "postalCode": "R3N1G4", "twitter": "None", "instagram": "None", "facebook": "None", "youtube": "None", "website": "None", "summary": "None", "logo": "None", "latitude": 49.855956286427386, "longitude": -97.19320829791126}, "888839263RR0001": {"name": "THE HERB AND CECE SCHREIBER FAMILY FOUNDATION", "designationCode": "B", "categoryCode": "23", "address": "50 BROCKLEY DR", "city": "HAMILTON", "province": "ON", "country": "CA", "postalCode": "L8E3P1", "twitter": "None", "instagram": "None", "facebook": "None", "youtube": "None", "website": "None", "summary": "None", "logo": "None", "latitude": 43.23587305799535, "longitude": -79.7453892858218}, "119237444RR0001": {"name": "THE HERBERT GREEN FAMILY CHARITABLE FOUNDATION INC.", "designationCode": "B", "categoryCode": "03", "address": "401-23 LESMILL RD", "city": "TORONTO", "province": "ON", "country": "CA", "postalCode": "M3B3P6", "twitter": "None", "instagram": "None", "facebook": "None", "youtube": "None", "website": "None", "summary": "None", "logo": "None", "latitude": 43.756499388020025, "longitude": -79.35275909362946}, "107478760RR0001": {"name": "THE HERITAGE AGRICULTURAL SOCIETY", "designationCode": "C", "categoryCode": "56", "address": "PO BOX 2188  STN MAIN         5411- 51ST STREET", "city": "STONY PLAIN", "province": "AB", "country": "CA", "postalCode": "T7Z1X7", "twitter": "None", "instagram": "None", "facebook": "None", "youtube": "None", "website": "None", "summary": "None", "logo": "None", "latitude": 53.525243975301514, "longitude": -114.00957827165487}, "129886578RR0001": {"name": "THE HERITAGE BUILDING FOUNDATION OF THE HALLMARK SOCIETY", "designationCode": "C", "categoryCode": "52", "address": "15-1594 FAIRFIELD RD PO BOX   50013 FAIRFIELD PLAZA PO", "city": "VICTORIA", "province": "BC", "country": "CA", "postalCode": "V8S1G1", "twitter": "None", "instagram": "None", "facebook": "None", "youtube": "None", "website": "None", "summary": "None", "logo": "None", "latitude": 48.41235038444201, "longitude": -123.33847692893424}, "119237485RR0001": {"name": "THE HERITAGE ENDOWMENT FOR OUTSTANDING ACADEMIC ACHIEVEMENT", "designationCode": "C", "categoryCode": "21", "address": "325 BOUL CITE DES JEUNES", "city": "HULL", "province": "QC", "country": "CA", "postalCode": "J8Y6T3", "twitter": "None", "instagram": "None", "facebook": "None", "youtube": "None", "website": "None", "summary": "None", "logo": "None", "latitude": 45.456777114492496, "longitude": -75.76508740457504}, "119237493RR0001": {"name": "THE HERITAGE MERRICKVILLE FOUNDATION LA FONDATION D'HERITAGE MERRICKVILLE", "designationCode": "C", "categoryCode": "52", "address": "109B J.W. LANE, RR 1", "city": "ELGIN", "province": "ON", "country": "CA", "postalCode": "K0G1E0", "twitter": "None", "instagram": "None", "facebook": "None", "youtube": "None", "website": "None", "summary": "None", "logo": "None", "latitude": 45.03257700000006, "longitude": -76.39882099999993}, "119237501RR0001": {"name": "THE HERITAGE PARK FOUNDATION", "designationCode": "A", "categoryCode": "53", "address": "1900 HERITAGE DRIVE SW", "city": "CALGARY", "province": "AB", "country": "CA", "postalCode": "T2V2X3", "twitter": "None", "instagram": "None", "facebook": "None", "youtube": "None", "website": "None", "summary": "None", "logo": "None", "latitude": 50.98332766269989, "longitude": -114.10303026295482}, "808869622RR0001": {"name": "THE HERITAGE PROJECT/REFLETS DU PATRIMOINE", "designationCode": "A", "categoryCode": "53", "address": "2 CARLTON STREET              EAST MEZZANINE", "city": "TORONTO", "province": "ON", "country": "CA", "postalCode": "M5B1J3", "twitter": "None", "instagram": "None", "facebook": "None", "youtube": "None", "website": "None", "summary": "None", "logo": "None", "latitude": 43.66142348211082, "longitude": -79.38282201832186}, "133728188RR0001": {"name": "THE HERITAGE SCHOOL PARENT COUNCIL", "designationCode": "A", "categoryCode": "21", "address": "P.O BOX 4096, 6240-113 STREET", "city": "EDMONTON", "province": "AB", "country": "CA", "postalCode": "T6E4S8", "twitter": "None", "instagram": "None", "facebook": "None", "youtube": "None", "website": "None", "summary": "None", "logo": "None", "latitude": 53.499354000000054, "longitude": -113.46577549999994}, "119237519RR0001": {"name": "THE HERITAGE SOCIETY OF RUSHAGORNISH - WASSIS,INC", "designationCode": "C", "categoryCode": "52", "address": "61 BAILEY AVENUE", "city": "FREDERICTON", "province": "NB", "country": "CA", "postalCode": "E3A5V1", "twitter": "None", "instagram": "None", "facebook": "None", "youtube": "None", "website": "None", "summary": "None", "logo": "None", "latitude": 45.98401634000799, "longitude": -66.67298867943904}, "888549466RR0001": {"name": "THE HERMANT FAMILY FOUNDATION", "designationCode": "C", "categoryCode": "03", "address": "1636 RAMSHAW CRESC", "city": "MILTON", "province": "ON", "country": "CA", "postalCode": "L9T5M3", "twitter": "None", "instagram": "None", "facebook": "None", "youtube": "None", "website": "None", "summary": "None", "logo": "None", "latitude": 43.52753422424842, "longitude": -79.83329956745906}, "119237527RR0001": {"name": "THE HERSCHEL MEMORIAL HALL CO-OPERATIVE LIMITED", "designationCode": "C", "categoryCode": "56", "address": "BOX 128", "city": "HERSCHEL", "province": "SK", "country": "CA", "postalCode": "S0L1L0", "twitter": "None", "instagram": "None", "facebook": "None", "youtube": "None", "website": "None", "summary": "None", "logo": "None", "latitude": 51.560901000000015, "longitude": -107.9856135}, "899091128RR0001": {"name": "THE HERVEY FOUNDATION FOR CATS", "designationCode": "B", "categoryCode": "54", "address": "PO BOX 2565 STN MAIN", "city": "STONY PLAIN", "province": "AB", "country": "CA", "postalCode": "T7Z1X9", "twitter": "None", "instagram": "None", "facebook": "None", "youtube": "None", "website": "None", "summary": "None", "logo": "None", "latitude": 53.52496080545697, "longitude": -114.006528332913}, "107481467RR0001": {"name": "THE HIGH RIVER AGRICULTURAL SOCIETY", "designationCode": "C", "categoryCode": "56", "address": "POST OFFICE BOX 5271", "city": "HIGH RIVER", "province": "AB", "country": "CA", "postalCode": "T1V1M4", "twitter": "None", "instagram": "None", "facebook": "None", "youtube": "None", "website": "None", "summary": "None", "logo": "None", "latitude": 50.57803500000006, "longitude": -113.85914299999993}, "107481491RR0001": {"name": "THE HIGH RIVER BAPTIST CHURCH", "designationCode": "C", "categoryCode": "31", "address": "PO BOX 5457", "city": "HIGH RIVER", "province": "AB", "country": "CA", "postalCode": "T1V1M6", "twitter": "None", "instagram": "None", "facebook": "None", "youtube": "None", "website": "None", "summary": "None", "logo": "None", "latitude": 50.57803500000006, "longitude": -113.85914299999993}, "887416089RR0001": {"name": "THE HIGHBURY FOUNDATION", "designationCode": "B", "categoryCode": "03", "address": "881 HELMCKEN ST", "city": "VANCOUVER", "province": "BC", "country": "CA", "postalCode": "V6Z1B1", "twitter": "None", "instagram": "None", "facebook": "None", "youtube": "None", "website": "None", "summary": "None", "logo": "None", "latitude": 49.27938038923396, "longitude": -123.1262813794341}, "860801398RR0001": {"name": "THE HIGHGATE AND DISTRICT BALL PARK ASSOCIATION", "designationCode": "C", "categoryCode": "56", "address": "15531 GESNER LINE", "city": "MUIRKIRK", "province": "ON", "country": "CA", "postalCode": "N0L1X0", "twitter": "None", "instagram": "None", "facebook": "None", "youtube": "None", "website": "None", "summary": "None", "logo": "None", "latitude": 42.51444171723662, "longitude": -81.74974933201523}, "871713475RR0001": {"name": "THE HIGHLAND DANCERS' ASSOCIATION OF ONTARIO", "designationCode": "C", "categoryCode": "22", "address": "16 MANGROVE RD", "city": "BRAMPTON", "province": "ON", "country": "CA", "postalCode": "L6S3Y1", "twitter": "None", "instagram": "None", "facebook": "None", "youtube": "None", "website": "None", "summary": "None", "logo": "None", "latitude": 43.73380565361536, "longitude": -79.74160737633458}, "134666056RR0001": {"name": "THE HIGHLAND PARKS AND RECREATION ASSOCIATION", "designationCode": "C", "categoryCode": "56", "address": "499 MILLSTREAM LAKE ROAD", "city": "VICTORIA", "province": "BC", "country": "CA", "postalCode": "V9B6H5", "twitter": "None", "instagram": "None", "facebook": "None", "youtube": "None", "website": "None", "summary": "None", "logo": "None", "latitude": 48.51279100253883, "longitude": -123.5062640409725}, "140374448RR0001": {"name": "THE HIGHLANDS CONGREGATION OF JEHOVAH'S WITNESSES", "designationCode": "C", "categoryCode": "61", "address": "5004-121 AVENUE", "city": "EDMONTON", "province": "AB", "country": "CA", "postalCode": "T5W1N3", "twitter": "None", "instagram": "None", "facebook": "None", "youtube": "None", "website": "None", "summary": "None", "logo": "None", "latitude": 53.57509147489747, "longitude": -113.4188415}, "888302643RR0001": {"name": "THE HIGHRIDGE AND DISTRICT AGRICULTURAL SOCIETY", "designationCode": "C", "categoryCode": "56", "address": "RR #1", "city": "PICKARDVILLE", "province": "AB", "country": "CA", "postalCode": "T0G1W0", "twitter": "None", "instagram": "None", "facebook": "None", "youtube": "None", "website": "None", "summary": "None", "logo": "None", "latitude": 54.05098200000006, "longitude": -113.87904199999994}, "888546660RR0001": {"name": "THE HIGHWAY-CHAPEL TRUST", "designationCode": "C", "categoryCode": "39", "address": "105 BRIDGE ST", "city": "DUNNVILLE", "province": "ON", "country": "CA", "postalCode": "N1A2G8", "twitter": "None", "instagram": "None", "facebook": "None", "youtube": "None", "website": "None", "summary": "None", "logo": "None", "latitude": 42.90229698345348, "longitude": -79.61648822495287}, "870937232RR0001": {"name": "THE HILARY M. WESTON FOUNDATION FOR YOUTH/ FONDATION HILARY M. WESTON POUR la jeunesse", "designationCode": "B", "categoryCode": "03", "address": "22 ST.CLAIR AVENUE EAST       SUITE 2004", "city": "TORONTO", "province": "ON", "country": "CA", "postalCode": "M4T2S3", "twitter": "None", "instagram": "None", "facebook": "None", "youtube": "None", "website": "None", "summary": "None", "logo": "None", "latitude": 43.688336132408, "longitude": -79.39301839967676}, "886553478RR0001": {"name": "THE HILLCREST ACADEMY HOME AND SCHOOL ASSOCIATION", "designationCode": "C", "categoryCode": "21", "address": "265 BLADEN", "city": "LAVAL", "province": "QC", "country": "CA", "postalCode": "H7W4J8", "twitter": "None", "instagram": "None", "facebook": "None", "youtube": "None", "website": "None", "summary": "None", "logo": "None", "latitude": 45.52473946575087, "longitude": -73.7656803616194}, "834315145RR0001": {"name": "THE HILLSBOROUGH CHURCH PRESERVATION SOCIETY", "designationCode": "C", "categoryCode": "52", "address": "11559 HIGHWAY 19              P.O. BOX 86", "city": "MABOU", "province": "NS", "country": "CA", "postalCode": "B0E1X0", "twitter": "None", "instagram": "None", "facebook": "None", "youtube": "None", "website": "None", "summary": "None", "logo": "None", "latitude": 46.0732378638375, "longitude": -61.3889419916124}, "896693645RR0001": {"name": "THE HILLSBOROUGH RIVER ASSOCIATION INC.", "designationCode": "C", "categoryCode": "52", "address": "11 RTE HICKEYS WHARF", "city": "WEBSTERS CORNER", "province": "PE", "country": "CA", "postalCode": "C1B3A4", "twitter": "None", "instagram": "None", "facebook": "None", "youtube": "None", "website": "None", "summary": "None", "logo": "None", "latitude": 46.307818069103845, "longitude": -62.9544702932367}, "119237659RR0001": {"name": "THE HILLSIDE CEMETERY COMPANY", "designationCode": "C", "categoryCode": "59", "address": "RR #1", "city": "MIDDLETON", "province": "NS", "country": "CA", "postalCode": "B0S1P0", "twitter": "None", "instagram": "None", "facebook": "None", "youtube": "None", "website": "None", "summary": "None", "logo": "None", "latitude": 45.01449600000005, "longitude": -65.06449099999993}, "871985305RR0001": {"name": "THE HILTON FAMILY FOUNDATION", "designationCode": "B", "categoryCode": "03", "address": "7337-137TH STREET             SUITE 402", "city": "SURREY", "province": "BC", "country": "CA", "postalCode": "V3W1A4", "twitter": "None", "instagram": "None", "facebook": "None", "youtube": "None", "website": "None", "summary": "None", "logo": "None", "latitude": 49.13601140743839, "longitude": -122.84284192841464}, "119259497RR0001": {"name": "THE HIMALAYAN INSTITUTE OF CANADA", "designationCode": "C", "categoryCode": "59", "address": "47 GENEVA AVE.", "city": "TORONTO", "province": "ON", "country": "CA", "postalCode": "M5A2J9", "twitter": "None", "instagram": "None", "facebook": "None", "youtube": "None", "website": "None", "summary": "None", "logo": "None", "latitude": 43.665309754919534, "longitude": -79.36072578432125}, "894492487RR0001": {"name": "THE HINCKS-DELLCREST FOUNDATION", "designationCode": "A", "categoryCode": "13", "address": "1645 SHEPPARD AVENUE WEST", "city": "NORTH YORK", "province": "ON", "country": "CA", "postalCode": "M3M2X4", "twitter": "None", "instagram": "None", "facebook": "None", "youtube": "None", "website": "None", "summary": "None", "logo": "None", "latitude": 43.74268580541307, "longitude": -79.49600749679735}, "118866367RR0001": {"name": "THE HINCKS-DELLCREST INSTITUTE", "designationCode": "C", "categoryCode": "11", "address": "440 JARVIS ST", "city": "TORONTO", "province": "ON", "country": "CA", "postalCode": "M4Y2H4", "twitter": "None", "instagram": "None", "facebook": "None", "youtube": "None", "website": "None", "summary": "None", "logo": "None", "latitude": 43.665647888972295, "longitude": -79.37809660675718}, "106949845RR0001": {"name": "THE HINCKS-DELLCREST TREATMENT CENTRE", "designationCode": "C", "categoryCode": "10", "address": "1645 SHEPPARD AVE WEST", "city": "NORTH YORK", "province": "ON", "country": "CA", "postalCode": "M3M2X4", "twitter": "None", "instagram": "None", "facebook": "None", "youtube": "None", "website": "None", "summary": "None", "logo": "None", "latitude": 43.74268580541307, "longitude": -79.49600749679735}, "804876415RR0001": {"name": "THE HINDLE FAMILY FOUNDATION", "designationCode": "B", "categoryCode": "05", "address": "P.O. BOX 76069                MILLRISE RPO", "city": "CALGARY", "province": "AB", "country": "CA", "postalCode": "T2Y2Z9", "twitter": "None", "instagram": "None", "facebook": "None", "youtube": "None", "website": "None", "summary": "None", "logo": "None", "latitude": 50.91454132111086, "longitude": -114.09693237631686}, "863520607RR0001": {"name": "THE HINDU RELIGIOUS COUNCIL OF ONTARIO", "designationCode": "C", "categoryCode": "48", "address": "13 - 15 FISHERMAN DR", "city": "BRAMPTON", "province": "ON", "country": "CA", "postalCode": "L7A1B7", "twitter": "None", "instagram": "None", "facebook": "None", "youtube": "None", "website": "None", "summary": "None", "logo": "None", "latitude": 43.71318001410961, "longitude": -79.80149206125624}, "888025061RR0001": {"name": "THE HINTERLAND CEMETERY COMPANY", "designationCode": "C", "categoryCode": "59", "address": "P.O. BOX 722", "city": "HINES CREEK", "province": "AB", "country": "CA", "postalCode": "T0H2A0", "twitter": "None", "instagram": "None", "facebook": "None", "youtube": "None", "website": "None", "summary": "None", "logo": "None", "latitude": 56.250050000000044, "longitude": -118.60277999999994}, "898149463RR0001": {"name": "THE HISTORIC 1000 ISLANDS VILLAGE FOUNDATION", "designationCode": "C", "categoryCode": "50", "address": "125 WATER ST", "city": "GANANOQUE", "province": "ON", "country": "CA", "postalCode": "K7G3E3", "twitter": "None", "instagram": "None", "facebook": "None", "youtube": "None", "website": "None", "summary": "None", "logo": "None", "latitude": 44.32526273131809, "longitude": -76.15976819101601}, "119237691RR0001": {"name": "THE HISTORICAL MUSEUM ASSOCIATION OF ST JAMES ASSINIBOIA INCORPORATED", "designationCode": "C", "categoryCode": "50", "address": "3180 PORTAGE AVE", "city": "WINNIPEG", "province": "MB", "country": "CA", "postalCode": "R3K0Y5", "twitter": "None", "instagram": "None", "facebook": "None", "youtube": "None", "website": "None", "summary": "None", "logo": "None", "latitude": 49.88082868495033, "longitude": -97.28810849016091}, "890996374RR0001": {"name": "THE HISTORICAL SOCIETY OF BLENHEIM AND DISTRICT", "designationCode": "C", "categoryCode": "50", "address": "P.O. BOX 1987", "city": "BLENHEIM", "province": "ON", "country": "CA", "postalCode": "N0P1A0", "twitter": "None", "instagram": "None", "facebook": "None", "youtube": "None", "website": "None", "summary": "None", "logo": "None", "latitude": 42.335210000000075, "longitude": -81.99768999999998}, "131449589RR0001": {"name": "THE HISTORICAL SOCIETY OF MEDICINE HAT AND DISTRICT", "designationCode": "C", "categoryCode": "50", "address": "401 1 ST SE", "city": "MEDICINE HAT", "province": "AB", "country": "CA", "postalCode": "T1A8W2", "twitter": "None", "instagram": "None", "facebook": "None", "youtube": "None", "website": "None", "summary": "None", "logo": "None", "latitude": 50.04022600637664, "longitude": -110.68088213543774}, "107484081RR0001": {"name": "THE HISTORICAL SOCIETY OF OTTAWA", "designationCode": "C", "categoryCode": "50", "address": "PO BOX 523  STN B", "city": "OTTAWA", "province": "ON", "country": "CA", "postalCode": "K1P5P6", "twitter": "None", "instagram": "None", "facebook": "None", "youtube": "None", "website": "None", "summary": "None", "logo": "None", "latitude": 45.42177300000006, "longitude": -75.69115999999994}, "128125457RR0001": {"name": "THE HISTORICAL SOCIETY OF THE RM OF ROLAND, INC", "designationCode": "C", "categoryCode": "50", "address": "PO BOX 238", "city": "ROLAND", "province": "MB", "country": "CA", "postalCode": "R0G1T0", "twitter": "None", "instagram": "None", "facebook": "None", "youtube": "None", "website": "None", "summary": "None", "logo": "None", "latitude": 49.36776000000003, "longitude": -97.93881999999996}, "887993061RR0001": {"name": "THE HITCHING POST SENIORS' SOCIETY OF CZAR", "designationCode": "C", "categoryCode": "56", "address": "P.O. BOX 149", "city": "CZAR", "province": "AB", "country": "CA", "postalCode": "T0B0Z0", "twitter": "None", "instagram": "None", "facebook": "None", "youtube": "None", "website": "None", "summary": "None", "logo": "None", "latitude": 52.45013000000006, "longitude": -110.83493999999996}, "892994187RR0001": {"name": "THE HNATYSHYN FOUNDATION - LA FONDATION HNATYSHYN", "designationCode": "B", "categoryCode": "22", "address": "210 - 150 ISABELLA ST", "city": "OTTAWA", "province": "ON", "country": "CA", "postalCode": "K1S1V7", "twitter": "None", "instagram": "None", "facebook": "None", "youtube": "None", "website": "None", "summary": "None", "logo": "None", "latitude": 45.40949369467385, "longitude": -75.68950080042141}, "132351370RR0001": {"name": "THE HOFSTEDTER FAMILY CHARITABLE FOUNDATION", "designationCode": "B", "categoryCode": "03", "address": "3625 DUFFERIN STREET, STE 500", "city": "DOWNSVIEW", "province": "ON", "country": "CA", "postalCode": "M3K1N4", "twitter": "None", "instagram": "None", "facebook": "None", "youtube": "None", "website": "None", "summary": "None", "logo": "None", "latitude": 43.73100228365742, "longitude": -79.458586237954}, "868869306RR0001": {"name": "THE HOLGER AND CLAUDETTE KLUGE FAMILY FOUNDATION", "designationCode": "B", "categoryCode": "03", "address": "50 YORKVILLE AVENUE           SUITE 4101", "city": "TORONTO", "province": "ON", "country": "CA", "postalCode": "M4W0A3", "twitter": "None", "instagram": "None", "facebook": "None", "youtube": "None", "website": "None", "summary": "None", "logo": "None", "latitude": 43.67152917236992, "longitude": -79.38944756869982}, "119237766RR0001": {"name": "THE HOLLAND AGRICULTURAL SOCIETY", "designationCode": "C", "categoryCode": "56", "address": "BOX 56", "city": "HOLLAND", "province": "MB", "country": "CA", "postalCode": "R0G0X0", "twitter": "None", "instagram": "None", "facebook": "None", "youtube": "None", "website": "None", "summary": "None", "logo": "None", "latitude": 49.7686281543147, "longitude": -97.632704369717}, "131568651RR0001": {"name": "THE HOLMESTEAD MEMORIAL CAMP SOCIETY", "designationCode": "C", "categoryCode": "49", "address": "131 HIGH STREET", "city": "SYDNEY", "province": "NS", "country": "CA", "postalCode": "B1P2K1", "twitter": "None", "instagram": "None", "facebook": "None", "youtube": "None", "website": "None", "summary": "None", "logo": "None", "latitude": 46.13449961977026, "longitude": -60.179178170263796}, "118959279RR0001": {"name": "THE HOLT FOUNDATION", "designationCode": "B", "categoryCode": "03", "address": "1290 DE PUISEAUX", "city": "QUEBECO", "province": "QC", "country": "CA", "postalCode": "G1T2C8", "twitter": "None", "instagram": "None", "facebook": "None", "youtube": "None", "website": "None", "summary": "None", "logo": "None"}, "884377565RR0001": {"name": "THE HOLY BLOSSOM TEMPLE FOUNDATION", "designationCode": "A", "categoryCode": "43", "address": "1950 BATHURST STREET", "city": "TORONTO", "province": "ON", "country": "CA", "postalCode": "M5P3K9", "twitter": "None", "instagram": "None", "facebook": "None", "youtube": "None", "website": "None", "summary": "None", "logo": "None", "latitude": 43.698401812366626, "longitude": -79.42455313286932}, "139831283RR0001": {"name": "THE HOLY BODY TATTOO SOCIETY", "designationCode": "C", "categoryCode": "22", "address": "104-336 1ST AVE E", "city": "VANCOUVER", "province": "BC", "country": "CA", "postalCode": "V5T4R6", "twitter": "None", "instagram": "None", "facebook": "None", "youtube": "None", "website": "None", "summary": "None", "logo": "None", "latitude": 49.267835582001375, "longitude": -123.09651320970615}, "870641560RR0001": {"name": "THE HOLY FAMILY CHALDEAN CATHOLIC CHURCH", "designationCode": "C", "categoryCode": "39", "address": "686 MARENTETTE AVE", "city": "WINDSOR", "province": "ON", "country": "CA", "postalCode": "N9A1Z4", "twitter": "None", "instagram": "None", "facebook": "None", "youtube": "None", "website": "None", "summary": "None", "logo": "None", "latitude": 42.31735916866194, "longitude": -83.02497153909327}, "130636681RR0001": {"name": "THE HOLY FAMILY HOSPITAL FOUNDATION", "designationCode": "A", "categoryCode": "13", "address": "4865 HEATHER STREET", "city": "VANCOUVER", "province": "BC", "country": "CA", "postalCode": "V5Z0B3", "twitter": "None", "instagram": "None", "facebook": "None", "youtube": "None", "website": "None", "summary": "None", "logo": "None", "latitude": 49.24184697412038, "longitude": -123.12067587898831}, "893417360RR0001": {"name": "THE HOLY GHOST BANNER CHURCH OF GOD", "designationCode": "C", "categoryCode": "39", "address": "PO BOX 538", "city": "PICKERING", "province": "ON", "country": "CA", "postalCode": "L1V2R7", "twitter": "None", "instagram": "None", "facebook": "None", "youtube": "None", "website": "None", "summary": "None", "logo": "None", "latitude": 43.837818000000055, "longitude": -79.08191449999994}, "135565612RR0001": {"name": "THE HOLY MOUNTAIN PRESBYTERIAN CHURCH OF TORONTO", "designationCode": "C", "categoryCode": "37", "address": "1300 CALEDONIA ROAD", "city": "NORTH YORK", "province": "ON", "country": "CA", "postalCode": "M6A3B9", "twitter": "None", "instagram": "None", "facebook": "None", "youtube": "None", "website": "None", "summary": "None", "logo": "None", "latitude": 43.72385586511053, "longitude": -79.46981941217027}, "822129078RR0001": {"name": "THE HOLY ORTHODOX METROPOLIS OF TORONTO, INC.", "designationCode": "C", "categoryCode": "39", "address": "150 STEELES AVE E", "city": "THORNHILL", "province": "ON", "country": "CA", "postalCode": "L3T1A5", "twitter": "None", "instagram": "None", "facebook": "None", "youtube": "None", "website": "None", "summary": "None", "logo": "None", "latitude": 43.80115614920092, "longitude": -79.40620901854338}, "119237782RR0001": {"name": "THE HOLY SCRIPTURES AND ISRAEL BIBLE SOCIETY OF CANADA", "designationCode": "C", "categoryCode": "47", "address": "426 SIMCOE ST                 PO BOX 1411", "city": "NIAGARA-ON-THE-LAKE", "province": "ON", "country": "CA", "postalCode": "L0S1J0", "twitter": "None", "instagram": "None", "facebook": "None", "youtube": "None", "website": "None", "summary": "None", "logo": "None", "latitude": 43.25265027254893, "longitude": -79.08169888758732}, "867488363RR0001": {"name": "THE HOLY TEMPLE CHURCH OF THE LORD JESUS", "designationCode": "C", "categoryCode": "39", "address": "76 HAVILAND CIR", "city": "BRAMPTON", "province": "ON", "country": "CA", "postalCode": "L6R0T7", "twitter": "None", "instagram": "None", "facebook": "None", "youtube": "None", "website": "None", "summary": "None", "logo": "None", "latitude": 43.776652766864764, "longitude": -79.74849549818232}, "890776925RR0001": {"name": "THE HOLY VIRGIN MARY AND SAINT GEORGE COPTIC ORTHODOX CHURCH", "designationCode": "C", "categoryCode": "39", "address": "47 RIVERSHORE DR", "city": "SAINT JOHN", "province": "NB", "country": "CA", "postalCode": "E2K4T5", "twitter": "None", "instagram": "None", "facebook": "None", "youtube": "None", "website": "None", "summary": "None", "logo": "None", "latitude": 45.288997638351944, "longitude": -66.11628753497028}, "107487480RR0001": {"name": "THE HOLYROOD AFTER SCHOOL CARE SOCIETY", "designationCode": "C", "categoryCode": "01", "address": "9411 HOLYROOD RD NW", "city": "EDMONTON", "province": "AB", "country": "CA", "postalCode": "T6C4C4", "twitter": "None", "instagram": "None", "facebook": "None", "youtube": "None", "website": "None", "summary": "None", "logo": "None", "latitude": 53.53119410242325, "longitude": -113.4530487423064}}