{"830102356RR0001": {"name": "PATVIN FOUNDATION INCORPORATED", "designationCode": "B", "categoryCode": "03", "address": "167 LOMBARD AVENUE            SUITE 919", "city": "WINNIPEG", "province": "MB", "country": "CA", "postalCode": "R3B0V3", "twitter": "None", "instagram": "None", "facebook": "None", "youtube": "None", "website": "None", "summary": "None", "logo": "None", "latitude": 49.896166241762224, "longitude": -97.13701499388316}, "845414747RR0001": {"name": "PAUDASH LAKE CONSERVATION ASSOCIATION", "designationCode": "C", "categoryCode": "59", "address": "P. O. BOX 34", "city": "BANCROFT", "province": "ON", "country": "CA", "postalCode": "K0L1C0", "twitter": "None", "instagram": "None", "facebook": "None", "youtube": "None", "website": "None", "summary": "None", "logo": "None", "latitude": 45.03567300000006, "longitude": -77.98000849999994}, "896111440RR0001": {"name": "PAUL B. HELLIWELL FOUNDATION", "designationCode": "B", "categoryCode": "03", "address": "163 BUTTERMILL AVENUE         SUITE 6", "city": "CONCORD", "province": "ON", "country": "CA", "postalCode": "L4K3X8", "twitter": "None", "instagram": "None", "facebook": "None", "youtube": "None", "website": "None", "summary": "None", "logo": "None", "latitude": 43.80220099001668, "longitude": -79.53158919854032}, "833023278RR0001": {"name": "PAUL BRONFMAN FAMILY FOUNDATION", "designationCode": "B", "categoryCode": "05", "address": "800 ISLINGTON AVE", "city": "ETOBICOKE", "province": "ON", "country": "CA", "postalCode": "M8Z6A1", "twitter": "None", "instagram": "None", "facebook": "None", "youtube": "None", "website": "None", "summary": "None", "logo": "None", "latitude": 43.6170393291593, "longitude": -79.5105712001555}, "873433866RR0001": {"name": "PAUL PENNA DOWNTOWN JEWISH DAY SCHOOL", "designationCode": "C", "categoryCode": "20", "address": "750 SPADINA AVENUE            2ND FLOOR", "city": "TORONTO", "province": "ON", "country": "CA", "postalCode": "M5S2J2", "twitter": "None", "instagram": "None", "facebook": "None", "youtube": "None", "website": "None", "summary": "None", "logo": "None", "latitude": 43.666290388279826, "longitude": -79.40368890899627}, "889291399RR0001": {"name": "PAUL SHOKAR MEMORIAL HOSPITAL FOUNDATION", "designationCode": "C", "categoryCode": "10", "address": "STE 1816-1177 WEST HASTINGS ST", "city": "VANCOUVER", "province": "BC", "country": "CA", "postalCode": "V6E2K3", "twitter": "None", "instagram": "None", "facebook": "None", "youtube": "None", "website": "None", "summary": "None", "logo": "None", "latitude": 49.288649048588965, "longitude": -123.1221220732588}, "119086924RR0001": {"name": "PAUL'S MISSION CHURCH", "designationCode": "C", "categoryCode": "36", "address": "2673 MAPLEGROVE RD", "city": "PETERBOROUGH", "province": "ON", "country": "CA", "postalCode": "K9J6X4", "twitter": "None", "instagram": "None", "facebook": "None", "youtube": "None", "website": "None", "summary": "None", "logo": "None", "latitude": 44.26660277612353, "longitude": -78.41032052108717}, "107824526RR0001": {"name": "PAULIN MEMORIAL PRESBYTERIAN CHURCH", "designationCode": "C", "categoryCode": "37", "address": "3200 WOODLAND AVE", "city": "WINDSOR", "province": "ON", "country": "CA", "postalCode": "N9E1Z5", "twitter": "None", "instagram": "None", "facebook": "None", "youtube": "None", "website": "None", "summary": "None", "logo": "None", "latitude": 42.26665296670317, "longitude": -83.0160128578685}, "896533205RR0001": {"name": "PAULINE'S PLACE NON-PROFIT HOMES INC.", "designationCode": "C", "categoryCode": "01", "address": "923 QUEEN STREET EAST", "city": "SAULT STE MARIE", "province": "ON", "country": "CA", "postalCode": "P6A2B7", "twitter": "None", "instagram": "None", "facebook": "None", "youtube": "None", "website": "None", "summary": "None", "logo": "None", "latitude": 46.50559449567218, "longitude": -84.32057461088345}, "132144908RR0001": {"name": "PAULIST FATHERS OF TORONTO", "designationCode": "C", "categoryCode": "46", "address": "B - 120 MARKET ST", "city": "BRANTFORD", "province": "ON", "country": "CA", "postalCode": "N3T3A1", "twitter": "None", "instagram": "None", "facebook": "None", "youtube": "None", "website": "None", "summary": "None", "logo": "None", "latitude": 43.14235183596861, "longitude": -80.26402096476991}, "886069517RR0001": {"name": "PAULS INDIAN MISSION", "designationCode": "C", "categoryCode": "47", "address": "3520 FRANCIS ROAD", "city": "RICHMOND", "province": "BC", "country": "CA", "postalCode": "V7C1J3", "twitter": "None", "instagram": "None", "facebook": "None", "youtube": "None", "website": "None", "summary": "None", "logo": "None", "latitude": 49.14828548124546, "longitude": -123.188121}, "139329932RR0001": {"name": "PAUSE PARENTS-ENFANTS DE VERDUN INC", "designationCode": "C", "categoryCode": "09", "address": "4901, WELLINGTON", "city": "VERDUN", "province": "QC", "country": "CA", "postalCode": "H4G1X8", "twitter": "None", "instagram": "None", "facebook": "None", "youtube": "None", "website": "None", "summary": "None", "logo": "None", "latitude": 45.45656379739165, "longitude": -73.56764879046675}, "875147928RR0001": {"name": "PAUSE-FAMILLE INC", "designationCode": "C", "categoryCode": "09", "address": "10780 RUE LAVERDURE           BUREAU R108", "city": "MONTREAL", "province": "QC", "country": "CA", "postalCode": "H3L2L9", "twitter": "None", "instagram": "None", "facebook": "None", "youtube": "None", "website": "None", "summary": "None", "logo": "None", "latitude": 45.55253309351391, "longitude": -73.67173931738695}, "107842288RR0001": {"name": "PAVED ART + NEW MEDIA INC.", "designationCode": "C", "categoryCode": "22", "address": "424 20TH ST WEST", "city": "SASKATOON", "province": "SK", "country": "CA", "postalCode": "S7M0X4", "twitter": "None", "instagram": "None", "facebook": "None", "youtube": "None", "website": "None", "summary": "None", "logo": "None", "latitude": 52.1261724532574, "longitude": -106.67591983236194}, "107825929RR0001": {"name": "PAVILION FAMILY RESOURCE CENTRE", "designationCode": "C", "categoryCode": "09", "address": "P.O. BOX 37  345 CECIL STREET", "city": "HAILEYBURY", "province": "ON", "country": "CA", "postalCode": "P0J1K0", "twitter": "None", "instagram": "None", "facebook": "None", "youtube": "None", "website": "None", "summary": "None", "logo": "None", "latitude": 47.44513048600598, "longitude": -79.6328235}, "133194084RR0001": {"name": "PAVILLON AMOS INC.", "designationCode": "C", "categoryCode": "01", "address": "121 AVENUE GOUIN", "city": "AMOS", "province": "QC", "country": "CA", "postalCode": "J9T1R9", "twitter": "None", "instagram": "None", "facebook": "None", "youtube": "None", "website": "None", "summary": "None", "logo": "None", "latitude": 48.57358053375818, "longitude": -78.11927108381903}, "104110424RR0001": {"name": "PAVILLON D'EDUCATION COMMUNAUTAIRE HOCHELAGA-MAISONNEUVE", "designationCode": "C", "categoryCode": "59", "address": "1691 BOUL PIE-IX", "city": "MONTREAL", "province": "QC", "country": "CA", "postalCode": "H1V2C3", "twitter": "None", "instagram": "None", "facebook": "None", "youtube": "None", "website": "None", "summary": "None", "logo": "None", "latitude": 45.549584819348844, "longitude": -73.53872267288952}, "884316183RR0001": {"name": "PAVILLON DE L'ASSUETUDE", "designationCode": "C", "categoryCode": "57", "address": "1852 AVENUE GEORGES", "city": "SHAWINIGAN", "province": "QC", "country": "CA", "postalCode": "G9N2N3", "twitter": "None", "instagram": "None", "facebook": "None", "youtube": "None", "website": "None", "summary": "None", "logo": "None", "latitude": 46.55386464943178, "longitude": -72.74518495236333}, "857593487RR0001": {"name": "PAVILLON DE L'HARMONIE", "designationCode": "C", "categoryCode": "09", "address": "404, BOUL. TERREBONNE, SUITE 1", "city": "TERREBONNE", "province": "QC", "country": "CA", "postalCode": "J6W2G8", "twitter": "None", "instagram": "None", "facebook": "None", "youtube": "None", "website": "None", "summary": "None", "logo": "None", "latitude": 45.69622184373026, "longitude": -73.6276486117775}, "107826216RR0001": {"name": "PAVILLON DE LUCEVILLE INC.", "designationCode": "C", "categoryCode": "01", "address": "48 RUE ST-PIERRE EST", "city": "SAINTE-LUCE", "province": "QC", "country": "CA", "postalCode": "G0K1P0", "twitter": "None", "instagram": "None", "facebook": "None", "youtube": "None", "website": "None", "summary": "None", "logo": "None", "latitude": 48.52945088278436, "longitude": -68.3459329149275}, "119086981RR0001": {"name": "PAVILLON DE PREVENTION DE MALADIES CARDIAQUES P.P.M.C.", "designationCode": "C", "categoryCode": "11", "address": "14 JARDINS DE MERICI, APP#1008", "city": "QUEBEC", "province": "QC", "country": "CA", "postalCode": "G1S4Z6", "twitter": "None", "instagram": "None", "facebook": "None", "youtube": "None", "website": "None", "summary": "None", "logo": "None", "latitude": 46.79395438802002, "longitude": -71.23133957017077}, "104110465RR0001": {"name": "PAVILLON DES FILLES DE MARIE INC.", "designationCode": "C", "categoryCode": "49", "address": "626 ROUTE DU SANCTUAIRE", "city": "LAC ETCHEMIN", "province": "QC", "country": "CA", "postalCode": "G0R1S0", "twitter": "None", "instagram": "None", "facebook": "None", "youtube": "None", "website": "None", "summary": "None", "logo": "None", "latitude": 46.38889625578277, "longitude": -70.50398658702751}, "119087005RR0001": {"name": "PAVILLON DES FILS DE MARIE INC.", "designationCode": "C", "categoryCode": "49", "address": "626, ROUTE DU SANCTUAIRE", "city": "LAC-ETCHEMIN", "province": "QC", "country": "CA", "postalCode": "G0R1S0", "twitter": "None", "instagram": "None", "facebook": "None", "youtube": "None", "website": "None", "summary": "None", "logo": "None", "latitude": 46.38889625578277, "longitude": -70.50398658702751}, "120996855RR0001": {"name": "PAVILLON DES VETERANS DE CHARLESBOURG INC", "designationCode": "C", "categoryCode": "01", "address": "9155 BOULEVARD MATHIEU", "city": "QU\u00c9BEC", "province": "QC", "country": "CA", "postalCode": "G1G6J9", "twitter": "None", "instagram": "None", "facebook": "None", "youtube": "None", "website": "None", "summary": "None", "logo": "None", "latitude": 46.868859169282835, "longitude": -71.27390393334899}, "119087021RR0001": {"name": "PAVILLON DUROCHER INC.", "designationCode": "C", "categoryCode": "01", "address": "5 RUE PRINCIPALE SUD          C.P.10", "city": "SAINT-HUBERT-RIVI\u00c8RE-DU-LOUP", "province": "QC", "country": "CA", "postalCode": "G0L3L0", "twitter": "None", "instagram": "None", "facebook": "None", "youtube": "None", "website": "None", "summary": "None", "logo": "None", "latitude": 47.81432653981773, "longitude": -69.14747603929811}, "120816400RR0001": {"name": "PAVILLON LEOPOLD-MAYRAND", "designationCode": "C", "categoryCode": "09", "address": "55, RUE LEVESQUE", "city": "SACRE-COEUR-SAGUENAY", "province": "QC", "country": "CA", "postalCode": "G0T1Y0", "twitter": "None", "instagram": "None", "facebook": "None", "youtube": "None", "website": "None", "summary": "None", "logo": "None", "latitude": 48.23148149321933, "longitude": -69.79992252844941}, "119087096RR0001": {"name": "PAVILLON MARGUERITE DE CHAMPLAIN", "designationCode": "C", "categoryCode": "09", "address": "C.P. 51535", "city": "GREENFIELD PARK", "province": "QC", "country": "CA", "postalCode": "J4V3N8", "twitter": "None", "instagram": "None", "facebook": "None", "youtube": "None", "website": "None", "summary": "None", "logo": "None", "latitude": 45.491991000000056, "longitude": -73.48667299999994}, "887613453RR0001": {"name": "PAVILLON MARIE HERMINE", "designationCode": "C", "categoryCode": "01", "address": "80 LAURIER EST", "city": "MONTREAL", "province": "QC", "country": "CA", "postalCode": "H2T1E6", "twitter": "None", "instagram": "None", "facebook": "None", "youtube": "None", "website": "None", "summary": "None", "logo": "None", "latitude": 45.52402440354327, "longitude": -73.59190679014962}, "849031521RR0001": {"name": "PAVILLON PATRICIA MACKENZIE / PATRICIA MACKENZIE PAVILION", "designationCode": "C", "categoryCode": "09", "address": "902 BOUL SAINT-LAURENT", "city": "MONTREAL", "province": "QC", "country": "CA", "postalCode": "H2Z1J2", "twitter": "None", "instagram": "None", "facebook": "None", "youtube": "None", "website": "None", "summary": "None", "logo": "None", "latitude": 45.507019851780306, "longitude": -73.55763454108713}, "119087062RR0001": {"name": "PAVILLON PIERRE-PELADEAU INC.", "designationCode": "C", "categoryCode": "57", "address": "3050 1ER RANG DE DONCASTER", "city": "VAL-DAVID", "province": "QC", "country": "CA", "postalCode": "J0T2N0", "twitter": "None", "instagram": "None", "facebook": "None", "youtube": "None", "website": "None", "summary": "None", "logo": "None", "latitude": 46.045625715851656, "longitude": -74.19842501783091}, "873399067RR0001": {"name": "PAVILLON SAINT-JOSEPH - INFIRMERIE DES SOEURS DE SAINTE-CROIX", "designationCode": "C", "categoryCode": "49", "address": "900 CHEMIN COTE VERTU", "city": "SAINT-LAURENT", "province": "QC", "country": "CA", "postalCode": "H4L4T9", "twitter": "None", "instagram": "None", "facebook": "None", "youtube": "None", "website": "None", "summary": "None", "logo": "None", "latitude": 45.51667897916799, "longitude": -73.6746147693176}, "119087138RR0001": {"name": "PAVILLON ST-ARNAUD INC.", "designationCode": "C", "categoryCode": "56", "address": "CP 1383 PDF 1", "city": "TROIS-RIVIERES", "province": "QC", "country": "CA", "postalCode": "G9A5L2", "twitter": "None", "instagram": "None", "facebook": "None", "youtube": "None", "website": "None", "summary": "None", "logo": "None", "latitude": 46.34016900000006, "longitude": -72.54503449999993}, "890028665RR0001": {"name": "PAVILLON ST-PHILIPPE", "designationCode": "C", "categoryCode": "21", "address": "820 RUE BEAUREGARD", "city": "QUEBEC", "province": "QC", "country": "CA", "postalCode": "G1V2Y2", "twitter": "None", "instagram": "None", "facebook": "None", "youtube": "None", "website": "None", "summary": "None", "logo": "None", "latitude": 46.78276886594724, "longitude": -71.28925884932748}, "132184490RR0001": {"name": "PAVILLONS DU NOUVEAU POINT DE VUE INC.", "designationCode": "C", "categoryCode": "57", "address": "356, RUE NOTRE-DAME", "city": "LANORAIE", "province": "QC", "country": "CA", "postalCode": "J0K1E0", "twitter": "None", "instagram": "None", "facebook": "None", "youtube": "None", "website": "None", "summary": "None", "logo": "None", "latitude": 45.95775675405416, "longitude": -73.22052825428531}, "891571960RR0001": {"name": "PAVLYCHENKO FOLKLORIQUE ENSEMBLE", "designationCode": "C", "categoryCode": "22", "address": "407 CUMBERLAND AVE SOUTH", "city": "SASKATOON", "province": "SK", "country": "CA", "postalCode": "S7H2L3", "twitter": "None", "instagram": "None", "facebook": "None", "youtube": "None", "website": "None", "summary": "None", "logo": "None", "latitude": 52.12143900000001, "longitude": -106.63463726501844}, "830848727RR0001": {"name": "PAWPRINTS ANIMAL RESCUE FOUNDATION", "designationCode": "C", "categoryCode": "54", "address": "PO BOX 515", "city": "CHASE", "province": "BC", "country": "CA", "postalCode": "V0E1M0", "twitter": "None", "instagram": "None", "facebook": "None", "youtube": "None", "website": "None", "summary": "None", "logo": "None", "latitude": 50.81957044779206, "longitude": -119.68762346689822}, "855864534RR0001": {"name": "PAWS AND CLAWS ANIMAL RESCUE FOUNDATION", "designationCode": "C", "categoryCode": "54", "address": "P.O BOX 26062", "city": "RED DEER", "province": "AB", "country": "CA", "postalCode": "T4N6X7", "twitter": "None", "instagram": "None", "facebook": "None", "youtube": "None", "website": "None", "summary": "None", "logo": "None", "latitude": 52.26852300000006, "longitude": -113.80901299999994}, "890974710RR0001": {"name": "PAWS AND WHISKERS SANCTUARY INC.", "designationCode": "C", "categoryCode": "54", "address": "PO BOX 4816", "city": "SUSSEX", "province": "NB", "country": "CA", "postalCode": "E4E5L1", "twitter": "None", "instagram": "None", "facebook": "None", "youtube": "None", "website": "None", "summary": "None", "logo": "None", "latitude": 45.72363300000005, "longitude": -65.51253349999993}, "859716318RR0001": {"name": "PAWS FOR INDEPENDENCE ASSOCIATION", "designationCode": "C", "categoryCode": "01", "address": "13488 235 ST", "city": "MAPLE RIDGE", "province": "BC", "country": "CA", "postalCode": "V4R2W3", "twitter": "None", "instagram": "None", "facebook": "None", "youtube": "None", "website": "None", "summary": "None", "logo": "None", "latitude": 49.24748774635566, "longitude": -122.56873496610298}, "889165577RR0001": {"name": "PAWS PEOPLES ANIMAL WELFARE SOCIETY", "designationCode": "C", "categoryCode": "54", "address": "2300 LAWRENCE AVENUE EAST     PO BOX 73039", "city": "TORONTO", "province": "ON", "country": "CA", "postalCode": "M1P2R2", "twitter": "None", "instagram": "None", "facebook": "None", "youtube": "None", "website": "None", "summary": "None", "logo": "None", "latitude": 43.7492616812254, "longitude": -79.27658929999521}, "896796695RR0001": {"name": "PAX CHRISTI CHORALE", "designationCode": "C", "categoryCode": "22", "address": "PO BOX 91048                  RPO BAYVIEW VILLAGE", "city": "NORTH YORK", "province": "ON", "country": "CA", "postalCode": "M2K2Y6", "twitter": "None", "instagram": "None", "facebook": "None", "youtube": "None", "website": "None", "summary": "None", "logo": "None", "latitude": 43.769519988314656, "longitude": -79.38667004789546}, "107827362RR0001": {"name": "PAX NATURA SOCIETY FOR REHABILITATION OF THE DEAF", "designationCode": "C", "categoryCode": "09", "address": "11460-60 AVENUE", "city": "EDMONTON", "province": "AB", "country": "CA", "postalCode": "T6H1J5", "twitter": "None", "instagram": "None", "facebook": "None", "youtube": "None", "website": "None", "summary": "None", "logo": "None", "latitude": 53.49698346047075, "longitude": -113.52836186081134}, "119288918RR1296": {"name": "PAZ CONGREGATION OF JEHOVAH'S WITNESSES", "designationCode": "C", "categoryCode": "61", "address": "2875 THOMAS ST", "city": "MISSISSAUGA", "province": "ON", "country": "CA", "postalCode": "L5M5T7", "twitter": "None", "instagram": "None", "facebook": "None", "youtube": "None", "website": "None", "summary": "None", "logo": "None", "latitude": 43.563748178486776, "longitude": -79.73039447131944}, "895562510RR0001": {"name": "PBS CENTRE INC.", "designationCode": "C", "categoryCode": "47", "address": "P.O. BOX 110", "city": "PORTAGE LA PRAIRIE", "province": "MB", "country": "CA", "postalCode": "R1N3B2", "twitter": "None", "instagram": "None", "facebook": "None", "youtube": "None", "website": "None", "summary": "None", "logo": "None", "latitude": 49.97301900000005, "longitude": -98.29058299999993}, "893376327RR0001": {"name": "PCC Prostate Cancer Centre", "designationCode": "C", "categoryCode": "11", "address": "6500-7007 14 STREET SOUTHWEST", "city": "CALGARY", "province": "AB", "country": "CA", "postalCode": "T2V1P9", "twitter": "None", "instagram": "None", "facebook": "None", "youtube": "None", "website": "None", "summary": "None", "logo": "None", "latitude": 50.99100643767682, "longitude": -114.09556350173077}, "782554687RR0001": {"name": "PCHS Foundation / Fondation PCHS", "designationCode": "A", "categoryCode": "03", "address": "50 SUNNY MEADOW BOULEVARD     UNIT 201", "city": "BRAMPTON", "province": "ON", "country": "CA", "postalCode": "L6R0Y7", "twitter": "None", "instagram": "None", "facebook": "None", "youtube": "None", "website": "None", "summary": "None", "logo": "None", "latitude": 43.752161651941925, "longitude": -79.7426711281088}, "891537060RR0001": {"name": "PEACE - LIARD REGIONAL ARTS COUNCIL", "designationCode": "C", "categoryCode": "22", "address": "PO BOX 27", "city": "ROLLA", "province": "BC", "country": "CA", "postalCode": "V0C2G0", "twitter": "None", "instagram": "None", "facebook": "None", "youtube": "None", "website": "None", "summary": "None", "logo": "None", "latitude": 55.89880702303616, "longitude": -120.1405275}, "871795597RR0001": {"name": "PEACE ARCH HOSPITAL AUXILIARY SOCIETY", "designationCode": "A", "categoryCode": "19", "address": "15521 RUSSELL AVENUE", "city": "WHITE ROCK", "province": "BC", "country": "CA", "postalCode": "V4B2R4", "twitter": "None", "instagram": "None", "facebook": "None", "youtube": "None", "website": "None", "summary": "None", "logo": "None", "latitude": 49.02937780491054, "longitude": -122.79174043279416}, "119087203RR0001": {"name": "PEACE AREA CRUSADE (1987) ASSOCIATION, GRANDE PRAIRIE", "designationCode": "C", "categoryCode": "49", "address": "111 - 10530 117 AVE", "city": "GRANDE PRAIRIE", "province": "AB", "country": "CA", "postalCode": "T8V7N7", "twitter": "None", "instagram": "None", "facebook": "None", "youtube": "None", "website": "None", "summary": "None", "logo": "None", "latitude": 55.186476317752884, "longitude": -118.81179454214727}, "119158186RR0001": {"name": "PEACE AREA RIDING FOR THE DISABLED SOCIETY", "designationCode": "C", "categoryCode": "56", "address": "710009 RANGE ROAD 55", "city": "COUNTY OF GRANDE PRAIRIE NO. 1", "province": "AB", "country": "CA", "postalCode": "T8W5A7", "twitter": "None", "instagram": "None", "facebook": "None", "youtube": "None", "website": "None", "summary": "None", "logo": "None", "latitude": 55.12405381249933, "longitude": -118.7436805125004}, "891570145RR0001": {"name": "PEACE ARTS GALLERY SOCIETY", "designationCode": "C", "categoryCode": "22", "address": "10015 100TH AVE", "city": "FORT ST JOHN", "province": "BC", "country": "CA", "postalCode": "V1J1Y7", "twitter": "None", "instagram": "None", "facebook": "None", "youtube": "None", "website": "None", "summary": "None", "logo": "None", "latitude": 56.24636923382872, "longitude": -120.84782968812686}, "892728049RR0001": {"name": "PEACE BAPTIST CHURCH", "designationCode": "C", "categoryCode": "31", "address": "6064 RUPERT STREET", "city": "VANCOUVER", "province": "BC", "country": "CA", "postalCode": "V5S3A2", "twitter": "None", "instagram": "None", "facebook": "None", "youtube": "None", "website": "None", "summary": "None", "logo": "None", "latitude": 49.22849564752718, "longitude": -123.04285399330624}, "133444117RR0001": {"name": "PEACE BRIGADES INTERNATIONAL, CANADA", "designationCode": "C", "categoryCode": "59", "address": "211 BRONSON AVENUE            SUITE 220", "city": "OTTAWA", "province": "ON", "country": "CA", "postalCode": "K1R6H5", "twitter": "None", "instagram": "None", "facebook": "None", "youtube": "None", "website": "None", "summary": "None", "logo": "None", "latitude": 45.41349725618897, "longitude": -75.7068905103587}, "854940731RR0001": {"name": "PEACE BY PEACE", "designationCode": "C", "categoryCode": "20", "address": "21 SUSSEX AVE                 STE 531", "city": "TORONTO", "province": "ON", "country": "CA", "postalCode": "M5S1J6", "twitter": "None", "instagram": "None", "facebook": "None", "youtube": "None", "website": "None", "summary": "None", "logo": "None", "latitude": 43.66497482763007, "longitude": -79.4009748985516}, "890888993RR0001": {"name": "PEACE COMMUNITY CHURCH SOCIETY", "designationCode": "C", "categoryCode": "31", "address": "BOX 326", "city": "TAYLOR", "province": "BC", "country": "CA", "postalCode": "V0C2K0", "twitter": "None", "instagram": "None", "facebook": "None", "youtube": "None", "website": "None", "summary": "None", "logo": "None", "latitude": 56.13057231694927, "longitude": -120.6692133147222}, "892776642RR0001": {"name": "PEACE COUNTRY BIBLE COLLEGE OF MANIFEST STUDIES", "designationCode": "C", "categoryCode": "39", "address": "107 TEGLER GATE NW", "city": "EDMONTON", "province": "AB", "country": "CA", "postalCode": "T6R3A4", "twitter": "None", "instagram": "None", "facebook": "None", "youtube": "None", "website": "None", "summary": "None", "logo": "None", "latitude": 53.45267500582838, "longitude": -113.57350542391393}, "846042372RR0001": {"name": "PEACE COUNTRY GLEANERS SOCIETY", "designationCode": "C", "categoryCode": "09", "address": "PO BOX 707", "city": "LA CRETE", "province": "AB", "country": "CA", "postalCode": "T0H2H0", "twitter": "None", "instagram": "None", "facebook": "None", "youtube": "None", "website": "None", "summary": "None", "logo": "None", "latitude": 58.18348000000003, "longitude": -116.40267999999998}, "861812519RR0001": {"name": "PEACE COUNTRY RENEWAL MINISTRIES SOCIETY", "designationCode": "C", "categoryCode": "47", "address": "SS 2 SITE 13 C-8", "city": "FORT ST. JOHN", "province": "BC", "country": "CA", "postalCode": "V1J4M7", "twitter": "None", "instagram": "None", "facebook": "None", "youtube": "None", "website": "None", "summary": "None", "logo": "None", "latitude": 56.22043200000006, "longitude": -120.79753099999994}, "895339588RR0001": {"name": "PEACE EVANGELICAL CHURCH", "designationCode": "C", "categoryCode": "39", "address": "8280 NO 5 RD", "city": "RICHMOND", "province": "BC", "country": "CA", "postalCode": "V6Y2V4", "twitter": "None", "instagram": "None", "facebook": "None", "youtube": "None", "website": "None", "summary": "None", "logo": "None", "latitude": 49.152915965871, "longitude": -123.09172148103549}, "108135765RR0001": {"name": "PEACE EVANGELICAL LUTHERAN CHURCH", "designationCode": "C", "categoryCode": "32", "address": "2001 2ND AVENUE", "city": "TRAIL", "province": "BC", "country": "CA", "postalCode": "V1R1N4", "twitter": "None", "instagram": "None", "facebook": "None", "youtube": "None", "website": "None", "summary": "None", "logo": "None", "latitude": 49.09634363224329, "longitude": -117.69444765324866}, "108187832RR0001": {"name": "PEACE EVANGELICAL LUTHERAN CHURCH", "designationCode": "C", "categoryCode": "32", "address": "526 5 AVE", "city": "WAINWRIGHT", "province": "AB", "country": "CA", "postalCode": "T9W1B1", "twitter": "None", "instagram": "None", "facebook": "None", "youtube": "None", "website": "None", "summary": "None", "logo": "None"}, "119087286RR0001": {"name": "PEACE EVANGELICAL LUTHERAN CHURCH OF SPRUCE GROVE", "designationCode": "C", "categoryCode": "32", "address": "303 CHURCH ROAD", "city": "SPRUCE GROVE", "province": "AB", "country": "CA", "postalCode": "T7X0G2", "twitter": "None", "instagram": "None", "facebook": "None", "youtube": "None", "website": "None", "summary": "None", "logo": "None", "latitude": 53.54359947879259, "longitude": -113.90231244186042}, "838909521RR0001": {"name": "PEACE HAVEN FREE REFORMED ASSOCIATION", "designationCode": "C", "categoryCode": "01", "address": "6 ONEIDA DRIVE", "city": "BRANTFORD", "province": "ON", "country": "CA", "postalCode": "N3S7X8", "twitter": "None", "instagram": "None", "facebook": "None", "youtube": "None", "website": "None", "summary": "None", "logo": "None", "latitude": 43.152883962808005, "longitude": -80.21050852596791}, "894782069RR0001": {"name": "PEACE INTERNATIONAL CHRISTIAN CHURCH (PICC)", "designationCode": "C", "categoryCode": "39", "address": "PO BOX 426-10688 KING GEORGE  HIGHWAY", "city": "SURREY", "province": "BC", "country": "CA", "postalCode": "V3T5B7", "twitter": "None", "instagram": "None", "facebook": "None", "youtube": "None", "website": "None", "summary": "None", "logo": "None", "latitude": 49.19701187412167, "longitude": -122.84517396262022}, "892295767RR0001": {"name": "PEACE KOREAN EVANGELICAL CHURCH", "designationCode": "C", "categoryCode": "39", "address": "2333 VICTORIA PARK AVENUE", "city": "SCARBOROUGH", "province": "ON", "country": "CA", "postalCode": "M1R1W6", "twitter": "None", "instagram": "None", "facebook": "None", "youtube": "None", "website": "None", "summary": "None", "logo": "None", "latitude": 43.765240724681135, "longitude": -79.31835801800474}, "107828451RR0001": {"name": "PEACE LATVIAN EVANGELICAL LUTHERAN CHURCH", "designationCode": "C", "categoryCode": "32", "address": "83, MAIN ST.", "city": "OTTAWA", "province": "ON", "country": "CA", "postalCode": "K1S1B5", "twitter": "None", "instagram": "None", "facebook": "None", "youtube": "None", "website": "None", "summary": "None", "logo": "None", "latitude": 45.41214745519061, "longitude": -75.67976294696766}, "892567660RR0001": {"name": "PEACE LUTHERAN BIBLE CAMP ASSOCIATION", "designationCode": "C", "categoryCode": "56", "address": "6117 93 ST", "city": "GRANDE PRAIRIE", "province": "AB", "country": "CA", "postalCode": "T8W2E7", "twitter": "None", "instagram": "None", "facebook": "None", "youtube": "None", "website": "None", "summary": "None", "logo": "None", "latitude": 55.135591795169944, "longitude": -118.7701940982171}, "107828519RR0001": {"name": "PEACE LUTHERAN CHURCH", "designationCode": "C", "categoryCode": "32", "address": "1985 ROSSINI BLVD.", "city": "WINDSOR", "province": "ON", "country": "CA", "postalCode": "N8W4P6", "twitter": "None", "instagram": "None", "facebook": "None", "youtube": "None", "website": "None", "summary": "None", "logo": "None", "latitude": 42.306725337209365, "longitude": -82.97400084779827}, "107828543RR0001": {"name": "PEACE LUTHERAN CHURCH", "designationCode": "C", "categoryCode": "32", "address": "BOX 159", "city": "YELLOW GRASS", "province": "SK", "country": "CA", "postalCode": "S0G5J0", "twitter": "None", "instagram": "None", "facebook": "None", "youtube": "None", "website": "None", "summary": "None", "logo": "None", "latitude": 49.80731000000003, "longitude": -104.15831999999995}, "119087369RR0001": {"name": "PEACE LUTHERAN CHURCH", "designationCode": "C", "categoryCode": "32", "address": "BOX 68", "city": "MOOSEHORN", "province": "MB", "country": "CA", "postalCode": "R0C2E0", "twitter": "None", "instagram": "None", "facebook": "None", "youtube": "None", "website": "None", "summary": "None", "logo": "None", "latitude": 51.29192000000006, "longitude": -98.42536999999999}, "119087435RR0001": {"name": "PEACE LUTHERAN CHURCH", "designationCode": "C", "categoryCode": "32", "address": "PO BOX 1059", "city": "CLARESHOLM", "province": "AB", "country": "CA", "postalCode": "T0L0T0", "twitter": "None", "instagram": "None", "facebook": "None", "youtube": "None", "website": "None", "summary": "None", "logo": "None", "latitude": 50.026080000000036, "longitude": -113.58213999999998}, "119087443RR0001": {"name": "PEACE LUTHERAN CHURCH", "designationCode": "C", "categoryCode": "32", "address": "4027 - 48 AVENUE", "city": "INNISFAIL", "province": "AB", "country": "CA", "postalCode": "T4G1J6", "twitter": "None", "instagram": "None", "facebook": "None", "youtube": "None", "website": "None", "summary": "None", "logo": "None", "latitude": 52.01758084401871, "longitude": -113.94489594240868}, "119087468RR0001": {"name": "PEACE LUTHERAN CHURCH", "designationCode": "C", "categoryCode": "32", "address": "2029 WARE STREET", "city": "ABBOTSFORD", "province": "BC", "country": "CA", "postalCode": "V2S3C3", "twitter": "None", "instagram": "None", "facebook": "None", "youtube": "None", "website": "None", "summary": "None", "logo": "None", "latitude": 49.038768000000005, "longitude": -122.30463245063166}, "131485351RR0001": {"name": "PEACE LUTHERAN CHURCH", "designationCode": "C", "categoryCode": "32", "address": "70 YOUNG STREET", "city": "TILLSONBURG", "province": "ON", "country": "CA", "postalCode": "N4G3H7", "twitter": "None", "instagram": "None", "facebook": "None", "youtube": "None", "website": "None", "summary": "None", "logo": "None", "latitude": 42.850670034948024, "longitude": -80.72292456381304}, "129584355RR0001": {"name": "PEACE LUTHERAN CHURCH INC.", "designationCode": "C", "categoryCode": "32", "address": "350 GILMORE AVENUE", "city": "WINNIPEG", "province": "MB", "country": "CA", "postalCode": "R2G2B7", "twitter": "None", "instagram": "None", "facebook": "None", "youtube": "None", "website": "None", "summary": "None", "logo": "None", "latitude": 49.947098282792055, "longitude": -97.07182121207207}, "131555922RR0001": {"name": "PEACE LUTHERAN CHURCH OF BAY RIDGES,", "designationCode": "C", "categoryCode": "32", "address": "928 LIVERPOOL RD", "city": "PICKERING", "province": "ON", "country": "CA", "postalCode": "L1W1S6", "twitter": "None", "instagram": "None", "facebook": "None", "youtube": "None", "website": "None", "summary": "None", "logo": "None", "latitude": 43.8279086375152, "longitude": -79.08700554126001}, "119087328RR0001": {"name": "PEACE LUTHERAN CHURCH OF CALGARY", "designationCode": "C", "categoryCode": "32", "address": "14640 6 ST SW", "city": "CALGARY", "province": "AB", "country": "CA", "postalCode": "T2Y0E1", "twitter": "None", "instagram": "None", "facebook": "None", "youtube": "None", "website": "None", "summary": "None", "logo": "None", "latitude": 50.922142575076464, "longitude": -114.07769044627516}, "107828618RR0001": {"name": "PEACE LUTHERAN CHURCH OF SIDNEY, BRITISH COLUMBIA", "designationCode": "C", "categoryCode": "32", "address": "2295 WEILER AVENUE", "city": "SIDNEY", "province": "BC", "country": "CA", "postalCode": "V8L1R9", "twitter": "None", "instagram": "None", "facebook": "None", "youtube": "None", "website": "None", "summary": "None", "logo": "None", "latitude": 48.6412575212074, "longitude": -123.404472}, "107828550RR0001": {"name": "PEACE LUTHERAN CHURCH TABER ALBERTA", "designationCode": "C", "categoryCode": "32", "address": "4619 56 AVENUE", "city": "TABER", "province": "AB", "country": "CA", "postalCode": "T1G1G8", "twitter": "None", "instagram": "None", "facebook": "None", "youtube": "None", "website": "None", "summary": "None", "logo": "None", "latitude": 49.79225245268045, "longitude": -112.157343}, "131434060RR0001": {"name": "PEACE LUTHERAN CHURCH,", "designationCode": "C", "categoryCode": "32", "address": "PO BOX 520", "city": "GRENFELL", "province": "SK", "country": "CA", "postalCode": "S0G2B0", "twitter": "None", "instagram": "None", "facebook": "None", "youtube": "None", "website": "None", "summary": "None", "logo": "None", "latitude": 50.411193000000054, "longitude": -102.92259049999993}, "132201229RR0001": {"name": "PEACE LUTHERAN CHURCH,", "designationCode": "C", "categoryCode": "32", "address": "9812 - 108TH AVE", "city": "FORT ST. JOHN", "province": "BC", "country": "CA", "postalCode": "V1J2R3", "twitter": "None", "instagram": "None", "facebook": "None", "youtube": "None", "website": "None", "summary": "None", "logo": "None", "latitude": 56.25381252986306, "longitude": -120.8449429417162}, "862170347RR0001": {"name": "PEACE LUTHERAN CHURCH, RUSH LAKE, SASKATCHEWAN", "designationCode": "C", "categoryCode": "32", "address": "BOX 74", "city": "WALDECK", "province": "SK", "country": "CA", "postalCode": "S0H4J0", "twitter": "None", "instagram": "None", "facebook": "None", "youtube": "None", "website": "None", "summary": "None", "logo": "None", "latitude": 50.366760000000056, "longitude": -107.60132999999996}, "107828626RR0001": {"name": "PEACE LUTHERAN CONGREGATION OF VERNON, BRITISH COLUMBIA", "designationCode": "C", "categoryCode": "32", "address": "1204 30TH AVE", "city": "VERNON", "province": "BC", "country": "CA", "postalCode": "V1T1Z5", "twitter": "None", "instagram": "None", "facebook": "None", "youtube": "None", "website": "None", "summary": "None", "logo": "None", "latitude": 50.26368851731226, "longitude": -119.2482225}, "134784297RR0001": {"name": "PEACE MENNONITE CHURCH", "designationCode": "C", "categoryCode": "34", "address": "11571 DANIELS ROAD", "city": "RICHMOND", "province": "BC", "country": "CA", "postalCode": "V6X1M7", "twitter": "None", "instagram": "None", "facebook": "None", "youtube": "None", "website": "None", "summary": "None", "logo": "None", "latitude": 49.18834450822297, "longitude": -123.09370200000001}, "886802594RR0001": {"name": "PEACE MENNONITE CHURCH ( LA CRETE )", "designationCode": "C", "categoryCode": "34", "address": "BOX 640", "city": "LACRETE", "province": "AB", "country": "CA", "postalCode": "T0H2H0", "twitter": "None", "instagram": "None", "facebook": "None", "youtube": "None", "website": "None", "summary": "None", "logo": "None", "latitude": 58.19540100000006, "longitude": -116.40586399999994}, "107828675RR0001": {"name": "PEACE MENNONITE CHURCH OF REGINA INC.", "designationCode": "C", "categoryCode": "34", "address": "3833 MONTAGUE ST", "city": "REGINA", "province": "SK", "country": "CA", "postalCode": "S4S3J6", "twitter": "None", "instagram": "None", "facebook": "None", "youtube": "None", "website": "None", "summary": "None", "logo": "None", "latitude": 50.41809874854292, "longitude": -104.62962740143713}, "890215957RR0001": {"name": "PEACE MISSION CHAPEL ASSOCIATION", "designationCode": "C", "categoryCode": "39", "address": "P.O. BOX 100", "city": "PROGRESS", "province": "BC", "country": "CA", "postalCode": "V0C2E0", "twitter": "None", "instagram": "None", "facebook": "None", "youtube": "None", "website": "None", "summary": "None", "logo": "None", "latitude": 55.78134000000006, "longitude": -120.70560999999998}, "887858009RR0001": {"name": "PEACE OFFICERS CARING FOR KIDS", "designationCode": "A", "categoryCode": "05", "address": "62 COLONEL BY CRESCENT", "city": "SMITHS FALLS", "province": "ON", "country": "CA", "postalCode": "K7A5B6", "twitter": "None", "instagram": "None", "facebook": "None", "youtube": "None", "website": "None", "summary": "None", "logo": "None", "latitude": 44.8898013096739, "longitude": -76.01086700038049}, "862398591RR0001": {"name": "PEACE OFFICERS MEMORIAL RIBBON SOCIETY", "designationCode": "C", "categoryCode": "59", "address": "3295 COAST MERIDIAN ROAD      P. O. BOX 78022", "city": "PORT COQUITLAM", "province": "BC", "country": "CA", "postalCode": "V3B7H5", "twitter": "None", "instagram": "None", "facebook": "None", "youtube": "None", "website": "None", "summary": "None", "logo": "None", "latitude": 49.27185028282071, "longitude": -122.75615602060087}, "892198565RR0001": {"name": "PEACE PALLIATIVE CARE SOCIETY", "designationCode": "C", "categoryCode": "11", "address": "BOX 6954", "city": "PEACE RIVER", "province": "AB", "country": "CA", "postalCode": "T8S1S7", "twitter": "None", "instagram": "None", "facebook": "None", "youtube": "None", "website": "None", "summary": "None", "logo": "None", "latitude": 56.232969000000054, "longitude": -117.29043349999993}, "132023003RR0001": {"name": "PEACE PORTAL ALLIANCE CHURCH OF THE CHRISTIAN & MISSIONARY ALLIANCE CDN PACIFIC DISTRICT", "designationCode": "C", "categoryCode": "39", "address": "15128-27B AVE", "city": "SURREY", "province": "BC", "country": "CA", "postalCode": "V4P1P2", "twitter": "None", "instagram": "None", "facebook": "None", "youtube": "None", "website": "None", "summary": "None", "logo": "None", "latitude": 49.05286252510255, "longitude": -122.80344283236194}, "126806710RR0001": {"name": "PEACE RANCH", "designationCode": "C", "categoryCode": "01", "address": "107 - 969 DERRY RD E", "city": "MISSISSAUGA", "province": "ON", "country": "CA", "postalCode": "L5T2J7", "twitter": "None", "instagram": "None", "facebook": "None", "youtube": "None", "website": "None", "summary": "None", "logo": "None", "latitude": 43.6649186964046, "longitude": -79.68583087229429}, "890144595RR0001": {"name": "PEACE REGIONAL SEARCH AND RESCUE SOCIETY", "designationCode": "C", "categoryCode": "59", "address": "P.O. BOX 5305", "city": "PEACE RIVER", "province": "AB", "country": "CA", "postalCode": "T8S1R9", "twitter": "None", "instagram": "None", "facebook": "None", "youtube": "None", "website": "None", "summary": "None", "logo": "None", "latitude": 56.232969000000054, "longitude": -117.29043349999993}, "893058172RR0001": {"name": "PEACE REGIONAL VICTIM SERVICES SOCIETY", "designationCode": "C", "categoryCode": "59", "address": "BAG 500, 9200- 99 ST", "city": "PEACE RIVER", "province": "AB", "country": "CA", "postalCode": "T8S2A4", "twitter": "None", "instagram": "None", "facebook": "None", "youtube": "None", "website": "None", "summary": "None", "logo": "None", "latitude": 56.24125828642738, "longitude": -117.29144002028376}, "107828733RR0001": {"name": "PEACE RIVER ALLIANCE CHURCH", "designationCode": "C", "categoryCode": "39", "address": "BOX 6988", "city": "PEACE RIVER", "province": "AB", "country": "CA", "postalCode": "T8S1S7", "twitter": "None", "instagram": "None", "facebook": "None", "youtube": "None", "website": "None", "summary": "None", "logo": "None", "latitude": 56.232969000000054, "longitude": -117.29043349999993}, "107828774RR0001": {"name": "PEACE RIVER CHILD CARE ASSOCIATION", "designationCode": "C", "categoryCode": "20", "address": "7501 - 99 STREET", "city": "PEACE RIVER", "province": "AB", "country": "CA", "postalCode": "T8S1R4", "twitter": "None", "instagram": "None", "facebook": "None", "youtube": "None", "website": "None", "summary": "None", "logo": "None", "latitude": 56.256217423417446, "longitude": -117.29082097441488}, "864365473RR0001": {"name": "PEACE RIVER CONGREGATION OF JEHOVAH'S WITNESSES", "designationCode": "C", "categoryCode": "61", "address": "9710-89 AVE", "city": "PEACE RIVER", "province": "AB", "country": "CA", "postalCode": "T8S1G8", "twitter": "None", "instagram": "None", "facebook": "None", "youtube": "None", "website": "None", "summary": "None", "logo": "None", "latitude": 56.244480834361134, "longitude": -117.29580617498979}, "108037839RR0001": {"name": "PEACE RIVER PASTORAL CHARGE", "designationCode": "C", "categoryCode": "44", "address": "BOX 5016", "city": "PEACE RIVER", "province": "AB", "country": "CA", "postalCode": "T8S1R7", "twitter": "None", "instagram": "None", "facebook": "None", "youtube": "None", "website": "None", "summary": "None", "logo": "None", "latitude": 56.232969000000054, "longitude": -117.29043349999993}, "119087252RR0001": {"name": "PEACE RIVER REGIONAL WOMEN'S SHELTER SOCIETY", "designationCode": "C", "categoryCode": "09", "address": "PO BOX 7738", "city": "PEACE RIVER", "province": "AB", "country": "CA", "postalCode": "T8S1T3", "twitter": "None", "instagram": "None", "facebook": "None", "youtube": "None", "website": "None", "summary": "None", "logo": "None", "latitude": 56.232969000000054, "longitude": -117.29043349999993}, "889301040RR0001": {"name": "PEACE RIVER SCHOOL DIVISION NO 10 SCHOLARSHIP TRUST FUND", "designationCode": "C", "categoryCode": "21", "address": "10018-101 STREET", "city": "PEACE RIVER", "province": "AB", "country": "CA", "postalCode": "T8S2A5", "twitter": "None", "instagram": "None", "facebook": "None", "youtube": "None", "website": "None", "summary": "None", "logo": "None", "latitude": 56.233106245628704, "longitude": -117.28879340273518}}