{"810994376RR0001": {"name": "Mangat Family Foundation", "designationCode": "B", "categoryCode": "03", "address": "27 ADENA MEADOWS WAY", "city": "AURORA", "province": "ON", "country": "CA", "postalCode": "L4G7Y6", "twitter": "None", "instagram": "None", "facebook": "None", "youtube": "None", "website": "None", "summary": "None", "logo": "None", "latitude": 44.004595597581925, "longitude": -79.42454356373682}, "861635316RR0001": {"name": "Manif d'art", "designationCode": "C", "categoryCode": "22", "address": "600 C\u00d4TE D'ABRAHAM", "city": "QUEBEC", "province": "QC", "country": "CA", "postalCode": "G1R1A1", "twitter": "None", "instagram": "None", "facebook": "None", "youtube": "None", "website": "None", "summary": "None", "logo": "None", "latitude": 46.812377000836726, "longitude": -71.22198947821568}, "888592102RR0001": {"name": "Manigotagan Community Chapel Inc.", "designationCode": "C", "categoryCode": "39", "address": "POST OFFICE BOX 2424", "city": "WANIPIGOW", "province": "MB", "country": "CA", "postalCode": "R0E2E0", "twitter": "None", "instagram": "None", "facebook": "None", "youtube": "None", "website": "None", "summary": "None", "logo": "None", "latitude": 51.19032000000004, "longitude": -96.30074999999994}, "817272354RR0001": {"name": "Manito Ahbee Festival Inc.", "designationCode": "C", "categoryCode": "22", "address": "472 MADISON AVE", "city": "WINNIPEG", "province": "MB", "country": "CA", "postalCode": "R3J1J1", "twitter": "None", "instagram": "None", "facebook": "None", "youtube": "None", "website": "None", "summary": "None", "logo": "None", "latitude": 49.88933374493624, "longitude": -97.20358606330413}, "769665498RR0001": {"name": "Manitoba All Shepherd Rescue, Inc.", "designationCode": "C", "categoryCode": "54", "address": "680 CORDOVA ST", "city": "WINNIPEG", "province": "MB", "country": "CA", "postalCode": "R3N1B1", "twitter": "None", "instagram": "None", "facebook": "None", "youtube": "None", "website": "None", "summary": "None", "logo": "None", "latitude": 49.85808059033992, "longitude": -97.19031090005214}, "103480802RR0001": {"name": "Manitoba Arts Network, Inc.", "designationCode": "C", "categoryCode": "22", "address": "203 - 100 ARTHUR STREET", "city": "WINNIPEG", "province": "MB", "country": "CA", "postalCode": "R3B1H3", "twitter": "None", "instagram": "None", "facebook": "None", "youtube": "None", "website": "None", "summary": "None", "logo": "None", "latitude": 49.897593000000015, "longitude": -97.1406225}, "816485916RR0001": {"name": "Manitoba Association of Foodbanks Inc.", "designationCode": "C", "categoryCode": "09", "address": "1085 WINNIPEG AVENUE", "city": "WINNIPEG", "province": "MB", "country": "CA", "postalCode": "R3E0S2", "twitter": "None", "instagram": "None", "facebook": "None", "youtube": "None", "website": "None", "summary": "None", "logo": "None", "latitude": 49.906962920912825, "longitude": -97.17395378613892}, "831035597RR0001": {"name": "Manitoba Dental Foundation Inc.", "designationCode": "A", "categoryCode": "13", "address": "202-1735 CORYDON AVENUE", "city": "WINNIPEG", "province": "MB", "country": "CA", "postalCode": "R3N0K4", "twitter": "None", "instagram": "None", "facebook": "None", "youtube": "None", "website": "None", "summary": "None", "logo": "None", "latitude": 49.86319511166309, "longitude": -97.1825298778081}, "868532821RR0001": {"name": "Manitoba Fiddle Association Inc.", "designationCode": "C", "categoryCode": "22", "address": "40 KELLY ST", "city": "PORTAGE LA PRAIRIE", "province": "MB", "country": "CA", "postalCode": "R1N3Y6", "twitter": "None", "instagram": "None", "facebook": "None", "youtube": "None", "website": "None", "summary": "None", "logo": "None", "latitude": 49.967539243693906, "longitude": -98.3204542248029}, "830978169RR0001": {"name": "Manitoba Food Charter Inc.", "designationCode": "C", "categoryCode": "29", "address": "4-640 BROADWAY", "city": "WINNIPEG", "province": "MB", "country": "CA", "postalCode": "R3C0X3", "twitter": "None", "instagram": "None", "facebook": "None", "youtube": "None", "website": "None", "summary": "None", "logo": "None", "latitude": 49.88566553952926, "longitude": -97.15672149861503}, "751831926RR0001": {"name": "Manitoba Gospel Music Jamboree", "designationCode": "C", "categoryCode": "47", "address": "POST OFFICE BOX 1186", "city": "BEAUSEJOUR", "province": "MB", "country": "CA", "postalCode": "R0E0C0", "twitter": "None", "instagram": "None", "facebook": "None", "youtube": "None", "website": "None", "summary": "None", "logo": "None", "latitude": 50.061750000000075, "longitude": -96.50519999999995}, "836891713RR0001": {"name": "Manitoba Lacrosse Hall of Fame and Museum Inc.", "designationCode": "C", "categoryCode": "50", "address": "145 PACIFIC AVENUE", "city": "WINNIPEG", "province": "MB", "country": "CA", "postalCode": "R3B2Z6", "twitter": "None", "instagram": "None", "facebook": "None", "youtube": "None", "website": "None", "summary": "None", "logo": "None", "latitude": 49.90059471331283, "longitude": -97.13508410156398}, "891388787RR0001": {"name": "Manitoba M\u00e9tis Heritage Fund Inc.", "designationCode": "C", "categoryCode": "09", "address": "150 HENRY STREET, SUITE 300", "city": "WINNIPEG", "province": "MB", "country": "CA", "postalCode": "R3B0J7", "twitter": "None", "instagram": "None", "facebook": "None", "youtube": "None", "website": "None", "summary": "None", "logo": "None", "latitude": 49.902867159011066, "longitude": -97.13277061131616}, "801228602RR0001": {"name": "Manitoba Multifaith Council Inc.", "designationCode": "C", "categoryCode": "49", "address": "1275 BURROWS AVE.", "city": "WINNIPEG", "province": "MB", "country": "CA", "postalCode": "R2X0B8", "twitter": "None", "instagram": "None", "facebook": "None", "youtube": "None", "website": "None", "summary": "None", "logo": "None", "latitude": 49.92907695755657, "longitude": -97.1756429682037}, "833096605RR0001": {"name": "Manitoba Museum of Mining History Inc.", "designationCode": "C", "categoryCode": "50", "address": "BOX 70", "city": "BISSETT", "province": "MB", "country": "CA", "postalCode": "R0E0J0", "twitter": "None", "instagram": "None", "facebook": "None", "youtube": "None", "website": "None", "summary": "None", "logo": "None", "latitude": 51.02649000000008, "longitude": -95.65166999999997}, "812122711RR0001": {"name": "Manitoba Mutts Dog Rescue Inc.", "designationCode": "C", "categoryCode": "54", "address": "PO BOX 34040 RPO FORT RICHMOND", "city": "WINNIPEG", "province": "MB", "country": "CA", "postalCode": "R3T5T5", "twitter": "None", "instagram": "None", "facebook": "None", "youtube": "None", "website": "None", "summary": "None", "logo": "None", "latitude": 49.79192000000006, "longitude": -97.13961999999998}, "849354683RR0001": {"name": "Manitoba Nature Summit Inc.", "designationCode": "C", "categoryCode": "20", "address": "1 CARRIERE AVE", "city": "WINNIPEG", "province": "MB", "country": "CA", "postalCode": "R2M0A1", "twitter": "None", "instagram": "None", "facebook": "None", "youtube": "None", "website": "None", "summary": "None", "logo": "None", "latitude": 49.871344840412036, "longitude": -97.11446257582627}, "825470321RR0001": {"name": "Manitoba Neurofibromatosis Support Group Inc.", "designationCode": "C", "categoryCode": "11", "address": "600 3RD STREET NE", "city": "MINNEDOSA", "province": "MB", "country": "CA", "postalCode": "R0J1E0", "twitter": "None", "instagram": "None", "facebook": "None", "youtube": "None", "website": "None", "summary": "None", "logo": "None", "latitude": 50.26228091035259, "longitude": -99.83059472494092}, "100044452RR0001": {"name": "Manitoba Theatre for Young People Inc.", "designationCode": "C", "categoryCode": "22", "address": "2 FORKS MARKET RD.", "city": "WINNIPEG", "province": "MB", "country": "CA", "postalCode": "R3C4X1", "twitter": "None", "instagram": "None", "facebook": "None", "youtube": "None", "website": "None", "summary": "None", "logo": "None", "latitude": 49.888038906486095, "longitude": -97.13099363292758}, "820283331RR0001": {"name": "Manitoba Underdogs Rescue", "designationCode": "C", "categoryCode": "54", "address": "56 ARDEN AVE", "city": "WINNIPEG", "province": "MB", "country": "CA", "postalCode": "R2M2K2", "twitter": "None", "instagram": "None", "facebook": "None", "youtube": "None", "website": "None", "summary": "None", "logo": "None", "latitude": 49.833163195654784, "longitude": -97.11940368108384}, "832159297RR0001": {"name": "Manitoba Young Readers' Choice Awards Inc.", "designationCode": "C", "categoryCode": "21", "address": "271 EUGENIE ST", "city": "WINNIPEG", "province": "MB", "country": "CA", "postalCode": "R2H0Y3", "twitter": "None", "instagram": "None", "facebook": "None", "youtube": "None", "website": "None", "summary": "None", "logo": "None", "latitude": 49.87999985418294, "longitude": -97.11528233454666}, "808292965RR0001": {"name": "Manitobah Mukluks Storyboot School Inc.", "designationCode": "C", "categoryCode": "22", "address": "100 - 90 SUTHERLAND AVE", "city": "WINNIPEG", "province": "MB", "country": "CA", "postalCode": "R2W3C7", "twitter": "None", "instagram": "None", "facebook": "None", "youtube": "None", "website": "None", "summary": "None", "logo": "None", "latitude": 49.90555761829931, "longitude": -97.12616673247139}, "840649396RR0001": {"name": "Manitobans For Human Rights Inc.", "designationCode": "C", "categoryCode": "50", "address": "907 - 500 TACHE AVE", "city": "WINNIPEG", "province": "MB", "country": "CA", "postalCode": "R2H0A2", "twitter": "None", "instagram": "None", "facebook": "None", "youtube": "None", "website": "None", "summary": "None", "logo": "None", "latitude": 49.88828667499566, "longitude": -97.12397853751004}, "827507013RR0001": {"name": "Manitou / R.M. of Pembina Christmas Cheer Board", "designationCode": "C", "categoryCode": "09", "address": "338 HAMILTON AVE              BOX 12", "city": "MANITOU", "province": "MB", "country": "CA", "postalCode": "R0G1G0", "twitter": "None", "instagram": "None", "facebook": "None", "youtube": "None", "website": "None", "summary": "None", "logo": "None", "latitude": 49.24234381514314, "longitude": -98.53953322339571}, "842209850RR0001": {"name": "Manitou Lake Gospel Jamboree", "designationCode": "C", "categoryCode": "47", "address": "NE 13-44-26-W3RD              PO BOX 88", "city": "NEILBURG", "province": "SK", "country": "CA", "postalCode": "S0M2C0", "twitter": "None", "instagram": "None", "facebook": "None", "youtube": "None", "website": "None", "summary": "None", "logo": "None", "latitude": 52.84204800000006, "longitude": -109.61922049999994}, "840648992RR0001": {"name": "Manitou Oba Inc.", "designationCode": "C", "categoryCode": "59", "address": "250 BALMORAL ST", "city": "WINNIPEG", "province": "MB", "country": "CA", "postalCode": "R3C1X6", "twitter": "None", "instagram": "None", "facebook": "None", "youtube": "None", "website": "None", "summary": "None", "logo": "None", "latitude": 49.88794620483006, "longitude": -97.15314351514786}, "819865189RR0001": {"name": "Manitoucamp Foundation", "designationCode": "B", "categoryCode": "03", "address": "2478 YONGE ST", "city": "TORONTO", "province": "ON", "country": "CA", "postalCode": "M4P2H5", "twitter": "None", "instagram": "None", "facebook": "None", "youtube": "None", "website": "None", "summary": "None", "logo": "None", "latitude": 43.711489025009, "longitude": -79.39943216972216}, "875009425RR0001": {"name": "Manitoulin Community Church", "designationCode": "C", "categoryCode": "36", "address": "BOX 52", "city": "TEHKUMMAH", "province": "ON", "country": "CA", "postalCode": "P0P2C0", "twitter": "None", "instagram": "None", "facebook": "None", "youtube": "None", "website": "None", "summary": "None", "logo": "None", "latitude": 45.89522300459291, "longitude": -81.91769980009185}, "784514499RR0001": {"name": "Manitoulin Pet Rescue", "designationCode": "C", "categoryCode": "54", "address": "PO BOX 119", "city": "MINDEMOYA", "province": "ON", "country": "CA", "postalCode": "P0P1S0", "twitter": "None", "instagram": "None", "facebook": "None", "youtube": "None", "website": "None", "summary": "None", "logo": "None", "latitude": 45.741940000000056, "longitude": -82.14143999999999}, "856452156RR0001": {"name": "Manitoulin Streams Improvement Association", "designationCode": "C", "categoryCode": "52", "address": "25B SPRAGGE STREET", "city": "MANITOWANING", "province": "ON", "country": "CA", "postalCode": "P0P1N0", "twitter": "None", "instagram": "None", "facebook": "None", "youtube": "None", "website": "None", "summary": "None", "logo": "None", "latitude": 45.74521624018682, "longitude": -81.80651367172656}, "860622901RR0001": {"name": "Manitouwadge Animal Shelter", "designationCode": "C", "categoryCode": "54", "address": "13 SAULT ROAD                 POST OFFICE BOX 1191", "city": "MANITOUWADGE", "province": "ON", "country": "CA", "postalCode": "P0T2C0", "twitter": "None", "instagram": "None", "facebook": "None", "youtube": "None", "website": "None", "summary": "None", "logo": "None"}, "869188110RR0001": {"name": "Mankind Project of Canada Inc.", "designationCode": "C", "categoryCode": "29", "address": "5475 LAKESHORE ROAD           UNIT 75", "city": "BURLINGTON", "province": "ON", "country": "CA", "postalCode": "L7L1E1", "twitter": "None", "instagram": "None", "facebook": "None", "youtube": "None", "website": "None", "summary": "None", "logo": "None", "latitude": 43.370450062365755, "longitude": -79.72676742301574}, "801597410RR0001": {"name": "Manna for Kids Foundation", "designationCode": "C", "categoryCode": "01", "address": "53 HARBOURTOWN CRESCENT", "city": "BRAMPTON", "province": "ON", "country": "CA", "postalCode": "L6V4P6", "twitter": "None", "instagram": "None", "facebook": "None", "youtube": "None", "website": "None", "summary": "None", "logo": "None", "latitude": 43.72313030223909, "longitude": -79.76430886262901}, "825057334RR0001": {"name": "Manna Christian Fellowship Toronto", "designationCode": "C", "categoryCode": "39", "address": "160 PARK HOME AVE", "city": "NORTH YORK", "province": "ON", "country": "CA", "postalCode": "M2N1W9", "twitter": "None", "instagram": "None", "facebook": "None", "youtube": "None", "website": "None", "summary": "None", "logo": "None", "latitude": 43.76670213962134, "longitude": -79.42445629032251}, "800205718RR0001": {"name": "Manna Homeless Society", "designationCode": "C", "categoryCode": "09", "address": "P.O. BOX 389", "city": "ERRINGTON", "province": "BC", "country": "CA", "postalCode": "V0R1V0", "twitter": "None", "instagram": "None", "facebook": "None", "youtube": "None", "website": "None", "summary": "None", "logo": "None", "latitude": 49.28217572514915, "longitude": -124.37907975417973}, "838367423RR0001": {"name": "Mannam Praying Centre", "designationCode": "C", "categoryCode": "39", "address": "124 REYNOLDS STREET", "city": "WHITBY", "province": "ON", "country": "CA", "postalCode": "L1N3W6", "twitter": "None", "instagram": "None", "facebook": "None", "youtube": "None", "website": "None", "summary": "None", "logo": "None", "latitude": 43.88066527531889, "longitude": -78.93592358413615}, "882514763RR0001": {"name": "Manne de l'\u00cele", "designationCode": "C", "categoryCode": "09", "address": "119, RUE CARILLON", "city": "GATINEAU", "province": "QC", "country": "CA", "postalCode": "J8X2P8", "twitter": "None", "instagram": "None", "facebook": "None", "youtube": "None", "website": "None", "summary": "None", "logo": "None", "latitude": 45.43346674854291, "longitude": -75.72367019181696}, "824484828RR0001": {"name": "Manning Family Worship Centre", "designationCode": "C", "categoryCode": "39", "address": "PO BOX 868", "city": "MANNING", "province": "AB", "country": "CA", "postalCode": "T0H2M0", "twitter": "None", "instagram": "None", "facebook": "None", "youtube": "None", "website": "None", "summary": "None", "logo": "None", "latitude": 56.92804794843537, "longitude": -117.62848367126821}, "849809652RR0001": {"name": "Manning Regional Victim Services Society", "designationCode": "C", "categoryCode": "59", "address": "304-6 AVENUE NE               BOX 123", "city": "MANNING", "province": "AB", "country": "CA", "postalCode": "T0H2M0", "twitter": "None", "instagram": "None", "facebook": "None", "youtube": "None", "website": "None", "summary": "None", "logo": "None", "latitude": 56.91950750432783, "longitude": -117.62735310935426}, "824042840RR0001": {"name": "Manoir de la Rivi\u00e8re Dufresne", "designationCode": "C", "categoryCode": "09", "address": "1948, NOTRE-DAME-DE-LA-MERCI", "city": "NOTRE-DAME-DE-LA-MERCI", "province": "QC", "country": "CA", "postalCode": "J0T2A0", "twitter": "None", "instagram": "None", "facebook": "None", "youtube": "None", "website": "None", "summary": "None", "logo": "None", "latitude": 46.22655878328206, "longitude": -74.05524904971412}, "818498487RR0001": {"name": "Manoir de Novo", "designationCode": "C", "categoryCode": "11", "address": "200, RUE DE MONTR\u00c9AL", "city": "SHERBROOKE", "province": "QC", "country": "CA", "postalCode": "J1H1E3", "twitter": "None", "instagram": "None", "facebook": "None", "youtube": "None", "website": "None", "summary": "None", "logo": "None", "latitude": 45.40660034690423, "longitude": -71.89632842114398}, "836507152RR0001": {"name": "Manoir des Pommiers", "designationCode": "C", "categoryCode": "09", "address": "1 RUE DES POMMIERS", "city": "RIVIERE-DU-LOUP", "province": "QC", "country": "CA", "postalCode": "G5R5K9", "twitter": "None", "instagram": "None", "facebook": "None", "youtube": "None", "website": "None", "summary": "None", "logo": "None", "latitude": 47.82855158621362, "longitude": -69.54618315419228}, "829822717RR0001": {"name": "Manoir du bois\u00e9 Crabtree", "designationCode": "C", "categoryCode": "09", "address": "198, 8E RUE                   R.R. 2", "city": "CRABTREE", "province": "QC", "country": "CA", "postalCode": "J0K1B0", "twitter": "None", "instagram": "None", "facebook": "None", "youtube": "None", "website": "None", "summary": "None", "logo": "None", "latitude": 45.96353823925209, "longitude": -73.47597499001668}, "785690090RR0001": {"name": "Manoir Eastman", "designationCode": "C", "categoryCode": "09", "address": "25A CH DE LA BOURGADE", "city": "EASTMAN", "province": "QC", "country": "CA", "postalCode": "J0E1P0", "twitter": "None", "instagram": "None", "facebook": "None", "youtube": "None", "website": "None", "summary": "None", "logo": "None", "latitude": 45.31921294842194, "longitude": -72.27291338966718}, "811056845RR0001": {"name": "Manoir Saint-Antonin", "designationCode": "B", "categoryCode": "09", "address": "530 RANG 1                    CASE POSTALE 555", "city": "SAINT-ANTONIN", "province": "QC", "country": "CA", "postalCode": "G0L2J0", "twitter": "None", "instagram": "None", "facebook": "None", "youtube": "None", "website": "None", "summary": "None", "logo": "None", "latitude": 47.76540900000006, "longitude": -69.47499949999994}, "876615766RR0001": {"name": "Manoir St. Pierre Inc.", "designationCode": "C", "categoryCode": "09", "address": "PO BOX 398", "city": "ST PIERRE JOLYS", "province": "MB", "country": "CA", "postalCode": "R0A1V0", "twitter": "None", "instagram": "None", "facebook": "None", "youtube": "None", "website": "None", "summary": "None", "logo": "None", "latitude": 49.44079000000005, "longitude": -96.98512999999997}, "825917503RR0001": {"name": "Many to One PTSD Support Foundation", "designationCode": "C", "categoryCode": "11", "address": "811 CHASE ROAD", "city": "CONSECON", "province": "ON", "country": "CA", "postalCode": "K0K1T0", "twitter": "None", "instagram": "None", "facebook": "None", "youtube": "None", "website": "None", "summary": "None", "logo": "None", "latitude": 44.005130018004735, "longitude": -77.3950052109746}, "847139730RR0001": {"name": "Many Hands Resource Centre Inc.", "designationCode": "C", "categoryCode": "09", "address": "126 MAPLE ST", "city": "MORDEN", "province": "MB", "country": "CA", "postalCode": "R6M1H4", "twitter": "None", "instagram": "None", "facebook": "None", "youtube": "None", "website": "None", "summary": "None", "logo": "None", "latitude": 49.18829826395059, "longitude": -98.11960552334217}, "850154717RR0001": {"name": "Many Rooms Church Community", "designationCode": "C", "categoryCode": "34", "address": "480 SPENCE ST", "city": "WINNIPEG", "province": "MB", "country": "CA", "postalCode": "R3B2R7", "twitter": "None", "instagram": "None", "facebook": "None", "youtube": "None", "website": "None", "summary": "None", "logo": "None", "latitude": 49.89447170774423, "longitude": -97.15377349350779}, "810580969RR0001": {"name": "Maple Baptist Church", "designationCode": "C", "categoryCode": "31", "address": "70 SALAMANDER CRT", "city": "MAPLE", "province": "ON", "country": "CA", "postalCode": "L6A0B9", "twitter": "None", "instagram": "None", "facebook": "None", "youtube": "None", "website": "None", "summary": "None", "logo": "None", "latitude": 43.8865526488835, "longitude": -79.51266368803739}, "839321643RR0001": {"name": "Maple Creek Gospel Trust", "designationCode": "C", "categoryCode": "39", "address": "108 HARDER STREET             POST OFFICE BOX 155", "city": "MAPLE CREEK", "province": "SK", "country": "CA", "postalCode": "S0N1N0", "twitter": "None", "instagram": "None", "facebook": "None", "youtube": "None", "website": "None", "summary": "None", "logo": "None", "latitude": 49.9089635721307, "longitude": -109.47689386343788}, "853250736RR0001": {"name": "Maple Grove Cemetery", "designationCode": "C", "categoryCode": "59", "address": "SITE 42 C9                    RR 3 LCD MAIN", "city": "PORTAGE LA PRAIRIE", "province": "MB", "country": "CA", "postalCode": "R1N3A3", "twitter": "None", "instagram": "None", "facebook": "None", "youtube": "None", "website": "None", "summary": "None", "logo": "None", "latitude": 49.97301900000005, "longitude": -98.29058299999993}, "742341092RR0001": {"name": "Maple Leaf Centre for Action on Food Security", "designationCode": "B", "categoryCode": "09", "address": "6985 FINANCIAL DR", "city": "MISSISSAUGA", "province": "ON", "country": "CA", "postalCode": "L5N0A1", "twitter": "None", "instagram": "None", "facebook": "None", "youtube": "None", "website": "None", "summary": "None", "logo": "None", "latitude": 43.61100525064904, "longitude": -79.74861636228323}, "811616374RR0001": {"name": "Maple Leaf Harvest", "designationCode": "C", "categoryCode": "09", "address": "570 PIERCEY RD", "city": "BOLTON", "province": "ON", "country": "CA", "postalCode": "L7E5B4", "twitter": "None", "instagram": "None", "facebook": "None", "youtube": "None", "website": "None", "summary": "None", "logo": "None", "latitude": 43.8645191195974, "longitude": -79.72744678368608}, "741432124RR0001": {"name": "Maple Leaves Forever Foundation", "designationCode": "B", "categoryCode": "03", "address": "2750 - 20 QUEEN ST W", "city": "TORONTO", "province": "ON", "country": "CA", "postalCode": "M5H3R3", "twitter": "None", "instagram": "None", "facebook": "None", "youtube": "None", "website": "None", "summary": "None", "logo": "None", "latitude": 43.65151703655775, "longitude": -79.38341919746475}, "810039107RR0001": {"name": "Maple Lions Charitable Foundation", "designationCode": "A", "categoryCode": "65", "address": "8 MERINO ROAD", "city": "MAPLE", "province": "ON", "country": "CA", "postalCode": "L6A1E7", "twitter": "None", "instagram": "None", "facebook": "None", "youtube": "None", "website": "None", "summary": "None", "logo": "None", "latitude": 43.84916229672783, "longitude": -79.5125268326504}, "856449657RR0001": {"name": "Maple Ridge Cemetery Inc.", "designationCode": "C", "categoryCode": "59", "address": "PO BOX 1182", "city": "WINCHESTER", "province": "ON", "country": "CA", "postalCode": "K0C2K0", "twitter": "None", "instagram": "None", "facebook": "None", "youtube": "None", "website": "None", "summary": "None", "logo": "None", "latitude": 45.0389951460454, "longitude": -75.27678656455626}, "820027886RR0001": {"name": "Maple Ridge Choral Society", "designationCode": "C", "categoryCode": "22", "address": "12197 261 STREET", "city": "MAPLE RIDGE", "province": "BC", "country": "CA", "postalCode": "V2W2A5", "twitter": "None", "instagram": "None", "facebook": "None", "youtube": "None", "website": "None", "summary": "None", "logo": "None", "latitude": 49.224287409660086, "longitude": -122.49864449157455}, "801565771RR0001": {"name": "Maple Syrup Mafia Foundation", "designationCode": "A", "categoryCode": "03", "address": "POST OFFICE BOX 62 SUITE 1250 1500 GEORGIA STREET WEST", "city": "VANCOUVER", "province": "BC", "country": "CA", "postalCode": "V6G2Z6", "twitter": "None", "instagram": "None", "facebook": "None", "youtube": "None", "website": "None", "summary": "None", "logo": "None", "latitude": 49.29013479542975, "longitude": -123.1300069287031}, "119252641RR0001": {"name": "Maple View Resident Council", "designationCode": "C", "categoryCode": "09", "address": "650 NORTHERN AVE E", "city": "SAULT STE. MARIE", "province": "ON", "country": "CA", "postalCode": "P6B6G3", "twitter": "None", "instagram": "None", "facebook": "None", "youtube": "None", "website": "None", "summary": "None", "logo": "None", "latitude": 46.534237313099965, "longitude": -84.30496440155369}, "119288918RR1464": {"name": "Maple, Ontario, Congregation of Jehovah's Witnesses", "designationCode": "C", "categoryCode": "61", "address": "156 PEAK POINT BLVD", "city": "MAPLE", "province": "ON", "country": "CA", "postalCode": "L6A0C1", "twitter": "None", "instagram": "None", "facebook": "None", "youtube": "None", "website": "None", "summary": "None", "logo": "None", "latitude": 43.88818704137558, "longitude": -79.51360884430716}, "801000662RR0001": {"name": "Maplewood Seniors Care Society", "designationCode": "C", "categoryCode": "01", "address": "1919 JACKSON STREET", "city": "ABBOTSFORD", "province": "BC", "country": "CA", "postalCode": "V2S2Z8", "twitter": "None", "instagram": "None", "facebook": "None", "youtube": "None", "website": "None", "summary": "None", "logo": "None", "latitude": 49.036895130446084, "longitude": -122.30731482295553}, "119110450RR0134": {"name": "Mar Oraha Chaldean Catholic Church", "designationCode": "C", "categoryCode": "38", "address": "305 LAURENTIAN DR", "city": "KITCHENER", "province": "ON", "country": "CA", "postalCode": "N2E2N6", "twitter": "None", "instagram": "None", "facebook": "None", "youtube": "None", "website": "None", "summary": "None", "logo": "None", "latitude": 43.412137848173636, "longitude": -80.49176502406333}, "119049237RR0001": {"name": "Maranatha Bible Church", "designationCode": "C", "categoryCode": "39", "address": "P.O. BOX 174", "city": "NEW GLASGOW", "province": "NS", "country": "CA", "postalCode": "B2H5E2", "twitter": "None", "instagram": "None", "facebook": "None", "youtube": "None", "website": "None", "summary": "None", "logo": "None", "latitude": 45.591837000000055, "longitude": -62.643414499999935}, "895403962RR0001": {"name": "Maranatha Christian Fellowship (Church of Winkler) Inc.", "designationCode": "C", "categoryCode": "39", "address": "175 FIRST ST", "city": "WINKLER", "province": "MB", "country": "CA", "postalCode": "R6W3P1", "twitter": "None", "instagram": "None", "facebook": "None", "youtube": "None", "website": "None", "summary": "None", "logo": "None", "latitude": 49.18016322905793, "longitude": -97.93341619999813}, "811932383RR0001": {"name": "Maranatha Community Church", "designationCode": "C", "categoryCode": "39", "address": "411-9626 148 ST", "city": "SURREY", "province": "BC", "country": "CA", "postalCode": "V3R0W2", "twitter": "None", "instagram": "None", "facebook": "None", "youtube": "None", "website": "None", "summary": "None", "logo": "None", "latitude": 49.17748391035258, "longitude": -122.81222797665781}, "810002386RR0001": {"name": "Maranatha Evangelical Church La Crete", "designationCode": "C", "categoryCode": "39", "address": "PO BOX 1439", "city": "LA CRETE", "province": "AB", "country": "CA", "postalCode": "T0H2H0", "twitter": "None", "instagram": "None", "facebook": "None", "youtube": "None", "website": "None", "summary": "None", "logo": "None", "latitude": 58.18348000000003, "longitude": -116.40267999999998}, "118818491RR0104": {"name": "Maranatha Hispanic Seventh-day Adventist Church", "designationCode": "C", "categoryCode": "41", "address": "PO 1000", "city": "ABBOTSFORD", "province": "BC", "country": "CA", "postalCode": "V2S4P5", "twitter": "None", "instagram": "None", "facebook": "None", "youtube": "None", "website": "None", "summary": "None", "logo": "None", "latitude": 49.03851300000005, "longitude": -122.29441549999993}, "836648261RR0001": {"name": "Maranatha Spanish Assembly Church", "designationCode": "C", "categoryCode": "36", "address": "9830 WHALLEY BOULEVARD        SUITE 1201", "city": "SURREY", "province": "BC", "country": "CA", "postalCode": "V3T5S7", "twitter": "None", "instagram": "None", "facebook": "None", "youtube": "None", "website": "None", "summary": "None", "logo": "None", "latitude": 49.181853457123864, "longitude": -122.84186130916399}, "107664245RR0001": {"name": "Marathon Public Library", "designationCode": "C", "categoryCode": "50", "address": "P.O. BOX 400                  22 PENINSULA ROAD", "city": "MARATHON", "province": "ON", "country": "CA", "postalCode": "P0T2E0", "twitter": "None", "instagram": "None", "facebook": "None", "youtube": "None", "website": "None", "summary": "None", "logo": "None", "latitude": 48.71852495470063, "longitude": -86.37713392024993}, "137176830RR0001": {"name": "March of Dimes Canada Non-Profit Housing Corporation", "designationCode": "C", "categoryCode": "09", "address": "ANDRIA SPINDEL                10 OVERLEA BLVD", "city": "TORONTO", "province": "ON", "country": "CA", "postalCode": "M4H1A4", "twitter": "None", "instagram": "None", "facebook": "None", "youtube": "None", "website": "None", "summary": "None", "logo": "None", "latitude": 43.703301361936546, "longitude": -79.35180606719926}, "118810688RR0001": {"name": "Marching Ghosts Association", "designationCode": "C", "categoryCode": "22", "address": "SUITE 638,                    440-10816 MACLEOD TR. S", "city": "CALGARY", "province": "AB", "country": "CA", "postalCode": "T2J5N8", "twitter": "None", "instagram": "None", "facebook": "None", "youtube": "None", "website": "None", "summary": "None", "logo": "None", "latitude": 50.93715317989969, "longitude": -114.06876090223163}, "839982980RR0001": {"name": "Marcogliese Family Foundation", "designationCode": "B", "categoryCode": "03", "address": "1906 SPRUCE HILL ROAD", "city": "PICKERING", "province": "ON", "country": "CA", "postalCode": "L1V1S7", "twitter": "None", "instagram": "None", "facebook": "None", "youtube": "None", "website": "None", "summary": "None", "logo": "None", "latitude": 43.83519621703506, "longitude": -79.11597497088675}, "828040352RR0001": {"name": "Margaret Rothweiler Charitable Foundation", "designationCode": "B", "categoryCode": "03", "address": "104-3989 HENNING DRIVE", "city": "BURNABY", "province": "BC", "country": "CA", "postalCode": "V5C6N5", "twitter": "None", "instagram": "None", "facebook": "None", "youtube": "None", "website": "None", "summary": "None", "logo": "None", "latitude": 49.26407609264605, "longitude": -123.01667304291942}, "799868922RR0001": {"name": "Margaretsville Shore Society", "designationCode": "C", "categoryCode": "56", "address": "104 SEAMAN STREET", "city": "MARGARETSVILLE", "province": "NS", "country": "CA", "postalCode": "B0S1N0", "twitter": "None", "instagram": "None", "facebook": "None", "youtube": "None", "website": "None", "summary": "None", "logo": "None", "latitude": 45.0475651307198, "longitude": -65.05789065381441}, "119032811RR0001": {"name": "Marguerita Residence Corporation", "designationCode": "C", "categoryCode": "59", "address": "48 CHURCH STREET", "city": "BROCKVILLE", "province": "ON", "country": "CA", "postalCode": "K6V6L3", "twitter": "None", "instagram": "None", "facebook": "None", "youtube": "None", "website": "None", "summary": "None", "logo": "None", "latitude": 44.58947607219092, "longitude": -75.68792494243733}, "820760684RR0001": {"name": "Maria Luisa de Moreno International Foundation (Canada)", "designationCode": "C", "categoryCode": "09", "address": "128 - 25 RUE DE PORT-ROYAL E", "city": "MONTREAL", "province": "QC", "country": "CA", "postalCode": "H3L3T1", "twitter": "None", "instagram": "None", "facebook": "None", "youtube": "None", "website": "None", "summary": "None", "logo": "None", "latitude": 45.547073999999995, "longitude": -73.65670424999999}, "812080463RR0001": {"name": "Maria Montessori Education Centre of Calgary Ltd.", "designationCode": "C", "categoryCode": "20", "address": "2634 12 AVE NW", "city": "CALGARY", "province": "AB", "country": "CA", "postalCode": "T2N1K6", "twitter": "None", "instagram": "None", "facebook": "None", "youtube": "None", "website": "None", "summary": "None", "logo": "None", "latitude": 51.062221256188955, "longitude": -114.12384551511921}, "800813545RR0001": {"name": "Marie Dean Horse Protection Initiatives Canada (\"HPIC\")", "designationCode": "C", "categoryCode": "54", "address": "150 FIRST ST                  P.O. BOX 21071", "city": "ORANGEVILLE", "province": "ON", "country": "CA", "postalCode": "L9W4S7", "twitter": "None", "instagram": "None", "facebook": "None", "youtube": "None", "website": "None", "summary": "None", "logo": "None", "latitude": 43.931760807261185, "longitude": -80.10063367993223}, "119288918RR1502": {"name": "Marine Congregation of Jehovah's Witnesses, Vancouver, British Columbia", "designationCode": "C", "categoryCode": "61", "address": "2790 WEST 3RD AVENUE", "city": "VANCOUVER", "province": "BC", "country": "CA", "postalCode": "V6K1M5", "twitter": "None", "instagram": "None", "facebook": "None", "youtube": "None", "website": "None", "summary": "None", "logo": "None", "latitude": 49.26922051399404, "longitude": -123.16796108381902}, "850686668RR0001": {"name": "Marion and Michael Seary Arts and Letters Foundation", "designationCode": "B", "categoryCode": "03", "address": "1400 - 1675 GRAFTON ST", "city": "HALIFAX", "province": "NS", "country": "CA", "postalCode": "B3J0E9", "twitter": "None", "instagram": "None", "facebook": "None", "youtube": "None", "website": "None", "summary": "None", "logo": "None", "latitude": 44.646992654211374, "longitude": -63.575423434636626}, "843316753RR0001": {"name": "Marion Gospel Trust", "designationCode": "C", "categoryCode": "45", "address": "PO BOX 1027                   85 PARK AVE", "city": "OXBOW", "province": "SK", "country": "CA", "postalCode": "S0C2B0", "twitter": "None", "instagram": "None", "facebook": "None", "youtube": "None", "website": "None", "summary": "None", "logo": "None", "latitude": 49.226078346976436, "longitude": -102.1730695624994}, "809558984RR0001": {"name": "Marion's Place", "designationCode": "C", "categoryCode": "09", "address": "37 FIELDGATE DR", "city": "ORANGEVILLE", "province": "ON", "country": "CA", "postalCode": "L9W4R9", "twitter": "None", "instagram": "None", "facebook": "None", "youtube": "None", "website": "None", "summary": "None", "logo": "None", "latitude": 43.92037604079866, "longitude": -80.12037303661506}, "889974176RR0001": {"name": "Maritime Conservatory of Performing Arts Association", "designationCode": "C", "categoryCode": "21", "address": "6199 CHEBUCTO RD", "city": "HALIFAX", "province": "NS", "country": "CA", "postalCode": "B3L1K7", "twitter": "None", "instagram": "None", "facebook": "None", "youtube": "None", "website": "None", "summary": "None", "logo": "None", "latitude": 44.64993414351647, "longitude": -63.59753741799863}, "770425494RR0001": {"name": "Maritime Forest Ranger School-Maritime College of Forest Technology Alumni Association Inc.", "designationCode": "C", "categoryCode": "21", "address": "1350 REGENT ST", "city": "FREDERICTON", "province": "NB", "country": "CA", "postalCode": "E3C2G6", "twitter": "None", "instagram": "None", "facebook": "None", "youtube": "None", "website": "None", "summary": "None", "logo": "None", "latitude": 45.93318442806793, "longitude": -66.6627597061873}, "808205892RR0001": {"name": "Markdale Church of the Nazarene", "designationCode": "C", "categoryCode": "39", "address": "795113 EAST BACK LINE         RR#4", "city": "MARKDALE", "province": "ON", "country": "CA", "postalCode": "N0C1H0", "twitter": "None", "instagram": "None", "facebook": "None", "youtube": "None", "website": "None", "summary": "None", "logo": "None", "latitude": 44.32774693174302, "longitude": -80.62297279165922}, "807111117RR0001": {"name": "Market Square Non-Profit Housing Corp.", "designationCode": "C", "categoryCode": "09", "address": "2 HAMILTON STREET, SUITE 19", "city": "LINDSAY", "province": "ON", "country": "CA", "postalCode": "K9V3E2", "twitter": "None", "instagram": "None", "facebook": "None", "youtube": "None", "website": "None", "summary": "None", "logo": "None", "latitude": 44.34914376389252, "longitude": -78.7392245289007}, "868800426RR0001": {"name": "Markham African Caribbean Canadian Association", "designationCode": "C", "categoryCode": "21", "address": "505 HOOD ROAD                 UNIT 5", "city": "MARKHAM", "province": "ON", "country": "CA", "postalCode": "L3R5V6", "twitter": "None", "instagram": "None", "facebook": "None", "youtube": "None", "website": "None", "summary": "None", "logo": "None", "latitude": 43.832401972531535, "longitude": -79.32947697051232}, "828522151RR0001": {"name": "Markham Christian Worship Centre", "designationCode": "C", "categoryCode": "39", "address": "33 GENNELA SQUARE", "city": "SCARBOROUGH", "province": "ON", "country": "CA", "postalCode": "M1B5A3", "twitter": "None", "instagram": "None", "facebook": "None", "youtube": "None", "website": "None", "summary": "None", "logo": "None", "latitude": 43.81312717011956, "longitude": -79.20122052068778}, "846577351RR0001": {"name": "Markham Inter-Church Committee for Affordable Housing", "designationCode": "C", "categoryCode": "09", "address": "20 WATER STREET", "city": "MARKHAM", "province": "ON", "country": "CA", "postalCode": "L3P7P7", "twitter": "None", "instagram": "None", "facebook": "None", "youtube": "None", "website": "None", "summary": "None", "logo": "None", "latitude": 43.87958154564609, "longitude": -79.26282663457143}, "108128034RR0001": {"name": "Markham Public Library Board", "designationCode": "C", "categoryCode": "50", "address": "6031 HIGHWAY 7", "city": "MARKHAM", "province": "ON", "country": "CA", "postalCode": "L3P3A7", "twitter": "None", "instagram": "None", "facebook": "None", "youtube": "None", "website": "None", "summary": "None", "logo": "None", "latitude": 43.87408809730256, "longitude": -79.2587741917995}, "811500115RR0001": {"name": "Markham Wesley Community Services Centre Inc.", "designationCode": "C", "categoryCode": "56", "address": "22 ESNA PARK DRIVE", "city": "MARKHAM", "province": "ON", "country": "CA", "postalCode": "L3R1E1", "twitter": "None", "instagram": "None", "facebook": "None", "youtube": "None", "website": "None", "summary": "None", "logo": "None", "latitude": 43.82655220561338, "longitude": -79.34728817546802}, "833487796RR0001": {"name": "Marl\u00e8ne sans fronti\u00e8re", "designationCode": "B", "categoryCode": "09", "address": "203 - 360 RUE GALT E", "city": "SHERBROOKE", "province": "QC", "country": "CA", "postalCode": "J1G1X9", "twitter": "None", "instagram": "None", "facebook": "None", "youtube": "None", "website": "None", "summary": "None", "logo": "None", "latitude": 45.39771961204682, "longitude": -71.86118061890073}, "876749300RR0001": {"name": "Marquee Theatrical Productions Inc.", "designationCode": "C", "categoryCode": "22", "address": "73 INDUSTRIAL PARKWAY NORTH   UNIT 2B", "city": "AURORA", "province": "ON", "country": "CA", "postalCode": "L4G4C4", "twitter": "None", "instagram": "None", "facebook": "None", "youtube": "None", "website": "None", "summary": "None", "logo": "None", "latitude": 44.0050544937676, "longitude": -79.4582851192516}, "805220316RR0001": {"name": "Marshall Family Foundation", "designationCode": "B", "categoryCode": "03", "address": "11082 163A ST", "city": "SURREY", "province": "BC", "country": "CA", "postalCode": "V4N4R8", "twitter": "None", "instagram": "None", "facebook": "None", "youtube": "None", "website": "None", "summary": "None", "logo": "None", "latitude": 49.203959668330555, "longitude": -122.76890650692489}, "119033900RR0001": {"name": "Marshall Memorial Centre Inc.", "designationCode": "C", "categoryCode": "09", "address": "P.O BOX 1313", "city": "CARBERRY", "province": "MB", "country": "CA", "postalCode": "R0K0H0", "twitter": "None", "instagram": "None", "facebook": "None", "youtube": "None", "website": "None", "summary": "None", "logo": "None", "latitude": 49.84164228965453, "longitude": -99.31431075066462}, "831796651RR0001": {"name": "Marta and Owen Boris Foundation", "designationCode": "B", "categoryCode": "05", "address": "1 JAMES ST S                  6TH FLOOR", "city": "HAMILTON", "province": "ON", "country": "CA", "postalCode": "L8P4R5", "twitter": "None", "instagram": "None", "facebook": "None", "youtube": "None", "website": "None", "summary": "None", "logo": "None", "latitude": 43.25599888037397, "longitude": -79.86938836537031}, "824108799RR0001": {"name": "Martensville Community Recreation Project", "designationCode": "C", "categoryCode": "56", "address": "336 BENDEL CRES", "city": "MARTENSVILLE", "province": "SK", "country": "CA", "postalCode": "S0K2T2", "twitter": "None", "instagram": "None", "facebook": "None", "youtube": "None", "website": "None", "summary": "None", "logo": "None", "latitude": 52.30083199211974, "longitude": -106.6640555565357}, "814789038RR0001": {"name": "Martin Harris Foundation", "designationCode": "B", "categoryCode": "03", "address": "2201 TORONTO DOMINION TOWER   10088 - 102 AVE", "city": "EDMONTON", "province": "AB", "country": "CA", "postalCode": "T5J2Z1", "twitter": "None", "instagram": "None", "facebook": "None", "youtube": "None", "website": "None", "summary": "None", "logo": "None", "latitude": 53.54326249437317, "longitude": -113.4925225237462}, "842312993RR0001": {"name": "Martyr Saint George the Victorious Russian Orthodox Church in Red Deer", "designationCode": "C", "categoryCode": "39", "address": "20 ELWELL AVENUE", "city": "RED DEER", "province": "AB", "country": "CA", "postalCode": "T4R2J6", "twitter": "None", "instagram": "None", "facebook": "None", "youtube": "None", "website": "None", "summary": "None", "logo": "None", "latitude": 52.26078566472387, "longitude": -113.76889536597591}}