{"848623575RR0027": {"name": "St.Joseph's Church", "designationCode": "C", "categoryCode": "38", "address": "300 COUNTY RD 8", "city": "DOURO-DUMMER", "province": "ON", "country": "CA", "postalCode": "K0L2H0", "twitter": "None", "instagram": "None", "facebook": "None", "youtube": "None", "website": "None", "summary": "None", "logo": "None", "latitude": 44.403569283463895, "longitude": -78.06154593913756}, "848623575RR0028": {"name": "St.Joseph's Church", "designationCode": "C", "categoryCode": "38", "address": "120 MEMORIAL PARK DRIVE WEST  PO BOX 264", "city": "POWASSAN", "province": "ON", "country": "CA", "postalCode": "P0H1Z0", "twitter": "None", "instagram": "None", "facebook": "None", "youtube": "None", "website": "None", "summary": "None", "logo": "None", "latitude": 46.08067729524252, "longitude": -79.36465570886476}, "107910259RR0232": {"name": "St.Josephine Bakhita Parish", "designationCode": "C", "categoryCode": "38", "address": "3600 FOREST BLUFF CRESCENT", "city": "MISSISSAUGA", "province": "ON", "country": "CA", "postalCode": "L5N7W2", "twitter": "None", "instagram": "None", "facebook": "None", "youtube": "None", "website": "None", "summary": "None", "logo": "None", "latitude": 43.56480699446007, "longitude": -79.76735102458294}, "850246869RR0001": {"name": "St.Julien E-Preservation Society", "designationCode": "C", "categoryCode": "50", "address": "4 ROBERT SPECK PARKWAY        SUITE 1600", "city": "MISSISSAUGA", "province": "ON", "country": "CA", "postalCode": "L4Z1S1", "twitter": "None", "instagram": "None", "facebook": "None", "youtube": "None", "website": "None", "summary": "None", "logo": "None", "latitude": 43.59778079955603, "longitude": -79.63595016105988}, "867221863RR0001": {"name": "St.Lawrence River Institute Foundation", "designationCode": "A", "categoryCode": "03", "address": "2 ST LAWRENCE DR", "city": "CORNWALL", "province": "ON", "country": "CA", "postalCode": "K6H4Z1", "twitter": "None", "instagram": "None", "facebook": "None", "youtube": "None", "website": "None", "summary": "None", "logo": "None", "latitude": 45.0165729796055, "longitude": -74.70227853861323}, "887840668RR0001": {"name": "St.Luke's Anglican Church", "designationCode": "C", "categoryCode": "30", "address": "2018 CHASE-FALKLAND RD", "city": "FALKLAND", "province": "BC", "country": "CA", "postalCode": "V0E1W1", "twitter": "None", "instagram": "None", "facebook": "None", "youtube": "None", "website": "None", "summary": "None", "logo": "None", "latitude": 50.54224961004675, "longitude": -119.60095634569214}, "848623575RR0029": {"name": "St.Luke's Church", "designationCode": "C", "categoryCode": "38", "address": "340 ST LUKE'S RD", "city": "LINDSAY", "province": "ON", "country": "CA", "postalCode": "K9V4R5", "twitter": "None", "instagram": "None", "facebook": "None", "youtube": "None", "website": "None", "summary": "None", "logo": "None", "latitude": 44.3718479976832, "longitude": -78.59521897330323}, "129979159RR0001": {"name": "St.Margaret in-the-Pines", "designationCode": "C", "categoryCode": "30", "address": "4130 LAWRENCE AVENUE EAST", "city": "WEST HILL", "province": "ON", "country": "CA", "postalCode": "M1E2R8", "twitter": "None", "instagram": "None", "facebook": "None", "youtube": "None", "website": "None", "summary": "None", "logo": "None", "latitude": 43.767155157509585, "longitude": -79.19203723708769}, "848623575RR0030": {"name": "St.Martin's Church", "designationCode": "C", "categoryCode": "38", "address": "513 ENNIS ROAD", "city": "ENNISMORE", "province": "ON", "country": "CA", "postalCode": "K0L1T0", "twitter": "None", "instagram": "None", "facebook": "None", "youtube": "None", "website": "None", "summary": "None", "logo": "None", "latitude": 44.41034783873859, "longitude": -78.42950442117262}, "848623575RR0041": {"name": "St.Mary of the Visitation Church", "designationCode": "C", "categoryCode": "38", "address": "21 CENTRE STREET              PO BOX 599", "city": "CAMPBELLFORD", "province": "ON", "country": "CA", "postalCode": "K0L1L0", "twitter": "None", "instagram": "None", "facebook": "None", "youtube": "None", "website": "None", "summary": "None", "logo": "None", "latitude": 44.30707628203749, "longitude": -77.79309399521051}, "848623575RR0031": {"name": "St.Mary's of the Assumption Church", "designationCode": "C", "categoryCode": "38", "address": "12 CENTRE STREET NORTH        PO BOX 5512", "city": "HUNTSVILLE", "province": "ON", "country": "CA", "postalCode": "P1H2K8", "twitter": "None", "instagram": "None", "facebook": "None", "youtube": "None", "website": "None", "summary": "None", "logo": "None", "latitude": 45.3273269716948, "longitude": -79.22045877321274}, "890625171RR0001": {"name": "St.Mary's Syriac Orthodox Church of Canada", "designationCode": "C", "categoryCode": "39", "address": "2521 TEDLO ST", "city": "MISSISSAUGA", "province": "ON", "country": "CA", "postalCode": "L5A4A8", "twitter": "None", "instagram": "None", "facebook": "None", "youtube": "None", "website": "None", "summary": "None", "logo": "None", "latitude": 43.58921592498501, "longitude": -79.5995595322431}, "848623575RR0032": {"name": "St.Michael's Church", "designationCode": "C", "categoryCode": "38", "address": "379 DIVISION ST", "city": "COBOURG", "province": "ON", "country": "CA", "postalCode": "K9A3R7", "twitter": "None", "instagram": "None", "facebook": "None", "youtube": "None", "website": "None", "summary": "None", "logo": "None", "latitude": 43.96382401803341, "longitude": -78.16729356719927}, "848623575RR0033": {"name": "St.Patrick's Church", "designationCode": "C", "categoryCode": "38", "address": "89 RAIN LAKE ROAD             PO BOX 68", "city": "KEARNEY", "province": "ON", "country": "CA", "postalCode": "P0A1M0", "twitter": "None", "instagram": "None", "facebook": "None", "youtube": "None", "website": "None", "summary": "None", "logo": "None", "latitude": 45.558630617760194, "longitude": -79.21255005951332}, "848623575RR0034": {"name": "St.Patrick's Church", "designationCode": "C", "categoryCode": "38", "address": "4026 COUNTY ROAD NO. 121      PO BOX 98", "city": "KINMOUNT", "province": "ON", "country": "CA", "postalCode": "K0M2A0", "twitter": "None", "instagram": "None", "facebook": "None", "youtube": "None", "website": "None", "summary": "None", "logo": "None", "latitude": 44.73808800000006, "longitude": -78.62942599999994}, "888532447RR0002": {"name": "St.Paul's Anglican Church, Faust, Alberta", "designationCode": "C", "categoryCode": "30", "address": "PO BOX 211", "city": "FAUST", "province": "AB", "country": "CA", "postalCode": "T0G0X0", "twitter": "None", "instagram": "None", "facebook": "None", "youtube": "None", "website": "None", "summary": "None", "logo": "None", "latitude": 55.31970000000007, "longitude": -115.65382999999997}, "848623575RR0036": {"name": "St.Paul's Church", "designationCode": "C", "categoryCode": "38", "address": "4 REID STREET                 PO BOX 462", "city": "LAKEFIELD", "province": "ON", "country": "CA", "postalCode": "K0L2H0", "twitter": "None", "instagram": "None", "facebook": "None", "youtube": "None", "website": "None", "summary": "None", "logo": "None", "latitude": 44.42449439107843, "longitude": -78.27311740882337}, "848623575RR0037": {"name": "St.Paul's Church", "designationCode": "C", "categoryCode": "38", "address": "4186 HIGHWAY NO. 7            PO BOX 208", "city": "NORWOOD", "province": "ON", "country": "CA", "postalCode": "K0L2V0", "twitter": "None", "instagram": "None", "facebook": "None", "youtube": "None", "website": "None", "summary": "None", "logo": "None", "latitude": 37.19817158773433, "longitude": -92.39453923226795}, "848623575RR0035": {"name": "St.Paul's Parish", "designationCode": "C", "categoryCode": "38", "address": "231 HOTCHKISS ST", "city": "GRAVENHURST", "province": "ON", "country": "CA", "postalCode": "P1P1J1", "twitter": "None", "instagram": "None", "facebook": "None", "youtube": "None", "website": "None", "summary": "None", "logo": "None", "latitude": 44.91844586759201, "longitude": -79.37576560032322}, "848623575RR0038": {"name": "St.Peter the Apostle Church and Missions, Parry Sound", "designationCode": "C", "categoryCode": "38", "address": "52 CHURCH ST", "city": "PARRY SOUND", "province": "ON", "country": "CA", "postalCode": "P2A1Y7", "twitter": "None", "instagram": "None", "facebook": "None", "youtube": "None", "website": "None", "summary": "None", "logo": "None", "latitude": 45.3483342782175, "longitude": -80.03627140588436}, "890264393RR0001": {"name": "St.Raphael's Church in Sagamok, Ontario", "designationCode": "C", "categoryCode": "38", "address": "P.O. BOX 459", "city": "MASSEY", "province": "ON", "country": "CA", "postalCode": "P0P1P0", "twitter": "None", "instagram": "None", "facebook": "None", "youtube": "None", "website": "None", "summary": "None", "logo": "None", "latitude": 46.21236000000006, "longitude": -82.07723599999993}, "119106797RR0001": {"name": "St.Stephen's United Church, Qualicum Beach", "designationCode": "C", "categoryCode": "44", "address": "150 VILLAGE WAY", "city": "QUALICUM BEACH", "province": "BC", "country": "CA", "postalCode": "V9K1L1", "twitter": "None", "instagram": "None", "facebook": "None", "youtube": "None", "website": "None", "summary": "None", "logo": "None", "latitude": 49.34907548124544, "longitude": -124.44061422453689}, "848623575RR0039": {"name": "St.Therese Parish, Courtice", "designationCode": "C", "categoryCode": "38", "address": "3800 COURTICE RD", "city": "COURTICE", "province": "ON", "country": "CA", "postalCode": "L1E2L5", "twitter": "None", "instagram": "None", "facebook": "None", "youtube": "None", "website": "None", "summary": "None", "logo": "None", "latitude": 43.93090678347711, "longitude": -78.7867690575083}, "119202653RR0001": {"name": "St.Thomas , Silver Creek Anglican Chrurch", "designationCode": "C", "categoryCode": "30", "address": "54 CH MCINTOSH", "city": "MULGRAVE-ET-DERRY", "province": "QC", "country": "CA", "postalCode": "J8L0C8", "twitter": "None", "instagram": "None", "facebook": "None", "youtube": "None", "website": "None", "summary": "None", "logo": "None", "latitude": 45.78198762569915, "longitude": -75.33082330391032}, "848623575RR0040": {"name": "St.Thomas More Parish", "designationCode": "C", "categoryCode": "38", "address": "28 KING STREET WEST           PO BOX 238", "city": "MILLBROOK", "province": "ON", "country": "CA", "postalCode": "L0A1G0", "twitter": "None", "instagram": "None", "facebook": "None", "youtube": "None", "website": "None", "summary": "None", "logo": "None", "latitude": 44.14962916183835, "longitude": -78.45288847336826}, "803356443RR0001": {"name": "St-Michel vie sans Fronti\u00e8res", "designationCode": "C", "categoryCode": "09", "address": "9467 SACKVILLE", "city": "MONTREAL", "province": "QC", "country": "CA", "postalCode": "H1Z2V8", "twitter": "None", "instagram": "None", "facebook": "None", "youtube": "None", "website": "None", "summary": "None", "logo": "None", "latitude": 45.57298338525006, "longitude": -73.63689883706515}, "835779976RR0001": {"name": "St-Vartan Armenian Apostolic Church", "designationCode": "C", "categoryCode": "39", "address": "7 RIVER VALLEY DR.", "city": "WINNIPEG", "province": "MB", "country": "CA", "postalCode": "R3X0B3", "twitter": "None", "instagram": "None", "facebook": "None", "youtube": "None", "website": "None", "summary": "None", "logo": "None", "latitude": 49.82928066224237, "longitude": -97.07562029199596}, "771265691RR0001": {"name": "St'at'Imc Christian Fellowship", "designationCode": "C", "categoryCode": "39", "address": "POST OFFICE BOX 1963          408 MAIN STREET", "city": "LILLOOET", "province": "BC", "country": "CA", "postalCode": "V0K1V0", "twitter": "None", "instagram": "None", "facebook": "None", "youtube": "None", "website": "None", "summary": "None", "logo": "None", "latitude": 50.69701709606519, "longitude": -121.92813197566882}, "731300299RR0001": {"name": "Stable Roots for Growth Society", "designationCode": "C", "categoryCode": "11", "address": "P.O. BOX 77", "city": "KNUTSFORD", "province": "BC", "country": "CA", "postalCode": "V0E2A0", "twitter": "None", "instagram": "None", "facebook": "None", "youtube": "None", "website": "None", "summary": "None", "logo": "None", "latitude": 50.61254000000008, "longitude": -120.32844999999998}, "118885755RR0001": {"name": "Staff of NPF Charity Trust", "designationCode": "B", "categoryCode": "75", "address": "4210 LABELLE STREET", "city": "OTTAWA", "province": "ON", "country": "CA", "postalCode": "K1A0K2", "twitter": "None", "instagram": "None", "facebook": "None", "youtube": "None", "website": "None", "summary": "None", "logo": "None", "latitude": 45.422831351039285, "longitude": -75.63062861298746}, "852495662RR0001": {"name": "Stage Toronto Theatre Company", "designationCode": "C", "categoryCode": "22", "address": "10 WALKER AVENUE              UNIT 114", "city": "TORONTO", "province": "ON", "country": "CA", "postalCode": "M4V1G2", "twitter": "None", "instagram": "None", "facebook": "None", "youtube": "None", "website": "None", "summary": "None", "logo": "None", "latitude": 43.68263415462497, "longitude": -79.39300933126542}, "119162550RR0001": {"name": "Stamford Lane United Church", "designationCode": "C", "categoryCode": "44", "address": "3855 ST. PETER AVE", "city": "NIAGARA FALLS", "province": "ON", "country": "CA", "postalCode": "L2J2N7", "twitter": "None", "instagram": "None", "facebook": "None", "youtube": "None", "website": "None", "summary": "None", "logo": "None", "latitude": 43.117324878988995, "longitude": -79.10133902654482}, "834243370RR0001": {"name": "Standardbred Race Track Chaplaincy of Canada", "designationCode": "C", "categoryCode": "39", "address": "173385 COUNTY ROAD 25", "city": "GRAND VALLEY", "province": "ON", "country": "CA", "postalCode": "L9W0L7", "twitter": "None", "instagram": "None", "facebook": "None", "youtube": "None", "website": "None", "summary": "None", "logo": "None", "latitude": 43.909427863693075, "longitude": -80.31771505474092}, "825844087RR0001": {"name": "Stanley Bridge Memorial Society Inc.", "designationCode": "C", "categoryCode": "56", "address": "PO BOX 32011", "city": "KENSINGTON", "province": "PE", "country": "CA", "postalCode": "C0B1M0", "twitter": "None", "instagram": "None", "facebook": "None", "youtube": "None", "website": "None", "summary": "None", "logo": "None"}, "119288918RR1603": {"name": "Stanley Park Congregation of Jehovah's Witnesses, Vancouver, British Columbia", "designationCode": "C", "categoryCode": "61", "address": "1526 ROBSON STREET", "city": "VANCOUVER", "province": "BC", "country": "CA", "postalCode": "V6G1C2", "twitter": "None", "instagram": "None", "facebook": "None", "youtube": "None", "website": "None", "summary": "None", "logo": "None", "latitude": 49.289024704397356, "longitude": -123.1317181078537}, "119167716RR0001": {"name": "Stanstead Historical Society / Soci\u00e9t\u00e9 historique de Stansted", "designationCode": "C", "categoryCode": "50", "address": "535 DUFFERIN", "city": "STANSTEAD", "province": "QC", "country": "CA", "postalCode": "J0B3E0", "twitter": "None", "instagram": "None", "facebook": "None", "youtube": "None", "website": "None", "summary": "None", "logo": "None", "latitude": 45.01640271386108, "longitude": -72.09332900683798}, "107834772RR0001": {"name": "Star City Pentecostal Tabernacle", "designationCode": "C", "categoryCode": "36", "address": "BOX 26", "city": "STAR CITY", "province": "SK", "country": "CA", "postalCode": "S0E1P0", "twitter": "None", "instagram": "None", "facebook": "None", "youtube": "None", "website": "None", "summary": "None", "logo": "None", "latitude": 52.86635717851631, "longitude": -104.5917405}, "873990014RR0001": {"name": "Starbelly Jam Society", "designationCode": "C", "categoryCode": "22", "address": "POST OFFICE BOX 15", "city": "CRAWFORD BAY", "province": "BC", "country": "CA", "postalCode": "V0B1E0", "twitter": "None", "instagram": "None", "facebook": "None", "youtube": "None", "website": "None", "summary": "None", "logo": "None", "latitude": 49.67554000000007, "longitude": -116.82475999999997}, "107793424RR0001": {"name": "Starbright Children's Development Centre Association", "designationCode": "C", "categoryCode": "11", "address": "1546 BERNARD AVENUE", "city": "KELOWNA", "province": "BC", "country": "CA", "postalCode": "V1Y6R9", "twitter": "None", "instagram": "None", "facebook": "None", "youtube": "None", "website": "None", "summary": "None", "logo": "None", "latitude": 49.886365091321174, "longitude": -119.46437437791649}, "732821723RR0001": {"name": "Starfish Foundation", "designationCode": "B", "categoryCode": "03", "address": "400 - 221 ESPLANADE W", "city": "NORTH VANCOUVER", "province": "BC", "country": "CA", "postalCode": "V7M3J3", "twitter": "None", "instagram": "None", "facebook": "None", "youtube": "None", "website": "None", "summary": "None", "logo": "None", "latitude": 49.312626508713905, "longitude": -123.08325259411949}, "802127555RR0001": {"name": "Starkey Hearing Foundation Canada", "designationCode": "C", "categoryCode": "19", "address": "7310 RAPISTAN COURT", "city": "MISSISSAUGA", "province": "ON", "country": "CA", "postalCode": "L5N6L8", "twitter": "None", "instagram": "None", "facebook": "None", "youtube": "None", "website": "None", "summary": "None", "logo": "None", "latitude": 43.60601497861972, "longitude": -79.76440972110403}, "820922664RR0001": {"name": "Starlight Children's Foundation (Ontario)", "designationCode": "C", "categoryCode": "01", "address": "200 CONSUMER ROAD, SUITE #809", "city": "NORTH YORK", "province": "ON", "country": "CA", "postalCode": "M2J4R4", "twitter": "None", "instagram": "None", "facebook": "None", "youtube": "None", "website": "None", "summary": "None", "logo": "None", "latitude": 43.77270325396725, "longitude": -79.33187921668929}, "821116449RR0001": {"name": "Starratt Family Foundation", "designationCode": "B", "categoryCode": "05", "address": "119 VARSITY ESTATES TERRACE NW", "city": "CALGARY", "province": "AB", "country": "CA", "postalCode": "T3B5J6", "twitter": "None", "instagram": "None", "facebook": "None", "youtube": "None", "website": "None", "summary": "None", "logo": "None", "latitude": 51.105802379681485, "longitude": -114.17024819072044}, "778389296RR0001": {"name": "Starting Point Church", "designationCode": "C", "categoryCode": "39", "address": "4231 THOMAS ALTON BLVD,", "city": "BURLINGTON", "province": "ON", "country": "CA", "postalCode": "L7M0N1", "twitter": "None", "instagram": "None", "facebook": "None", "youtube": "None", "website": "None", "summary": "None", "logo": "None", "latitude": 43.399582532892815, "longitude": -79.82312621414954}, "802700542RR0001": {"name": "Start2Finish Canada", "designationCode": "C", "categoryCode": "21", "address": "303 - 4230 SHERWOODTOWNE BLVD", "city": "MISSISSAUGA", "province": "ON", "country": "CA", "postalCode": "L4Z2G6", "twitter": "None", "instagram": "None", "facebook": "None", "youtube": "None", "website": "None", "summary": "None", "logo": "None", "latitude": 43.600357574211095, "longitude": -79.640639394368}, "784927295RR0001": {"name": "Station Singers Inc.", "designationCode": "C", "categoryCode": "22", "address": "BOX 464                       717 6TH AVE", "city": "ROSTHERN", "province": "SK", "country": "CA", "postalCode": "S0K3R0", "twitter": "None", "instagram": "None", "facebook": "None", "youtube": "None", "website": "None", "summary": "None", "logo": "None", "latitude": 52.66438850052839, "longitude": -106.3439760505509}, "807497672RR0001": {"name": "Station 20 West Development Corporation", "designationCode": "C", "categoryCode": "56", "address": "1120 20TH ST W", "city": "SASKATOON", "province": "SK", "country": "CA", "postalCode": "S7M0Y8", "twitter": "None", "instagram": "None", "facebook": "None", "youtube": "None", "website": "None", "summary": "None", "logo": "None", "latitude": 52.126227530439984, "longitude": -106.68661181695427}, "813593209RR0001": {"name": "Status 4 Inc.", "designationCode": "C", "categoryCode": "22", "address": "300 WILLIAM AVENUE", "city": "WINNIPEG", "province": "MB", "country": "CA", "postalCode": "R3A1P9", "twitter": "None", "instagram": "None", "facebook": "None", "youtube": "None", "website": "None", "summary": "None", "logo": "None", "latitude": 49.899628111835746, "longitude": -97.1415611811125}, "717246920RR0001": {"name": "Ste. Anne Agape Ministries", "designationCode": "C", "categoryCode": "39", "address": "47 CENTRALE AVE", "city": "STE ANNE", "province": "MB", "country": "CA", "postalCode": "R5H1G8", "twitter": "None", "instagram": "None", "facebook": "None", "youtube": "None", "website": "None", "summary": "None", "logo": "None", "latitude": 49.67110309495249, "longitude": -96.65172333852874}, "107910259RR0219": {"name": "Ste. Croix Parish", "designationCode": "C", "categoryCode": "38", "address": "327 RUE LAFONTAINE ROAD WEST", "city": "TINY", "province": "ON", "country": "CA", "postalCode": "L9M0H1", "twitter": "None", "instagram": "None", "facebook": "None", "youtube": "None", "website": "None", "summary": "None", "logo": "None", "latitude": 44.758336898646675, "longitude": -80.05205909482456}, "119172997RR0001": {"name": "Ste. Rose Health Centre Inc.", "designationCode": "C", "categoryCode": "10", "address": "PO BOX 60", "city": "STE ROSE DU LAC", "province": "MB", "country": "CA", "postalCode": "R0L1S0", "twitter": "None", "instagram": "None", "facebook": "None", "youtube": "None", "website": "None", "summary": "None", "logo": "None", "latitude": 51.05911000000003, "longitude": -99.52392999999995}, "827231887RR0001": {"name": "Steamboat Mtn. Music Society", "designationCode": "C", "categoryCode": "22", "address": "4867 RIVERVIEW DRIVE          POST OFFICE BOX 237", "city": "EDGEWATER", "province": "BC", "country": "CA", "postalCode": "V0A1E0", "twitter": "None", "instagram": "None", "facebook": "None", "youtube": "None", "website": "None", "summary": "None", "logo": "None", "latitude": 50.69604795442474, "longitude": -116.13283748591124}, "849190665RR0001": {"name": "Steep Rock Christian Fellowship", "designationCode": "B", "categoryCode": "45", "address": "P.O. BOX 178", "city": "ST.MARTIN", "province": "MB", "country": "CA", "postalCode": "R0C2T0", "twitter": "None", "instagram": "None", "facebook": "None", "youtube": "None", "website": "None", "summary": "None", "logo": "None", "latitude": 51.709970000000055, "longitude": -98.73532999999998}, "755809092RR0001": {"name": "Steinbach & Area Animal Rescue Inc.", "designationCode": "C", "categoryCode": "54", "address": "250 STONE BRIDGE CROSS", "city": "STEINBACH", "province": "MB", "country": "CA", "postalCode": "R5G2B2", "twitter": "None", "instagram": "None", "facebook": "None", "youtube": "None", "website": "None", "summary": "None", "logo": "None", "latitude": 49.5346429848646, "longitude": -96.68214261275378}, "106864242RR0014": {"name": "Steinbach Church of God", "designationCode": "C", "categoryCode": "39", "address": "450 MCKENZIE AVE.", "city": "STEINBACH", "province": "MB", "country": "CA", "postalCode": "R5G0K7", "twitter": "None", "instagram": "None", "facebook": "None", "youtube": "None", "website": "None", "summary": "None", "logo": "None", "latitude": 49.51731801596033, "longitude": -96.6840752160366}, "768079923RR0001": {"name": "Steinbach Community Outreach Inc.", "designationCode": "C", "categoryCode": "09", "address": "345 LOEWEN BLVD.", "city": "STEINBACH", "province": "MB", "country": "CA", "postalCode": "R5G0L1", "twitter": "None", "instagram": "None", "facebook": "None", "youtube": "None", "website": "None", "summary": "None", "logo": "None", "latitude": 49.53227073237106, "longitude": -96.67606125364716}, "839703204RR0001": {"name": "Steinbach Evangeliums Christengemeinde Inc.", "designationCode": "C", "categoryCode": "39", "address": "11 KLIEWER DR", "city": "KLEEDELD", "province": "MB", "country": "CA", "postalCode": "R0A0V1", "twitter": "None", "instagram": "None", "facebook": "None", "youtube": "None", "website": "None", "summary": "None", "logo": "None", "latitude": 49.51696545741378, "longitude": -96.87551407874845}, "817186935RR0001": {"name": "Stella's Place Assessment and Treatment Centre", "designationCode": "C", "categoryCode": "09", "address": "18 CAMDEN ST", "city": "TORONTO", "province": "ON", "country": "CA", "postalCode": "M5V1V1", "twitter": "None", "instagram": "None", "facebook": "None", "youtube": "None", "website": "None", "summary": "None", "logo": "None", "latitude": 43.6472251906918, "longitude": -79.39674945504639}, "852284645RR0001": {"name": "Stella's Voice Canada", "designationCode": "C", "categoryCode": "01", "address": "5399 240 ST", "city": "LANGLEY", "province": "BC", "country": "CA", "postalCode": "V2Z2N6", "twitter": "None", "instagram": "None", "facebook": "None", "youtube": "None", "website": "None", "summary": "None", "logo": "None", "latitude": 49.10018332944776, "longitude": -122.55927191788308}, "852284447RR0001": {"name": "Stella's Voice Foundation Canada", "designationCode": "A", "categoryCode": "03", "address": "5399 240 ST", "city": "LANGLEY", "province": "BC", "country": "CA", "postalCode": "V2Z2N6", "twitter": "None", "instagram": "None", "facebook": "None", "youtube": "None", "website": "None", "summary": "None", "logo": "None", "latitude": 49.10018332944776, "longitude": -122.55927191788308}, "807282587RR0001": {"name": "Step By Step Early Intervention Society", "designationCode": "C", "categoryCode": "09", "address": "103 - 5855 9 ST SE", "city": "CALGARY", "province": "AB", "country": "CA", "postalCode": "T2H1Z9", "twitter": "None", "instagram": "None", "facebook": "None", "youtube": "None", "website": "None", "summary": "None", "logo": "None", "latitude": 51.002837360811355, "longitude": -114.040637641439}, "132490699RR0001": {"name": "Stephan G. Stephansson Icelandic Society", "designationCode": "C", "categoryCode": "50", "address": "114 CREAMERY WAY", "city": "MARKERVILLE", "province": "AB", "country": "CA", "postalCode": "T0M1M0", "twitter": "None", "instagram": "None", "facebook": "None", "youtube": "None", "website": "None", "summary": "None", "logo": "None", "latitude": 52.12339562446084, "longitude": -114.17216666794887}, "857643191RR0001": {"name": "Stephanos Development Foundation Corporation", "designationCode": "B", "categoryCode": "09", "address": "BOX 478", "city": "NOBLEFORD", "province": "AB", "country": "CA", "postalCode": "T0L1S0", "twitter": "None", "instagram": "None", "facebook": "None", "youtube": "None", "website": "None", "summary": "None", "logo": "None", "latitude": 49.87318000000005, "longitude": -113.05139999999994}, "834765356RR0001": {"name": "Stephen Henry Ministries Inc.", "designationCode": "C", "categoryCode": "39", "address": "3349 AV PAULPEEL", "city": "LONDON", "province": "ON", "country": "CA", "postalCode": "N6L0A4", "twitter": "None", "instagram": "None", "facebook": "None", "youtube": "None", "website": "None", "summary": "None", "logo": "None", "latitude": 42.933865392348764, "longitude": -81.25849331472864}, "833891179RR0001": {"name": "Stephen Terrana Evangelistic Ministry", "designationCode": "C", "categoryCode": "47", "address": "1351 GLADSTONE AVE", "city": "WINDSOR", "province": "ON", "country": "CA", "postalCode": "N8X3N1", "twitter": "None", "instagram": "None", "facebook": "None", "youtube": "None", "website": "None", "summary": "None", "logo": "None", "latitude": 42.30975600054826, "longitude": -83.00960112380963}, "800759417RR0001": {"name": "Stephen's Backpacks for Children in Need Society", "designationCode": "C", "categoryCode": "09", "address": "216 FLETT PLACE", "city": "AIRDRIE", "province": "AB", "country": "CA", "postalCode": "T4B1N6", "twitter": "None", "instagram": "None", "facebook": "None", "youtube": "None", "website": "None", "summary": "None", "logo": "None", "latitude": 51.29922936193653, "longitude": -114.00870767473585}, "851068650RR0001": {"name": "Stepping Stone Community Church", "designationCode": "C", "categoryCode": "39", "address": "1203 - 17 KNIGHTSBRIDGE RD", "city": "BRAMPTON", "province": "ON", "country": "CA", "postalCode": "L6T3X9", "twitter": "None", "instagram": "None", "facebook": "None", "youtube": "None", "website": "None", "summary": "None", "logo": "None", "latitude": 43.720730771827775, "longitude": -79.7147219266839}, "847658861RR0001": {"name": "Stepping Stones Foundation", "designationCode": "B", "categoryCode": "01", "address": "181 BAY STREET, SUITE 250", "city": "TORONTO", "province": "ON", "country": "CA", "postalCode": "M5J2T3", "twitter": "None", "instagram": "None", "facebook": "None", "youtube": "None", "website": "None", "summary": "None", "logo": "None", "latitude": 43.64734187870053, "longitude": -79.37943361864508}, "815966429RR0001": {"name": "Stepping Stones Ministries Inc.", "designationCode": "B", "categoryCode": "01", "address": "3110 8TH STREET EAST          UNIT 8B-210", "city": "SASKATOON", "province": "SK", "country": "CA", "postalCode": "S7H0W2", "twitter": "None", "instagram": "None", "facebook": "None", "youtube": "None", "website": "None", "summary": "None", "logo": "None", "latitude": 52.114648509521984, "longitude": -106.60901247016561}, "853624971RR0001": {"name": "Steps to Recovery", "designationCode": "C", "categoryCode": "57", "address": "B - 570 STEVEN CRT", "city": "NEWMARKET", "province": "ON", "country": "CA", "postalCode": "L3Y6Z2", "twitter": "None", "instagram": "None", "facebook": "None", "youtube": "None", "website": "None", "summary": "None", "logo": "None", "latitude": 44.04002191534426, "longitude": -79.45461796924197}, "804540847RR0001": {"name": "Steps to Secondary Limited", "designationCode": "B", "categoryCode": "23", "address": "104 WEST TERRACE POINT", "city": "COCHRANE", "province": "AB", "country": "CA", "postalCode": "T4C1R5", "twitter": "None", "instagram": "None", "facebook": "None", "youtube": "None", "website": "None", "summary": "None", "logo": "None", "latitude": 51.19063143402055, "longitude": -114.50727639480411}, "806145082RR0001": {"name": "Steps Foundation Inc.", "designationCode": "A", "categoryCode": "03", "address": "200 - 366 BAY ST", "city": "TORONTO", "province": "ON", "country": "CA", "postalCode": "M5H4B2", "twitter": "None", "instagram": "None", "facebook": "None", "youtube": "None", "website": "None", "summary": "None", "logo": "None", "latitude": 43.650818120174286, "longitude": -79.38119243562801}, "804440519RR0001": {"name": "Steps Together Foundation", "designationCode": "B", "categoryCode": "23", "address": "3096 ROBSON DR", "city": "COQUITLAM", "province": "BC", "country": "CA", "postalCode": "V3E2R8", "twitter": "None", "instagram": "None", "facebook": "None", "youtube": "None", "website": "None", "summary": "None", "logo": "None", "latitude": 49.29718150288552, "longitude": -122.78392449861502}, "850467978RR0001": {"name": "Sterile Processing Education Charitable Trust", "designationCode": "C", "categoryCode": "15", "address": "5115 VANSTONE CRESCENT        NORTHWEST", "city": "CALGARY", "province": "AB", "country": "CA", "postalCode": "T3A0W1", "twitter": "None", "instagram": "None", "facebook": "None", "youtube": "None", "website": "None", "summary": "None", "logo": "None", "latitude": 51.09969097085809, "longitude": -114.15833302138027}, "838888808RR0001": {"name": "Stettler Community Support Centre Society", "designationCode": "C", "categoryCode": "09", "address": "PO BOX 2097", "city": "STETTLER", "province": "AB", "country": "CA", "postalCode": "T0C2L0", "twitter": "None", "instagram": "None", "facebook": "None", "youtube": "None", "website": "None", "summary": "None", "logo": "None", "latitude": 52.32597900000006, "longitude": -112.70698099999993}, "107375859RR0002": {"name": "Stettler Information and Referral Centre", "designationCode": "C", "categoryCode": "59", "address": "PO BOX 736", "city": "STETTLER", "province": "AB", "country": "CA", "postalCode": "T0C2L0", "twitter": "None", "instagram": "None", "facebook": "None", "youtube": "None", "website": "None", "summary": "None", "logo": "None", "latitude": 52.32597900000006, "longitude": -112.70698099999993}, "816489470RR0001": {"name": "Stettler P & H Elevator Preservation Society", "designationCode": "C", "categoryCode": "52", "address": "P.O. BOX 1437", "city": "STETTLER", "province": "AB", "country": "CA", "postalCode": "T0C2L0", "twitter": "None", "instagram": "None", "facebook": "None", "youtube": "None", "website": "None", "summary": "None", "logo": "None", "latitude": 52.32597900000006, "longitude": -112.70698099999993}, "818530321RR0001": {"name": "Steve and Sandra Hartman Charitable Family Foundation", "designationCode": "B", "categoryCode": "03", "address": "1376 THE GRANGE SIDEROAD", "city": "CALEDON", "province": "ON", "country": "CA", "postalCode": "L7K1G6", "twitter": "None", "instagram": "None", "facebook": "None", "youtube": "None", "website": "None", "summary": "None", "logo": "None", "latitude": 43.78876081008949, "longitude": -79.97790202440464}, "820178697RR0001": {"name": "Steven and Linda Kerzner Family Foundation", "designationCode": "B", "categoryCode": "03", "address": "90 GEORGE STREET              APT 1802", "city": "OTTAWA", "province": "ON", "country": "CA", "postalCode": "K1N0A8", "twitter": "None", "instagram": "None", "facebook": "None", "youtube": "None", "website": "None", "summary": "None", "logo": "None", "latitude": 45.42762670246411, "longitude": -75.6908783963299}, "795449925RR0001": {"name": "Steven Leib Nemetz Foundation", "designationCode": "B", "categoryCode": "03", "address": "298 SHEPPARD AVENUE WEST, SUIT", "city": "TORONTO", "province": "ON", "country": "CA", "postalCode": "M2N1N5", "twitter": "None", "instagram": "None", "facebook": "None", "youtube": "None", "website": "None", "summary": "None", "logo": "None", "latitude": 43.75836714351649, "longitude": -79.42520797336826}, "819277393RR0001": {"name": "Stevens Johnson Syndrome Canada", "designationCode": "A", "categoryCode": "13", "address": "64 GILLESPIE DR", "city": "BRANTFORD", "province": "ON", "country": "CA", "postalCode": "N3T0J9", "twitter": "None", "instagram": "None", "facebook": "None", "youtube": "None", "website": "None", "summary": "None", "logo": "None", "latitude": 43.10934804825616, "longitude": -80.29629404651003}, "108016924RR0001": {"name": "Stevenson-Britannia Adult Learning Centre, Inc.", "designationCode": "C", "categoryCode": "21", "address": "1 BRAINTREE CRESCENT", "city": "WINNIPEG", "province": "MB", "country": "CA", "postalCode": "R3J1C7", "twitter": "None", "instagram": "None", "facebook": "None", "youtube": "None", "website": "None", "summary": "None", "logo": "None", "latitude": 49.88636746104766, "longitude": -97.25591169885743}, "129027421RR0001": {"name": "Steveston Community Society", "designationCode": "C", "categoryCode": "56", "address": "1800 - 510 GEORGIA ST W", "city": "VANCOUVER", "province": "BC", "country": "CA", "postalCode": "V6B0M3", "twitter": "None", "instagram": "None", "facebook": "None", "youtube": "None", "website": "None", "summary": "None", "logo": "None", "latitude": 49.281267759207665, "longitude": -123.11633309804196}, "855907861RR0001": {"name": "Steveston 284 Seniors' Housing Society", "designationCode": "C", "categoryCode": "09", "address": "4071 CHATHAM ST", "city": "RICHMOND", "province": "BC", "country": "CA", "postalCode": "V7E2Z7", "twitter": "None", "instagram": "None", "facebook": "None", "youtube": "None", "website": "None", "summary": "None", "logo": "None", "latitude": 49.12657882090454, "longitude": -123.18066316066518}, "851678599RR0001": {"name": "Stewardship Pemberton Society", "designationCode": "C", "categoryCode": "29", "address": "PO BOX 31", "city": "PEMBERTON", "province": "BC", "country": "CA", "postalCode": "V0N2L0", "twitter": "None", "instagram": "None", "facebook": "None", "youtube": "None", "website": "None", "summary": "None", "logo": "None", "latitude": 50.443383074414584, "longitude": -122.91368590568882}, "820507002RR0001": {"name": "Stewart Ministries", "designationCode": "C", "categoryCode": "39", "address": "PO BOX 745", "city": "KASLO", "province": "BC", "country": "CA", "postalCode": "V0G1M0", "twitter": "None", "instagram": "None", "facebook": "None", "youtube": "None", "website": "None", "summary": "None", "logo": "None", "latitude": 49.91053000000005, "longitude": -116.90458999999998}, "827676867RR0001": {"name": "Stigma-Free Society", "designationCode": "C", "categoryCode": "11", "address": "102 - 245 ROSS DR", "city": "NEW WESTMINSTER", "province": "BC", "country": "CA", "postalCode": "V3L0C6", "twitter": "None", "instagram": "None", "facebook": "None", "youtube": "None", "website": "None", "summary": "None", "logo": "None", "latitude": 49.21448756040408, "longitude": -122.90012419527109}, "821322856RR0001": {"name": "Stillpoint Inc.", "designationCode": "C", "categoryCode": "11", "address": "146 ARLINGTON STREET", "city": "WINNIPEG", "province": "MB", "country": "CA", "postalCode": "R3G1Y5", "twitter": "None", "instagram": "None", "facebook": "None", "youtube": "None", "website": "None", "summary": "None", "logo": "None", "latitude": 49.881862875382296, "longitude": -97.1697129496507}, "893549410RR0001": {"name": "StimuleArts", "designationCode": "B", "categoryCode": "09", "address": "201 7E AVENUE", "city": "LAVAL", "province": "QC", "country": "CA", "postalCode": "H7N4J7", "twitter": "None", "instagram": "None", "facebook": "None", "youtube": "None", "website": "None", "summary": "None", "logo": "None", "latitude": 45.564785433262074, "longitude": -73.69421136161941}, "845835131RR0001": {"name": "Stittsville Concert Band Incorporated", "designationCode": "C", "categoryCode": "22", "address": "1481 MAIN STREET,             4TH FLOOR BAND STUDIO P.O. 640", "city": "STITTSVILLE", "province": "ON", "country": "CA", "postalCode": "K2S1A7", "twitter": "None", "instagram": "None", "facebook": "None", "youtube": "None", "website": "None", "summary": "None", "logo": "None", "latitude": 45.264669000000055, "longitude": -75.92809399999993}, "822292181RR0001": {"name": "Stittsville District Lions Club Charitable Foundation", "designationCode": "A", "categoryCode": "03", "address": "1339 STITTSVILLE MAIN STREET  BOX 4", "city": "STITTSVILLE", "province": "ON", "country": "CA", "postalCode": "K2S1C6", "twitter": "None", "instagram": "None", "facebook": "None", "youtube": "None", "website": "None", "summary": "None", "logo": "None", "latitude": 45.2644235609382, "longitude": -75.92777031678138}, "838930691RR0001": {"name": "Stockdale United Church", "designationCode": "C", "categoryCode": "44", "address": "1671 COUNTY ROAD#5,RR.1       BOX 1,COMP.1", "city": "FRANKFORD", "province": "ON", "country": "CA", "postalCode": "K0K2C0", "twitter": "None", "instagram": "None", "facebook": "None", "youtube": "None", "website": "None", "summary": "None", "logo": "None", "latitude": 44.20910336200562, "longitude": -77.52224957370846}, "118826411RR0001": {"name": "Stone Mills Pentecostal Church", "designationCode": "C", "categoryCode": "36", "address": "PO BOX 337 STN MAIN", "city": "COBOURG", "province": "ON", "country": "CA", "postalCode": "K9A4K8", "twitter": "None", "instagram": "None", "facebook": "None", "youtube": "None", "website": "None", "summary": "None", "logo": "None", "latitude": 43.95960600000005, "longitude": -78.16778449999994}, "813293131RR0001": {"name": "Stonecroft Foundation for the Arts", "designationCode": "B", "categoryCode": "23", "address": "3 LEWIS ST", "city": "PERTH", "province": "ON", "country": "CA", "postalCode": "K7H1M6", "twitter": "None", "instagram": "None", "facebook": "None", "youtube": "None", "website": "None", "summary": "None", "logo": "None", "latitude": 44.898646724681115, "longitude": -76.25271239687815}, "846854156RR0001": {"name": "Stonegate Community Ecumenical Ministry", "designationCode": "C", "categoryCode": "39", "address": "P.O. BOX 84592, RPO BLOOR WEST", "city": "TORONTO", "province": "ON", "country": "CA", "postalCode": "M6S4Z7", "twitter": "None", "instagram": "None", "facebook": "None", "youtube": "None", "website": "None", "summary": "None", "logo": "None", "latitude": 43.64825303806447, "longitude": -79.4913310281972}, "830924163RR0001": {"name": "Stonehaven-New Bandon Union Cemetery Inc.", "designationCode": "C", "categoryCode": "59", "address": "7757 ROUTE 11", "city": "STONEHAVEN", "province": "NB", "country": "CA", "postalCode": "E2A5N9", "twitter": "None", "instagram": "None", "facebook": "None", "youtube": "None", "website": "None", "summary": "None", "logo": "None", "latitude": 47.75642361695699, "longitude": -65.33906406736595}, "119209997RR0001": {"name": "Stoneridge Fellowship Baptist Church", "designationCode": "C", "categoryCode": "31", "address": "PO BOX 358", "city": "LOWER SACKVILLE", "province": "NS", "country": "CA", "postalCode": "B4C2T2", "twitter": "None", "instagram": "None", "facebook": "None", "youtube": "None", "website": "None", "summary": "None", "logo": "None", "latitude": 44.76871500000006, "longitude": -63.65960449999993}, "854697752RR0001": {"name": "Stony Mountain Community Association Inc.", "designationCode": "C", "categoryCode": "59", "address": "117 SCHOOL RD P.O.BOX 449", "city": "STONY MOUNTAIN", "province": "MB", "country": "CA", "postalCode": "R0C3A0", "twitter": "None", "instagram": "None", "facebook": "None", "youtube": "None", "website": "None", "summary": "None", "logo": "None", "latitude": 50.085836639518156, "longitude": -97.21787479532985}, "846755239RR0001": {"name": "StopGap Foundation", "designationCode": "C", "categoryCode": "59", "address": "6100-100 KING STREET WEST     1 FIRST CANADIAN PLACE", "city": "TORONTO", "province": "ON", "country": "CA", "postalCode": "M5X1B8", "twitter": "None", "instagram": "None", "facebook": "None", "youtube": "None", "website": "None", "summary": "None", "logo": "None", "latitude": 43.64837001558063, "longitude": -79.38150001500362}, "840817910RR0001": {"name": "Story Book Farm Primate Sanctuary", "designationCode": "C", "categoryCode": "54", "address": "2315 CONCESSION #10 RR#3", "city": "SUNDERLAND", "province": "ON", "country": "CA", "postalCode": "L0C1H0", "twitter": "None", "instagram": "None", "facebook": "None", "youtube": "None", "website": "None", "summary": "None", "logo": "None", "latitude": 44.33054884975061, "longitude": -79.00558750940398}}