{"769062290RR0001": {"name": "Evangelical Church Snowball", "designationCode": "C", "categoryCode": "39", "address": "39 BLACKWATER CRESCENT", "city": "TORONTO", "province": "ON", "country": "CA", "postalCode": "M1B1L5", "twitter": "None", "instagram": "None", "facebook": "None", "youtube": "None", "website": "None", "summary": "None", "logo": "None", "latitude": 43.799106121299474, "longitude": -79.216517571614}, "830771127RR0001": {"name": "Evangelical Lutheran Foundation of Eastern Canada", "designationCode": "A", "categoryCode": "43", "address": "74 WEBER STREET WEST", "city": "KITCHENER", "province": "ON", "country": "CA", "postalCode": "N2H3Z3", "twitter": "None", "instagram": "None", "facebook": "None", "youtube": "None", "website": "None", "summary": "None", "logo": "None", "latitude": 43.45353827589579, "longitude": -80.49125180431655}, "827155862RR0001": {"name": "Evangelical Mission Jesus Christ is Alive Ministries", "designationCode": "C", "categoryCode": "49", "address": "SHOPPER'S WORLD3003 DANFORTH  AVE PO BOX 93591", "city": "TORONTO", "province": "ON", "country": "CA", "postalCode": "M4C5R4", "twitter": "None", "instagram": "None", "facebook": "None", "youtube": "None", "website": "None", "summary": "None", "logo": "None", "latitude": 43.686657895332615, "longitude": -79.30866695490054}, "894458983RR0001": {"name": "Evangelical Restoration Church Society", "designationCode": "C", "categoryCode": "39", "address": "3310 - 9981 WHALLEY BLVD", "city": "SURREY", "province": "BC", "country": "CA", "postalCode": "V3T0G6", "twitter": "None", "instagram": "None", "facebook": "None", "youtube": "None", "website": "None", "summary": "None", "logo": "None", "latitude": 49.18354787815228, "longitude": -122.84315330310446}, "139482665RR0001": {"name": "Evangeline Recreation Society", "designationCode": "C", "categoryCode": "11", "address": "130 COMMERCIAL ST.", "city": "BERWICK", "province": "NS", "country": "CA", "postalCode": "B0P1E0", "twitter": "None", "instagram": "None", "facebook": "None", "youtube": "None", "website": "None", "summary": "None", "logo": "None", "latitude": 45.03725544186044, "longitude": -64.73317781608888}, "836823724RR0001": {"name": "Eveline Place Inc.", "designationCode": "C", "categoryCode": "09", "address": "457 EVELINE STREET", "city": "SELKIRK", "province": "MB", "country": "CA", "postalCode": "R1A2M3", "twitter": "None", "instagram": "None", "facebook": "None", "youtube": "None", "website": "None", "summary": "None", "logo": "None", "latitude": 50.146841626437094, "longitude": -96.86615275132166}, "796536290RR0001": {"name": "Events For Life Centre Inc.", "designationCode": "C", "categoryCode": "11", "address": "PO BOX 1045", "city": "THORNBURY", "province": "ON", "country": "CA", "postalCode": "N0H2P0", "twitter": "None", "instagram": "None", "facebook": "None", "youtube": "None", "website": "None", "summary": "None", "logo": "None", "latitude": 44.561600000000055, "longitude": -80.45108999999997}, "841943384RR0001": {"name": "Everest S.E.L.F. Foundation", "designationCode": "C", "categoryCode": "21", "address": "17 HAMBLEY AVENUE", "city": "TORONTO", "province": "ON", "country": "CA", "postalCode": "M4E2R5", "twitter": "None", "instagram": "None", "facebook": "None", "youtube": "None", "website": "None", "summary": "None", "logo": "None", "latitude": 43.6716978157135, "longitude": -79.29723717511123}, "133256057RR0001": {"name": "Evergreen Baptist Care Society", "designationCode": "C", "categoryCode": "10", "address": "1550 OXFORD STREET", "city": "WHITE ROCK", "province": "BC", "country": "CA", "postalCode": "V4B3R5", "twitter": "None", "instagram": "None", "facebook": "None", "youtube": "None", "website": "None", "summary": "None", "logo": "None", "latitude": 49.03019301765525, "longitude": -122.81212851269204}, "888497260RR0001": {"name": "Evergreen Cemetery Association", "designationCode": "C", "categoryCode": "59", "address": "201 GLENELG CHURCH RD", "city": "ASPEN", "province": "NS", "country": "CA", "postalCode": "B0H1E0", "twitter": "None", "instagram": "None", "facebook": "None", "youtube": "None", "website": "None", "summary": "None", "logo": "None", "latitude": 45.267701428241764, "longitude": -62.073861743868356}, "835326463RR0001": {"name": "Evergreen Charitable Trust", "designationCode": "B", "categoryCode": "45", "address": "3425 2 AVE S", "city": "LETHBRIDGE", "province": "AB", "country": "CA", "postalCode": "T1J4V1", "twitter": "None", "instagram": "None", "facebook": "None", "youtube": "None", "website": "None", "summary": "None", "logo": "None", "latitude": 49.696839530439966, "longitude": -112.78914308381903}, "837834894RR0001": {"name": "Evergreen Church", "designationCode": "C", "categoryCode": "39", "address": "144 ARMITAGE DR", "city": "NEWMARKET", "province": "ON", "country": "CA", "postalCode": "L3Y5L7", "twitter": "None", "instagram": "None", "facebook": "None", "youtube": "None", "website": "None", "summary": "None", "logo": "None", "latitude": 44.03870871080265, "longitude": -79.4706106399967}, "108154568RR0001": {"name": "Evergreen Pastoral Charge (United Church of Canada)", "designationCode": "C", "categoryCode": "44", "address": "1498 WINDERMERE ROAD          RR2", "city": "UTTERSON", "province": "ON", "country": "CA", "postalCode": "P0B1M0", "twitter": "None", "instagram": "None", "facebook": "None", "youtube": "None", "website": "None", "summary": "None", "logo": "None", "latitude": 45.15883552792982, "longitude": -79.45118178867774}, "860214493RR0001": {"name": "Evergreen Presbyterian Church", "designationCode": "A", "categoryCode": "43", "address": "1320-7TH AVENUE", "city": "NEW WESTMINSTER", "province": "BC", "country": "CA", "postalCode": "V3N2K1", "twitter": "None", "instagram": "None", "facebook": "None", "youtube": "None", "website": "None", "summary": "None", "logo": "None", "latitude": 49.20781918043074, "longitude": -122.93394392325634}, "824003958RR0001": {"name": "Evergreen: A United Neighbourhood", "designationCode": "C", "categoryCode": "09", "address": "139 HERON STREET", "city": "THUNDER BAY", "province": "ON", "country": "CA", "postalCode": "P7C2M2", "twitter": "None", "instagram": "None", "facebook": "None", "youtube": "None", "website": "None", "summary": "None", "logo": "None", "latitude": 48.391648825985314, "longitude": -89.239020768798}, "834801714RR0001": {"name": "Every Day Ministries Canada", "designationCode": "C", "categoryCode": "47", "address": "116-10 GILLINGHAM DRIVE       SUITE 416", "city": "BRAMPTON", "province": "ON", "country": "CA", "postalCode": "L6X5A5", "twitter": "None", "instagram": "None", "facebook": "None", "youtube": "None", "website": "None", "summary": "None", "logo": "None", "latitude": 43.70299650000001, "longitude": -79.7841945}, "854904836RR0001": {"name": "Every Nation Ministries - GTA", "designationCode": "C", "categoryCode": "39", "address": "SUITE 216                     2323 BLOOR STREET", "city": "TORONTO", "province": "ON", "country": "CA", "postalCode": "M6S4W1", "twitter": "None", "instagram": "None", "facebook": "None", "youtube": "None", "website": "None", "summary": "None", "logo": "None", "latitude": 43.6502717726645, "longitude": -79.4800583546945}, "813170446RR0001": {"name": "Everyday Christ Ministries", "designationCode": "C", "categoryCode": "39", "address": "130 KEITH CLOSE", "city": "RED DEER", "province": "AB", "country": "CA", "postalCode": "T4P3X4", "twitter": "None", "instagram": "None", "facebook": "None", "youtube": "None", "website": "None", "summary": "None", "logo": "None", "latitude": 52.31103150043269, "longitude": -113.83556416763807}, "822110359RR0001": {"name": "Evolution Theatre", "designationCode": "C", "categoryCode": "22", "address": "293 SINGLETON WAY", "city": "ORLEANS", "province": "ON", "country": "CA", "postalCode": "K1E2B2", "twitter": "None", "instagram": "None", "facebook": "None", "youtube": "None", "website": "None", "summary": "None", "logo": "None", "latitude": 45.48685121622701, "longitude": -75.50998515430786}, "795092493RR0001": {"name": "Ewald Family Foundation", "designationCode": "B", "categoryCode": "05", "address": "1275 6TH AVE W", "city": "VANCOUVER", "province": "BC", "country": "CA", "postalCode": "V6H1A6", "twitter": "None", "instagram": "None", "facebook": "None", "youtube": "None", "website": "None", "summary": "None", "logo": "None", "latitude": 49.26615546047075, "longitude": -123.13305285498296}, "835492257RR0001": {"name": "Ewashko Singers", "designationCode": "C", "categoryCode": "22", "address": "2227 PETER ROBINSON ROAD", "city": "CARP", "province": "ON", "country": "CA", "postalCode": "K0A1L0", "twitter": "None", "instagram": "None", "facebook": "None", "youtube": "None", "website": "None", "summary": "None", "logo": "None", "latitude": 45.30413145631767, "longitude": -76.14777105020227}, "833197908RR0001": {"name": "Ex Corde Foundation", "designationCode": "A", "categoryCode": "43", "address": "700 KING STREET WEST", "city": "HAMILTON", "province": "ON", "country": "CA", "postalCode": "L8P1C7", "twitter": "None", "instagram": "None", "facebook": "None", "youtube": "None", "website": "None", "summary": "None", "logo": "None", "latitude": 43.26284446770546, "longitude": -79.89023923809737}, "881385710RR0001": {"name": "Excalibur ADHD Association", "designationCode": "C", "categoryCode": "01", "address": "32 DUNDAS STREET", "city": "DARTMOUTH", "province": "NS", "country": "CA", "postalCode": "B2Y2T9", "twitter": "None", "instagram": "None", "facebook": "None", "youtube": "None", "website": "None", "summary": "None", "logo": "None", "latitude": 44.667222233423686, "longitude": -63.565844689970625}, "796546299RR0001": {"name": "Excel Family and Youth Society (EFYS)", "designationCode": "C", "categoryCode": "59", "address": "435 HIDDEN CREEK BLVD NW", "city": "CALGARY", "province": "AB", "country": "CA", "postalCode": "T3K6J1", "twitter": "None", "instagram": "None", "facebook": "None", "youtube": "None", "website": "None", "summary": "None", "logo": "None", "latitude": 51.16369334416292, "longitude": -114.10155346684739}, "815540323RR0001": {"name": "Excel Toronto Financial Support for Post-Secondary Studies", "designationCode": "C", "categoryCode": "21", "address": "710 - 38 WILLIAM CARSON CRES", "city": "NORTH YORK", "province": "ON", "country": "CA", "postalCode": "M2P2H2", "twitter": "None", "instagram": "None", "facebook": "None", "youtube": "None", "website": "None", "summary": "None", "logo": "None", "latitude": 43.74958427205799, "longitude": -79.40641272531629}, "863717385RR0001": {"name": "Excellence in Literacy Foundation - La Fondation d'Excellence en Alphab\u00e9tisme", "designationCode": "C", "categoryCode": "20", "address": "PO BOX 639", "city": "RICHMOND", "province": "ON", "country": "CA", "postalCode": "K0A2Z0", "twitter": "None", "instagram": "None", "facebook": "None", "youtube": "None", "website": "None", "summary": "None", "logo": "None", "latitude": 45.07289024235629, "longitude": -76.0222203768388}, "872102009RR0001": {"name": "Exchange Community Church Inc.", "designationCode": "C", "categoryCode": "39", "address": "200 75 ALBERT ST", "city": "WINNIPEG", "province": "MB", "country": "CA", "postalCode": "R3B1G3", "twitter": "None", "instagram": "None", "facebook": "None", "youtube": "None", "website": "None", "summary": "None", "logo": "None", "latitude": 49.89691645148467, "longitude": -97.14020873611877}, "808816664RR0001": {"name": "Exeter Community Food Bank", "designationCode": "C", "categoryCode": "09", "address": "249 ANDREW STREET             PO BOX 93", "city": "EXETER", "province": "ON", "country": "CA", "postalCode": "N0M1S6", "twitter": "None", "instagram": "None", "facebook": "None", "youtube": "None", "website": "None", "summary": "None", "logo": "None", "latitude": 43.3497569933349, "longitude": -81.47961918544031}, "815802723RR0001": {"name": "Expand Hope Foundation", "designationCode": "A", "categoryCode": "03", "address": "PO BOX 92547 RPO NOTTINGHAM", "city": "SHERWOOD PARK", "province": "AB", "country": "CA", "postalCode": "T8A3X4", "twitter": "None", "instagram": "None", "facebook": "None", "youtube": "None", "website": "None", "summary": "None", "logo": "None", "latitude": 53.52612183947098, "longitude": -113.28132213977932}, "831616982RR0001": {"name": "Experience Church Calgary", "designationCode": "C", "categoryCode": "39", "address": "BAY 151, 10905-48 ST SE", "city": "CALGARY", "province": "AB", "country": "CA", "postalCode": "T2C1G8", "twitter": "None", "instagram": "None", "facebook": "None", "youtube": "None", "website": "None", "summary": "None", "logo": "None", "latitude": 50.95625408381903, "longitude": -113.96530760090015}, "784172892RR0001": {"name": "Experience Kaleo Ltd", "designationCode": "C", "categoryCode": "39", "address": "69 NADINE WAY", "city": "ST. ALBERT", "province": "AB", "country": "CA", "postalCode": "T8N1C6", "twitter": "None", "instagram": "None", "facebook": "None", "youtube": "None", "website": "None", "summary": "None", "logo": "None", "latitude": 53.6496788864908, "longitude": -113.67272393444551}, "107971343RR0001": {"name": "Experiences Canada", "designationCode": "C", "categoryCode": "29", "address": "201-1150 MORRISON DRIVE", "city": "OTTAWA", "province": "ON", "country": "CA", "postalCode": "K2H8S9", "twitter": "None", "instagram": "None", "facebook": "None", "youtube": "None", "website": "None", "summary": "None", "logo": "None", "latitude": 45.34484176441193, "longitude": -75.79708700256748}, "108015744RR0001": {"name": "Explore & Discover Early Learning Centre Inc.", "designationCode": "C", "categoryCode": "21", "address": "251 EDGELAND BLVD", "city": "WINNIPEG", "province": "MB", "country": "CA", "postalCode": "R3P0R2", "twitter": "None", "instagram": "None", "facebook": "None", "youtube": "None", "website": "None", "summary": "None", "logo": "None", "latitude": 49.86746742270186, "longitude": -97.21114793280073}, "810267583RR0001": {"name": "Extendicare Foundation", "designationCode": "C", "categoryCode": "09", "address": "700 - 3000 STEELES AVE E", "city": "MARKHAM", "province": "ON", "country": "CA", "postalCode": "L3R9W2", "twitter": "None", "instagram": "None", "facebook": "None", "youtube": "None", "website": "None", "summary": "None", "logo": "None", "latitude": 43.81385063833762, "longitude": -79.34931800099876}, "791494099RR0001": {"name": "Extreme Poverty Projects Canada", "designationCode": "C", "categoryCode": "09", "address": "53 P.O. BOX 17000 STN FORCES", "city": "WINNIPEG", "province": "MB", "country": "CA", "postalCode": "R3J3Y5", "twitter": "None", "instagram": "None", "facebook": "None", "youtube": "None", "website": "None", "summary": "None", "logo": "None", "latitude": 49.88684400000005, "longitude": -97.23976099999993}, "828637785RR0001": {"name": "Exuma Foundation of Canada", "designationCode": "C", "categoryCode": "09", "address": "353 DALHOUSIE ST", "city": "OTTAWA", "province": "ON", "country": "CA", "postalCode": "K1N7G1", "twitter": "None", "instagram": "None", "facebook": "None", "youtube": "None", "website": "None", "summary": "None", "logo": "None", "latitude": 45.42806857092152, "longitude": -75.69042619190387}, "889302006RR0001": {"name": "Eyes of Compassion Relief Organization", "designationCode": "C", "categoryCode": "09", "address": "114 - 1055 CANADIAN PLACE", "city": "MISSISSAUGA", "province": "ON", "country": "CA", "postalCode": "L4W0C2", "twitter": "None", "instagram": "None", "facebook": "None", "youtube": "None", "website": "None", "summary": "None", "logo": "None", "latitude": 43.62671187457425, "longitude": -79.6273813054704}, "842695793RR0001": {"name": "Eyes Wide Open Fertility Support of Windsor Essex County", "designationCode": "C", "categoryCode": "09", "address": "2806 MANGIN CRESCENT,", "city": "WINDSOR", "province": "ON", "country": "CA", "postalCode": "N9E4K7", "twitter": "None", "instagram": "None", "facebook": "None", "youtube": "None", "website": "None", "summary": "None", "logo": "None", "latitude": 42.26564769274061, "longitude": -83.04217484416293}, "808016851RR0001": {"name": "Eyrie For The Children Foundation", "designationCode": "A", "categoryCode": "03", "address": "1908-55 HUNTINGDALE BOULEVARD", "city": "TORONTO", "province": "ON", "country": "CA", "postalCode": "M1W2N9", "twitter": "None", "instagram": "None", "facebook": "None", "youtube": "None", "website": "None", "summary": "None", "logo": "None", "latitude": 43.79631280483617, "longitude": -79.32492723301966}, "852540210RR0001": {"name": "Ezdanse / Ezdanza", "designationCode": "C", "categoryCode": "22", "address": "158 RUE WOLFE", "city": "LONGUEUIL", "province": "QC", "country": "CA", "postalCode": "J4J2C6", "twitter": "None", "instagram": "None", "facebook": "None", "youtube": "None", "website": "None", "summary": "None", "logo": "None", "latitude": 45.53156851956261, "longitude": -73.4816493667553}, "850647637RR0001": {"name": "Ezer Mizion", "designationCode": "C", "categoryCode": "11", "address": "701 - 1110 FINCH AVE W", "city": "NORTH YORK", "province": "ON", "country": "CA", "postalCode": "M3J2T2", "twitter": "None", "instagram": "None", "facebook": "None", "youtube": "None", "website": "None", "summary": "None", "logo": "None", "latitude": 43.764423902088836, "longitude": -79.48682251720832}, "815441563RR0001": {"name": "Ezra for Israel", "designationCode": "C", "categoryCode": "45", "address": "PO BOX 178", "city": "DIAMOND CITY", "province": "AB", "country": "CA", "postalCode": "T0K0T0", "twitter": "None", "instagram": "None", "facebook": "None", "youtube": "None", "website": "None", "summary": "None", "logo": "None", "latitude": 49.79677000000004, "longitude": -112.84647999999999}, "843454919RR0001": {"name": "Ezra Canada", "designationCode": "C", "categoryCode": "09", "address": "15353 CENTREVILLE CREEK ROAD", "city": "CALEDON EAST", "province": "ON", "country": "CA", "postalCode": "L7C3C3", "twitter": "None", "instagram": "None", "facebook": "None", "youtube": "None", "website": "None", "summary": "None", "logo": "None", "latitude": 43.87597929265886, "longitude": -79.82796512360903}, "840377618RR0001": {"name": "Ezra Foundation", "designationCode": "B", "categoryCode": "03", "address": "1199 MOUNTAIN VIEW ROAD", "city": "ARMSTRONG", "province": "BC", "country": "CA", "postalCode": "V0E1B8", "twitter": "None", "instagram": "None", "facebook": "None", "youtube": "None", "website": "None", "summary": "None", "logo": "None", "latitude": 51.68203678715276, "longitude": -120.01568630422929}, "813150364RR0001": {"name": "Ezra Institute for Contemporary Christianity", "designationCode": "C", "categoryCode": "39", "address": "9 HEWITT AVE", "city": "TORONTO", "province": "ON", "country": "CA", "postalCode": "M6R1Y4", "twitter": "None", "instagram": "None", "facebook": "None", "youtube": "None", "website": "None", "summary": "None", "logo": "None", "latitude": 43.65238586037865, "longitude": -79.4518749539212}, "118890151RR0001": {"name": "EAGLE BAY CAMP", "designationCode": "C", "categoryCode": "56", "address": "PO BOX 1162 STN MAIN", "city": "VERNON", "province": "BC", "country": "CA", "postalCode": "V1T6N4", "twitter": "None", "instagram": "None", "facebook": "None", "youtube": "None", "website": "None", "summary": "None", "logo": "None", "latitude": 50.26567200000005, "longitude": -119.27378149999993}, "118890169RR0001": {"name": "EAGLE BAY COMMUNITY CHURCH", "designationCode": "C", "categoryCode": "39", "address": "4802 EAGLE BAY ROAD", "city": "EAGLE BAY", "province": "BC", "country": "CA", "postalCode": "V0E1T0", "twitter": "None", "instagram": "None", "facebook": "None", "youtube": "None", "website": "None", "summary": "None", "logo": "None", "latitude": 50.932475582001416, "longitude": -119.2137713341919}, "129198701RR0001": {"name": "EAGLE CREEK REGIONAL PARK AUTHORITY", "designationCode": "C", "categoryCode": "52", "address": "POST OFFICE BOX 359", "city": "PERDUE", "province": "SK", "country": "CA", "postalCode": "S0K3C0", "twitter": "None", "instagram": "None", "facebook": "None", "youtube": "None", "website": "None", "summary": "None", "logo": "None", "latitude": 52.13422819405385, "longitude": -107.23358805782026}, "119288918RR0031": {"name": "EAGLE HEIGHTS CONGREGATION OF JEHOVAH'S WITNESSES, DUNCAN, BRITISH COLUMBIA", "designationCode": "C", "categoryCode": "61", "address": "1071 CANADA AVENUE", "city": "DUNCAN", "province": "BC", "country": "CA", "postalCode": "V9L1V2", "twitter": "None", "instagram": "None", "facebook": "None", "youtube": "None", "website": "None", "summary": "None", "logo": "None", "latitude": 48.788106172341266, "longitude": -123.71042024955251}, "868106337RR0001": {"name": "EAGLE HILL CEMETERY", "designationCode": "C", "categoryCode": "59", "address": "GENERAL DELIVERY              CUMBERLAND COUNTY", "city": "WESTCHESTER", "province": "NS", "country": "CA", "postalCode": "B0M2A0", "twitter": "None", "instagram": "None", "facebook": "None", "youtube": "None", "website": "None", "summary": "None", "logo": "None", "latitude": 45.61745100000006, "longitude": -63.68418349999993}, "132003682RR0001": {"name": "EAGLE HILL FOUNDATION (1995)", "designationCode": "C", "categoryCode": "01", "address": "BOX 279", "city": "TWO HILLS", "province": "AB", "country": "CA", "postalCode": "T0B4K0", "twitter": "None", "instagram": "None", "facebook": "None", "youtube": "None", "website": "None", "summary": "None", "logo": "None", "latitude": 52.8669131587706, "longitude": -112.95008082113492}, "139329460RR0001": {"name": "EAGLE HILL GOSPEL MISSION", "designationCode": "C", "categoryCode": "39", "address": "BOX 8, 34125 RANGE RD. 34", "city": "MOUNTAIN VIEW COUNTY", "province": "AB", "country": "CA", "postalCode": "T0M0K0", "twitter": "None", "instagram": "None", "facebook": "None", "youtube": "None", "website": "None", "summary": "None", "logo": "None", "latitude": 51.90151474854292, "longitude": -114.37954900868526}, "118890177RR0001": {"name": "EAGLE LAKE COMMUNITY CHURCH", "designationCode": "C", "categoryCode": "31", "address": "2605 EAGLE LAKE RD BOX 29", "city": "EAGLE LAKE", "province": "ON", "country": "CA", "postalCode": "K0M1M0", "twitter": "None", "instagram": "None", "facebook": "None", "youtube": "None", "website": "None", "summary": "None", "logo": "None", "latitude": 45.12865164669047, "longitude": -78.51404137275657}, "140813395RR0001": {"name": "EAGLE MOUNTAIN CHURCH", "designationCode": "C", "categoryCode": "39", "address": "P.O. BOX 285                  STATION \"A\"", "city": "NANAIMO", "province": "BC", "country": "CA", "postalCode": "V9R5K9", "twitter": "None", "instagram": "None", "facebook": "None", "youtube": "None", "website": "None", "summary": "None", "logo": "None", "latitude": 49.164243000000056, "longitude": -123.93616399999993}, "863052189RR0001": {"name": "EAGLE PARK HEALTH CARE AUXILIARY", "designationCode": "A", "categoryCode": "13", "address": "777 JONES ST", "city": "QUALICUM BEACH", "province": "BC", "country": "CA", "postalCode": "V9K2L1", "twitter": "None", "instagram": "None", "facebook": "None", "youtube": "None", "website": "None", "summary": "None", "logo": "None", "latitude": 49.34402704004468, "longitude": -124.44916452294002}, "864641899RR0001": {"name": "EAGLE RIDGE BIBLE FELLOWSHIP", "designationCode": "C", "categoryCode": "34", "address": "1160 LANDSDOWNE DRIVE", "city": "COQUITLAM", "province": "BC", "country": "CA", "postalCode": "V3B5V8", "twitter": "None", "instagram": "None", "facebook": "None", "youtube": "None", "website": "None", "summary": "None", "logo": "None", "latitude": 49.281173025535224, "longitude": -122.8083651044199}, "119288918RR0857": {"name": "EAGLE RIDGE CONGREGATION OF JEHOVAH'S WITNESSES", "designationCode": "C", "categoryCode": "61", "address": "#1104-2929 BARNET HWY.", "city": "COQUITLAM", "province": "BC", "country": "CA", "postalCode": "V3B5R5", "twitter": "None", "instagram": "None", "facebook": "None", "youtube": "None", "website": "None", "summary": "None", "logo": "None", "latitude": 49.27722523280947, "longitude": -122.80052279097318}, "896672714RR0001": {"name": "EAGLE RIDGE HOSPITAL AUXILIARY", "designationCode": "A", "categoryCode": "03", "address": "475 GUILDFORD WAY", "city": "PORT MOODY", "province": "BC", "country": "CA", "postalCode": "V3H3W9", "twitter": "None", "instagram": "None", "facebook": "None", "youtube": "None", "website": "None", "summary": "None", "logo": "None", "latitude": 49.284089349991305, "longitude": -122.82255889967678}, "118890201RR0001": {"name": "EAGLE RIDGE UNITED CHURCH", "designationCode": "C", "categoryCode": "47", "address": "2813 GLEN DRIVE", "city": "COQUITLAM", "province": "BC", "country": "CA", "postalCode": "V3B2P6", "twitter": "None", "instagram": "None", "facebook": "None", "youtube": "None", "website": "None", "summary": "None", "logo": "None", "latitude": 49.28277746436587, "longitude": -122.80754330682672}, "137786950RR0001": {"name": "EAGLE VALLEY COMMUNITY SUPPORTSOCIETY", "designationCode": "C", "categoryCode": "59", "address": "BOX 777", "city": "SICAMOUS", "province": "BC", "country": "CA", "postalCode": "V0E2V0", "twitter": "None", "instagram": "None", "facebook": "None", "youtube": "None", "website": "None", "summary": "None", "logo": "None", "latitude": 50.81994638864104, "longitude": -119.68648050671356}, "891317182RR0001": {"name": "EAGLE VALLEY RESCUE SOCIETY", "designationCode": "C", "categoryCode": "59", "address": "PO BOX 652", "city": "SICAMOUS", "province": "BC", "country": "CA", "postalCode": "V0E2V0", "twitter": "None", "instagram": "None", "facebook": "None", "youtube": "None", "website": "None", "summary": "None", "logo": "None", "latitude": 50.81994638864104, "longitude": -119.68648050671356}, "101538502RR0001": {"name": "EAGLE VALLEY SENIOR CITIZENS HOUSING SOCIETY", "designationCode": "C", "categoryCode": "09", "address": "1095 SHUSWAP AVE", "city": "SICAMOUS", "province": "BC", "country": "CA", "postalCode": "V0E2V1", "twitter": "None", "instagram": "None", "facebook": "None", "youtube": "None", "website": "None", "summary": "None", "logo": "None", "latitude": 50.83416233611285, "longitude": -118.98518823478001}, "872065024RR0001": {"name": "EAGLE WINGS DISCIPLESHIP MINISTRIES INC.", "designationCode": "C", "categoryCode": "49", "address": "2439 HERRGOTT RD", "city": "ST CLEMENTS", "province": "ON", "country": "CA", "postalCode": "N0B2M0", "twitter": "None", "instagram": "None", "facebook": "None", "youtube": "None", "website": "None", "summary": "None", "logo": "None", "latitude": 43.509742818454825, "longitude": -80.65423611039533}, "880655014RR0001": {"name": "EAGLE WORLDWIDE MINISTRIES", "designationCode": "C", "categoryCode": "47", "address": "P.O.BOX 39", "city": "COPETOWN", "province": "ON", "country": "CA", "postalCode": "L0R1J0", "twitter": "None", "instagram": "None", "facebook": "None", "youtube": "None", "website": "None", "summary": "None", "logo": "None", "latitude": 43.24383000000006, "longitude": -80.05627999999996}, "883911109RR0001": {"name": "EAGLE'S NEST ASSOCIATION OF WATERDOWN", "designationCode": "C", "categoryCode": "09", "address": "PO BOX 1391", "city": "WATERDOWN", "province": "ON", "country": "CA", "postalCode": "L0R2H0", "twitter": "None", "instagram": "None", "facebook": "None", "youtube": "None", "website": "None", "summary": "None", "logo": "None", "latitude": 43.329109500000015, "longitude": -79.8842655}, "892144379RR0001": {"name": "EAGLE'S NEST MINISTRIES ASSOCIATION", "designationCode": "C", "categoryCode": "47", "address": "BOX 914", "city": "OSOYOOS", "province": "BC", "country": "CA", "postalCode": "V0H1V0", "twitter": "None", "instagram": "None", "facebook": "None", "youtube": "None", "website": "None", "summary": "None", "logo": "None", "latitude": 49.03284000000008, "longitude": -119.46625999999998}, "890568645RR0001": {"name": "EAGLE'S NEST OF LONDON, INC", "designationCode": "C", "categoryCode": "39", "address": "347 TALBOT STREET", "city": "ST. THOMAS", "province": "ON", "country": "CA", "postalCode": "N5P1B7", "twitter": "None", "instagram": "None", "facebook": "None", "youtube": "None", "website": "None", "summary": "None", "logo": "None", "latitude": 42.77913683836263, "longitude": -81.19831172198215}, "894555788RR0001": {"name": "EAGLECOM FOUNDATION", "designationCode": "B", "categoryCode": "05", "address": "SUITE 1700, 2300 YONGE ST.    BOX 2416", "city": "TORONTO", "province": "ON", "country": "CA", "postalCode": "M4P1E4", "twitter": "None", "instagram": "None", "facebook": "None", "youtube": "None", "website": "None", "summary": "None", "logo": "None", "latitude": 43.70721096779967, "longitude": -79.39846036808203}, "822694345RR0001": {"name": "EAGLEMONT CHRISTIAN CHURCH", "designationCode": "C", "categoryCode": "36", "address": "5002-62 ST", "city": "BEAUMONT", "province": "AB", "country": "CA", "postalCode": "T4X1V5", "twitter": "None", "instagram": "None", "facebook": "None", "youtube": "None", "website": "None", "summary": "None", "logo": "None", "latitude": 53.35314256090953, "longitude": -113.43125016079914}, "832752166RR0001": {"name": "EAGLES ARISE MINISTRIES", "designationCode": "C", "categoryCode": "49", "address": "BOX 886                       (419 4TH ST. E.)", "city": "WARMAN", "province": "SK", "country": "CA", "postalCode": "S0K4S0", "twitter": "None", "instagram": "None", "facebook": "None", "youtube": "None", "website": "None", "summary": "None", "logo": "None", "latitude": 52.32306250288555, "longitude": -106.56809036081135}, "896170289RR0001": {"name": "EAGLES IN THE SKY ASSOCIATION", "designationCode": "C", "categoryCode": "01", "address": "485 SEMLIN DRIVE", "city": "VANCOUVER", "province": "BC", "country": "CA", "postalCode": "V5N3N9", "twitter": "None", "instagram": "None", "facebook": "None", "youtube": "None", "website": "None", "summary": "None", "logo": "None", "latitude": 49.280506702919396, "longitude": -123.06369730201706}, "118890235RR0001": {"name": "EAGLES NEST RANCH ASSOCIATION", "designationCode": "A", "categoryCode": "56", "address": "PO BOX 134 LCD1", "city": "MEDICINE HAT", "province": "AB", "country": "CA", "postalCode": "T1A7E8", "twitter": "None", "instagram": "None", "facebook": "None", "youtube": "None", "website": "None", "summary": "None", "logo": "None", "latitude": 50.04107700000006, "longitude": -110.67813349999993}, "888805546RR0001": {"name": "EAGLES REST MINISTRIES", "designationCode": "C", "categoryCode": "36", "address": "124 ROBBS ROCK ROAD", "city": "BURKS FALLS", "province": "ON", "country": "CA", "postalCode": "P0A1C0", "twitter": "None", "instagram": "None", "facebook": "None", "youtube": "None", "website": "None", "summary": "None", "logo": "None", "latitude": 45.62435768148506, "longitude": -79.38807577595313}, "862480183RR0001": {"name": "EAGLES WINGS CHILDREN'S VILLAGE INC.", "designationCode": "C", "categoryCode": "09", "address": "1216 - 133 NIAKWA RD", "city": "WINNIPEG", "province": "MB", "country": "CA", "postalCode": "R2M5J5", "twitter": "None", "instagram": "None", "facebook": "None", "youtube": "None", "website": "None", "summary": "None", "logo": "None", "latitude": 49.855734070805944, "longitude": -97.09813056982499}, "870321205RR0001": {"name": "EAGLES WINGS CHRISTIAN MINISTRIES OF CANADA", "designationCode": "C", "categoryCode": "39", "address": "PO BOX 58", "city": "MANNVILLE", "province": "AB", "country": "CA", "postalCode": "T0B2W0", "twitter": "None", "instagram": "None", "facebook": "None", "youtube": "None", "website": "None", "summary": "None", "logo": "None", "latitude": 53.332431971080155, "longitude": -111.14717836552201}, "864641816RR0001": {"name": "EAGLES WINGS EVANGELISTIC MINISTRIES INC.", "designationCode": "C", "categoryCode": "47", "address": "C.P. 368", "city": "GRANBY", "province": "QC", "country": "CA", "postalCode": "J2G8E5", "twitter": "None", "instagram": "None", "facebook": "None", "youtube": "None", "website": "None", "summary": "None", "logo": "None", "latitude": 45.39837300000005, "longitude": -72.72281149999993}, "862802238RR0001": {"name": "EAGLES' NEST CHRISTIAN MINISTRIES OF ARTHUR", "designationCode": "C", "categoryCode": "39", "address": "8851 - SIDEROAD 3             R. R. #4", "city": "KENILWORTH", "province": "ON", "country": "CA", "postalCode": "N0G2E0", "twitter": "None", "instagram": "None", "facebook": "None", "youtube": "None", "website": "None", "summary": "None", "logo": "None", "latitude": 43.8946310645816, "longitude": -80.5232713733889}, "863178927RR0001": {"name": "EAGLES' WINGS CHARITABLE TRUST", "designationCode": "B", "categoryCode": "03", "address": "2528 BAYVIEW AVENUE           PO BOX 35539", "city": "TORONTO", "province": "ON", "country": "CA", "postalCode": "M2L2Y4", "twitter": "None", "instagram": "None", "facebook": "None", "youtube": "None", "website": "None", "summary": "None", "logo": "None", "latitude": 43.746874889809035, "longitude": -79.38397974389702}, "890761265RR0001": {"name": "EAGLES'NEST MINISTRIES INTERNATIONAL OF NIAGARA", "designationCode": "C", "categoryCode": "39", "address": "92 MAIN ST", "city": "ST CATHARINES", "province": "ON", "country": "CA", "postalCode": "L2N4V2", "twitter": "None", "instagram": "None", "facebook": "None", "youtube": "None", "website": "None", "summary": "None", "logo": "None", "latitude": 43.19927465448077, "longitude": -79.2721405606784}, "118890219RR0001": {"name": "EAGLESHAM COMMUNITY CHURCH", "designationCode": "C", "categoryCode": "34", "address": "BOX 181", "city": "EAGLESHAM", "province": "AB", "country": "CA", "postalCode": "T0H1H0", "twitter": "None", "instagram": "None", "facebook": "None", "youtube": "None", "website": "None", "summary": "None", "logo": "None", "latitude": 55.78437000000008, "longitude": -117.88063999999997}, "893980870RR0001": {"name": "EAGLESTONE LODGE PERSONAL CARE HOME INC.", "designationCode": "C", "categoryCode": "09", "address": "P.O. BOX 1330                 346 MILES STREET", "city": "KAMSACK", "province": "SK", "country": "CA", "postalCode": "S0A1S0", "twitter": "None", "instagram": "None", "facebook": "None", "youtube": "None", "website": "None", "summary": "None", "logo": "None", "latitude": 51.559300364788875, "longitude": -101.88814102078864}, "107272411RR0001": {"name": "EAR FALLS CHAPEL", "designationCode": "C", "categoryCode": "49", "address": "BOX 426", "city": "EAR FALLS", "province": "ON", "country": "CA", "postalCode": "P0V1T0", "twitter": "None", "instagram": "None", "facebook": "None", "youtube": "None", "website": "None", "summary": "None", "logo": "None", "latitude": 50.63859600000005, "longitude": -93.23441449999993}, "876635020RR0001": {"name": "EAR FALLS COMMUNITY HEALTH CENTRE INCORPORATED", "designationCode": "C", "categoryCode": "11", "address": "P.O. BOX 520", "city": "EAR FALLS", "province": "ON", "country": "CA", "postalCode": "P0V1T0", "twitter": "None", "instagram": "None", "facebook": "None", "youtube": "None", "website": "None", "summary": "None", "logo": "None", "latitude": 50.638600000000054, "longitude": -93.23440999999997}, "868496696RR0001": {"name": "EAR VIEW CHARITABLE TRUST", "designationCode": "B", "categoryCode": "39", "address": "50 1ST AVE NE", "city": "SWIFT CURRENT", "province": "SK", "country": "CA", "postalCode": "S9H4W4", "twitter": "None", "instagram": "None", "facebook": "None", "youtube": "None", "website": "None", "summary": "None", "logo": "None", "latitude": 50.282664378132, "longitude": -107.79863205289816}, "107272577RR0001": {"name": "EARL GREY CHILDRENS CENTRE INC.", "designationCode": "C", "categoryCode": "01", "address": "340 COCKBURN ST. N.", "city": "WINNIPEG", "province": "MB", "country": "CA", "postalCode": "R3M2P5", "twitter": "None", "instagram": "None", "facebook": "None", "youtube": "None", "website": "None", "summary": "None", "logo": "None", "latitude": 49.86763691505579, "longitude": -97.15024583282327}, "892460767RR0001": {"name": "EARL GREY MIZPAH GROUP", "designationCode": "C", "categoryCode": "59", "address": "309 YOUNG STREET", "city": "EARL GREY", "province": "SK", "country": "CA", "postalCode": "S0G1J0", "twitter": "None", "instagram": "None", "facebook": "None", "youtube": "None", "website": "None", "summary": "None", "logo": "None"}, "118890300RR0001": {"name": "EARL GREY UNITED CHURCH", "designationCode": "C", "categoryCode": "44", "address": "BOX 75", "city": "EARL GREY", "province": "SK", "country": "CA", "postalCode": "S0G1J0", "twitter": "None", "instagram": "None", "facebook": "None", "youtube": "None", "website": "None", "summary": "None", "logo": "None", "latitude": 50.93338000000006, "longitude": -104.71781999999996}, "869790196RR0001": {"name": "EARL HAIG CHARITABLE ASSOCIATION", "designationCode": "C", "categoryCode": "11", "address": "15 EARL HAIG AVENUE", "city": "TORONTO", "province": "ON", "country": "CA", "postalCode": "M4C1E2", "twitter": "None", "instagram": "None", "facebook": "None", "youtube": "None", "website": "None", "summary": "None", "logo": "None", "latitude": 43.681491860378664, "longitude": -79.32127595392122}, "890621246RR0001": {"name": "EARL HAIG SOCIETY", "designationCode": "C", "categoryCode": "09", "address": "12101 224TH ST", "city": "MAPLE RIDGE", "province": "BC", "country": "CA", "postalCode": "V2X6B7", "twitter": "None", "instagram": "None", "facebook": "None", "youtube": "None", "website": "None", "summary": "None", "logo": "None", "latitude": 49.22201711518264, "longitude": -122.6014455239191}, "890814247RR0001": {"name": "EARL KEELEY MEMORIAL SCHOLARSHIP TRUST", "designationCode": "C", "categoryCode": "21", "address": "51 RIDGEMONT CRES", "city": "SHERWOOD PARK", "province": "AB", "country": "CA", "postalCode": "T8A5N1", "twitter": "None", "instagram": "None", "facebook": "None", "youtube": "None", "website": "None", "summary": "None", "logo": "None", "latitude": 53.515690658895494, "longitude": -113.25742735120339}, "895298966RR0001": {"name": "EARL PORTER LANES RECREATION CENTRE", "designationCode": "C", "categoryCode": "09", "address": "723 SYNAGOGUE ST.             P.O. BOX 219", "city": "IROQUOIS FALLS", "province": "ON", "country": "CA", "postalCode": "P0K1E0", "twitter": "None", "instagram": "None", "facebook": "None", "youtube": "None", "website": "None", "summary": "None", "logo": "None", "latitude": 48.76005998112989, "longitude": -80.68238286236921}, "891111593RR0001": {"name": "EARLAINE AND GERARD COLLINS FOUNDATION", "designationCode": "B", "categoryCode": "55", "address": "1166 BAY STREET, SUITE 1603", "city": "TORONTO", "province": "ON", "country": "CA", "postalCode": "M5S2X8", "twitter": "None", "instagram": "None", "facebook": "None", "youtube": "None", "website": "None", "summary": "None", "logo": "None", "latitude": 43.66880494004276, "longitude": -79.38914315393248}, "119288918RR0204": {"name": "EARLSCOURT CONGREGATION OF JEHOVAH'S WITNESSES, TORONTO, ONTARIO", "designationCode": "C", "categoryCode": "61", "address": "PO BOX 4100 STN MAIN", "city": "GEORGETOWN", "province": "ON", "country": "CA", "postalCode": "L7G4Y4", "twitter": "None", "instagram": "None", "facebook": "None", "youtube": "None", "website": "None", "summary": "None", "logo": "None", "latitude": 43.676964428204535, "longitude": -79.92917582331788}, "119292795RR0001": {"name": "EARLSCOURT-CRECHE CHILD DEVELOPMENT INSTITUTE", "designationCode": "C", "categoryCode": "11", "address": "197 EUCLID AVENUE", "city": "TORONTO", "province": "ON", "country": "CA", "postalCode": "M6J2J8", "twitter": "None", "instagram": "None", "facebook": "None", "youtube": "None", "website": "None", "summary": "None", "logo": "None", "latitude": 43.651095505972606, "longitude": -79.40948689422376}, "879563112RR0001": {"name": "EARLTON GOSPEL HALL AND CEMETERY", "designationCode": "C", "categoryCode": "59", "address": "PO BOX 6", "city": "EARLTON", "province": "ON", "country": "CA", "postalCode": "P0J1E0", "twitter": "None", "instagram": "None", "facebook": "None", "youtube": "None", "website": "None", "summary": "None", "logo": "None", "latitude": 47.71144000000004, "longitude": -79.82432999999997}, "872221668RR0001": {"name": "EARLTOWN CHURCH CEMETERY COMPANY", "designationCode": "C", "categoryCode": "59", "address": "108 STEWART RD. RR 5", "city": "TATAMAGOUCHE", "province": "NS", "country": "CA", "postalCode": "B0K1V0", "twitter": "None", "instagram": "None", "facebook": "None", "youtube": "None", "website": "None", "summary": "None", "logo": "None", "latitude": 45.63615032911017, "longitude": -62.838825830477155}, "887703031RR0001": {"name": "EARLTOWN COMMUNITY CHURCH", "designationCode": "C", "categoryCode": "39", "address": "2177 KEMPTOWN RD.             RR#5", "city": "UPPER KEMPTOWN", "province": "NS", "country": "CA", "postalCode": "B0K1V0", "twitter": "None", "instagram": "None", "facebook": "None", "youtube": "None", "website": "None", "summary": "None", "logo": "None", "latitude": 45.55519266466655, "longitude": -63.12707140443729}, "107692212RR0001": {"name": "EARLY CHILDHOOD COMMUNITY DEVELOPMENT CENTRE INC.", "designationCode": "C", "categoryCode": "20", "address": "3340 SCHMON PARKWAY", "city": "THOROLD", "province": "ON", "country": "CA", "postalCode": "L2V4Y6", "twitter": "None", "instagram": "None", "facebook": "None", "youtube": "None", "website": "None", "summary": "None", "logo": "None", "latitude": 43.11163066994667, "longitude": -79.23937637356462}, "108093709RR0001": {"name": "EARLY CHILDHOOD INTERVENTION PROGRAM, REGINA REGION INC.", "designationCode": "C", "categoryCode": "11", "address": "305-1102 8TH AVE", "city": "REGINA", "province": "SK", "country": "CA", "postalCode": "S4R1C9", "twitter": "None", "instagram": "None", "facebook": "None", "youtube": "None", "website": "None", "summary": "None", "logo": "None", "latitude": 50.45675150432782, "longitude": -104.59636994171619}, "892366766RR0001": {"name": "EARLY CHILDHOOD MUSIC ASSOCIATION OF ONTARIO", "designationCode": "C", "categoryCode": "22", "address": "20 SOMERSET BLVD", "city": "ORO-MEDONTE", "province": "ON", "country": "CA", "postalCode": "L0L2E0", "twitter": "None", "instagram": "None", "facebook": "None", "youtube": "None", "website": "None", "summary": "None", "logo": "None", "latitude": 44.45891781152993, "longitude": -79.51909562562732}}