{"863597936RR0001": {"name": "DR. PAUL SCHWANN HUMANITARIAN AWARD", "designationCode": "B", "categoryCode": "25", "address": "1 - 575 PARK ST", "city": "REGINA", "province": "SK", "country": "CA", "postalCode": "S4N5B2", "twitter": "None", "instagram": "None", "facebook": "None", "youtube": "None", "website": "None", "summary": "None", "logo": "None", "latitude": 50.46919228227245, "longitude": -104.57228187821052}, "897381141RR0001": {"name": "DR. PETER AIDS FOUNDATION", "designationCode": "C", "categoryCode": "09", "address": "1110 COMOX STREET", "city": "VANCOUVER", "province": "BC", "country": "CA", "postalCode": "V6E1K5", "twitter": "None", "instagram": "None", "facebook": "None", "youtube": "None", "website": "None", "summary": "None", "logo": "None", "latitude": 49.28191275546781, "longitude": -123.12938022442133}, "118888486RR0001": {"name": "DR. RAY FLETCHER FARQUHARSON MEMORIAL LECTURESHIP TRUST", "designationCode": "B", "categoryCode": "25", "address": "130 KING ST WEST 20TH FLOOR   BOX 430, STN FIRST CANADIAN PL", "city": "TORONTO", "province": "ON", "country": "CA", "postalCode": "M5X1K1", "twitter": "None", "instagram": "None", "facebook": "None", "youtube": "None", "website": "None", "summary": "None", "logo": "None", "latitude": 43.64826932503962, "longitude": -79.38190945606182}, "130655459RR0001": {"name": "DR. ROZ'S HEALING PLACE", "designationCode": "C", "categoryCode": "01", "address": "PO BOX 88027                  RPO CLIFFCREST PLAZ", "city": "SCARBOROUGH", "province": "ON", "country": "CA", "postalCode": "M1M3W1", "twitter": "None", "instagram": "None", "facebook": "None", "youtube": "None", "website": "None", "summary": "None", "logo": "None", "latitude": 43.707653393464014, "longitude": -79.24360126924705}, "857689830RR0001": {"name": "DR. S. MEDINE - ESSEX COUNTY STUDENTS SCHOLARSHIP FUND", "designationCode": "B", "categoryCode": "25", "address": "155 WELLINGTON ST. WEST       20TH FLOOR", "city": "TORONTO", "province": "ON", "country": "CA", "postalCode": "M5V3K7", "twitter": "None", "instagram": "None", "facebook": "None", "youtube": "None", "website": "None", "summary": "None", "logo": "None", "latitude": 43.64596585316531, "longitude": -79.38574575644876}, "118888502RR0001": {"name": "DR. SAMUEL S. ROBINSON CHARITABLE FOUNDATION", "designationCode": "B", "categoryCode": "03", "address": "PO BOX 396", "city": "KINGSTON", "province": "ON", "country": "CA", "postalCode": "K7L4W2", "twitter": "None", "instagram": "None", "facebook": "None", "youtube": "None", "website": "None", "summary": "None", "logo": "None", "latitude": 44.23153200000006, "longitude": -76.47933049999993}, "135633097RR0001": {"name": "DR. TOM PASHBY SPORTS SAFETY FUND", "designationCode": "C", "categoryCode": "11", "address": "2002 - 20 AVOCA AVE", "city": "TORONTO", "province": "ON", "country": "CA", "postalCode": "M4T2B8", "twitter": "None", "instagram": "None", "facebook": "None", "youtube": "None", "website": "None", "summary": "None", "logo": "None", "latitude": 43.68806848208219, "longitude": -79.38860925621762}, "118888684RR0001": {"name": "DR. V.A. SNOW CENTRE INC.", "designationCode": "C", "categoryCode": "01", "address": "54 DEMILLE COURT", "city": "HAMPTON", "province": "NB", "country": "CA", "postalCode": "E5N5S7", "twitter": "None", "instagram": "None", "facebook": "None", "youtube": "None", "website": "None", "summary": "None", "logo": "None", "latitude": 45.51525454951259, "longitude": -65.83295323527095}, "859713109RR0001": {"name": "DR. W. J. KLINCK FOUNDATION / LA FONDATION DR. W. J. KLINCK", "designationCode": "A", "categoryCode": "03", "address": "1501 RUE CAMPBELL", "city": "SHERBROOKE", "province": "QC", "country": "CA", "postalCode": "J1M0C1", "twitter": "None", "instagram": "None", "facebook": "None", "youtube": "None", "website": "None", "summary": "None", "logo": "None", "latitude": 45.34209247936954, "longitude": -71.84383047016561}, "118888809RR0001": {"name": "DR. YIK PING CHAN EVANGELISTIC FOUNDATION", "designationCode": "C", "categoryCode": "47", "address": "2426 EAST 45TH AVENUE", "city": "VANCOUVER", "province": "BC", "country": "CA", "postalCode": "V5R3B5", "twitter": "None", "instagram": "None", "facebook": "None", "youtube": "None", "website": "None", "summary": "None", "logo": "None", "latitude": 49.22941052842076, "longitude": -123.05714247016562}, "864568985RR0001": {"name": "DRAGONFLY CENTRE FOR AUTISM INC.", "designationCode": "C", "categoryCode": "11", "address": "445 PRINCE OF WALES STREET", "city": "ST. ANDREWS", "province": "NB", "country": "CA", "postalCode": "E5B1R1", "twitter": "None", "instagram": "None", "facebook": "None", "youtube": "None", "website": "None", "summary": "None", "logo": "None", "latitude": 45.07284763591249, "longitude": -67.03866695743349}, "877947812RR0001": {"name": "DRAGONFLY POND FAMILY SOCIETY", "designationCode": "C", "categoryCode": "01", "address": "PO BOX 24077", "city": "PENTICTON", "province": "BC", "country": "CA", "postalCode": "V2A8L9", "twitter": "None", "instagram": "None", "facebook": "None", "youtube": "None", "website": "None", "summary": "None", "logo": "None", "latitude": 49.50021300000006, "longitude": -119.59384399999993}, "118888015RR0001": {"name": "DRAKE & DISTRICT DONORS CHOICE", "designationCode": "A", "categoryCode": "05", "address": "125 FRANCIS STREET", "city": "DRAKE", "province": "SK", "country": "CA", "postalCode": "S0K1H0", "twitter": "None", "instagram": "None", "facebook": "None", "youtube": "None", "website": "None", "summary": "None", "logo": "None", "latitude": 51.746094211001804, "longitude": -105.0127741447833}, "118888023RR0001": {"name": "DRAKE SILVER SAGES INC.", "designationCode": "C", "categoryCode": "56", "address": "BOX 103", "city": "DRAKE", "province": "SK", "country": "CA", "postalCode": "S0K1H0", "twitter": "None", "instagram": "None", "facebook": "None", "youtube": "None", "website": "None", "summary": "None", "logo": "None", "latitude": 51.94931369067134, "longitude": -105.64662238821246}, "118888080RR0001": {"name": "DRAYTON & COMMUNITY CITIZENS ASSOCIATION", "designationCode": "A", "categoryCode": "11", "address": "23 BONNIEWOOD DRIVE", "city": "DRAYTON", "province": "ON", "country": "CA", "postalCode": "N0G1P0", "twitter": "None", "instagram": "None", "facebook": "None", "youtube": "None", "website": "None", "summary": "None", "logo": "None", "latitude": 43.7514124183931, "longitude": -80.66695024260667}, "864307525RR0001": {"name": "DRAYTON AREA COMMUNITY FOOD BANK SOCIETY", "designationCode": "C", "categoryCode": "09", "address": "PO BOX 6805", "city": "DRAYTON VALLEY", "province": "AB", "country": "CA", "postalCode": "T7A1S2", "twitter": "None", "instagram": "None", "facebook": "None", "youtube": "None", "website": "None", "summary": "None", "logo": "None", "latitude": 53.22798600000006, "longitude": -114.98692399999993}, "137334579RR0001": {"name": "DRAYTON CHRISTIAN SCHOOL SOCIETY", "designationCode": "C", "categoryCode": "20", "address": "4762 - 50 STREET", "city": "DRAYTON VALLEY", "province": "AB", "country": "CA", "postalCode": "T7A1P1", "twitter": "None", "instagram": "None", "facebook": "None", "youtube": "None", "website": "None", "summary": "None", "logo": "None", "latitude": 53.21958333527613, "longitude": -114.97671687685326}, "874332422RR0001": {"name": "DRAYTON DROP-IN CENTRE", "designationCode": "C", "categoryCode": "09", "address": "PO BOX 506                    21 WELLINGTON ST SOUTH", "city": "DRAYTON", "province": "ON", "country": "CA", "postalCode": "N0G1P0", "twitter": "None", "instagram": "None", "facebook": "None", "youtube": "None", "website": "None", "summary": "None", "logo": "None", "latitude": 43.754741518725886, "longitude": -80.67149716775363}, "107051161RR0001": {"name": "DRAYTON PASTORAL CHARGE", "designationCode": "C", "categoryCode": "44", "address": "P.O. BOX 9", "city": "DRAYTON", "province": "ON", "country": "CA", "postalCode": "N0G1P0", "twitter": "None", "instagram": "None", "facebook": "None", "youtube": "None", "website": "None", "summary": "None", "logo": "None", "latitude": 43.77309915143594, "longitude": -80.9225621280716}, "888564499RR0001": {"name": "DRAYTON PEEL MARYBOROUGH CO-OPERATIVE NURSERY SCHOOL INC", "designationCode": "C", "categoryCode": "20", "address": "BOX 142", "city": "DRAYTON", "province": "ON", "country": "CA", "postalCode": "N0G1P0", "twitter": "None", "instagram": "None", "facebook": "None", "youtube": "None", "website": "None", "summary": "None", "logo": "None", "latitude": 43.77309915143594, "longitude": -80.9225621280716}, "125911313RR0001": {"name": "DRAYTON THEATRES INC", "designationCode": "C", "categoryCode": "22", "address": "46 GRAND AVE S", "city": "CAMBRIDGE", "province": "ON", "country": "CA", "postalCode": "N1S2L8", "twitter": "None", "instagram": "None", "facebook": "None", "youtube": "None", "website": "None", "summary": "None", "logo": "None", "latitude": 43.35611399999999, "longitude": -80.31757179747763}, "891114787RR0001": {"name": "DRAYTON VALLEY & DISTRICT COMMUNITY LEARNING ASSOCIATION", "designationCode": "C", "categoryCode": "21", "address": "PO BOX 6321", "city": "DRAYTON VALLEY", "province": "AB", "country": "CA", "postalCode": "T7A1R8", "twitter": "None", "instagram": "None", "facebook": "None", "youtube": "None", "website": "None", "summary": "None", "logo": "None", "latitude": 53.22798600000006, "longitude": -114.98692399999993}, "107051179RR0001": {"name": "DRAYTON VALLEY ALLIANCE CHURCH", "designationCode": "C", "categoryCode": "39", "address": "PO BOX 6578 STN MAIN", "city": "DRAYTON VALLEY", "province": "AB", "country": "CA", "postalCode": "T7A1R9", "twitter": "None", "instagram": "None", "facebook": "None", "youtube": "None", "website": "None", "summary": "None", "logo": "None", "latitude": 53.22798600000006, "longitude": -114.98692399999993}, "118888130RR0001": {"name": "DRAYTON VALLEY AND DISTRICT HISTORICAL SOCIETY", "designationCode": "C", "categoryCode": "50", "address": "PO BOX 5099                   6013 - 44 AVENUE", "city": "DRAYTON VALLEY", "province": "AB", "country": "CA", "postalCode": "T7A1R3", "twitter": "None", "instagram": "None", "facebook": "None", "youtube": "None", "website": "None", "summary": "None", "logo": "None", "latitude": 53.215219128410006, "longitude": -114.99581325255396}, "892982463RR0001": {"name": "DRAYTON VALLEY CHURCH OF GOD,", "designationCode": "C", "categoryCode": "39", "address": "5004-49 STREET", "city": "DRAYTON VALLEY", "province": "AB", "country": "CA", "postalCode": "T7A1E2", "twitter": "None", "instagram": "None", "facebook": "None", "youtube": "None", "website": "None", "summary": "None", "logo": "None", "latitude": 53.22171641909517, "longitude": -114.975068886231}, "891648040RR0001": {"name": "DRAYTON VALLEY COMMUNITY FOUNDATION", "designationCode": "A", "categoryCode": "53", "address": "PO BOX 6836 STN MAIN", "city": "DRAYTON VALLEY", "province": "AB", "country": "CA", "postalCode": "T7A1S2", "twitter": "None", "instagram": "None", "facebook": "None", "youtube": "None", "website": "None", "summary": "None", "logo": "None", "latitude": 53.22798600000006, "longitude": -114.98692399999993}, "857936843RR0001": {"name": "DRAYTON VALLEY COMPREHENSIVE FAMILY VIOLENCE INSTITUTE", "designationCode": "C", "categoryCode": "09", "address": "BOX 5031", "city": "DRAYTON VALLEY", "province": "AB", "country": "CA", "postalCode": "T7A1R3", "twitter": "None", "instagram": "None", "facebook": "None", "youtube": "None", "website": "None", "summary": "None", "logo": "None", "latitude": 53.22798600000006, "longitude": -114.98692399999993}, "118888163RR0001": {"name": "DRAYTON VALLEY CONGREGATION OF JEHOVAH'S WITNESSES", "designationCode": "C", "categoryCode": "61", "address": "5602 56 ST", "city": "DRAYTON VALLEY", "province": "AB", "country": "CA", "postalCode": "T7A0B2", "twitter": "None", "instagram": "None", "facebook": "None", "youtube": "None", "website": "None", "summary": "None", "logo": "None", "latitude": 53.22799707689412, "longitude": -114.98820288207605}, "890625197RR0001": {"name": "DRAYTON VALLEY FESTIVAL ASSOCIATION", "designationCode": "C", "categoryCode": "22", "address": "BOX 6783", "city": "DRAYTON VALLEY", "province": "AB", "country": "CA", "postalCode": "T7A1S2", "twitter": "None", "instagram": "None", "facebook": "None", "youtube": "None", "website": "None", "summary": "None", "logo": "None", "latitude": 53.22798600000006, "longitude": -114.98692399999993}, "887099885RR0001": {"name": "DRAYTON VALLEY FOUNDATION", "designationCode": "A", "categoryCode": "05", "address": "400S 10365 97 ST", "city": "EDMONTON", "province": "AB", "country": "CA", "postalCode": "T5J3Z8", "twitter": "None", "instagram": "None", "facebook": "None", "youtube": "None", "website": "None", "summary": "None", "logo": "None", "latitude": 53.547000000000054, "longitude": -113.48737099999994}, "890600547RR0001": {"name": "DRAYTON VALLEY HEALTH SERVICES FOUNDATION", "designationCode": "A", "categoryCode": "15", "address": "4550 MADSEN AVENU", "city": "DRAYTON VALLEY", "province": "AB", "country": "CA", "postalCode": "T7S1N8", "twitter": "None", "instagram": "None", "facebook": "None", "youtube": "None", "website": "None", "summary": "None", "logo": "None", "latitude": 53.212187977594674, "longitude": -114.97105861655731}, "118888205RR0001": {"name": "DRAYTON VALLEY HEALTH-CARE AUXILIARY ASSOCIATION", "designationCode": "C", "categoryCode": "19", "address": "BOX 5424", "city": "DRAYTON VALLEY", "province": "AB", "country": "CA", "postalCode": "T7A1R5", "twitter": "None", "instagram": "None", "facebook": "None", "youtube": "None", "website": "None", "summary": "None", "logo": "None", "latitude": 53.22798600000006, "longitude": -114.98692399999993}, "107051286RR0001": {"name": "DRAYTON VALLEY PRE-SCHOOL SOCIETY", "designationCode": "C", "categoryCode": "20", "address": "4813-49 AVENUE", "city": "DRAYTON VALLEY", "province": "AB", "country": "CA", "postalCode": "T7A1J2", "twitter": "None", "instagram": "None", "facebook": "None", "youtube": "None", "website": "None", "summary": "None", "logo": "None", "latitude": 53.22056850678069, "longitude": -114.97466258381903}, "889448395RR0001": {"name": "DRAYTON VALLEY UNITED CHURCH", "designationCode": "C", "categoryCode": "44", "address": "5029 - 48 STREET", "city": "DRAYTON VALLEY", "province": "AB", "country": "CA", "postalCode": "T7A1E1", "twitter": "None", "instagram": "None", "facebook": "None", "youtube": "None", "website": "None", "summary": "None", "logo": "None", "latitude": 53.22288438689485, "longitude": -114.97205825489088}, "856799770RR0002": {"name": "DREAM CENTRE MINISTRIES", "designationCode": "C", "categoryCode": "39", "address": "28 GRANADA DR", "city": "ST CATHARINES", "province": "ON", "country": "CA", "postalCode": "L2N2S6", "twitter": "None", "instagram": "None", "facebook": "None", "youtube": "None", "website": "None", "summary": "None", "logo": "None", "latitude": 43.20528749321932, "longitude": -79.24593136372555}, "884031808RR0001": {"name": "DREAM NOW CANADA INC.", "designationCode": "C", "categoryCode": "20", "address": "7 CORAL COVE CRES", "city": "NORTH YORK", "province": "ON", "country": "CA", "postalCode": "M3A1G7", "twitter": "None", "instagram": "None", "facebook": "None", "youtube": "None", "website": "None", "summary": "None", "logo": "None", "latitude": 43.74521942463508, "longitude": -79.31466438187451}, "857228902RR0001": {"name": "DREAM PLAYERS", "designationCode": "C", "categoryCode": "59", "address": "2121 ESSON LINE", "city": "INDIAN RIVER", "province": "ON", "country": "CA", "postalCode": "K0L2B0", "twitter": "None", "instagram": "None", "facebook": "None", "youtube": "None", "website": "None", "summary": "None", "logo": "None", "latitude": 44.30834780506282, "longitude": -78.17737875637545}, "859237422RR0001": {"name": "DREAMCATCHER CHARITABLE FOUNDATION", "designationCode": "B", "categoryCode": "29", "address": "P.O. BOX 659", "city": "OHSWEKEN", "province": "ON", "country": "CA", "postalCode": "N0A1M0", "twitter": "None", "instagram": "None", "facebook": "None", "youtube": "None", "website": "None", "summary": "None", "logo": "None", "latitude": 43.06907000000007, "longitude": -80.11879999999996}, "871725750RR0001": {"name": "DREAMCOAT FANTASY THEATRE", "designationCode": "C", "categoryCode": "22", "address": "BOX 22005,REXALL POSTAL OUTLET1205 FISHER STREET", "city": "NORTH BAY", "province": "ON", "country": "CA", "postalCode": "P1B2H2", "twitter": "None", "instagram": "None", "facebook": "None", "youtube": "None", "website": "None", "summary": "None", "logo": "None", "latitude": 46.311519922817475, "longitude": -79.44836998110117}, "861589562RR0001": {"name": "DREAMS IN MOTION PERFORMING AND FINE ARTS SCHOOL", "designationCode": "C", "categoryCode": "22", "address": "122 KING ST E", "city": "GANANOQUE", "province": "ON", "country": "CA", "postalCode": "K7G1G2", "twitter": "None", "instagram": "None", "facebook": "None", "youtube": "None", "website": "None", "summary": "None", "logo": "None", "latitude": 44.329947065785646, "longitude": -76.16203589676257}, "886577857RR0001": {"name": "DREAMS TAKE FLIGHT (CANADA)/VOYAGE DE REVES (CANADA)", "designationCode": "C", "categoryCode": "09", "address": "10324 21 AVE NW", "city": "EDMONTON", "province": "AB", "country": "CA", "postalCode": "T6J6B6", "twitter": "None", "instagram": "None", "facebook": "None", "youtube": "None", "website": "None", "summary": "None", "logo": "None", "latitude": 53.452928658924165, "longitude": -113.49557468125673}, "868632753RR0001": {"name": "DREAMS TO MEMORIES FOUNDATION", "designationCode": "C", "categoryCode": "11", "address": "P.O. BOX 313", "city": "FORT ERIE", "province": "ON", "country": "CA", "postalCode": "L2A5N1", "twitter": "None", "instagram": "None", "facebook": "None", "youtube": "None", "website": "None", "summary": "None", "logo": "None", "latitude": 42.901962000000054, "longitude": -78.97422049999993}, "132950791RR0001": {"name": "DREAMSPEAKERS FESTIVAL SOCIETY", "designationCode": "C", "categoryCode": "22", "address": "8726 - 112 AVENUE", "city": "EDMONTON", "province": "AB", "country": "CA", "postalCode": "T5B0G6", "twitter": "None", "instagram": "None", "facebook": "None", "youtube": "None", "website": "None", "summary": "None", "logo": "None", "latitude": 53.56112345325738, "longitude": -113.47618402553522}, "815296876RR0001": {"name": "DREAMWALKER DANCE COMPANY", "designationCode": "C", "categoryCode": "22", "address": "481 GLADSTONE AVE", "city": "TORONTO", "province": "ON", "country": "CA", "postalCode": "M6H3J1", "twitter": "None", "instagram": "None", "facebook": "None", "youtube": "None", "website": "None", "summary": "None", "logo": "None", "latitude": 43.659177977523186, "longitude": -79.43339953730755}, "118888254RR0001": {"name": "DRESDEN CHRISTIAN REFORMED CHURCH", "designationCode": "C", "categoryCode": "39", "address": "4842 LAMBTON LINE", "city": "CROTON", "province": "ON", "country": "CA", "postalCode": "N0P1K0", "twitter": "None", "instagram": "None", "facebook": "None", "youtube": "None", "website": "None", "summary": "None", "logo": "None", "latitude": 42.65486551456909, "longitude": -82.10640933276596}, "118888262RR0001": {"name": "DRESDEN COMMUNITY CHURCH", "designationCode": "C", "categoryCode": "39", "address": "P.O. BOX 1078", "city": "DRESDEN", "province": "ON", "country": "CA", "postalCode": "N0P1M0", "twitter": "None", "instagram": "None", "facebook": "None", "youtube": "None", "website": "None", "summary": "None", "logo": "None", "latitude": 42.58952000000005, "longitude": -82.17963999999995}, "888031549RR0001": {"name": "DRESDEN MINISTERIAL ASSOCIATION", "designationCode": "C", "categoryCode": "49", "address": "PO BOX 310", "city": "DRESDEN", "province": "ON", "country": "CA", "postalCode": "N0P1M0", "twitter": "None", "instagram": "None", "facebook": "None", "youtube": "None", "website": "None", "summary": "None", "logo": "None", "latitude": 42.58952000000005, "longitude": -82.17963999999995}, "860209147RR0001": {"name": "DRESDEN SIDESTREETS YOUTH CENTRE", "designationCode": "C", "categoryCode": "56", "address": "PO BOX 582", "city": "DRESDEN", "province": "ON", "country": "CA", "postalCode": "N0P1M0", "twitter": "None", "instagram": "None", "facebook": "None", "youtube": "None", "website": "None", "summary": "None", "logo": "None", "latitude": 42.58952000000005, "longitude": -82.17963999999995}, "875246316RR0001": {"name": "DRESS FOR SUCCESS HALIFAX SOCIETY", "designationCode": "C", "categoryCode": "09", "address": "159 - 1083 QUEEN ST", "city": "HALIFAX", "province": "NS", "country": "CA", "postalCode": "B3H0B2", "twitter": "None", "instagram": "None", "facebook": "None", "youtube": "None", "website": "None", "summary": "None", "logo": "None", "latitude": 44.636854190951595, "longitude": -63.57288090354326}, "870628229RR0001": {"name": "DRESS FOR SUCCESS VANCOUVER SOCIETY", "designationCode": "C", "categoryCode": "09", "address": "685 HASTINGS ST W", "city": "VANCOUVER", "province": "BC", "country": "CA", "postalCode": "V6B1N9", "twitter": "None", "instagram": "None", "facebook": "None", "youtube": "None", "website": "None", "summary": "None", "logo": "None", "latitude": 49.285265720070576, "longitude": -123.1136525129994}, "886286392RR0001": {"name": "DREW FOUNDATION INC", "designationCode": "B", "categoryCode": "43", "address": "P.O. BOX 2413 STN MAIN", "city": "WINNIPEG", "province": "MB", "country": "CA", "postalCode": "R3C4A7", "twitter": "None", "instagram": "None", "facebook": "None", "youtube": "None", "website": "None", "summary": "None", "logo": "None", "latitude": 49.886161958421624, "longitude": -97.13345310241456}, "852039866RR0001": {"name": "DREW HILDEBRAND TEEN BENEFIT FUND", "designationCode": "C", "categoryCode": "21", "address": "2979 PICTON PLACE,", "city": "MISSISSAUGA", "province": "ON", "country": "CA", "postalCode": "L5M5S7", "twitter": "None", "instagram": "None", "facebook": "None", "youtube": "None", "website": "None", "summary": "None", "logo": "None", "latitude": 43.5654997743666, "longitude": -79.73945358921472}, "118888304RR0001": {"name": "DREW-TANTRAMAR FOUNDATION INCORPORATED", "designationCode": "A", "categoryCode": "13", "address": "165 MAIN ST.", "city": "SACKVILLE", "province": "NB", "country": "CA", "postalCode": "E4L4S2", "twitter": "None", "instagram": "None", "facebook": "None", "youtube": "None", "website": "None", "summary": "None", "logo": "None", "latitude": 45.90326465306711, "longitude": -64.37347263001338}, "888585460RR0001": {"name": "DRIFTWOOD FOUNDATION SOCIETY", "designationCode": "C", "categoryCode": "59", "address": "9293 ADAMS RD", "city": "SMITHERS", "province": "BC", "country": "CA", "postalCode": "V0J2N7", "twitter": "None", "instagram": "None", "facebook": "None", "youtube": "None", "website": "None", "summary": "None", "logo": "None", "latitude": 54.83940023397196, "longitude": -127.06920330599}, "863848248RR0001": {"name": "DRIVE FOR THE CURE FOUNDATION", "designationCode": "A", "categoryCode": "03", "address": "SUITE 1500-13737 96 AVENUE", "city": "SURREY", "province": "BC", "country": "CA", "postalCode": "V3V0C6", "twitter": "None", "instagram": "None", "facebook": "None", "youtube": "None", "website": "None", "summary": "None", "logo": "None", "latitude": 49.177106360490754, "longitude": -122.84241545029205}, "811579416RR0001": {"name": "DRM Foundation", "designationCode": "B", "categoryCode": "05", "address": "150 EXHIBITION STREET", "city": "KENTVILLE", "province": "NS", "country": "CA", "postalCode": "B4N5E3", "twitter": "None", "instagram": "None", "facebook": "None", "youtube": "None", "website": "None", "summary": "None", "logo": "None", "latitude": 45.08394314708527, "longitude": -64.50094199572872}, "134097799RR0001": {"name": "DROIT \u00c0 L'EMPLOI (D.E.)", "designationCode": "C", "categoryCode": "20", "address": "49, RUE SAINT-JACQUES", "city": "SAINT-JEAN-SUR-RICHELIEU", "province": "QC", "country": "CA", "postalCode": "J3B2J8", "twitter": "None", "instagram": "None", "facebook": "None", "youtube": "None", "website": "None", "summary": "None", "logo": "None", "latitude": 45.30613748211084, "longitude": -73.2524312514571}, "887055200RR0001": {"name": "DROIT A LA VIE MONCTON RIGHT TO LIFE", "designationCode": "C", "categoryCode": "09", "address": "P.O. BOX 28007", "city": "MONCTON", "province": "NB", "country": "CA", "postalCode": "E1C1X6", "twitter": "None", "instagram": "None", "facebook": "None", "youtube": "None", "website": "None", "summary": "None", "logo": "None", "latitude": 46.08946500000006, "longitude": -64.79082799999993}, "140815838RR0001": {"name": "DROITS ET RECOURS EN SANTE MENTALE, GASPESIE-LES-ILES", "designationCode": "C", "categoryCode": "09", "address": "60 BOUL PERRON OUEST          C.P. 258", "city": "CAPLAN", "province": "QC", "country": "CA", "postalCode": "G0C1H0", "twitter": "None", "instagram": "None", "facebook": "None", "youtube": "None", "website": "None", "summary": "None", "logo": "None", "latitude": 48.103802498182326, "longitude": -65.68903280212352}, "136765575RR0001": {"name": "DROITS ET RECOURS LAURENTIDES INC", "designationCode": "C", "categoryCode": "09", "address": "C.P. 501", "city": "ST JEROME", "province": "QC", "country": "CA", "postalCode": "J7Z5V2", "twitter": "None", "instagram": "None", "facebook": "None", "youtube": "None", "website": "None", "summary": "None", "logo": "None", "latitude": 45.77506800000006, "longitude": -74.00320999999994}, "130227119RR0001": {"name": "DROITS-ACCES DE L'OUTAOUAIS", "designationCode": "C", "categoryCode": "09", "address": "145 RUE EDDY", "city": "GATINEAU", "province": "QC", "country": "CA", "postalCode": "J8X2W7", "twitter": "None", "instagram": "None", "facebook": "None", "youtube": "None", "website": "None", "summary": "None", "logo": "None", "latitude": 45.429900537884464, "longitude": -75.7202623415372}, "122648520RR0001": {"name": "DRS EARTHWISE SOCIETY", "designationCode": "C", "categoryCode": "59", "address": "6400 3 AVE.", "city": "DELTA", "province": "BC", "country": "CA", "postalCode": "V4L1B1", "twitter": "None", "instagram": "None", "facebook": "None", "youtube": "None", "website": "None", "summary": "None", "logo": "None", "latitude": 49.00835991234261, "longitude": -123.0464866751216}, "889573069RR0001": {"name": "DRUG ABUSE RESISTANT EDUCATION (D A R E ) OF THE DISTRICT OF COCHRANE", "designationCode": "C", "categoryCode": "57", "address": "185 SPRUCE STREET S", "city": "TIMMINS", "province": "ON", "country": "CA", "postalCode": "P4N2M7", "twitter": "None", "instagram": "None", "facebook": "None", "youtube": "None", "website": "None", "summary": "None", "logo": "None", "latitude": 48.4726712607895, "longitude": -81.3270972191902}, "890562390RR0001": {"name": "DRUG BUSTER WARRIOR RELIGIOUS SOCIETY", "designationCode": "C", "categoryCode": "49", "address": "10 HAVERHILL ROAD SW", "city": "CALGARY", "province": "AB", "country": "CA", "postalCode": "T2V3E3", "twitter": "None", "instagram": "None", "facebook": "None", "youtube": "None", "website": "None", "summary": "None", "logo": "None", "latitude": 50.97893458673323, "longitude": -114.0883668918865}, "138051669RR0001": {"name": "DRUG EDUCATION ALLIANCE OF ESSEX KENT LAMBTON INC", "designationCode": "C", "categoryCode": "09", "address": "9410 MCNAUGHTON LINE", "city": "CHATHAM", "province": "ON", "country": "CA", "postalCode": "N7M5J7", "twitter": "None", "instagram": "None", "facebook": "None", "youtube": "None", "website": "None", "summary": "None", "logo": "None", "latitude": 42.43810845876863, "longitude": -82.16612468454629}, "118888544RR0001": {"name": "DRUMBO AGRICULTURAL SOCIETY", "designationCode": "C", "categoryCode": "56", "address": "P O BOX 37", "city": "DRUMBO", "province": "ON", "country": "CA", "postalCode": "N0J1G0", "twitter": "None", "instagram": "None", "facebook": "None", "youtube": "None", "website": "None", "summary": "None", "logo": "None", "latitude": 43.24736994027491, "longitude": -80.4868542314867}, "889682290RR0001": {"name": "DRUMBO AND DISTRICT HERITAGE SOCIETY", "designationCode": "C", "categoryCode": "50", "address": "BOX 250", "city": "DRUMBO", "province": "ON", "country": "CA", "postalCode": "N0J1G0", "twitter": "None", "instagram": "None", "facebook": "None", "youtube": "None", "website": "None", "summary": "None", "logo": "None", "latitude": 43.24736994027491, "longitude": -80.4868542314867}, "107252942RR0001": {"name": "DRUMBO BAPTIST CHURCH", "designationCode": "C", "categoryCode": "31", "address": "BOX #9                        20 PINKHAM ST.", "city": "DRUMBO", "province": "ON", "country": "CA", "postalCode": "N0J1G0", "twitter": "None", "instagram": "None", "facebook": "None", "youtube": "None", "website": "None", "summary": "None", "logo": "None", "latitude": 43.23574066720538, "longitude": -80.55315615583707}, "118888569RR0001": {"name": "DRUMHELLER ALBERTA CONGREGATION OF JEHOVAHS WITNESSES", "designationCode": "C", "categoryCode": "61", "address": "P.O. BOX 2167", "city": "DRUMHELLER", "province": "AB", "country": "CA", "postalCode": "T0J0Y0", "twitter": "None", "instagram": "None", "facebook": "None", "youtube": "None", "website": "None", "summary": "None", "logo": "None", "latitude": 51.46154700000005, "longitude": -112.70878099999993}, "890927791RR0001": {"name": "DRUMHELLER AND DISTRICT MUSICAL FESTIVAL ASSOCIATION", "designationCode": "C", "categoryCode": "22", "address": "BOX 2877", "city": "DRUMHELLER", "province": "AB", "country": "CA", "postalCode": "T0J0Y0", "twitter": "None", "instagram": "None", "facebook": "None", "youtube": "None", "website": "None", "summary": "None", "logo": "None", "latitude": 51.46154700000005, "longitude": -112.70878099999993}, "101497618RR0001": {"name": "DRUMHELLER AND DISTRICT SENIORS FOUNDATION", "designationCode": "C", "categoryCode": "01", "address": "698 6 AVE EAST", "city": "DRUMHELLER", "province": "AB", "country": "CA", "postalCode": "T0J0Y5", "twitter": "None", "instagram": "None", "facebook": "None", "youtube": "None", "website": "None", "summary": "None", "logo": "None", "latitude": 51.4583622148707, "longitude": -112.69697859443752}, "107253015RR0001": {"name": "DRUMHELLER AND REGION TRANSITION SOCIETY", "designationCode": "C", "categoryCode": "09", "address": "PO BOX 1447", "city": "DRUMHELLER", "province": "AB", "country": "CA", "postalCode": "T0J0Y0", "twitter": "None", "instagram": "None", "facebook": "None", "youtube": "None", "website": "None", "summary": "None", "logo": "None", "latitude": 51.46154700000005, "longitude": -112.70878099999993}, "890950041RR0001": {"name": "DRUMHELLER AREA HEALTH FOUNDATION", "designationCode": "C", "categoryCode": "19", "address": "351 9 STREET NW", "city": "DRUMHELLER", "province": "AB", "country": "CA", "postalCode": "T0J0Y1", "twitter": "None", "instagram": "None", "facebook": "None", "youtube": "None", "website": "None", "summary": "None", "logo": "None", "latitude": 51.471039333143736, "longitude": -112.72401398483663}, "118888585RR0001": {"name": "DRUMHELLER CHRISTIAN & MISSIONARY ALLIANCE CHURCH", "designationCode": "C", "categoryCode": "39", "address": "670-7 AVE E", "city": "DRUMHELLER", "province": "AB", "country": "CA", "postalCode": "T0J0Y5", "twitter": "None", "instagram": "None", "facebook": "None", "youtube": "None", "website": "None", "summary": "None", "logo": "None", "latitude": 51.45770981004366, "longitude": -112.69798567091485}, "118888601RR0001": {"name": "DRUMHELLER COMMUNITY MEALS ON WHEELS", "designationCode": "C", "categoryCode": "09", "address": "35 GARDEN WAY", "city": "DRUMHELLER", "province": "AB", "country": "CA", "postalCode": "T0J0Y5", "twitter": "None", "instagram": "None", "facebook": "None", "youtube": "None", "website": "None", "summary": "None", "logo": "None", "latitude": 51.45751500000006, "longitude": -112.69787749999993}, "856860549RR0001": {"name": "DRUMHELLER LIBRARY SOCIETY", "designationCode": "A", "categoryCode": "55", "address": "BOX 1599", "city": "DRUMHELLER", "province": "AB", "country": "CA", "postalCode": "T0J0Y0", "twitter": "None", "instagram": "None", "facebook": "None", "youtube": "None", "website": "None", "summary": "None", "logo": "None", "latitude": 51.46154700000005, "longitude": -112.70878099999993}, "892380643RR0001": {"name": "DRUMHELLER PIONEER TRAIL SOCIETY", "designationCode": "C", "categoryCode": "56", "address": "PO BOX 1857", "city": "DRUMHELLER", "province": "AB", "country": "CA", "postalCode": "T0J0Y0", "twitter": "None", "instagram": "None", "facebook": "None", "youtube": "None", "website": "None", "summary": "None", "logo": "None", "latitude": 51.46154700000005, "longitude": -112.70878099999993}, "106693047RR0016": {"name": "DRUMHELLER SEVENTH-DAY ADVENTIST CHURCH", "designationCode": "C", "categoryCode": "41", "address": "5816 HIGHWAY, 2A", "city": "LACOMBE", "province": "AB", "country": "CA", "postalCode": "T4L2G5", "twitter": "None", "instagram": "None", "facebook": "None", "youtube": "None", "website": "None", "summary": "None", "logo": "None", "latitude": 52.474063600197404, "longitude": -113.71692568401835}, "889128880RR0001": {"name": "DRUMHELLER SOCIETY FOR RECOVERY", "designationCode": "C", "categoryCode": "57", "address": "BOX 782", "city": "DRUMHELLER", "province": "AB", "country": "CA", "postalCode": "T0J0Y0", "twitter": "None", "instagram": "None", "facebook": "None", "youtube": "None", "website": "None", "summary": "None", "logo": "None", "latitude": 51.46154700000005, "longitude": -112.70878099999993}, "118888650RR0001": {"name": "DRUMHELLER STAMPEDE & AGRICULTURAL SOCIETY", "designationCode": "C", "categoryCode": "56", "address": "PO BOX 1834", "city": "DRUMHELLER", "province": "AB", "country": "CA", "postalCode": "T0J0Y0", "twitter": "None", "instagram": "None", "facebook": "None", "youtube": "None", "website": "None", "summary": "None", "logo": "None", "latitude": 51.46154700000005, "longitude": -112.70878099999993}, "107253205RR0001": {"name": "DRUMMOND HILL PRESBYTERIAN CHURCH", "designationCode": "C", "categoryCode": "37", "address": "6136 LUNDY'S LANE", "city": "NIAGARA FALLS", "province": "ON", "country": "CA", "postalCode": "L2G1T1", "twitter": "None", "instagram": "None", "facebook": "None", "youtube": "None", "website": "None", "summary": "None", "logo": "None", "latitude": 43.089462484563676, "longitude": -79.09612255536962}, "886492198RR0001": {"name": "DRURY LANE THEATRICAL PRODUCTIONS INC", "designationCode": "C", "categoryCode": "22", "address": "2269 NEW ST", "city": "BURLINGTON", "province": "ON", "country": "CA", "postalCode": "L7R1J4", "twitter": "None", "instagram": "None", "facebook": "None", "youtube": "None", "website": "None", "summary": "None", "logo": "None", "latitude": 43.333496181805, "longitude": -79.79065183585304}, "131228934RR0001": {"name": "DRURY STREET NON-PROFIT HOUSING CORPORATION", "designationCode": "C", "categoryCode": "09", "address": "10 DRURY ST", "city": "KAPUSKASING", "province": "ON", "country": "CA", "postalCode": "P5N1K9", "twitter": "None", "instagram": "None", "facebook": "None", "youtube": "None", "website": "None", "summary": "None", "logo": "None", "latitude": 49.41670602681514, "longitude": -82.43095653259071}, "863227120RR0001": {"name": "DRY COLD PRODUCTION INC.", "designationCode": "C", "categoryCode": "22", "address": "39 EXBURY PL", "city": "WINNIPEG", "province": "MB", "country": "CA", "postalCode": "R3Y1C3", "twitter": "None", "instagram": "None", "facebook": "None", "youtube": "None", "website": "None", "summary": "None", "logo": "None", "latitude": 49.812084001096515, "longitude": -97.19959852718}, "891506545RR0001": {"name": "DRYDEN AND DISTRICT AGRICULTURAL SOCIETY", "designationCode": "C", "categoryCode": "56", "address": "RR#3, SITE 300, BOX 4", "city": "DRYDEN", "province": "ON", "country": "CA", "postalCode": "P8N3G2", "twitter": "None", "instagram": "None", "facebook": "None", "youtube": "None", "website": "None", "summary": "None", "logo": "None", "latitude": 49.77985200000006, "longitude": -92.83282999999993}, "129827036RR0001": {"name": "DRYDEN DISTRICT GENERAL HOSPITAL AUXILIARY", "designationCode": "C", "categoryCode": "15", "address": "PO BOX 963 STN MAIN", "city": "DRYDEN", "province": "ON", "country": "CA", "postalCode": "P8N3E3", "twitter": "None", "instagram": "None", "facebook": "None", "youtube": "None", "website": "None", "summary": "None", "logo": "None", "latitude": 49.782039000000054, "longitude": -92.83759099999993}, "840337455RR0001": {"name": "DRYDEN ENTERTAINMENT SERIES INC.", "designationCode": "C", "categoryCode": "22", "address": "PO BOX 564 STN MAIN", "city": "DRYDEN", "province": "ON", "country": "CA", "postalCode": "P8N2Z2", "twitter": "None", "instagram": "None", "facebook": "None", "youtube": "None", "website": "None", "summary": "None", "logo": "None", "latitude": 49.782039000000054, "longitude": -92.83759099999993}, "131485377RR0001": {"name": "DRYDEN EXTENDED CARE ORGANIZATION", "designationCode": "C", "categoryCode": "15", "address": "222 SECOND STREET", "city": "DRYDEN", "province": "ON", "country": "CA", "postalCode": "P8N2V4", "twitter": "None", "instagram": "None", "facebook": "None", "youtube": "None", "website": "None", "summary": "None", "logo": "None", "latitude": 49.78956752381148, "longitude": -92.84306552381146}, "107384422RR0001": {"name": "DRYDEN FIRST BAPTIST CHURCH", "designationCode": "C", "categoryCode": "31", "address": "SITE 124 BOX 24 RR#4", "city": "DRYDEN", "province": "ON", "country": "CA", "postalCode": "P8N0A2", "twitter": "None", "instagram": "None", "facebook": "None", "youtube": "None", "website": "None", "summary": "None", "logo": "None", "latitude": 49.782039000000054, "longitude": -92.83759099999993}, "107406316RR0005": {"name": "DRYDEN FREE METHODIST CHURCH", "designationCode": "C", "categoryCode": "39", "address": "261 VAN HORNE AVE", "city": "DRYDEN", "province": "ON", "country": "CA", "postalCode": "P8N2C3", "twitter": "None", "instagram": "None", "facebook": "None", "youtube": "None", "website": "None", "summary": "None", "logo": "None", "latitude": 49.77128807444129, "longitude": -92.8362479482084}, "118888783RR0001": {"name": "DRYDEN FULL GOSPEL CHURCH", "designationCode": "C", "categoryCode": "39", "address": "R R 4   SITE 134              BOX 25", "city": "DRYDEN", "province": "ON", "country": "CA", "postalCode": "P8N0A2", "twitter": "None", "instagram": "None", "facebook": "None", "youtube": "None", "website": "None", "summary": "None", "logo": "None", "latitude": 49.782039000000054, "longitude": -92.83759099999993}, "118888791RR0001": {"name": "DRYDEN GO-GETTERS", "designationCode": "C", "categoryCode": "56", "address": "84 ST. CHARLES STREET", "city": "DRYDEN", "province": "ON", "country": "CA", "postalCode": "P8N1L3", "twitter": "None", "instagram": "None", "facebook": "None", "youtube": "None", "website": "None", "summary": "None", "logo": "None", "latitude": 49.778781539529255, "longitude": -92.83571366625308}, "134125483RR0001": {"name": "DRYDEN LITERACY ASSOCIATION", "designationCode": "C", "categoryCode": "21", "address": "8 WHYTE AVENUE", "city": "DRYDEN", "province": "ON", "country": "CA", "postalCode": "P8N1Y9", "twitter": "None", "instagram": "None", "facebook": "None", "youtube": "None", "website": "None", "summary": "None", "logo": "None", "latitude": 49.78475136663974, "longitude": -92.83889299797984}, "802704072RR0001": {"name": "DRYDEN NEIGHBOURHOOD LEGACY PROJECT", "designationCode": "C", "categoryCode": "56", "address": "75-D VAN HORNE AVENUE", "city": "DRYDEN", "province": "ON", "country": "CA", "postalCode": "P8N2B2", "twitter": "None", "instagram": "None", "facebook": "None", "youtube": "None", "website": "None", "summary": "None", "logo": "None", "latitude": 49.781258045382806, "longitude": -92.83627022296807}, "118888759RR0001": {"name": "DRYDEN REGIONAL HEALTH CENTRE", "designationCode": "C", "categoryCode": "10", "address": "P.O. BOX 3003", "city": "DRYDEN", "province": "ON", "country": "CA", "postalCode": "P8N2Z6", "twitter": "None", "instagram": "None", "facebook": "None", "youtube": "None", "website": "None", "summary": "None", "logo": "None", "latitude": 49.782039000000054, "longitude": -92.83759099999993}, "890802366RR0001": {"name": "DRYDEN REGIONAL HEALTH SERVICES FOUNDATION", "designationCode": "A", "categoryCode": "13", "address": "P.O. BOX 3003", "city": "DRYDEN", "province": "ON", "country": "CA", "postalCode": "P8N2Z6", "twitter": "None", "instagram": "None", "facebook": "None", "youtube": "None", "website": "None", "summary": "None", "logo": "None", "latitude": 49.782039000000054, "longitude": -92.83759099999993}, "892868167RR0001": {"name": "DRYDEN ROTARY CHARITY FOUNDATION", "designationCode": "A", "categoryCode": "03", "address": "BOX 514", "city": "DRYDEN", "province": "ON", "country": "CA", "postalCode": "P8N2Z2", "twitter": "None", "instagram": "None", "facebook": "None", "youtube": "None", "website": "None", "summary": "None", "logo": "None", "latitude": 49.782039000000054, "longitude": -92.83759099999993}, "130074966RR0001": {"name": "DRYDEN VOLUNTEER RECRUITMENT AND REFERRAL CENTRE", "designationCode": "C", "categoryCode": "09", "address": "53 ARTHUR STREET", "city": "DRYDEN", "province": "ON", "country": "CA", "postalCode": "P8N1J7", "twitter": "None", "instagram": "None", "facebook": "None", "youtube": "None", "website": "None", "summary": "None", "logo": "None", "latitude": 49.77991751543633, "longitude": -92.837844}, "118888858RR0001": {"name": "DUBLIN STREET UNITED CHURCH", "designationCode": "C", "categoryCode": "44", "address": "68 SUFFOLK ST. WEST", "city": "GUELPH", "province": "ON", "country": "CA", "postalCode": "N1H2J2", "twitter": "None", "instagram": "None", "facebook": "None", "youtube": "None", "website": "None", "summary": "None", "logo": "None", "latitude": 43.54634335469452, "longitude": -80.25664964764276}, "861483428RR0001": {"name": "DUBOIS CHARITABLE FOUNDATION", "designationCode": "B", "categoryCode": "09", "address": "686 681 HIGHWAY 2 R.R.#1", "city": "PRINCETON", "province": "ON", "country": "CA", "postalCode": "N0J1V0", "twitter": "None", "instagram": "None", "facebook": "None", "youtube": "None", "website": "None", "summary": "None", "logo": "None", "latitude": 43.161276315304406, "longitude": -80.54648149756969}}