{"828120345RR0001": {"name": "Word of Life Christian Church, Calgary, Alberta", "designationCode": "C", "categoryCode": "39", "address": "1009 PROMINENCE WAY SW", "city": "CALGARY", "province": "AB", "country": "CA", "postalCode": "T3H2B4", "twitter": "None", "instagram": "None", "facebook": "None", "youtube": "None", "website": "None", "summary": "None", "logo": "None", "latitude": 51.06124716180969, "longitude": -114.1745652324714}, "895454254RR0001": {"name": "Word of Life Church British Columbia", "designationCode": "C", "categoryCode": "47", "address": "104 - 13569 76 AVE", "city": "SURREY", "province": "BC", "country": "CA", "postalCode": "V3W2W3", "twitter": "None", "instagram": "None", "facebook": "None", "youtube": "None", "website": "None", "summary": "None", "logo": "None", "latitude": 49.140877514859426, "longitude": -122.8470519970858}, "852503481RR0001": {"name": "Word of Life Ministries", "designationCode": "C", "categoryCode": "39", "address": "7 SUNSET LANE", "city": "HORTON", "province": "ON", "country": "CA", "postalCode": "K7V0A5", "twitter": "None", "instagram": "None", "facebook": "None", "youtube": "None", "website": "None", "summary": "None", "logo": "None", "latitude": 45.46316641515152, "longitude": -76.6294775969503}, "878112101RR0001": {"name": "Word of Life Ministries Pentecostal Church of God", "designationCode": "C", "categoryCode": "36", "address": "37 STEPHENFRANK RD", "city": "SCARBOROUGH", "province": "ON", "country": "CA", "postalCode": "M1P3W2", "twitter": "None", "instagram": "None", "facebook": "None", "youtube": "None", "website": "None", "summary": "None", "logo": "None", "latitude": 43.75834073189448, "longitude": -79.25794954022174}, "865031975RR0001": {"name": "Word of Truth Church Society", "designationCode": "C", "categoryCode": "39", "address": "102-911 FIFTH AVENUE", "city": "NEW WESTMINSTER", "province": "BC", "country": "CA", "postalCode": "V3M1Y3", "twitter": "None", "instagram": "None", "facebook": "None", "youtube": "None", "website": "None", "summary": "None", "logo": "None", "latitude": 49.20883176237604, "longitude": -122.92404102250839}, "808994552RR0001": {"name": "Word In Action (WIA) Ministries Int.", "designationCode": "B", "categoryCode": "39", "address": "PO BOX 21043 RPO COLE HARBOUR", "city": "DARTMOUTH", "province": "NS", "country": "CA", "postalCode": "B2W6B2", "twitter": "None", "instagram": "None", "facebook": "None", "youtube": "None", "website": "None", "summary": "None", "logo": "None", "latitude": 44.672855818168316, "longitude": -63.46788604579242}, "803581503RR0001": {"name": "Word International Ministries, Manitoba Inc.", "designationCode": "C", "categoryCode": "39", "address": "82 ARROWWOOD DRIVE SOUTH", "city": "WINNIPEG", "province": "MB", "country": "CA", "postalCode": "R2V2N8", "twitter": "None", "instagram": "None", "facebook": "None", "youtube": "None", "website": "None", "summary": "None", "logo": "None", "latitude": 49.94422709351391, "longitude": -97.14954198072584}, "822580643RR0001": {"name": "Word-Light Assembly of God", "designationCode": "C", "categoryCode": "39", "address": "6313 90 AVENUE NORTHWEST", "city": "EDMONTON", "province": "AB", "country": "CA", "postalCode": "T6B0P1", "twitter": "None", "instagram": "None", "facebook": "None", "youtube": "None", "website": "None", "summary": "None", "logo": "None", "latitude": 53.52464794419769, "longitude": -113.42847241522868}, "844261891RR0001": {"name": "Word-Play: Reading in the City", "designationCode": "C", "categoryCode": "21", "address": "144 RUSHTON RD.", "city": "TORONTO", "province": "ON", "country": "CA", "postalCode": "M6G3J1", "twitter": "None", "instagram": "None", "facebook": "None", "youtube": "None", "website": "None", "summary": "None", "logo": "None", "latitude": 43.677998654452104, "longitude": -79.42604722566206}, "850647835RR0001": {"name": "Wordfest", "designationCode": "C", "categoryCode": "23", "address": "2ND FL,MEMORIAL PARK LIBRARY  1221-2ND STREET SW", "city": "CALGARY", "province": "AB", "country": "CA", "postalCode": "T2R0W5", "twitter": "None", "instagram": "None", "facebook": "None", "youtube": "None", "website": "None", "summary": "None", "logo": "None", "latitude": 51.04101000000003, "longitude": -114.06826999999998}, "845614650RR0001": {"name": "Wordfirst Ministries of Canada", "designationCode": "C", "categoryCode": "47", "address": "4632 JENKELA CRT", "city": "WINDSOR", "province": "ON", "country": "CA", "postalCode": "N9G3C4", "twitter": "None", "instagram": "None", "facebook": "None", "youtube": "None", "website": "None", "summary": "None", "logo": "None", "latitude": 42.23878957672124, "longitude": -82.99326583400672}, "823419619RR0001": {"name": "Work for All", "designationCode": "A", "categoryCode": "03", "address": "53113 RANGE ROAD 211", "city": "ARDROSSAN", "province": "AB", "country": "CA", "postalCode": "T8G2C5", "twitter": "None", "instagram": "None", "facebook": "None", "youtube": "None", "website": "None", "summary": "None", "logo": "None", "latitude": 53.558244167638065, "longitude": -112.97613725064997}, "804298248RR0001": {"name": "Work of Your Hand Foundation", "designationCode": "A", "categoryCode": "03", "address": "9 KINCORA ST NW", "city": "CALGARY", "province": "AB", "country": "CA", "postalCode": "T3R0N5", "twitter": "None", "instagram": "None", "facebook": "None", "youtube": "None", "website": "None", "summary": "None", "logo": "None", "latitude": 51.165206842633715, "longitude": -114.14338650458764}, "129799961RR0001": {"name": "Work Wellness and Disability Prevention Institute / Institutsur le bien-\u00eatre au travail et la pr\u00e9vention de l'incapacit\u00e9", "designationCode": "C", "categoryCode": "11", "address": "204-916 WEST BROADWAY", "city": "VANCOUVER", "province": "BC", "country": "CA", "postalCode": "V5Z1K7", "twitter": "None", "instagram": "None", "facebook": "None", "youtube": "None", "website": "None", "summary": "None", "logo": "None", "latitude": 49.26336947735031, "longitude": -123.12464238634658}, "801277286RR0001": {"name": "Workers Memorial Foundation", "designationCode": "C", "categoryCode": "59", "address": "504-275 BROADWAY", "city": "WINNIPEG", "province": "MB", "country": "CA", "postalCode": "R3C4M6", "twitter": "None", "instagram": "None", "facebook": "None", "youtube": "None", "website": "None", "summary": "None", "logo": "None", "latitude": 49.888115201800304, "longitude": -97.13855716654155}, "841465115RR0001": {"name": "Workers' History Museum", "designationCode": "C", "categoryCode": "50", "address": "251 BANK ST                   2ND FLOOR", "city": "OTTAWA", "province": "ON", "country": "CA", "postalCode": "K2P1X3", "twitter": "None", "instagram": "None", "facebook": "None", "youtube": "None", "website": "None", "summary": "None", "logo": "None", "latitude": 45.41620551263771, "longitude": -75.69703608976297}, "857269708RR0001": {"name": "Workers' Resource Centre", "designationCode": "C", "categoryCode": "59", "address": "SUITE 308                     8989 MACLEOD TRAIL SW", "city": "CALGARY", "province": "AB", "country": "CA", "postalCode": "T2H0M2", "twitter": "None", "instagram": "None", "facebook": "None", "youtube": "None", "website": "None", "summary": "None", "logo": "None", "latitude": 50.978808096650255, "longitude": -114.071472}, "811950112RR0001": {"name": "Workers4wishes Inc.", "designationCode": "C", "categoryCode": "09", "address": "POST OFFICE BOX 1292", "city": "HAMPTON", "province": "NB", "country": "CA", "postalCode": "E5N8H2", "twitter": "None", "instagram": "None", "facebook": "None", "youtube": "None", "website": "None", "summary": "None", "logo": "None", "latitude": 45.52417500000006, "longitude": -65.82911299999994}, "884795352RR0001": {"name": "Working for Change", "designationCode": "C", "categoryCode": "59", "address": "203-1499 QUEEN STREET WEST", "city": "TORONTO", "province": "ON", "country": "CA", "postalCode": "M6R1A3", "twitter": "None", "instagram": "None", "facebook": "None", "youtube": "None", "website": "None", "summary": "None", "logo": "None", "latitude": 43.639521969137334, "longitude": -79.44203699279045}, "826644163RR0001": {"name": "Working Gear Clothing Society", "designationCode": "C", "categoryCode": "09", "address": "720 - 999 BROADWAY W", "city": "VANCOUVER", "province": "BC", "country": "CA", "postalCode": "V5Z1K5", "twitter": "None", "instagram": "None", "facebook": "None", "youtube": "None", "website": "None", "summary": "None", "logo": "None", "latitude": 49.263434493796254, "longitude": -123.12609202553523}, "845580356RR0001": {"name": "Working Spark Theatre Arts Society", "designationCode": "C", "categoryCode": "22", "address": "#201-739 GORE AVE.", "city": "VANCOUVER", "province": "BC", "country": "CA", "postalCode": "V6A2Z9", "twitter": "None", "instagram": "None", "facebook": "None", "youtube": "None", "website": "None", "summary": "None", "logo": "None", "latitude": 49.2778654365803, "longitude": -123.09704293701299}, "842198087RR0001": {"name": "Workplace Health Without Borders", "designationCode": "C", "categoryCode": "11", "address": "1 - 75 COURTNEYPARK DR W", "city": "MISSISSAUGA", "province": "ON", "country": "CA", "postalCode": "L5W0E3", "twitter": "None", "instagram": "None", "facebook": "None", "youtube": "None", "website": "None", "summary": "None", "logo": "None", "latitude": 43.63564011356652, "longitude": -79.69602264011135}, "852543917RR0001": {"name": "World in Need", "designationCode": "B", "categoryCode": "09", "address": "6304-161 AVE NW", "city": "EDMONTON", "province": "AB", "country": "CA", "postalCode": "T5Y2P9", "twitter": "None", "instagram": "None", "facebook": "None", "youtube": "None", "website": "None", "summary": "None", "logo": "None", "latitude": 53.622552434935535, "longitude": -113.43574630417231}, "804964500RR0001": {"name": "World Bicycle Relief Canada", "designationCode": "C", "categoryCode": "09", "address": "1300-777 DUNSMUIR ST", "city": "VANCOUVER", "province": "BC", "country": "CA", "postalCode": "V7Y1K2", "twitter": "None", "instagram": "None", "facebook": "None", "youtube": "None", "website": "None", "summary": "None", "logo": "None", "latitude": 49.283979252322474, "longitude": -123.11691534049893}, "855471587RR0001": {"name": "World Blind Union/Union mondiale des aveugles", "designationCode": "C", "categoryCode": "11", "address": "1929 BAYVIEW AVE", "city": "TORONTO", "province": "ON", "country": "CA", "postalCode": "M4G3E8", "twitter": "None", "instagram": "None", "facebook": "None", "youtube": "None", "website": "None", "summary": "None", "logo": "None", "latitude": 43.71726697391652, "longitude": -79.37817360248759}, "806670188RR0001": {"name": "World Changers Church - Toronto", "designationCode": "C", "categoryCode": "39", "address": "50 GERVAIS DRIVE", "city": "TORONTO", "province": "ON", "country": "CA", "postalCode": "M3C1Z3", "twitter": "None", "instagram": "None", "facebook": "None", "youtube": "None", "website": "None", "summary": "None", "logo": "None", "latitude": 43.72524896808814, "longitude": -79.33757831660755}, "805820263RR0001": {"name": "World Changers Worship Centre", "designationCode": "C", "categoryCode": "39", "address": "PO BOX 20034 RPO CHINGUACOUSY", "city": "BRAMPTON", "province": "ON", "country": "CA", "postalCode": "L6Y0L9", "twitter": "None", "instagram": "None", "facebook": "None", "youtube": "None", "website": "None", "summary": "None", "logo": "None", "latitude": 43.656616656783406, "longitude": -79.7679286017001}, "803703230RR0001": {"name": "World Charitable Foundation of Canada", "designationCode": "B", "categoryCode": "43", "address": "PO BOX 33051 RPO FRANKLIN", "city": "CAMBRIDGE", "province": "ON", "country": "CA", "postalCode": "N1R8R8", "twitter": "None", "instagram": "None", "facebook": "None", "youtube": "None", "website": "None", "summary": "None", "logo": "None", "latitude": 43.41504936488578, "longitude": -80.30961108863951}, "805439916RR0001": {"name": "World Focus Inc.", "designationCode": "C", "categoryCode": "47", "address": "1399 BUFFALO PLACE", "city": "WINNIPEG", "province": "MB", "country": "CA", "postalCode": "R3T1L6", "twitter": "None", "instagram": "None", "facebook": "None", "youtube": "None", "website": "None", "summary": "None", "logo": "None"}, "842605412RR0001": {"name": "World Gospel Explosion", "designationCode": "C", "categoryCode": "47", "address": "735 MUNROE AVE", "city": "WINNIPEG", "province": "MB", "country": "CA", "postalCode": "R2K1J1", "twitter": "None", "instagram": "None", "facebook": "None", "youtube": "None", "website": "None", "summary": "None", "logo": "None", "latitude": 49.91269388816425, "longitude": -97.08265170953324}, "825576846RR0001": {"name": "World Harvest Ministry", "designationCode": "C", "categoryCode": "39", "address": "205 VIDAL ST S", "city": "SARNIA", "province": "ON", "country": "CA", "postalCode": "N7T2T4", "twitter": "None", "instagram": "None", "facebook": "None", "youtube": "None", "website": "None", "summary": "None", "logo": "None", "latitude": 42.96714684294258, "longitude": -82.40609620962788}, "810309310RR0001": {"name": "World Helps Ministries", "designationCode": "C", "categoryCode": "47", "address": "10431 TRURO DR", "city": "RICHMOND", "province": "BC", "country": "CA", "postalCode": "V7E5B3", "twitter": "None", "instagram": "None", "facebook": "None", "youtube": "None", "website": "None", "summary": "None", "logo": "None", "latitude": 49.137021745892746, "longitude": -123.17688472196791}, "118952423RR0001": {"name": "World Life Centre", "designationCode": "C", "categoryCode": "39", "address": "1303 MICHAEL CRES.", "city": "CAMBRIDGE", "province": "ON", "country": "CA", "postalCode": "N3H2R1", "twitter": "None", "instagram": "None", "facebook": "None", "youtube": "None", "website": "None", "summary": "None", "logo": "None", "latitude": 43.39485971438069, "longitude": -80.33824660185243}, "119092187RR0001": {"name": "World Media Ministries", "designationCode": "C", "categoryCode": "47", "address": "PO BOX 57884 STN A", "city": "TORONTO", "province": "ON", "country": "CA", "postalCode": "M5W5M5", "twitter": "None", "instagram": "None", "facebook": "None", "youtube": "None", "website": "None", "summary": "None", "logo": "None", "latitude": 43.64868300000006, "longitude": -79.38544399999994}, "817813892RR0001": {"name": "World Mission Church", "designationCode": "C", "categoryCode": "39", "address": "360 OAKWOOD AVE", "city": "TORONTO", "province": "ON", "country": "CA", "postalCode": "M6E2W2", "twitter": "None", "instagram": "None", "facebook": "None", "youtube": "None", "website": "None", "summary": "None", "logo": "None", "latitude": 43.686922974277195, "longitude": -79.43867262176755}, "850141136RR0001": {"name": "World Mission Good Seed", "designationCode": "C", "categoryCode": "36", "address": "7 TUDOR CRES", "city": "WINNIPEG", "province": "MB", "country": "CA", "postalCode": "R2K2A5", "twitter": "None", "instagram": "None", "facebook": "None", "youtube": "None", "website": "None", "summary": "None", "logo": "None", "latitude": 49.91011988816424, "longitude": -97.0823546257142}, "856695150RR0001": {"name": "World Mission Ministries", "designationCode": "C", "categoryCode": "39", "address": "213 - 7360 ZINNIA PL", "city": "MISSISSAUGA", "province": "ON", "country": "CA", "postalCode": "L5W2A6", "twitter": "None", "instagram": "None", "facebook": "None", "youtube": "None", "website": "None", "summary": "None", "logo": "None", "latitude": 43.63825614550925, "longitude": -79.73152444078522}, "822226403RR0001": {"name": "World Mission Society Church of God in Edmonton", "designationCode": "C", "categoryCode": "39", "address": "13312-114 STREET NORTHWEST", "city": "EDMONTON", "province": "AB", "country": "CA", "postalCode": "T5E5E4", "twitter": "None", "instagram": "None", "facebook": "None", "youtube": "None", "website": "None", "summary": "None", "logo": "None", "latitude": 53.593829413266775, "longitude": -113.51832776925936}, "849145297RR0001": {"name": "World Missionary Evangelism Canada", "designationCode": "C", "categoryCode": "09", "address": "POST OFFICE BOX 6088", "city": "FORT ST. JOHN", "province": "BC", "country": "CA", "postalCode": "V1J1Y6", "twitter": "None", "instagram": "None", "facebook": "None", "youtube": "None", "website": "None", "summary": "None", "logo": "None", "latitude": 56.24652300000005, "longitude": -120.84992899999993}, "821312196RR0001": {"name": "World Parkinson's Program", "designationCode": "C", "categoryCode": "11", "address": "2828 DENISON STREET, SUITE B", "city": "MARKHAM", "province": "ON", "country": "CA", "postalCode": "L3S4T5", "twitter": "None", "instagram": "None", "facebook": "None", "youtube": "None", "website": "None", "summary": "None", "logo": "None", "latitude": 43.84147439107843, "longitude": -79.26661829364075}, "118857366RR0001": {"name": "World Renew", "designationCode": "C", "categoryCode": "09", "address": "3475 MAINWAY                  P.O. BOX 5070 STN. LCD 1", "city": "BURLINGTON", "province": "ON", "country": "CA", "postalCode": "L7R3Y8", "twitter": "None", "instagram": "None", "facebook": "None", "youtube": "None", "website": "None", "summary": "None", "logo": "None", "latitude": 43.37043221262034, "longitude": -79.79729227869441}, "871616603RR0001": {"name": "World Skills Employment Centre", "designationCode": "C", "categoryCode": "59", "address": "SUITE 300, 219 ARGYLE AVENUE", "city": "OTTAWA", "province": "ON", "country": "CA", "postalCode": "K2P2H4", "twitter": "None", "instagram": "None", "facebook": "None", "youtube": "None", "website": "None", "summary": "None", "logo": "None", "latitude": 45.41124338914519, "longitude": -75.6907610064053}, "129719076RR0001": {"name": "World Society for the Protection of Animals Canada /Soci\u00e9t\u00e9 mondiale pour la protection des animaux Canada", "designationCode": "C", "categoryCode": "54", "address": "90 EGLINTON AVE E STE 960", "city": "TORONTO", "province": "ON", "country": "CA", "postalCode": "M4P2Y3", "twitter": "None", "instagram": "None", "facebook": "None", "youtube": "None", "website": "None", "summary": "None", "logo": "None", "latitude": 43.707294238444014, "longitude": -79.39578841938362}, "872547443RR0001": {"name": "World Somali Congress (WSC)", "designationCode": "C", "categoryCode": "20", "address": "703-2706 ALTA VISTA DR.", "city": "OTTAWA", "province": "ON", "country": "CA", "postalCode": "K1V7T4", "twitter": "None", "instagram": "None", "facebook": "None", "youtube": "None", "website": "None", "summary": "None", "logo": "None", "latitude": 45.37308829228441, "longitude": -75.66352621957388}, "840328488RR0001": {"name": "World Spine Care Canada", "designationCode": "C", "categoryCode": "11", "address": "6100 LESLIE ST", "city": "TORONTO", "province": "ON", "country": "CA", "postalCode": "M2H3J1", "twitter": "None", "instagram": "None", "facebook": "None", "youtube": "None", "website": "None", "summary": "None", "logo": "None", "latitude": 43.80366711128749, "longitude": -79.37131802227432}, "811114610RR0001": {"name": "World Student Christian Federation - Canada / F\u00e9d\u00e9ration universelle des associations chr\u00e9tiennes d'\u00e9tudiants - Canada", "designationCode": "A", "categoryCode": "43", "address": "211 ARLINGTON AVE", "city": "TORONTO", "province": "ON", "country": "CA", "postalCode": "M6C2Z4", "twitter": "None", "instagram": "None", "facebook": "None", "youtube": "None", "website": "None", "summary": "None", "logo": "None", "latitude": 43.684181203445085, "longitude": -79.42999919773224}, "818177552RR0001": {"name": "World Teacher Aid", "designationCode": "C", "categoryCode": "09", "address": "622 OLD DUNDAS RD", "city": "ANCASTER", "province": "ON", "country": "CA", "postalCode": "L9G3J4", "twitter": "None", "instagram": "None", "facebook": "None", "youtube": "None", "website": "None", "summary": "None", "logo": "None", "latitude": 43.23555477823307, "longitude": -79.97310088311526}, "819097999RR0001": {"name": "World Wide Gift of Hope Inc.", "designationCode": "C", "categoryCode": "09", "address": "70 LEONARD SHAKESPEARE BAY", "city": "WINNIPEG", "province": "MB", "country": "CA", "postalCode": "R2J4K8", "twitter": "None", "instagram": "None", "facebook": "None", "youtube": "None", "website": "None", "summary": "None", "logo": "None", "latitude": 49.87390608964742, "longitude": -97.08912992988654}, "805847514RR0001": {"name": "World Wide Hearing Foundation Canada", "designationCode": "A", "categoryCode": "03", "address": "239 NOTRE-DAME STREET WEST    SUITE 402", "city": "MONTREAL", "province": "QC", "country": "CA", "postalCode": "H2Y1T4", "twitter": "None", "instagram": "None", "facebook": "None", "youtube": "None", "website": "None", "summary": "None", "logo": "None", "latitude": 45.50328243020367, "longitude": -73.55790676146907}, "803519891RR0001": {"name": "World Youth Music Organization", "designationCode": "C", "categoryCode": "22", "address": "1159 KINGS AVE", "city": "WEST VANCOUVER", "province": "BC", "country": "CA", "postalCode": "V7T2C2", "twitter": "None", "instagram": "None", "facebook": "None", "youtube": "None", "website": "None", "summary": "None", "logo": "None", "latitude": 49.33633250432782, "longitude": -123.14747313918865}, "810058164RR0001": {"name": "Worldchangers Canada Society", "designationCode": "C", "categoryCode": "39", "address": "PO BOX 25184 RPO MISSION PARK", "city": "KELOWNA", "province": "BC", "country": "CA", "postalCode": "V1W3Y7", "twitter": "None", "instagram": "None", "facebook": "None", "youtube": "None", "website": "None", "summary": "None", "logo": "None", "latitude": 49.82063000000005, "longitude": -119.47531999999995}, "871585006RR0002": {"name": "Worldreach World Care Charitable Foundation", "designationCode": "B", "categoryCode": "21", "address": "27 SUMMERDALE DRIVE", "city": "THORNHILL", "province": "ON", "country": "CA", "postalCode": "L3T6X3", "twitter": "None", "instagram": "None", "facebook": "None", "youtube": "None", "website": "None", "summary": "None", "logo": "None", "latitude": 43.831731479860466, "longitude": -79.37471024092551}, "824800015RR0001": {"name": "Worlds Apart", "designationCode": "C", "categoryCode": "47", "address": "68 ASHBURY BLVD.", "city": "AJAX", "province": "ON", "country": "CA", "postalCode": "L1Z1M8", "twitter": "None", "instagram": "None", "facebook": "None", "youtube": "None", "website": "None", "summary": "None", "logo": "None", "latitude": 43.83232414683471, "longitude": -78.98437776908646}, "762185122RR0001": {"name": "Worldwide Acceptance Ministry, Calgary, AB", "designationCode": "C", "categoryCode": "39", "address": "7624C HUNTERVIEW DR NW", "city": "CALGARY", "province": "AB", "country": "CA", "postalCode": "T2K5C9", "twitter": "None", "instagram": "None", "facebook": "None", "youtube": "None", "website": "None", "summary": "None", "logo": "None", "latitude": 51.12009440927763, "longitude": -114.08411183124852}, "812820546RR0001": {"name": "Worldwide Bible Society of Canada", "designationCode": "C", "categoryCode": "47", "address": "4771 FISHER DRIVE", "city": "RICHMOND", "province": "BC", "country": "CA", "postalCode": "V6X3V4", "twitter": "None", "instagram": "None", "facebook": "None", "youtube": "None", "website": "None", "summary": "None", "logo": "None", "latitude": 49.17863034854599, "longitude": -123.1110722005557}, "824786644RR0001": {"name": "Worldwide Church of God's Power", "designationCode": "C", "categoryCode": "39", "address": "1080 ST CLAIR AVE W", "city": "TORONTO", "province": "ON", "country": "CA", "postalCode": "M6E1A7", "twitter": "None", "instagram": "None", "facebook": "None", "youtube": "None", "website": "None", "summary": "None", "logo": "None", "latitude": 43.67873014683471, "longitude": -79.43980871371684}, "844863027RR0001": {"name": "Worldwide Orphans Foundation Canada", "designationCode": "C", "categoryCode": "01", "address": "3200-100 WELLINGTON STREET W. PO BOX 329", "city": "TORONTO", "province": "ON", "country": "CA", "postalCode": "M5K1K7", "twitter": "None", "instagram": "None", "facebook": "None", "youtube": "None", "website": "None", "summary": "None", "logo": "None", "latitude": 43.6467761218764, "longitude": -79.38249996615488}, "804530236RR0001": {"name": "Worldwide Pentecostal Fellowship of Canada", "designationCode": "C", "categoryCode": "36", "address": "615 NORTHMOUNT DR NW", "city": "CALGARY", "province": "AB", "country": "CA", "postalCode": "T2K3J6", "twitter": "None", "instagram": "None", "facebook": "None", "youtube": "None", "website": "None", "summary": "None", "logo": "None", "latitude": 51.08664231141434, "longitude": -114.08823037581499}, "839781051RR0001": {"name": "Worship and Restoration Ministries", "designationCode": "C", "categoryCode": "39", "address": "1865 ROBINWOOD PLACE", "city": "OTTAWA", "province": "ON", "country": "CA", "postalCode": "K1C6L8", "twitter": "None", "instagram": "None", "facebook": "None", "youtube": "None", "website": "None", "summary": "None", "logo": "None", "latitude": 45.451085469328895, "longitude": -75.5248538488948}, "819887126RR0001": {"name": "Worship Conference Ministries The Grace of Giving", "designationCode": "C", "categoryCode": "39", "address": "223 SECOND AVE W", "city": "SHELBURNE", "province": "ON", "country": "CA", "postalCode": "L9V2X3", "twitter": "None", "instagram": "None", "facebook": "None", "youtube": "None", "website": "None", "summary": "None", "logo": "None", "latitude": 44.07963574712927, "longitude": -80.20868518997064}, "801000803RR0001": {"name": "Worship His Majesty Inc.", "designationCode": "C", "categoryCode": "47", "address": "31 PANATELLA ROW NW", "city": "CALGARY", "province": "AB", "country": "CA", "postalCode": "T3K0V5", "twitter": "None", "instagram": "None", "facebook": "None", "youtube": "None", "website": "None", "summary": "None", "logo": "None", "latitude": 51.17170097668648, "longitude": -114.0748382035893}, "828380378RR0001": {"name": "Worth Their Weight in Gold, Gold River Cat Society", "designationCode": "C", "categoryCode": "54", "address": "31-500 MUCHALAT PLACE         POST OFFICE BOX 117", "city": "GOLD RIVER", "province": "BC", "country": "CA", "postalCode": "V0P1G0", "twitter": "None", "instagram": "None", "facebook": "None", "youtube": "None", "website": "None", "summary": "None", "logo": "None", "latitude": 49.78083569929591, "longitude": -126.05092145555231}, "828082727RR0001": {"name": "Wounded Warriors Canada", "designationCode": "C", "categoryCode": "09", "address": "4-310 BYRON ST S", "city": "WHITBY", "province": "ON", "country": "CA", "postalCode": "L1N4P8", "twitter": "None", "instagram": "None", "facebook": "None", "youtube": "None", "website": "None", "summary": "None", "logo": "None", "latitude": 43.87704515875127, "longitude": -78.94243547810011}, "812768059RR0001": {"name": "Wreaths Across Canada Incorporated", "designationCode": "C", "categoryCode": "59", "address": "8 SPYGLASS RIDGE", "city": "OTTAWA", "province": "ON", "country": "CA", "postalCode": "K2S1R6", "twitter": "None", "instagram": "None", "facebook": "None", "youtube": "None", "website": "None", "summary": "None", "logo": "None", "latitude": 45.2720761517977, "longitude": -75.92506432180168}, "812614303RR0001": {"name": "Wright Family Performing Arts and Entertainment Centre Foundation", "designationCode": "C", "categoryCode": "23", "address": "137 FRANK ST", "city": "STRATHROY", "province": "ON", "country": "CA", "postalCode": "N7G2R8", "twitter": "None", "instagram": "None", "facebook": "None", "youtube": "None", "website": "None", "summary": "None", "logo": "None", "latitude": 42.95819801362713, "longitude": -81.62583937928324}, "802909515RR0001": {"name": "Write 2 Read Foundation", "designationCode": "B", "categoryCode": "21", "address": "5451 MCCOLL CRES", "city": "RICHMOND", "province": "BC", "country": "CA", "postalCode": "V6V2L6", "twitter": "None", "instagram": "None", "facebook": "None", "youtube": "None", "website": "None", "summary": "None", "logo": "None", "latitude": 49.17460432944776, "longitude": -122.96766201612883}, "802551358RR0001": {"name": "Wyatt Heritage Properties Inc.", "designationCode": "C", "categoryCode": "52", "address": "275 FITZROY STREET", "city": "SUMMERSIDE", "province": "PE", "country": "CA", "postalCode": "C1N1H9", "twitter": "None", "instagram": "None", "facebook": "None", "youtube": "None", "website": "None", "summary": "None", "logo": "None", "latitude": 46.39298731057763, "longitude": -63.79064678351318}, "852078286RR0001": {"name": "Wymark Charitable Trust", "designationCode": "B", "categoryCode": "39", "address": "50 1ST AVE NE", "city": "SWIFT CURRENT", "province": "SK", "country": "CA", "postalCode": "S9H4W4", "twitter": "None", "instagram": "None", "facebook": "None", "youtube": "None", "website": "None", "summary": "None", "logo": "None", "latitude": 50.282664378132, "longitude": -107.79863205289816}, "804921963RR0001": {"name": "Wynn Family Charitable Foundation", "designationCode": "B", "categoryCode": "03", "address": "330 DUPONT STREET             2ND FLR, THE ANNEX CENTRE", "city": "TORONTO", "province": "ON", "country": "CA", "postalCode": "M5R1V9", "twitter": "None", "instagram": "None", "facebook": "None", "youtube": "None", "website": "None", "summary": "None", "logo": "None", "latitude": 43.67443620318529, "longitude": -79.40901313310046}, "119288918RR0342": {"name": "Wynyard Congregation of Jehovah's Witnesses, Wynyard, Saskatchewan", "designationCode": "C", "categoryCode": "61", "address": "PO BOX 1295", "city": "WYNYARD", "province": "SK", "country": "CA", "postalCode": "S0A4T0", "twitter": "None", "instagram": "None", "facebook": "None", "youtube": "None", "website": "None", "summary": "None", "logo": "None", "latitude": 51.76523000000003, "longitude": -104.18008999999995}, "887554889RR0001": {"name": "Wynyard CARRES Inc.", "designationCode": "C", "categoryCode": "09", "address": "400 - 1ST STREET WEST         PO BOX 1048", "city": "WYNYARD", "province": "SK", "country": "CA", "postalCode": "S0A4T0", "twitter": "None", "instagram": "None", "facebook": "None", "youtube": "None", "website": "None", "summary": "None", "logo": "None", "latitude": 51.76775870934284, "longitude": -104.18723461856953}, "130917313RR0001": {"name": "Wynyard Gospel Church", "designationCode": "C", "categoryCode": "34", "address": "BOX 371", "city": "WYNYARD", "province": "SK", "country": "CA", "postalCode": "S0A4T0", "twitter": "None", "instagram": "None", "facebook": "None", "youtube": "None", "website": "None", "summary": "None", "logo": "None", "latitude": 51.76523000000003, "longitude": -104.18008999999995}, "870382751RR0001": {"name": "WA WA SHRINE PATIENT TRANSPORTATION FUND", "designationCode": "C", "categoryCode": "09", "address": "2065 HAMILTON ST", "city": "REGINA", "province": "SK", "country": "CA", "postalCode": "S4P2E1", "twitter": "None", "instagram": "None", "facebook": "None", "youtube": "None", "website": "None", "summary": "None", "logo": "None", "latitude": 50.445909, "longitude": -104.60935782483145}, "883203366RR0001": {"name": "WAABINONG HEAD START FAMILY RESOURCE CENTRE", "designationCode": "C", "categoryCode": "09", "address": "169 SPRING ST", "city": "SAULT STE MARIE", "province": "ON", "country": "CA", "postalCode": "P6A3A3", "twitter": "None", "instagram": "None", "facebook": "None", "youtube": "None", "website": "None", "summary": "None", "logo": "None", "latitude": 46.51147019346175, "longitude": -84.32930849169011}, "822030748RR0001": {"name": "WAAPS NAGWAADM CHURCH", "designationCode": "C", "categoryCode": "36", "address": "P.O. BOX 773", "city": "TERRACE", "province": "BC", "country": "CA", "postalCode": "V8G4R1", "twitter": "None", "instagram": "None", "facebook": "None", "youtube": "None", "website": "None", "summary": "None", "logo": "None", "latitude": 54.51590400000006, "longitude": -128.60321299999993}, "899928725RR0001": {"name": "WAASEGIIZHIG NANAANDAWE'IYEWIGAMIG", "designationCode": "C", "categoryCode": "11", "address": "BOX 320                       WASHAGAMIS BAY FIRST NATION", "city": "KEEWATIN", "province": "ON", "country": "CA", "postalCode": "P0X1C0", "twitter": "None", "instagram": "None", "facebook": "None", "youtube": "None", "website": "None", "summary": "None", "logo": "None", "latitude": 49.75863000000005, "longitude": -94.54708249999993}, "896911211RR0001": {"name": "WABAMUN & DISTRICT SENIOR'S CENTRE SOCIETY", "designationCode": "C", "categoryCode": "09", "address": "P.O. BOX 85", "city": "WABAMUN", "province": "AB", "country": "CA", "postalCode": "T0E2K0", "twitter": "None", "instagram": "None", "facebook": "None", "youtube": "None", "website": "None", "summary": "None", "logo": "None", "latitude": 53.568336633845774, "longitude": -114.64443560770479}, "119287415RR0001": {"name": "WABANA BOYS' & GIRLS' CLUB", "designationCode": "C", "categoryCode": "09", "address": "P.O. BOX 539                  TOWN SQUARE", "city": "BELL ISLAND", "province": "NL", "country": "CA", "postalCode": "A0A4H0", "twitter": "None", "instagram": "None", "facebook": "None", "youtube": "None", "website": "None", "summary": "None", "logo": "None", "latitude": 47.62158000000005, "longitude": -52.951399999999936}, "873580690RR0001": {"name": "WABANO CENTRE FOR ABORIGINAL HEALTH INC", "designationCode": "C", "categoryCode": "19", "address": "299 MONTREAL RD", "city": "VANIER", "province": "ON", "country": "CA", "postalCode": "K1L6B8", "twitter": "None", "instagram": "None", "facebook": "None", "youtube": "None", "website": "None", "summary": "None", "logo": "None", "latitude": 45.43724466224238, "longitude": -75.65850032904372}, "891149544RR0001": {"name": "WABASCA REVIVAL CENTRE FELLOWSHIP", "designationCode": "C", "categoryCode": "39", "address": "POST OFFICE BOX 269", "city": "WABASCA", "province": "AB", "country": "CA", "postalCode": "T0G2K0", "twitter": "None", "instagram": "None", "facebook": "None", "youtube": "None", "website": "None", "summary": "None", "logo": "None", "latitude": 55.987460000000056, "longitude": -113.91912999999994}, "889770178RR0001": {"name": "WABASH CONGREGATION, UNITED CHURCH", "designationCode": "C", "categoryCode": "44", "address": "R R 7", "city": "THAMESVILLE", "province": "ON", "country": "CA", "postalCode": "N0P2K0", "twitter": "None", "instagram": "None", "facebook": "None", "youtube": "None", "website": "None", "summary": "None", "logo": "None", "latitude": 42.59834700000006, "longitude": -82.07680399999994}, "891606634RR0001": {"name": "WABOWDEN HISTORICAL MUSEUM INCORPORATED", "designationCode": "C", "categoryCode": "52", "address": "BOX 219", "city": "WABOWDEN", "province": "MB", "country": "CA", "postalCode": "R0B1S0", "twitter": "None", "instagram": "None", "facebook": "None", "youtube": "None", "website": "None", "summary": "None", "logo": "None", "latitude": 54.95778000000007, "longitude": -98.62669999999997}, "871899936RR0001": {"name": "WABOWDEN WORD OF LIFE CHURCH", "designationCode": "C", "categoryCode": "39", "address": "160 RIVERSIDE DRIVE", "city": "THOMPSON", "province": "MB", "country": "CA", "postalCode": "R8N0X2", "twitter": "None", "instagram": "None", "facebook": "None", "youtube": "None", "website": "None", "summary": "None", "logo": "None", "latitude": 55.75097572820366, "longitude": -97.85339948276958}, "896275898RR0001": {"name": "WACHIAY FRIENDSHIP CENTRE SOCIETY", "designationCode": "C", "categoryCode": "56", "address": "BOX 3204", "city": "COURTENAY", "province": "BC", "country": "CA", "postalCode": "V9N5N4", "twitter": "None", "instagram": "None", "facebook": "None", "youtube": "None", "website": "None", "summary": "None", "logo": "None", "latitude": 49.68669300000006, "longitude": -124.99317349999993}, "872797279RR0001": {"name": "WADENA AND AREA HEALTH FOUNDATION CORPORATION", "designationCode": "C", "categoryCode": "13", "address": "POST OFFICE BOX 730", "city": "WADENA", "province": "SK", "country": "CA", "postalCode": "S0A4J0", "twitter": "None", "instagram": "None", "facebook": "None", "youtube": "None", "website": "None", "summary": "None", "logo": "None", "latitude": 51.94407000000007, "longitude": -103.79973999999999}, "108187188RR0001": {"name": "WADENA BAPTIST CHURCH", "designationCode": "C", "categoryCode": "31", "address": "BOX 1060", "city": "WADENA", "province": "SK", "country": "CA", "postalCode": "S0A4J0", "twitter": "None", "instagram": "None", "facebook": "None", "youtube": "None", "website": "None", "summary": "None", "logo": "None", "latitude": 51.94407000000007, "longitude": -103.79973999999999}, "890140791RR0001": {"name": "WADENA HEALTH CARE AUXILIARY Inc", "designationCode": "A", "categoryCode": "11", "address": "BOX 1034", "city": "WADENA", "province": "SK", "country": "CA", "postalCode": "S0A4J0", "twitter": "None", "instagram": "None", "facebook": "None", "youtube": "None", "website": "None", "summary": "None", "logo": "None", "latitude": 51.94407000000007, "longitude": -103.79973999999999}, "130397102RR0001": {"name": "WADENA UNITED CHURCH", "designationCode": "C", "categoryCode": "44", "address": "PO BOX 1118", "city": "WADENA", "province": "SK", "country": "CA", "postalCode": "S0A4J0", "twitter": "None", "instagram": "None", "facebook": "None", "youtube": "None", "website": "None", "summary": "None", "logo": "None", "latitude": 51.94407000000007, "longitude": -103.79973999999999}, "898648530RR0001": {"name": "WADENA VAN CORPORATION", "designationCode": "C", "categoryCode": "09", "address": "PO BOX 672", "city": "WADENA", "province": "SK", "country": "CA", "postalCode": "S0A4J0", "twitter": "None", "instagram": "None", "facebook": "None", "youtube": "None", "website": "None", "summary": "None", "logo": "None", "latitude": 51.94407000000007, "longitude": -103.79973999999999}, "119287514RR0001": {"name": "WAGNER HILLS FARM SOCIETY", "designationCode": "C", "categoryCode": "59", "address": "8061 264TH ST", "city": "LANGLEY", "province": "BC", "country": "CA", "postalCode": "V1M3M3", "twitter": "None", "instagram": "None", "facebook": "None", "youtube": "None", "website": "None", "summary": "None", "logo": "None", "latitude": 49.149315, "longitude": -122.49266252362878}, "884688128RR0001": {"name": "WAGNER MINISTRIES INTERNATIONAL", "designationCode": "C", "categoryCode": "39", "address": "53 EDELWEISS PT NW", "city": "CALGARY", "province": "AB", "country": "CA", "postalCode": "T3A4N5", "twitter": "None", "instagram": "None", "facebook": "None", "youtube": "None", "website": "None", "summary": "None", "logo": "None", "latitude": 51.11505175102441, "longitude": -114.13933847515726}, "119287522RR0001": {"name": "WAGNER NATURAL AREA SOCIETY", "designationCode": "C", "categoryCode": "52", "address": "26519 HIGHWAY 16", "city": "SPRUCE GROVE", "province": "AB", "country": "CA", "postalCode": "T7X3L4", "twitter": "None", "instagram": "None", "facebook": "None", "youtube": "None", "website": "None", "summary": "None", "logo": "None", "latitude": 53.57049010265264, "longitude": -113.82393165130622}, "894781053RR0001": {"name": "WAH TAK BUDDHIST CORPORATION", "designationCode": "C", "categoryCode": "35", "address": "122 FAIRGLEN AVE", "city": "SCARBOROUGH", "province": "ON", "country": "CA", "postalCode": "M1W1A7", "twitter": "None", "instagram": "None", "facebook": "None", "youtube": "None", "website": "None", "summary": "None", "logo": "None", "latitude": 43.7831929597496, "longitude": -79.32388534849076}, "119287548RR0001": {"name": "WAH YIM BUDDHIST SOCIETY", "designationCode": "C", "categoryCode": "35", "address": "1618 EAST 56TH AVENUE", "city": "VANCOUVER", "province": "BC", "country": "CA", "postalCode": "V5P2A4", "twitter": "None", "instagram": "None", "facebook": "None", "youtube": "None", "website": "None", "summary": "None", "logo": "None", "latitude": 49.218982513994035, "longitude": -123.07359094463038}, "869074849RR0001": {"name": "WAHBUNG ABINOONJIIAG INC.", "designationCode": "C", "categoryCode": "09", "address": "225 DUFFERIN AVE.", "city": "WINNIPEG", "province": "MB", "country": "CA", "postalCode": "R2W5N7", "twitter": "None", "instagram": "None", "facebook": "None", "youtube": "None", "website": "None", "summary": "None", "logo": "None", "latitude": 49.90901142050881, "longitude": -97.13478966749383}, "108187501RR0001": {"name": "WAHSTAO PASTORAL CHURCH", "designationCode": "C", "categoryCode": "44", "address": "BOX 158", "city": "SMOKY LAKE", "province": "AB", "country": "CA", "postalCode": "T0A3C0", "twitter": "None", "instagram": "None", "facebook": "None", "youtube": "None", "website": "None", "summary": "None", "logo": "None", "latitude": 54.113230000000044, "longitude": -112.47107999999997}, "849483474RR0001": {"name": "WAI-ON FOUNDATION", "designationCode": "B", "categoryCode": "03", "address": "BOX 62                        1250-1500 WEST GEORGIA STREET", "city": "VANCOUVER", "province": "BC", "country": "CA", "postalCode": "V6G2Z6", "twitter": "None", "instagram": "None", "facebook": "None", "youtube": "None", "website": "None", "summary": "None", "logo": "None", "latitude": 49.29013479542975, "longitude": -123.1300069287031}, "899735799RR0001": {"name": "WAINFLEET CONGREGATIONAL CHRISTIAN CHURCH", "designationCode": "C", "categoryCode": "39", "address": "11976 LAKESHORE RD", "city": "WAINFLEET", "province": "ON", "country": "CA", "postalCode": "L0S1V0", "twitter": "None", "instagram": "None", "facebook": "None", "youtube": "None", "website": "None", "summary": "None", "logo": "None", "latitude": 42.86693007917315, "longitude": -79.37279023261564}, "133564880RR0001": {"name": "WAINFLEET HISTORICAL SOCIETY", "designationCode": "C", "categoryCode": "52", "address": "190 ELGIN ST.", "city": "PORT COLBOURNE", "province": "ON", "country": "CA", "postalCode": "L3K3K3", "twitter": "None", "instagram": "None", "facebook": "None", "youtube": "None", "website": "None", "summary": "None", "logo": "None", "latitude": 42.88826752510253, "longitude": -79.25913016763806}, "108134669RR0001": {"name": "WAINFLEET TOWNSHIP PUBLIC LIBRARY BOARD", "designationCode": "A", "categoryCode": "50", "address": "PO BOX 118                    31909 PARK STREET", "city": "WAINFLEET", "province": "ON", "country": "CA", "postalCode": "L0S1V0", "twitter": "None", "instagram": "None", "facebook": "None", "youtube": "None", "website": "None", "summary": "None", "logo": "None", "latitude": 42.92236002801673, "longitude": -79.37627653621104}}