{"893255760RR0001": {"name": "BRITT FADER SCHOLARSHIP TRUST", "designationCode": "C", "categoryCode": "25", "address": "2100 - 1801 HOLLIS ST", "city": "HALIFAX", "province": "NS", "country": "CA", "postalCode": "B3J3N4", "twitter": "None", "instagram": "None", "facebook": "None", "youtube": "None", "website": "None", "summary": "None", "logo": "None", "latitude": 44.64930780183504, "longitude": -63.5736703524728}, "891674525RR0001": {"name": "BROAD REACH FOUNDATION FOR YOUTH LEADERS", "designationCode": "C", "categoryCode": "21", "address": "304-20 LOWER SPADINA AVE", "city": "TORONTO", "province": "ON", "country": "CA", "postalCode": "M5V2Z1", "twitter": "None", "instagram": "None", "facebook": "None", "youtube": "None", "website": "None", "summary": "None", "logo": "None", "latitude": 43.63815740437998, "longitude": -79.39224520540697}, "886871037RR0001": {"name": "BROADMEAD CARE FOUNDATION OF BC", "designationCode": "C", "categoryCode": "19", "address": "4579 CHATTERTON WAY", "city": "VICTORIA", "province": "BC", "country": "CA", "postalCode": "V8X4Y7", "twitter": "None", "instagram": "None", "facebook": "None", "youtube": "None", "website": "None", "summary": "None", "logo": "None", "latitude": 48.49659370863177, "longitude": -123.38084454750154}, "129290383RR0001": {"name": "BROADMEAD CARE SOCIETY", "designationCode": "C", "categoryCode": "11", "address": "4579 CHATTERTON WAY", "city": "VICTORIA", "province": "BC", "country": "CA", "postalCode": "V8X4Y7", "twitter": "None", "instagram": "None", "facebook": "None", "youtube": "None", "website": "None", "summary": "None", "logo": "None", "latitude": 48.49659370863177, "longitude": -123.38084454750154}, "119288918RR1531": {"name": "BROADMEAD CONGREGATION OF JEHOVAH'S WITNESSES, VICTORIA, BR ITISH COLUMBIA", "designationCode": "C", "categoryCode": "61", "address": "1555 MOUNT DOUGLAS X ROAD", "city": "VICTORIA", "province": "BC", "country": "CA", "postalCode": "V8N1Z9", "twitter": "None", "instagram": "None", "facebook": "None", "youtube": "None", "website": "None", "summary": "None", "logo": "None", "latitude": 48.47666297759271, "longitude": -123.33899193422735}, "129349858RR0001": {"name": "BROADMOOR BAPTIST CHURCH", "designationCode": "C", "categoryCode": "31", "address": "8140 SAUNDERS ROAD", "city": "RICHMOND", "province": "BC", "country": "CA", "postalCode": "V7A2A5", "twitter": "None", "instagram": "None", "facebook": "None", "youtube": "None", "website": "None", "summary": "None", "logo": "None", "latitude": 49.14364648066852, "longitude": -123.13458}, "118819283RR0001": {"name": "BROADVIEW AND DISTRICT DONOR'S CHOICE APPEAL", "designationCode": "A", "categoryCode": "05", "address": "BOX 430", "city": "BROADVIEW", "province": "SK", "country": "CA", "postalCode": "S0G0K0", "twitter": "None", "instagram": "None", "facebook": "None", "youtube": "None", "website": "None", "summary": "None", "logo": "None", "latitude": 50.378010000000074, "longitude": -102.58020999999997}, "106812597RR0001": {"name": "BROADVIEW EVANGELICAL FREE CHURCH", "designationCode": "C", "categoryCode": "39", "address": "350-30TH ST NE", "city": "SALMON ARM", "province": "BC", "country": "CA", "postalCode": "V1E1J2", "twitter": "None", "instagram": "None", "facebook": "None", "youtube": "None", "website": "None", "summary": "None", "logo": "None", "latitude": 50.70224043080216, "longitude": -119.25043674712067}, "118819309RR0001": {"name": "BROADVIEW FAITH TEMPLE", "designationCode": "C", "categoryCode": "36", "address": "1733 INDUSTRIAL RD", "city": "CAMBRIDGE", "province": "ON", "country": "CA", "postalCode": "N3H5G7", "twitter": "None", "instagram": "None", "facebook": "None", "youtube": "None", "website": "None", "summary": "None", "logo": "None", "latitude": 43.391710874834054, "longitude": -80.32917875390994}, "118819317RR0001": {"name": "BROADVIEW FOUNDATION", "designationCode": "C", "categoryCode": "01", "address": "3555 DANFORTH AVENUE", "city": "TORONTO", "province": "ON", "country": "CA", "postalCode": "M1L1E3", "twitter": "None", "instagram": "None", "facebook": "None", "youtube": "None", "website": "None", "summary": "None", "logo": "None", "latitude": 43.694108761556, "longitude": -79.27481555508116}, "106812613RR0001": {"name": "BROADVIEW HISTORICAL AND MUSEUM ASSOCIATION", "designationCode": "C", "categoryCode": "50", "address": "PO BOX 556", "city": "BROADVIEW", "province": "SK", "country": "CA", "postalCode": "S0G0K0", "twitter": "None", "instagram": "None", "facebook": "None", "youtube": "None", "website": "None", "summary": "None", "logo": "None", "latitude": 50.378010000000074, "longitude": -102.58020999999997}, "893746578RR0001": {"name": "BROADVIEW MISSON CHURCH", "designationCode": "C", "categoryCode": "31", "address": "BOX 399", "city": "BROADVIEW", "province": "SK", "country": "CA", "postalCode": "S0G0K0", "twitter": "None", "instagram": "None", "facebook": "None", "youtube": "None", "website": "None", "summary": "None", "logo": "None", "latitude": 50.378010000000074, "longitude": -102.58020999999997}, "118819333RR0001": {"name": "BROADVIEW SENIOR CITIZENS HAPPY HOURS CLUB INC.", "designationCode": "C", "categoryCode": "56", "address": "BOX 218", "city": "BROADVIEW", "province": "SK", "country": "CA", "postalCode": "S0G0K0", "twitter": "None", "instagram": "None", "facebook": "None", "youtube": "None", "website": "None", "summary": "None", "logo": "None", "latitude": 50.378010000000074, "longitude": -102.58020999999997}, "894945633RR0069": {"name": "BROADVIEW VIETNAMESE EVANGELICAL CHURCH OF THE CHRISTIAN & MISSIONARY ALLIANCE IN CANADA", "designationCode": "C", "categoryCode": "39", "address": "1167 QUEEN STREET EAST        APT 501", "city": "TORONTO", "province": "ON", "country": "CA", "postalCode": "M4M1L5", "twitter": "None", "instagram": "None", "facebook": "None", "youtube": "None", "website": "None", "summary": "None", "logo": "None", "latitude": 43.662615853165306, "longitude": -79.3329243373536}, "869296327RR0001": {"name": "BROADWAY COMMUNITY OF HOPE SOCIETY", "designationCode": "C", "categoryCode": "09", "address": "535 EAST BROADWAY", "city": "VANCOUVER", "province": "BC", "country": "CA", "postalCode": "V5T1X4", "twitter": "None", "instagram": "None", "facebook": "None", "youtube": "None", "website": "None", "summary": "None", "logo": "None", "latitude": 49.26256202571422, "longitude": -123.09228168582032}, "119288918RR0333": {"name": "BROADWAY CONGREGATION OF JEHOVAH'S WITNESSES, WELLAND, ONTARIO", "designationCode": "C", "categoryCode": "61", "address": "390 CLARE AVE", "city": "WELLAND", "province": "ON", "country": "CA", "postalCode": "L3C3B3", "twitter": "None", "instagram": "None", "facebook": "None", "youtube": "None", "website": "None", "summary": "None", "logo": "None", "latitude": 42.9934854970858, "longitude": -79.280175407958}, "108042060RR0001": {"name": "BROADWAY DISCIPLES UNITED CHURCH", "designationCode": "C", "categoryCode": "44", "address": "396 BROADWAY AVENUE", "city": "WINNIPEG", "province": "MB", "country": "CA", "postalCode": "R3C0V6", "twitter": "None", "instagram": "None", "facebook": "None", "youtube": "None", "website": "None", "summary": "None", "logo": "None", "latitude": 49.88640476545115, "longitude": -97.14513477517464}, "118819358RR0001": {"name": "BROADWAY FIRST BAPTIST CHURCH INC.", "designationCode": "C", "categoryCode": "31", "address": "790 HONEYMAN AVE", "city": "WINNIPEG", "province": "MB", "country": "CA", "postalCode": "R3G0Y1", "twitter": "None", "instagram": "None", "facebook": "None", "youtube": "None", "website": "None", "summary": "None", "logo": "None", "latitude": 49.88539191476733, "longitude": -97.16414336759202}, "865090237RR0001": {"name": "BROADWAY MENNONITE BRETHREN CHURCH", "designationCode": "C", "categoryCode": "34", "address": "46611 MAPLE AVENUE", "city": "CHILLIWACK", "province": "BC", "country": "CA", "postalCode": "V2P2K3", "twitter": "None", "instagram": "None", "facebook": "None", "youtube": "None", "website": "None", "summary": "None", "logo": "None", "latitude": 49.17278983445368, "longitude": -121.93491552088747}, "100655810RR0001": {"name": "BROADWAY NEIGHBOURHOOD CENTRE INC.", "designationCode": "C", "categoryCode": "56", "address": "185 YOUNG ST", "city": "WINNIPEG", "province": "MB", "country": "CA", "postalCode": "R3C1Y8", "twitter": "None", "instagram": "None", "facebook": "None", "youtube": "None", "website": "None", "summary": "None", "logo": "None", "latitude": 49.88494699417163, "longitude": -97.15544039381973}, "118819366RR0001": {"name": "BROADWAY PENTECOSTAL BENEVOLENT ASSOCIATION OF BRITISH COLUMBIA", "designationCode": "C", "categoryCode": "01", "address": "2700 EAST BROADWAY", "city": "VANCOUVER", "province": "BC", "country": "CA", "postalCode": "V5M1Y8", "twitter": "None", "instagram": "None", "facebook": "None", "youtube": "None", "website": "None", "summary": "None", "logo": "None", "latitude": 49.261982548907014, "longitude": -123.04891171870852}, "118819374RR0001": {"name": "BROADWAY PENTECOSTAL CARE ASSOCIATION", "designationCode": "C", "categoryCode": "10", "address": "1377 LAMEYS MILL ROAD", "city": "VANCOUVER", "province": "BC", "country": "CA", "postalCode": "V6H3S9", "twitter": "None", "instagram": "None", "facebook": "None", "youtube": "None", "website": "None", "summary": "None", "logo": "None", "latitude": 49.267292070229026, "longitude": -123.13442644517865}, "106812811RR0001": {"name": "BROADWAY PENTECOSTAL CHURCH", "designationCode": "C", "categoryCode": "36", "address": "2700 EAST  BROADWAY", "city": "VANCOUVER", "province": "BC", "country": "CA", "postalCode": "V5M1Y8", "twitter": "None", "instagram": "None", "facebook": "None", "youtube": "None", "website": "None", "summary": "None", "logo": "None", "latitude": 49.261982548907014, "longitude": -123.04891171870852}, "835478405RR0001": {"name": "BROADWAY PENTECOSTAL CHURCH OF ORANGEVILLE", "designationCode": "C", "categoryCode": "36", "address": "PO BOX 40041                  489 BROADWAY AVE", "city": "ORANGEVILLE", "province": "ON", "country": "CA", "postalCode": "L9W0A7", "twitter": "None", "instagram": "None", "facebook": "None", "youtube": "None", "website": "None", "summary": "None", "logo": "None", "latitude": 43.91279615786851, "longitude": -80.1273762073595}, "136201977RR0001": {"name": "BROADWAY SENIORS RESOURCE COUNCIL INC", "designationCode": "C", "categoryCode": "59", "address": "319-691 WOLSELEY AVE", "city": "WINNIPEG", "province": "MB", "country": "CA", "postalCode": "R3G1C3", "twitter": "None", "instagram": "None", "facebook": "None", "youtube": "None", "website": "None", "summary": "None", "logo": "None", "latitude": 49.880317493219316, "longitude": -97.16011260782504}, "118819416RR0001": {"name": "BROADWAY UNITED CHURCH", "designationCode": "C", "categoryCode": "44", "address": "105 BROADWAY AVENUE", "city": "REGINA", "province": "SK", "country": "CA", "postalCode": "S4V1B2", "twitter": "None", "instagram": "None", "facebook": "None", "youtube": "None", "website": "None", "summary": "None", "logo": "None", "latitude": 50.43765654674263, "longitude": -104.58254152553522}, "890920846RR0001": {"name": "BROADWAY UNITED CHURCH,", "designationCode": "C", "categoryCode": "44", "address": "1303 BROADMORE AVE", "city": "THUNDER", "province": "ON", "country": "CA", "postalCode": "P7E2Y8", "twitter": "None", "instagram": "None", "facebook": "None", "youtube": "None", "website": "None", "summary": "None", "logo": "None", "latitude": 48.36704399999999, "longitude": -89.29370483446807}, "118819440RR0001": {"name": "BROCK AND DISTRICT DONORS CHOICE", "designationCode": "A", "categoryCode": "05", "address": "SEC TREAS                     BOX 156", "city": "BROCK", "province": "SK", "country": "CA", "postalCode": "S0L0H0", "twitter": "None", "instagram": "None", "facebook": "None", "youtube": "None", "website": "None", "summary": "None", "logo": "None", "latitude": 51.44267400000005, "longitude": -108.72280249999993}, "118819465RR0001": {"name": "BROCK CEMETERY ASSOCIATION", "designationCode": "C", "categoryCode": "59", "address": "PO BOX 178", "city": "BROCK", "province": "SK", "country": "CA", "postalCode": "S0L0H0", "twitter": "None", "instagram": "None", "facebook": "None", "youtube": "None", "website": "None", "summary": "None", "logo": "None", "latitude": 51.43341000000004, "longitude": -108.71813999999995}, "868539909RR0001": {"name": "BROCK CORYDON SCHOOL PARENT ADVISORY COUNCIL INC.", "designationCode": "C", "categoryCode": "21", "address": "1510 CORYDON AVENUE", "city": "WINNIPEG", "province": "MB", "country": "CA", "postalCode": "R3N0J6", "twitter": "None", "instagram": "None", "facebook": "None", "youtube": "None", "website": "None", "summary": "None", "logo": "None", "latitude": 49.86337749841346, "longitude": -97.18860115903972}, "131801623RR0001": {"name": "BROCK EARLY LEARNING CENTRE", "designationCode": "C", "categoryCode": "01", "address": "93 MARGUERETTA ST", "city": "TORONTO", "province": "ON", "country": "CA", "postalCode": "M6H3S4", "twitter": "None", "instagram": "None", "facebook": "None", "youtube": "None", "website": "None", "summary": "None", "logo": "None", "latitude": 43.652984835420355, "longitude": -79.438108858561}, "106812936RR0001": {"name": "BROCK HOUSE SOCIETY", "designationCode": "C", "categoryCode": "56", "address": "3875 POINT GREY RD", "city": "VANCOUVER", "province": "BC", "country": "CA", "postalCode": "V6R1B3", "twitter": "None", "instagram": "None", "facebook": "None", "youtube": "None", "website": "None", "summary": "None", "logo": "None", "latitude": 49.27133404195252, "longitude": -123.19062093883066}, "118819531RR0001": {"name": "BROCK UNIVERSITY", "designationCode": "C", "categoryCode": "20", "address": "1812 SIR ISAAC BROCK WAY", "city": "ST CATHARINES", "province": "ON", "country": "CA", "postalCode": "L2S3A1", "twitter": "None", "instagram": "None", "facebook": "None", "youtube": "None", "website": "None", "summary": "None", "logo": "None", "latitude": 43.11743516514094, "longitude": -79.24258261006602}, "118819549RR0001": {"name": "BROCK UNIVERSITY ECUMENICAL CHAPLAINCY", "designationCode": "C", "categoryCode": "30", "address": "1812 SIR ISAAC BROCK WAY", "city": "ST CATHARINES", "province": "ON", "country": "CA", "postalCode": "L2S3A1", "twitter": "None", "instagram": "None", "facebook": "None", "youtube": "None", "website": "None", "summary": "None", "logo": "None", "latitude": 43.11743516514094, "longitude": -79.24258261006602}, "860870534RR0001": {"name": "BROCK YOUTH CENTRE", "designationCode": "C", "categoryCode": "01", "address": "P.O. BOX 607", "city": "CANNINGTON", "province": "ON", "country": "CA", "postalCode": "L0E1E0", "twitter": "None", "instagram": "None", "facebook": "None", "youtube": "None", "website": "None", "summary": "None", "logo": "None", "latitude": 44.350370000000055, "longitude": -79.03788999999995}, "119288918RR0445": {"name": "BROCKLEHURST CONGREGATION OF JEHOVAH'S WITNESSES", "designationCode": "C", "categoryCode": "61", "address": "672 HARRINGTON RD", "city": "KAMLOOPS", "province": "BC", "country": "CA", "postalCode": "V2B6T7", "twitter": "None", "instagram": "None", "facebook": "None", "youtube": "None", "website": "None", "summary": "None", "logo": "None", "latitude": 50.77553648211082, "longitude": -120.33535041618097}, "864336342RR0001": {"name": "BROCKTON PREPARATORY SCHOOL SOCIETY", "designationCode": "C", "categoryCode": "20", "address": "3467 DUVAL RD", "city": "NORTH VANCOUVER", "province": "BC", "country": "CA", "postalCode": "V7J3E8", "twitter": "None", "instagram": "None", "facebook": "None", "youtube": "None", "website": "None", "summary": "None", "logo": "None", "latitude": 49.340416429395596, "longitude": -123.02224308840573}, "130358054RR0001": {"name": "BROCKVIEW BIBLE CHAPEL", "designationCode": "C", "categoryCode": "39", "address": "2 WESTBURY DR", "city": "ST CATHARINES", "province": "ON", "country": "CA", "postalCode": "L2S3V2", "twitter": "None", "instagram": "None", "facebook": "None", "youtube": "None", "website": "None", "summary": "None", "logo": "None", "latitude": 43.14174395337295, "longitude": -79.27125638631792}, "106813108RR0001": {"name": "BROCKVILLE & AREA COMMUNITY LIVING ASSOCIATION", "designationCode": "C", "categoryCode": "11", "address": "100-6 GLENN WOOD PLACE", "city": "BROCKVILLE", "province": "ON", "country": "CA", "postalCode": "K6V2T3", "twitter": "None", "instagram": "None", "facebook": "None", "youtube": "None", "website": "None", "summary": "None", "logo": "None", "latitude": 44.604715859310794, "longitude": -75.68451155202274}, "118819564RR0001": {"name": "BROCKVILLE AND AREA CENTRE FOR DEVELOPMENTALLY HANDICAPPED PERSONS INC.", "designationCode": "C", "categoryCode": "11", "address": "PO BOX 1688", "city": "BROCKVILLE", "province": "ON", "country": "CA", "postalCode": "K6V6K8", "twitter": "None", "instagram": "None", "facebook": "None", "youtube": "None", "website": "None", "summary": "None", "logo": "None", "latitude": 44.59037100000006, "longitude": -75.68301049999994}, "106813173RR0001": {"name": "BROCKVILLE AND DISTRICT ASSOCIATION FOR COMMUNITY INVOLVEMENT", "designationCode": "C", "categoryCode": "11", "address": "2495 PARKDALE AVE             UNIT 4", "city": "BROCKVILLE", "province": "ON", "country": "CA", "postalCode": "K6V3H2", "twitter": "None", "instagram": "None", "facebook": "None", "youtube": "None", "website": "None", "summary": "None", "logo": "None", "latitude": 44.602204820964985, "longitude": -75.70307806561274}, "130498728RR0001": {"name": "BROCKVILLE AND DISTRICT HOSPITAL FOUNDATION", "designationCode": "A", "categoryCode": "13", "address": "75 CHARLES ST", "city": "BROCKVILLE", "province": "ON", "country": "CA", "postalCode": "K6V1S8", "twitter": "None", "instagram": "None", "facebook": "None", "youtube": "None", "website": "None", "summary": "None", "logo": "None"}, "106813124RR0001": {"name": "BROCKVILLE BIBLE COLLEGE", "designationCode": "C", "categoryCode": "20", "address": "3545 CENTENNIAL ROAD          RR#2", "city": "LYN", "province": "ON", "country": "CA", "postalCode": "K0E1M0", "twitter": "None", "instagram": "None", "facebook": "None", "youtube": "None", "website": "None", "summary": "None", "logo": "None", "latitude": 44.44785407227281, "longitude": -76.0020122734823}, "118819622RR0001": {"name": "BROCKVILLE CONCERT ASSOCIATION", "designationCode": "C", "categoryCode": "22", "address": "PO BOX 326", "city": "BROCKVILLE", "province": "ON", "country": "CA", "postalCode": "K6V5V5", "twitter": "None", "instagram": "None", "facebook": "None", "youtube": "None", "website": "None", "summary": "None", "logo": "None", "latitude": 44.59037100000006, "longitude": -75.68301049999994}, "118819655RR0001": {"name": "BROCKVILLE GENERAL HOSPITAL", "designationCode": "C", "categoryCode": "10", "address": "75 CHARLES ST", "city": "BROCKVILLE", "province": "ON", "country": "CA", "postalCode": "K6V1S8", "twitter": "None", "instagram": "None", "facebook": "None", "youtube": "None", "website": "None", "summary": "None", "logo": "None", "latitude": 44.59782469911813, "longitude": -75.682062}, "122860992RR0001": {"name": "BROCKVILLE GENERAL VOLUNTEER ASSOCIATION", "designationCode": "C", "categoryCode": "19", "address": "75 CHARLES ST", "city": "BROCKVILLE", "province": "ON", "country": "CA", "postalCode": "K6V1S8", "twitter": "None", "instagram": "None", "facebook": "None", "youtube": "None", "website": "None", "summary": "None", "logo": "None", "latitude": 44.59782469911813, "longitude": -75.682062}, "119217420RR0001": {"name": "BROCKVILLE OPERATIC SOCIETY INC", "designationCode": "C", "categoryCode": "22", "address": "PO BOX 1372", "city": "BROCKVILLE", "province": "ON", "country": "CA", "postalCode": "K6V5Y6", "twitter": "None", "instagram": "None", "facebook": "None", "youtube": "None", "website": "None", "summary": "None", "logo": "None", "latitude": 44.59037100000006, "longitude": -75.68301049999994}, "106813215RR0001": {"name": "BROCKVILLE PENTECOSTAL TABERNACLE", "designationCode": "C", "categoryCode": "36", "address": "PO BOX 651", "city": "BROCKVILLE", "province": "ON", "country": "CA", "postalCode": "K6V5V8", "twitter": "None", "instagram": "None", "facebook": "None", "youtube": "None", "website": "None", "summary": "None", "logo": "None", "latitude": 44.59037100000006, "longitude": -75.68301049999994}, "129987822RR0001": {"name": "BROCKVILLE PUBLIC LIBRARY", "designationCode": "C", "categoryCode": "50", "address": "23 BUELL ST                   P.O. BOX 100", "city": "BROCKVILLE", "province": "ON", "country": "CA", "postalCode": "K6V5T7", "twitter": "None", "instagram": "None", "facebook": "None", "youtube": "None", "website": "None", "summary": "None", "logo": "None", "latitude": 44.589362956958816, "longitude": -75.68669644765721}, "892964834RR0001": {"name": "BROCKVILLE RIFLES REGIMENTAL SOCIETY", "designationCode": "C", "categoryCode": "51", "address": "1302 PEDEN BLVD", "city": "BROCKVILLE", "province": "ON", "country": "CA", "postalCode": "K6V5Y5", "twitter": "None", "instagram": "None", "facebook": "None", "youtube": "None", "website": "None", "summary": "None", "logo": "None", "latitude": 44.606987015811704, "longitude": -75.71070894589978}, "118819697RR0001": {"name": "BROCKVILLE SENIOR CITIZENS INC.", "designationCode": "C", "categoryCode": "09", "address": "15 ELM AVE", "city": "BROCKVILLE", "province": "ON", "country": "CA", "postalCode": "K6V2M3", "twitter": "None", "instagram": "None", "facebook": "None", "youtube": "None", "website": "None", "summary": "None", "logo": "None", "latitude": 44.60517942881868, "longitude": -75.6903483667553}, "107797383RR0016": {"name": "BROCKVILLE SEVENTH-DAY ADVENTIST CHURCH", "designationCode": "C", "categoryCode": "41", "address": "BOX 794  STATION MAIN", "city": "BROCKVILLE", "province": "ON", "country": "CA", "postalCode": "K6V5W1", "twitter": "None", "instagram": "None", "facebook": "None", "youtube": "None", "website": "None", "summary": "None", "logo": "None", "latitude": 44.59037100000006, "longitude": -75.68301049999994}, "106813264RR0001": {"name": "BROCKVILLE WESLEYAN CHURCH", "designationCode": "C", "categoryCode": "39", "address": "33 CENTRAL AVE W", "city": "BROCKVILLE", "province": "ON", "country": "CA", "postalCode": "K6V4N4", "twitter": "None", "instagram": "None", "facebook": "None", "youtube": "None", "website": "None", "summary": "None", "logo": "None", "latitude": 44.597962493000715, "longitude": -75.69648223950108}, "890929243RR0001": {"name": "BROCKVILLE WOMEN'S NETWORK EDUCATION AWARDS TRUST FUND", "designationCode": "C", "categoryCode": "21", "address": "41 WALL ST", "city": "BROCKVILLE", "province": "ON", "country": "CA", "postalCode": "K6V4S2", "twitter": "None", "instagram": "None", "facebook": "None", "youtube": "None", "website": "None", "summary": "None", "logo": "None", "latitude": 44.59200535665642, "longitude": -75.68626020800404}, "118819747RR0001": {"name": "BROCKVILLE YOUNG MEN'S CHRISTIAN ASSOCIATION", "designationCode": "C", "categoryCode": "49", "address": "345 PARK STREET", "city": "BROCKVILLE", "province": "ON", "country": "CA", "postalCode": "K6V5Y7", "twitter": "None", "instagram": "None", "facebook": "None", "youtube": "None", "website": "None", "summary": "None", "logo": "None", "latitude": 44.602990762161575, "longitude": -75.6914362582091}, "861819878RR0001": {"name": "BROCKWAY UNION CHURCH", "designationCode": "C", "categoryCode": "39", "address": "56 REYNOLDS RD", "city": "HARVEY YORK CO", "province": "NB", "country": "CA", "postalCode": "E6K1W2", "twitter": "None", "instagram": "None", "facebook": "None", "youtube": "None", "website": "None", "summary": "None", "logo": "None", "latitude": 45.65898877456907, "longitude": -67.1406165215837}, "890325525RR0001": {"name": "BROKEN WALLS MINISTRIES", "designationCode": "C", "categoryCode": "43", "address": "RR#1 BAYSHORE RD", "city": "TYENDINAGA TERRITORY", "province": "ON", "country": "CA", "postalCode": "K0K1X0", "twitter": "None", "instagram": "None", "facebook": "None", "youtube": "None", "website": "None", "summary": "None", "logo": "None", "latitude": 44.17965961608072, "longitude": -77.0867133651915}, "872877154RR0001": {"name": "BROKEN WINGS MISSIONS INC", "designationCode": "C", "categoryCode": "09", "address": "30 DISCOVERY RIDGE CLOSE SW   APT 507", "city": "CALGARY", "province": "AB", "country": "CA", "postalCode": "T3H5X5", "twitter": "None", "instagram": "None", "facebook": "None", "youtube": "None", "website": "None", "summary": "None", "logo": "None", "latitude": 51.01301419069178, "longitude": -114.21371374242607}, "854859493RR0001": {"name": "BROKEN-BEAU HISTORICAL SOCIETY/PIONEER VILLAGE MUSEUMINC.", "designationCode": "C", "categoryCode": "50", "address": "P O BOX 310", "city": "BEAUSEJOUR", "province": "MB", "country": "CA", "postalCode": "R0E0C0", "twitter": "None", "instagram": "None", "facebook": "None", "youtube": "None", "website": "None", "summary": "None", "logo": "None", "latitude": 50.061750000000075, "longitude": -96.50519999999995}, "862009156RR0001": {"name": "BROKENHEAD OUTREACH FOR SENIORS INC.", "designationCode": "C", "categoryCode": "09", "address": "BOX 483                       606 JAMES AVE.", "city": "BEAUSEJOUR", "province": "MB", "country": "CA", "postalCode": "R0E0C0", "twitter": "None", "instagram": "None", "facebook": "None", "youtube": "None", "website": "None", "summary": "None", "logo": "None", "latitude": 50.05428252899769, "longitude": -96.515703}, "869509240RR0001": {"name": "BROKENHEAD RIVER COMMUNITY FOUNDATION INC", "designationCode": "A", "categoryCode": "59", "address": "BOX 2225", "city": "BEAUSEJOUR", "province": "MB", "country": "CA", "postalCode": "R0E0C0", "twitter": "None", "instagram": "None", "facebook": "None", "youtube": "None", "website": "None", "summary": "None", "logo": "None", "latitude": 50.061750000000075, "longitude": -96.50519999999995}, "106813389RR0001": {"name": "BROKENHEAD RIVER REGIONAL LIBRARY", "designationCode": "C", "categoryCode": "50", "address": "BOX 1087", "city": "BEAUSEJOUR", "province": "MB", "country": "CA", "postalCode": "R0E0C0", "twitter": "None", "instagram": "None", "facebook": "None", "youtube": "None", "website": "None", "summary": "None", "logo": "None", "latitude": 50.061750000000075, "longitude": -96.50519999999995}, "885009449RR0001": {"name": "BROME BEAUX ARTS", "designationCode": "B", "categoryCode": "22", "address": "1900-800 RENE-LEVESQUE BLVD W ERNST & YOUNG, LLP", "city": "MONTREAL", "province": "QC", "country": "CA", "postalCode": "H3B1X9", "twitter": "None", "instagram": "None", "facebook": "None", "youtube": "None", "website": "None", "summary": "None", "logo": "None", "latitude": 45.49744486644421, "longitude": -73.57162648433885}, "118819770RR0001": {"name": "BROME COUNTY HISTORICAL SOCIETY INC.", "designationCode": "C", "categoryCode": "50", "address": "130 LAKESIDE", "city": "KNOWLTON", "province": "QC", "country": "CA", "postalCode": "J0E1V0", "twitter": "None", "instagram": "None", "facebook": "None", "youtube": "None", "website": "None", "summary": "None", "logo": "None", "latitude": 45.21951472632592, "longitude": -72.50860561417302}, "118819796RR0001": {"name": "BROME LAKE LAND FOUNDATION INC./FONDATION DES TERRES DU LAC BROME INC.", "designationCode": "C", "categoryCode": "52", "address": "127 RUE PRINCIPALE, SUITE 105", "city": "COWANSVILLE", "province": "QC", "country": "CA", "postalCode": "J2K1J3", "twitter": "None", "instagram": "None", "facebook": "None", "youtube": "None", "website": "None", "summary": "None", "logo": "None", "latitude": 45.20770304527071, "longitude": -72.74698908133753}, "895280477RR0001": {"name": "BROME-MISSISQUOI-PERKINS HOSPITAL FOUNDATION/FONDATION DE L'HOPITAL BROME-MISSISQUOI-PERKINS", "designationCode": "A", "categoryCode": "13", "address": "950 RUE PRINCIPALE", "city": "COWANSVILLE", "province": "QC", "country": "CA", "postalCode": "J2K1K3", "twitter": "None", "instagram": "None", "facebook": "None", "youtube": "None", "website": "None", "summary": "None", "logo": "None", "latitude": 45.20788259276408, "longitude": -72.71425286485072}, "882817604RR0001": {"name": "BROMLEY HISTORICAL SOCIETY", "designationCode": "C", "categoryCode": "50", "address": "327 MICKSBURG ROAD RR 5", "city": "COBDEN", "province": "ON", "country": "CA", "postalCode": "K0J1K0", "twitter": "None", "instagram": "None", "facebook": "None", "youtube": "None", "website": "None", "summary": "None", "logo": "None", "latitude": 45.617402391309575, "longitude": -76.93616208165464}, "805943552RR0001": {"name": "BROMLEY ROAD BAPTIST CHURCH", "designationCode": "C", "categoryCode": "31", "address": "1900 LAUDER DR", "city": "OTTAWA", "province": "ON", "country": "CA", "postalCode": "K2A1B1", "twitter": "None", "instagram": "None", "facebook": "None", "youtube": "None", "website": "None", "summary": "None", "logo": "None", "latitude": 45.376200944197684, "longitude": -75.7603451740147}, "876904921RR0001": {"name": "BRONSON CENTRE INC.", "designationCode": "C", "categoryCode": "55", "address": "211 BRONSON AVENUE", "city": "OTTAWA", "province": "ON", "country": "CA", "postalCode": "K1R6H5", "twitter": "None", "instagram": "None", "facebook": "None", "youtube": "None", "website": "None", "summary": "None", "logo": "None", "latitude": 45.41349725618897, "longitude": -75.7068905103587}, "107797383RR0092": {"name": "BRONTE SEVENTH-DAY ADVENTIST CHURCH", "designationCode": "C", "categoryCode": "41", "address": "2031 BRONTE RD", "city": "OAKVILLE", "province": "ON", "country": "CA", "postalCode": "L6M4J5", "twitter": "None", "instagram": "None", "facebook": "None", "youtube": "None", "website": "None", "summary": "None", "logo": "None", "latitude": 43.423582713312825, "longitude": -79.75958407464377}, "118819846RR0001": {"name": "BROOKDALE UNITED CHURCH OF CANADA", "designationCode": "C", "categoryCode": "44", "address": "PO BOX 14", "city": "BROOKDALE", "province": "MB", "country": "CA", "postalCode": "R0K0G0", "twitter": "None", "instagram": "None", "facebook": "None", "youtube": "None", "website": "None", "summary": "None", "logo": "None", "latitude": 50.047782000000055, "longitude": -99.56469049999994}, "869880559RR0001": {"name": "BROOKE N WADE CHARITABLE FOUNDATION", "designationCode": "B", "categoryCode": "03", "address": "SUITE 500-1195 WEST BROADWAY", "city": "VANCOUVER", "province": "BC", "country": "CA", "postalCode": "V6H3X5", "twitter": "None", "instagram": "None", "facebook": "None", "youtube": "None", "website": "None", "summary": "None", "logo": "None", "latitude": 49.26348650432782, "longitude": -123.1310115}, "106813660RR0001": {"name": "BROOKE VALLEY SCHOOL FOUNDATION", "designationCode": "C", "categoryCode": "20", "address": "190 SEABORN LANE", "city": "PERTH", "province": "ON", "country": "CA", "postalCode": "K7H3C6", "twitter": "None", "instagram": "None", "facebook": "None", "youtube": "None", "website": "None", "summary": "None", "logo": "None", "latitude": 44.83470653646802, "longitude": -76.43550526747522}, "118819861RR0001": {"name": "BROOKER BAPTIST CHURCH", "designationCode": "C", "categoryCode": "31", "address": "269 E CTY RD 27               R.R. #1", "city": "COTTAM", "province": "ON", "country": "CA", "postalCode": "N0R1B0", "twitter": "None", "instagram": "None", "facebook": "None", "youtube": "None", "website": "None", "summary": "None", "logo": "None", "latitude": 42.11670855843179, "longitude": -82.80043501419559}, "134545896RR0001": {"name": "BROOKFIELD PASTORAL CHARGE", "designationCode": "C", "categoryCode": "44", "address": "3686 HWY 289", "city": "BROOKFIELD", "province": "NS", "country": "CA", "postalCode": "B0N1C0", "twitter": "None", "instagram": "None", "facebook": "None", "youtube": "None", "website": "None", "summary": "None", "logo": "None", "latitude": 45.25477861754059, "longitude": -63.274957519396864}, "118819895RR0001": {"name": "BROOKFIELD PRESBYTERIAN CHURCH", "designationCode": "C", "categoryCode": "37", "address": "RR#4", "city": "NORTH WILTSHIRE", "province": "PE", "country": "CA", "postalCode": "C0A1Y0", "twitter": "None", "instagram": "None", "facebook": "None", "youtube": "None", "website": "None", "summary": "None", "logo": "None", "latitude": 46.30209000000008, "longitude": -63.33499999999998}, "887691624RR0001": {"name": "BROOKFIELD RAILWAY STATION AND HERITAGE SOCIETY", "designationCode": "C", "categoryCode": "52", "address": "160 BURROWS DRIVE", "city": "BROOKFIELD", "province": "NS", "country": "CA", "postalCode": "B0N1C0", "twitter": "None", "instagram": "None", "facebook": "None", "youtube": "None", "website": "None", "summary": "None", "logo": "None", "latitude": 45.26069125561204, "longitude": -63.255556640630935}, "106813678RR0001": {"name": "BROOKFIELD UNITED BAPTIST CHURCH", "designationCode": "C", "categoryCode": "31", "address": "2574 PLEASANT VALLEY RD       RR 2", "city": "BROOKFIELD", "province": "NS", "country": "CA", "postalCode": "B0N1C0", "twitter": "None", "instagram": "None", "facebook": "None", "youtube": "None", "website": "None", "summary": "None", "logo": "None", "latitude": 45.244373298387885, "longitude": -63.42245884720125}, "124406240RR0001": {"name": "BROOKLANDS DAY CARE CENTRE INCORPORATED", "designationCode": "C", "categoryCode": "01", "address": "1950 PACIFIC AVE", "city": "WINNIPEG", "province": "MB", "country": "CA", "postalCode": "R2R0G4", "twitter": "None", "instagram": "None", "facebook": "None", "youtube": "None", "website": "None", "summary": "None", "logo": "None", "latitude": 49.9222319470222, "longitude": -97.20317996482736}, "879352607RR0001": {"name": "BROOKLANDS WESTON MCC COMMUNITY ASSISTANCE CENTRE INC.", "designationCode": "A", "categoryCode": "03", "address": "18 KEEWATIN ST", "city": "WINNIPEG", "province": "MB", "country": "CA", "postalCode": "R3E3B9", "twitter": "None", "instagram": "None", "facebook": "None", "youtube": "None", "website": "None", "summary": "None", "logo": "None", "latitude": 49.9176616588955, "longitude": -97.19525511728877}, "877954834RR0001": {"name": "BROOKLANDS YOUTH AND COMMUNITY ASSOCIATION, INC.", "designationCode": "C", "categoryCode": "59", "address": "1968 PACIFIC AVE W", "city": "WINNIPEG", "province": "MB", "country": "CA", "postalCode": "R2R0G4", "twitter": "None", "instagram": "None", "facebook": "None", "youtube": "None", "website": "None", "summary": "None", "logo": "None", "latitude": 49.92244904244344, "longitude": -97.20367159008009}, "106813777RR0001": {"name": "BROOKLIN UNITED CHURCH", "designationCode": "C", "categoryCode": "44", "address": "19 CASSELS RD. E.", "city": "BROOKLIN", "province": "ON", "country": "CA", "postalCode": "L1M1A4", "twitter": "None", "instagram": "None", "facebook": "None", "youtube": "None", "website": "None", "summary": "None", "logo": "None", "latitude": 43.95630095141105, "longitude": -78.95952345822039}, "857718084RR0001": {"name": "BROOKLIN VILLAGE CHURCH", "designationCode": "C", "categoryCode": "36", "address": "P.O. BOX 610                  STATION BROOKLIN", "city": "WHITBY", "province": "ON", "country": "CA", "postalCode": "L1M1B5", "twitter": "None", "instagram": "None", "facebook": "None", "youtube": "None", "website": "None", "summary": "None", "logo": "None", "latitude": 43.899513000000056, "longitude": -78.94125349999993}, "892534363RR0001": {"name": "BROOKLYN CEMETERY COMMITTEE", "designationCode": "C", "categoryCode": "59", "address": "PO BOX 66", "city": "BROOKLYN", "province": "NS", "country": "CA", "postalCode": "B0J1H0", "twitter": "None", "instagram": "None", "facebook": "None", "youtube": "None", "website": "None", "summary": "None", "logo": "None", "latitude": 44.05668000000003, "longitude": -64.68722999999994}, "888927860RR0001": {"name": "BROOKLYN CEMETERY COMPANY", "designationCode": "C", "categoryCode": "59", "address": "507 BROOKLYN RD", "city": "BROOKLYN.", "province": "NS", "country": "CA", "postalCode": "B5A5H5", "twitter": "None", "instagram": "None", "facebook": "None", "youtube": "None", "website": "None", "summary": "None", "logo": "None", "latitude": 43.85899171466915, "longitude": -66.09855919245214}, "889874244RR0001": {"name": "BROOKLYN CEMETERY IMPROVEMENT FUND", "designationCode": "C", "categoryCode": "59", "address": "2688 BROOKLYN RD              RR#1", "city": "MONTAGUE", "province": "PE", "country": "CA", "postalCode": "C0A1R0", "twitter": "None", "instagram": "None", "facebook": "None", "youtube": "None", "website": "None", "summary": "None", "logo": "None", "latitude": 46.08556626340231, "longitude": -62.71309743381033}, "118819952RR0001": {"name": "BROOKLYN PASTORAL CHARGE", "designationCode": "C", "categoryCode": "44", "address": "P.O. BOX 111                  BROOKLYN", "city": "QUEENS COUNTY", "province": "NS", "country": "CA", "postalCode": "B0J1H0", "twitter": "None", "instagram": "None", "facebook": "None", "youtube": "None", "website": "None", "summary": "None", "logo": "None", "latitude": 44.05668000000003, "longitude": -64.68722999999994}, "118819960RR0001": {"name": "BROOKLYN UNITED BAPTIST CHURCH", "designationCode": "C", "categoryCode": "31", "address": "PO BOX 379", "city": "BROOKLYN", "province": "NS", "country": "CA", "postalCode": "B0J1H0", "twitter": "None", "instagram": "None", "facebook": "None", "youtube": "None", "website": "None", "summary": "None", "logo": "None", "latitude": 44.05668000000003, "longitude": -64.68722999999994}, "106813801RR0001": {"name": "BROOKLYN VOLUNTEER FIRE DEPARTMENT", "designationCode": "C", "categoryCode": "59", "address": "P O BOX 136                   995 HWY 215", "city": "NEWPORT", "province": "NS", "country": "CA", "postalCode": "B0N2A0", "twitter": "None", "instagram": "None", "facebook": "None", "youtube": "None", "website": "None", "summary": "None", "logo": "None", "latitude": 45.004315492103885, "longitude": -64.00732983284736}, "891563744RR0001": {"name": "BROOKMORN FOUNDATION", "designationCode": "A", "categoryCode": "03", "address": "6282 EMERALD LINKS DRIVE", "city": "GREELY", "province": "ON", "country": "CA", "postalCode": "K4P1M4", "twitter": "None", "instagram": "None", "facebook": "None", "youtube": "None", "website": "None", "summary": "None", "logo": "None", "latitude": 45.25704838354795, "longitude": -75.61352654221231}, "106813876RR0001": {"name": "BROOKS & DISTRICT CHILD DEVELOPMENT SOCIETY", "designationCode": "C", "categoryCode": "09", "address": "PO BOX 1749  STN MAIN", "city": "BROOKS", "province": "AB", "country": "CA", "postalCode": "T1R1C5", "twitter": "None", "instagram": "None", "facebook": "None", "youtube": "None", "website": "None", "summary": "None", "logo": "None", "latitude": 50.56584900000006, "longitude": -111.89848399999994}, "118820059RR0001": {"name": "BROOKS & DISTRICT SENIORS OUTREACH SOCIETY", "designationCode": "C", "categoryCode": "09", "address": "PO BOX 712 STN MAIN", "city": "BROOKS", "province": "AB", "country": "CA", "postalCode": "T1R1B6", "twitter": "None", "instagram": "None", "facebook": "None", "youtube": "None", "website": "None", "summary": "None", "logo": "None", "latitude": 50.56584900000006, "longitude": -111.89848399999994}, "888299427RR0001": {"name": "BROOKS & DISTRICT WOMEN'S SAFE SHELTER SOCIETY", "designationCode": "C", "categoryCode": "09", "address": "BOX 1045", "city": "BROOKS", "province": "AB", "country": "CA", "postalCode": "T1R1B8", "twitter": "None", "instagram": "None", "facebook": "None", "youtube": "None", "website": "None", "summary": "None", "logo": "None", "latitude": 50.56584900000006, "longitude": -111.89848399999994}, "136579257RR0001": {"name": "BROOKS ALBERTA CONGREGATION OF JEHOVAH'S WITNESSES", "designationCode": "C", "categoryCode": "61", "address": "1307 CENTRE ST", "city": "BROOKS", "province": "AB", "country": "CA", "postalCode": "T1R0P6", "twitter": "None", "instagram": "None", "facebook": "None", "youtube": "None", "website": "None", "summary": "None", "logo": "None", "latitude": 50.584563, "longitude": -111.89427479231307}, "106813835RR0001": {"name": "BROOKS ALLIANCE CHURCH", "designationCode": "C", "categoryCode": "39", "address": "BOX 938", "city": "BROOKS", "province": "AB", "country": "CA", "postalCode": "T1R1B8", "twitter": "None", "instagram": "None", "facebook": "None", "youtube": "None", "website": "None", "summary": "None", "logo": "None", "latitude": 50.56584900000006, "longitude": -111.89848399999994}, "889632162RR0001": {"name": "BROOKS AND DISTRICT HEALTH FOUNDATION", "designationCode": "C", "categoryCode": "15", "address": "666, 5 ST. SW.", "city": "MEDICINE HAT", "province": "AB", "country": "CA", "postalCode": "T1A4H6", "twitter": "None", "instagram": "None", "facebook": "None", "youtube": "None", "website": "None", "summary": "None", "logo": "None", "latitude": 50.03434251875456, "longitude": -110.70231202553522}, "106813884RR0001": {"name": "BROOKS AND DISTRICT MUSEUM AND HISTORICAL SOCIETY", "designationCode": "C", "categoryCode": "50", "address": "PO BOX 2078", "city": "BROOKS", "province": "AB", "country": "CA", "postalCode": "T1R1C7", "twitter": "None", "instagram": "None", "facebook": "None", "youtube": "None", "website": "None", "summary": "None", "logo": "None", "latitude": 50.56584900000006, "longitude": -111.89848399999994}, "136094885RR0001": {"name": "BROOKS CHURCH OF GOD (PENTECOSTAL)", "designationCode": "C", "categoryCode": "39", "address": "424 3 ST W", "city": "BROOKS", "province": "AB", "country": "CA", "postalCode": "T1R0E7", "twitter": "None", "instagram": "None", "facebook": "None", "youtube": "None", "website": "None", "summary": "None", "logo": "None", "latitude": 50.569992031911866, "longitude": -111.89859692114398}, "890988140RR0001": {"name": "BROOKS DISTRICT VICTIMS' ASSISTANCE ASSOCIATION", "designationCode": "C", "categoryCode": "59", "address": "310 - 4TH ST W", "city": "BROOKS", "province": "AB", "country": "CA", "postalCode": "T1R0Z7", "twitter": "None", "instagram": "None", "facebook": "None", "youtube": "None", "website": "None", "summary": "None", "logo": "None", "latitude": 50.568416777521804, "longitude": -111.90242766100708}, "118820067RR0001": {"name": "BROOKS EVANGELICAL FREE CHURCH", "designationCode": "C", "categoryCode": "39", "address": "625-8TH STREET WEST", "city": "BROOKS", "province": "AB", "country": "CA", "postalCode": "T1R0E3", "twitter": "None", "instagram": "None", "facebook": "None", "youtube": "None", "website": "None", "summary": "None", "logo": "None", "latitude": 50.57340392200936, "longitude": -111.91075524730216}}