{"118799758RR0001": {"name": "BAR RIVER UNITED CHURCH", "designationCode": "C", "categoryCode": "44", "address": "RR#4", "city": "ECHO BAY", "province": "ON", "country": "CA", "postalCode": "P0S1C0", "twitter": "None", "instagram": "None", "facebook": "None", "youtube": "None", "website": "None", "summary": "None", "logo": "None", "latitude": 46.484980000000064, "longitude": -84.07004999999998}, "862126976RR0001": {"name": "BARAKA INTERNATIONAL MINISTRIES", "designationCode": "C", "categoryCode": "47", "address": "57898 12TH LINE               RR 1", "city": "MEAFORD", "province": "ON", "country": "CA", "postalCode": "N4L1W5", "twitter": "None", "instagram": "None", "facebook": "None", "youtube": "None", "website": "None", "summary": "None", "logo": "None", "latitude": 44.57601229023654, "longitude": -80.70261749433983}, "857773709RR0001": {"name": "BARBADOS KIDS FOUNDATION", "designationCode": "C", "categoryCode": "09", "address": "500 - 1145 HUNT CLUB ROAD", "city": "OTTAWA", "province": "ON", "country": "CA", "postalCode": "K1V0Y3", "twitter": "None", "instagram": "None", "facebook": "None", "youtube": "None", "website": "None", "summary": "None", "logo": "None", "latitude": 45.35138339304035, "longitude": -75.65210229159193}, "892558081RR0001": {"name": "BARBARA ANN SCOTT-MINTO ALUMNI SCHOLARSHIP TRUST", "designationCode": "C", "categoryCode": "21", "address": "43 LANGHOLM CRESCENT", "city": "OTTAWA", "province": "ON", "country": "CA", "postalCode": "K2J1H1", "twitter": "None", "instagram": "None", "facebook": "None", "youtube": "None", "website": "None", "summary": "None", "logo": "None", "latitude": 45.28012067332223, "longitude": -75.77154774161801}, "854234481RR0001": {"name": "BARBARA TOSCZAK FOUNDATION", "designationCode": "B", "categoryCode": "03", "address": "PO 10085                      PACIFIC CENTRE", "city": "VANCOUVER", "province": "BC", "country": "CA", "postalCode": "V7Y1B6", "twitter": "None", "instagram": "None", "facebook": "None", "youtube": "None", "website": "None", "summary": "None", "logo": "None", "latitude": 49.28299000000004, "longitude": -123.11890999999997}, "118799154RR0001": {"name": "BARBER-COLLINS SECURITY SERVICES LTD. \"EMPLOYEES CHARITY TRUST\"", "designationCode": "B", "categoryCode": "75", "address": "245 LABRADOR DRIVE", "city": "WATERLOO", "province": "ON", "country": "CA", "postalCode": "N2K4M8", "twitter": "None", "instagram": "None", "facebook": "None", "youtube": "None", "website": "None", "summary": "None", "logo": "None", "latitude": 43.51339159948652, "longitude": -80.5165226159907}, "118799162RR0001": {"name": "BARBRA SCHLIFER COMMEMORATIVE CLINIC", "designationCode": "C", "categoryCode": "09", "address": "489 COLLEGE ST STE 503", "city": "TORONTO", "province": "ON", "country": "CA", "postalCode": "M6G1A5", "twitter": "None", "instagram": "None", "facebook": "None", "youtube": "None", "website": "None", "summary": "None", "logo": "None", "latitude": 43.65570522344037, "longitude": -79.40915765251886}, "119288918RR0379": {"name": "BARCELONA CONGREGATION OF JEHOVAH'S WITNESSES, TORONTO, ONTARIO", "designationCode": "C", "categoryCode": "61", "address": "BOX 4100 GEORGETOWN", "city": "HALTON HILLS", "province": "ON", "country": "CA", "postalCode": "L7G4Y4", "twitter": "None", "instagram": "None", "facebook": "None", "youtube": "None", "website": "None", "summary": "None", "logo": "None", "latitude": 43.65006000000005, "longitude": -79.89909199999994}, "118799170RR0001": {"name": "BARCO WELFARE FUND", "designationCode": "C", "categoryCode": "05", "address": "11897-103A AVENUE", "city": "SURREY", "province": "BC", "country": "CA", "postalCode": "V3V0B5", "twitter": "None", "instagram": "None", "facebook": "None", "youtube": "None", "website": "None", "summary": "None", "logo": "None", "latitude": 49.19112821371685, "longitude": -122.89409823007682}, "129644928RR0001": {"name": "BARD ON THE BEACH THEATRE SOCIETY", "designationCode": "C", "categoryCode": "22", "address": "201 - 162 1ST AVE W", "city": "VANCOUVER", "province": "BC", "country": "CA", "postalCode": "V5Y0H6", "twitter": "None", "instagram": "None", "facebook": "None", "youtube": "None", "website": "None", "summary": "None", "logo": "None", "latitude": 49.27014921211808, "longitude": -123.1083731451992}, "866262033RR0001": {"name": "BARD TO BROADWAY THEATRE SOCIETY", "designationCode": "C", "categoryCode": "22", "address": "PO BOX 427", "city": "QUALICUM BEACH", "province": "BC", "country": "CA", "postalCode": "V9K1S9", "twitter": "None", "instagram": "None", "facebook": "None", "youtube": "None", "website": "None", "summary": "None", "logo": "None", "latitude": 49.34772600000005, "longitude": -124.44434449999994}, "887891323RR0001": {"name": "BARKING SPHINX PERFORMANCE SOCIETY", "designationCode": "C", "categoryCode": "22", "address": "410-111 HASTINGS ST W", "city": "VANCOUVER", "province": "BC", "country": "CA", "postalCode": "V6B1H4", "twitter": "None", "instagram": "None", "facebook": "None", "youtube": "None", "website": "None", "summary": "None", "logo": "None", "latitude": 49.282138914441255, "longitude": -123.10753795129177}, "119025435RR0001": {"name": "BARKMAN CONCRETE FOUNDATION INC.", "designationCode": "B", "categoryCode": "03", "address": "152 BRANDT STREET", "city": "STEINBACH", "province": "MB", "country": "CA", "postalCode": "R5G0R2", "twitter": "None", "instagram": "None", "facebook": "None", "youtube": "None", "website": "None", "summary": "None", "logo": "None", "latitude": 49.519346717018955, "longitude": -96.69152128298104}, "118799212RR0001": {"name": "BARNABAS FAMILY MINISTRIES SOCIETY", "designationCode": "C", "categoryCode": "49", "address": "BOX 309", "city": "GIBSONS", "province": "BC", "country": "CA", "postalCode": "V0N1V0", "twitter": "None", "instagram": "None", "facebook": "None", "youtube": "None", "website": "None", "summary": "None", "logo": "None", "latitude": 49.40659350000001, "longitude": -123.528087}, "892143777RR0001": {"name": "BARNESVILLE PRESBYTERIAN CEMETERY", "designationCode": "C", "categoryCode": "59", "address": "1073 ROUTE 820", "city": "BARNESVILLE", "province": "NB", "country": "CA", "postalCode": "E5N3K8", "twitter": "None", "instagram": "None", "facebook": "None", "youtube": "None", "website": "None", "summary": "None", "logo": "None", "latitude": 45.42784161479766, "longitude": -65.74752219695341}, "118799238RR0001": {"name": "BARNESVILLE PRESBYTERIAN CHURCH", "designationCode": "C", "categoryCode": "37", "address": "1257 ROUTE 820", "city": "BARNESVILLE", "province": "NB", "country": "CA", "postalCode": "E5N3L6", "twitter": "None", "instagram": "None", "facebook": "None", "youtube": "None", "website": "None", "summary": "None", "logo": "None", "latitude": 45.44119986355492, "longitude": -65.73590445641797}, "107669848RR0005": {"name": "BARNESVILLE SEVENTH-DAY ADVENTIST CHURCH", "designationCode": "C", "categoryCode": "41", "address": "121 SALISBURY ROAD", "city": "MONCTON", "province": "NB", "country": "CA", "postalCode": "E1E1A6", "twitter": "None", "instagram": "None", "facebook": "None", "youtube": "None", "website": "None", "summary": "None", "logo": "None", "latitude": 46.0711640413756, "longitude": -64.82144086984238}, "118799246RR0001": {"name": "BARNEY'S RIVER AND MARSHY HOPE PRESBYTERIAN CHURCH", "designationCode": "C", "categoryCode": "37", "address": "4 CUNNINGHAM DRIVE", "city": "ANITIGONISH", "province": "NS", "country": "CA", "postalCode": "B2G1C8", "twitter": "None", "instagram": "None", "facebook": "None", "youtube": "None", "website": "None", "summary": "None", "logo": "None", "latitude": 45.629939335564586, "longitude": -62.01286927006742}, "118799253RR0001": {"name": "BARNSTON BAPTIST CHURCH", "designationCode": "C", "categoryCode": "31", "address": "509 CHILD", "city": "COATICOOK", "province": "QC", "country": "CA", "postalCode": "J1A2B9", "twitter": "None", "instagram": "None", "facebook": "None", "youtube": "None", "website": "None", "summary": "None", "logo": "None", "latitude": 45.14026304025042, "longitude": -71.80894036438937}, "889229175RR0001": {"name": "BARNSTON HERITAGE CEMETERY ASSOCIATION INC", "designationCode": "C", "categoryCode": "52", "address": "288 COREY RD", "city": "AYER'S CLIFF", "province": "QC", "country": "CA", "postalCode": "J0B1C0", "twitter": "None", "instagram": "None", "facebook": "None", "youtube": "None", "website": "None", "summary": "None", "logo": "None", "latitude": 45.17168100000005, "longitude": -72.04329799999994}, "118799279RR0001": {"name": "BARON DE HIRSCH HEBREW BENEVOLENT SOCIETY", "designationCode": "C", "categoryCode": "42", "address": "1480 OXFORD STREET", "city": "HALIFAX", "province": "NS", "country": "CA", "postalCode": "B3H3Y8", "twitter": "None", "instagram": "None", "facebook": "None", "youtube": "None", "website": "None", "summary": "None", "logo": "None", "latitude": 44.63717021842006, "longitude": -63.59651251572479}, "888375417RR0001": {"name": "BARONS & DISTRICT HISTORICAL SOCIETY", "designationCode": "C", "categoryCode": "50", "address": "P. O. BOX 4", "city": "BARONS", "province": "AB", "country": "CA", "postalCode": "T0L0G0", "twitter": "None", "instagram": "None", "facebook": "None", "youtube": "None", "website": "None", "summary": "None", "logo": "None", "latitude": 49.88365833148781, "longitude": -113.05558060463129}, "118799287RR0001": {"name": "BARONS MEMORIAL UNITED CHURCH", "designationCode": "C", "categoryCode": "44", "address": "PO BOX 957", "city": "PICTURE BUTTE", "province": "AB", "country": "CA", "postalCode": "T0K1V0", "twitter": "None", "instagram": "None", "facebook": "None", "youtube": "None", "website": "None", "summary": "None", "logo": "None", "latitude": 49.87851001832194, "longitude": -112.77815001110848}, "893713800RR0001": {"name": "BARONY CEMETERY ASSOCIATION INC.", "designationCode": "C", "categoryCode": "59", "address": "7444 ROUTE 102", "city": "DUMFRIES", "province": "NB", "country": "CA", "postalCode": "E6G1R1", "twitter": "None", "instagram": "None", "facebook": "None", "youtube": "None", "website": "None", "summary": "None", "logo": "None", "latitude": 45.962030355457635, "longitude": -67.14420284657902}, "867946022RR0001": {"name": "BARRA FOOD BANK SOCIETY", "designationCode": "C", "categoryCode": "09", "address": "41 CELTIC COURT", "city": "IONA", "province": "NS", "country": "CA", "postalCode": "B2C1B2", "twitter": "None", "instagram": "None", "facebook": "None", "youtube": "None", "website": "None", "summary": "None", "logo": "None", "latitude": 45.96135250065355, "longitude": -60.80607211035757}, "119471423RR0001": {"name": "BARRHAVEN CHILD CARE CENTRE", "designationCode": "C", "categoryCode": "01", "address": "56 KENNEVALE DR", "city": "NEPEAN", "province": "ON", "country": "CA", "postalCode": "K2J3B2", "twitter": "None", "instagram": "None", "facebook": "None", "youtube": "None", "website": "None", "summary": "None", "logo": "None", "latitude": 45.267985274539484, "longitude": -75.76748743885932}, "132591256RR0001": {"name": "BARRHAVEN FELLOWSHIP CHRISTIAN REFORMED CHURCH", "designationCode": "C", "categoryCode": "49", "address": "3058 JOCKVALE ROAD", "city": "NEPEAN", "province": "ON", "country": "CA", "postalCode": "K2J2W7", "twitter": "None", "instagram": "None", "facebook": "None", "youtube": "None", "website": "None", "summary": "None", "logo": "None", "latitude": 45.27154602354466, "longitude": -75.75706919750111}, "839063831RR0001": {"name": "BARRHAVEN FOOD CUPBOARD", "designationCode": "C", "categoryCode": "09", "address": "3013 JOCKVALE ROAD", "city": "NEPEAN-OTTAWA", "province": "ON", "country": "CA", "postalCode": "K2J4E4", "twitter": "None", "instagram": "None", "facebook": "None", "youtube": "None", "website": "None", "summary": "None", "logo": "None", "latitude": 45.27214490763994, "longitude": -75.75886507989523}, "850451162RR0001": {"name": "BARRHAVEN SYNAGOGUE", "designationCode": "C", "categoryCode": "42", "address": "111 LAMPLIGHTERS DR.", "city": "OTTAWA", "province": "ON", "country": "CA", "postalCode": "K2J0C2", "twitter": "None", "instagram": "None", "facebook": "None", "youtube": "None", "website": "None", "summary": "None", "logo": "None", "latitude": 45.265576736597694, "longitude": -75.77323098574617}, "131980906RR0001": {"name": "BARRHAVEN UNITED CHURCH", "designationCode": "C", "categoryCode": "44", "address": "3013 JOCKVALE RD", "city": "OTTAWA", "province": "ON", "country": "CA", "postalCode": "K2J4E4", "twitter": "None", "instagram": "None", "facebook": "None", "youtube": "None", "website": "None", "summary": "None", "logo": "None", "latitude": 45.27214490763994, "longitude": -75.75886507989523}, "888416666RR0001": {"name": "BARRHEAD & DISTRICT AGRENA SOCIETY", "designationCode": "C", "categoryCode": "56", "address": "BOX 21, SITE 3, RR3", "city": "BARRHEAD", "province": "AB", "country": "CA", "postalCode": "T7N1N4", "twitter": "None", "instagram": "None", "facebook": "None", "youtube": "None", "website": "None", "summary": "None", "logo": "None", "latitude": 54.12098400000005, "longitude": -114.40600999999992}, "870326162RR0001": {"name": "BARRHEAD & DISTRICT FAMILY AND COMMUNITY SUPPORT SERVICES SOciety", "designationCode": "C", "categoryCode": "09", "address": "PO BOX 4616", "city": "BARRHEAD", "province": "AB", "country": "CA", "postalCode": "T7N1A5", "twitter": "None", "instagram": "None", "facebook": "None", "youtube": "None", "website": "None", "summary": "None", "logo": "None", "latitude": 54.12098400000005, "longitude": -114.40600999999992}, "890699192RR0001": {"name": "BARRHEAD ALBERTA CONGREGATION OF JEHOVAH'S WITNESSES,", "designationCode": "C", "categoryCode": "61", "address": "SITE 4 BOX 6 RR#1", "city": "BARRHEAD", "province": "AB", "country": "CA", "postalCode": "T7N1N2", "twitter": "None", "instagram": "None", "facebook": "None", "youtube": "None", "website": "None", "summary": "None", "logo": "None", "latitude": 54.12098400000005, "longitude": -114.40600999999992}, "106773393RR0001": {"name": "BARRHEAD ALLIANCE CHURCH", "designationCode": "C", "categoryCode": "39", "address": "PO BOX 4157", "city": "BARRHEAD", "province": "AB", "country": "CA", "postalCode": "T7N1A2", "twitter": "None", "instagram": "None", "facebook": "None", "youtube": "None", "website": "None", "summary": "None", "logo": "None", "latitude": 54.12098400000005, "longitude": -114.40600999999992}, "108072968RR0001": {"name": "BARRHEAD AND DISTRICT HISTORICAL SOCIETY", "designationCode": "C", "categoryCode": "50", "address": "BOX 4122", "city": "BARRHEAD", "province": "AB", "country": "CA", "postalCode": "T7N1A1", "twitter": "None", "instagram": "None", "facebook": "None", "youtube": "None", "website": "None", "summary": "None", "logo": "None", "latitude": 54.12098400000005, "longitude": -114.40600999999992}, "118799352RR0001": {"name": "BARRHEAD AND DISTRICT SENIOR CITIZENS SOCIETY", "designationCode": "C", "categoryCode": "56", "address": "BOX 4457", "city": "BARRHEAD", "province": "AB", "country": "CA", "postalCode": "T7N1A3", "twitter": "None", "instagram": "None", "facebook": "None", "youtube": "None", "website": "None", "summary": "None", "logo": "None", "latitude": 54.12098400000005, "longitude": -114.40600999999992}, "118799360RR0001": {"name": "BARRHEAD ASSOCIATION FOR COMMUNITY LIVING", "designationCode": "C", "categoryCode": "01", "address": "BOX 4215", "city": "BARRHEAD", "province": "AB", "country": "CA", "postalCode": "T7N1A2", "twitter": "None", "instagram": "None", "facebook": "None", "youtube": "None", "website": "None", "summary": "None", "logo": "None", "latitude": 54.12098400000005, "longitude": -114.40600999999992}, "893727495RR0001": {"name": "BARRHEAD BAND BOOSTERS ASSOCIATION", "designationCode": "C", "categoryCode": "22", "address": "BOX 4243", "city": "BARRHEAD", "province": "AB", "country": "CA", "postalCode": "T7N1A3", "twitter": "None", "instagram": "None", "facebook": "None", "youtube": "None", "website": "None", "summary": "None", "logo": "None"}, "106773427RR0001": {"name": "BARRHEAD CHURCH OF GOD", "designationCode": "C", "categoryCode": "39", "address": "5134 46TH STREET", "city": "BARRHEAD", "province": "AB", "country": "CA", "postalCode": "T7N1H8", "twitter": "None", "instagram": "None", "facebook": "None", "youtube": "None", "website": "None", "summary": "None", "logo": "None", "latitude": 54.12005926716633, "longitude": -114.39486233557446}, "136663820RR0001": {"name": "BARRHEAD COMMUNITY VICTIM SERVICES UNIT ASSOCIATION", "designationCode": "C", "categoryCode": "09", "address": "PO BOX 4436 STN MAIN", "city": "BARRHEAD", "province": "AB", "country": "CA", "postalCode": "T7N1A3", "twitter": "None", "instagram": "None", "facebook": "None", "youtube": "None", "website": "None", "summary": "None", "logo": "None", "latitude": 54.12098400000005, "longitude": -114.40600999999992}, "890403447RR0001": {"name": "BARRHEAD COMPOSITE HIGH SCHOOL SCHOLARSHIP FUND", "designationCode": "C", "categoryCode": "21", "address": "5307-53 AVE", "city": "BARRHEAD", "province": "AB", "country": "CA", "postalCode": "T7N1P2", "twitter": "None", "instagram": "None", "facebook": "None", "youtube": "None", "website": "None", "summary": "None", "logo": "None", "latitude": 55.43282551673533, "longitude": -116.50314052553523}, "869979823RR0001": {"name": "BARRHEAD FRIENDS OF THE M S CLINIC ASSOCIATION", "designationCode": "A", "categoryCode": "03", "address": "4507 - 55 AVENUE", "city": "BARRHEAD", "province": "AB", "country": "CA", "postalCode": "T7N1J9", "twitter": "None", "instagram": "None", "facebook": "None", "youtube": "None", "website": "None", "summary": "None", "logo": "None", "latitude": 54.12501054674263, "longitude": -114.39323999999999}, "118799402RR0001": {"name": "BARRHEAD HEALTHCARE CENTRE AUXILIARY", "designationCode": "C", "categoryCode": "19", "address": "4815-51 AVE", "city": "BARRHEAD", "province": "AB", "country": "CA", "postalCode": "T7N1M1", "twitter": "None", "instagram": "None", "facebook": "None", "youtube": "None", "website": "None", "summary": "None", "logo": "None", "latitude": 54.11962919700529, "longitude": -114.40177393793707}, "899526131RR0001": {"name": "BARRHEAD PUBLIC LIBRARY", "designationCode": "C", "categoryCode": "23", "address": "5103 53 AVENUE", "city": "BARRHEAD", "province": "AB", "country": "CA", "postalCode": "T7N0A8", "twitter": "None", "instagram": "None", "facebook": "None", "youtube": "None", "website": "None", "summary": "None", "logo": "None", "latitude": 54.1230585573762, "longitude": -114.40311075}, "889135398RR0001": {"name": "BARRHEAD ROTARY MUSIC FESTIVAL ASSOCIATION", "designationCode": "C", "categoryCode": "22", "address": "BOX 4153", "city": "BARRHEAD", "province": "AB", "country": "CA", "postalCode": "T7N1A2", "twitter": "None", "instagram": "None", "facebook": "None", "youtube": "None", "website": "None", "summary": "None", "logo": "None", "latitude": 54.12098400000005, "longitude": -114.40600999999992}, "890338445RR0001": {"name": "BARRHEAD UNITED CHURCH", "designationCode": "C", "categoryCode": "44", "address": "PO BOX 4062", "city": "BARRHEAD", "province": "AB", "country": "CA", "postalCode": "T7N1A1", "twitter": "None", "instagram": "None", "facebook": "None", "youtube": "None", "website": "None", "summary": "None", "logo": "None", "latitude": 54.12098400000005, "longitude": -114.40600999999992}, "118799527RR0001": {"name": "BARRIE & DISTRICT CHRISTMAS CHEER ORGANIZATION", "designationCode": "C", "categoryCode": "09", "address": "BOX 161", "city": "BARRIE", "province": "ON", "country": "CA", "postalCode": "L4M4T2", "twitter": "None", "instagram": "None", "facebook": "None", "youtube": "None", "website": "None", "summary": "None", "logo": "None", "latitude": 44.38929300000005, "longitude": -79.68626449999994}, "896290236RR0001": {"name": "BARRIE AND AREA VICTIM CRISIS ASSISTANCE AND REFERRAL SERVICE", "designationCode": "C", "categoryCode": "59", "address": "132 COMMERCE PARK DR.         UNIT K, SUITE 122", "city": "BARRIE", "province": "ON", "country": "CA", "postalCode": "L4N0Z7", "twitter": "None", "instagram": "None", "facebook": "None", "youtube": "None", "website": "None", "summary": "None", "logo": "None", "latitude": 44.32399684205679, "longitude": -79.69233546113458}, "889893590RR0001": {"name": "BARRIE CHRISTADELPHIANS", "designationCode": "C", "categoryCode": "39", "address": "12 SHELSWELL BLVD", "city": "ORO STATION", "province": "ON", "country": "CA", "postalCode": "L0L2E0", "twitter": "None", "instagram": "None", "facebook": "None", "youtube": "None", "website": "None", "summary": "None", "logo": "None", "latitude": 44.44675577478729, "longitude": -79.51372056939452}, "118855790RR0001": {"name": "BARRIE CHRISTIAN BUSINESS MEN'S COMMITTEE", "designationCode": "C", "categoryCode": "47", "address": "P.O. BOX 214", "city": "PORT SEVERN", "province": "ON", "country": "CA", "postalCode": "L0M1T0", "twitter": "None", "instagram": "None", "facebook": "None", "youtube": "None", "website": "None", "summary": "None", "logo": "None", "latitude": 44.803030000000035, "longitude": -79.71501999999998}, "892504325RR0001": {"name": "BARRIE CHRISTIAN COUNCIL", "designationCode": "C", "categoryCode": "47", "address": "128 ST VINCENT ST", "city": "BARRIE", "province": "ON", "country": "CA", "postalCode": "L4M3Y8", "twitter": "None", "instagram": "None", "facebook": "None", "youtube": "None", "website": "None", "summary": "None", "logo": "None", "latitude": 44.398283731606014, "longitude": -79.6776454318771}, "804056141RR0001": {"name": "BARRIE CHRISTIAN HOSPICE", "designationCode": "C", "categoryCode": "01", "address": "1926 HIGHWAY 26 WEST", "city": "MINESING", "province": "ON", "country": "CA", "postalCode": "L9X0G4", "twitter": "None", "instagram": "None", "facebook": "None", "youtube": "None", "website": "None", "summary": "None", "logo": "None", "latitude": 44.4422188174366, "longitude": -79.7939615958238}, "129800660RR0001": {"name": "BARRIE CHURCH OF CHRIST", "designationCode": "C", "categoryCode": "39", "address": "121 HICKLING TRAIL", "city": "BARRIE", "province": "ON", "country": "CA", "postalCode": "L4M5T7", "twitter": "None", "instagram": "None", "facebook": "None", "youtube": "None", "website": "None", "summary": "None", "logo": "None", "latitude": 44.40881543825373, "longitude": -79.6608981829015}, "106773542RR0001": {"name": "BARRIE CHURCH OF THE NAZARENE", "designationCode": "C", "categoryCode": "39", "address": "49 FERRIS LANE", "city": "BARRIE", "province": "ON", "country": "CA", "postalCode": "L4M2Y1", "twitter": "None", "instagram": "None", "facebook": "None", "youtube": "None", "website": "None", "summary": "None", "logo": "None", "latitude": 44.404312767961294, "longitude": -79.69754181972422}, "844126276RR0001": {"name": "BARRIE COMMUNITY FOUNDATION", "designationCode": "A", "categoryCode": "03", "address": "36 GEORGE ST", "city": "BARRIE", "province": "ON", "country": "CA", "postalCode": "L4N5N3", "twitter": "None", "instagram": "None", "facebook": "None", "youtube": "None", "website": "None", "summary": "None", "logo": "None", "latitude": 44.3792101737549, "longitude": -79.70707337344906}, "130188980RR0001": {"name": "BARRIE COMMUNITY HEALTH CENTRE", "designationCode": "C", "categoryCode": "11", "address": "490 HURONIA RD", "city": "BARRIE", "province": "ON", "country": "CA", "postalCode": "L4N6M2", "twitter": "None", "instagram": "None", "facebook": "None", "youtube": "None", "website": "None", "summary": "None", "logo": "None", "latitude": 44.34713902553523, "longitude": -79.66390041912382}, "885972430RR0001": {"name": "BARRIE COUNCIL NO 1626 CHARITABLE WELFARE TRUST", "designationCode": "A", "categoryCode": "65", "address": "93 BERCZY STREET", "city": "BARRIE", "province": "ON", "country": "CA", "postalCode": "L4M3R2", "twitter": "None", "instagram": "None", "facebook": "None", "youtube": "None", "website": "None", "summary": "None", "logo": "None", "latitude": 44.393793421605324, "longitude": -79.68377588118203}, "874562804RR0001": {"name": "BARRIE FREE METHODIST CHURCH", "designationCode": "C", "categoryCode": "39", "address": "284 CUNDLES RD EAST", "city": "BARRIE", "province": "ON", "country": "CA", "postalCode": "L4M6L1", "twitter": "None", "instagram": "None", "facebook": "None", "youtube": "None", "website": "None", "summary": "None", "logo": "None", "latitude": 44.4143122065035, "longitude": -79.6826750126377}, "866738875RR0001": {"name": "BARRIE FREE PRESBYTERIAN CHURCH", "designationCode": "C", "categoryCode": "56", "address": "229 CRAWFORD ST", "city": "BARRIE", "province": "ON", "country": "CA", "postalCode": "L4N3W5", "twitter": "None", "instagram": "None", "facebook": "None", "youtube": "None", "website": "None", "summary": "None", "logo": "None", "latitude": 44.36340382791855, "longitude": -79.70935842466373}, "869071290RR0001": {"name": "BARRIE HILL UNITED CHURCH", "designationCode": "C", "categoryCode": "44", "address": "RR #5", "city": "ROCKWOOD", "province": "ON", "country": "CA", "postalCode": "N0B2K0", "twitter": "None", "instagram": "None", "facebook": "None", "youtube": "None", "website": "None", "summary": "None", "logo": "None", "latitude": 43.62187000000006, "longitude": -80.14943999999997}, "872866694RR0001": {"name": "BARRIE HISTORICAL ASSOCIATION", "designationCode": "C", "categoryCode": "50", "address": "94 LILLIAN CRES", "city": "BARRIE", "province": "ON", "country": "CA", "postalCode": "L4N5H7", "twitter": "None", "instagram": "None", "facebook": "None", "youtube": "None", "website": "None", "summary": "None", "logo": "None", "latitude": 44.40268134748116, "longitude": -79.71563544338963}, "118799568RR0001": {"name": "BARRIE HORTICULTURAL SOCIETY", "designationCode": "C", "categoryCode": "56", "address": "PO BOX 1432 STN MAIN", "city": "BARRIE", "province": "ON", "country": "CA", "postalCode": "L4M5R4", "twitter": "None", "instagram": "None", "facebook": "None", "youtube": "None", "website": "None", "summary": "None", "logo": "None", "latitude": 44.38929300000005, "longitude": -79.68626449999994}, "118799576RR0001": {"name": "BARRIE KOREAN PRESBYTERIAN CHURCH", "designationCode": "C", "categoryCode": "37", "address": "350 GROVE ST E", "city": "BARRIE", "province": "ON", "country": "CA", "postalCode": "L4M2R7", "twitter": "None", "instagram": "None", "facebook": "None", "youtube": "None", "website": "None", "summary": "None", "logo": "None", "latitude": 44.406554405505155, "longitude": -79.66847740882336}, "118799584RR0001": {"name": "BARRIE LITERACY COUNCIL", "designationCode": "C", "categoryCode": "09", "address": "80 BRADFORD STREET, SUITE 244", "city": "BARRIE", "province": "ON", "country": "CA", "postalCode": "L4N6S7", "twitter": "None", "instagram": "None", "facebook": "None", "youtube": "None", "website": "None", "summary": "None", "logo": "None", "latitude": 44.38314673688615, "longitude": -79.69383931308778}, "889643995RR0001": {"name": "BARRIE MEMORIAL HOSPITAL FOUNDATION", "designationCode": "A", "categoryCode": "13", "address": "28 GALE ST", "city": "ORMSTOWN", "province": "QC", "country": "CA", "postalCode": "J0S1K0", "twitter": "None", "instagram": "None", "facebook": "None", "youtube": "None", "website": "None", "summary": "None", "logo": "None", "latitude": 45.12567620169478, "longitude": -73.99983736745567}, "118799600RR0001": {"name": "BARRIE MUSIC FESTIVAL ASSOCIATION INC.", "designationCode": "C", "categoryCode": "22", "address": "707-80 BRADFORD ST", "city": "BARRIE", "province": "ON", "country": "CA", "postalCode": "L4N6S7", "twitter": "None", "instagram": "None", "facebook": "None", "youtube": "None", "website": "None", "summary": "None", "logo": "None", "latitude": 44.38314673688615, "longitude": -79.69383931308778}, "135249845RR0001": {"name": "BARRIE NATIVE FRIENDSHIP CENTRE", "designationCode": "C", "categoryCode": "59", "address": "175 BAYFIELD STREET", "city": "BARRIE", "province": "ON", "country": "CA", "postalCode": "L4M3B4", "twitter": "None", "instagram": "None", "facebook": "None", "youtube": "None", "website": "None", "summary": "None", "logo": "None", "latitude": 44.39484602415026, "longitude": -79.6948451673496}, "133038877RR0001": {"name": "BARRIE OPTIMIST YOUTH CENTRE", "designationCode": "C", "categoryCode": "63", "address": "P.O. BOX 20084", "city": "BARRIE", "province": "ON", "country": "CA", "postalCode": "L4M6E9", "twitter": "None", "instagram": "None", "facebook": "None", "youtube": "None", "website": "None", "summary": "None", "logo": "None", "latitude": 44.38929300000005, "longitude": -79.68626449999994}, "850640947RR0001": {"name": "BARRIE OUT OF THE COLD", "designationCode": "C", "categoryCode": "09", "address": "PO BOX 27071", "city": "BARRIE", "province": "ON", "country": "CA", "postalCode": "L4M6K4", "twitter": "None", "instagram": "None", "facebook": "None", "youtube": "None", "website": "None", "summary": "None", "logo": "None", "latitude": 44.38929300000005, "longitude": -79.68626449999994}, "845016526RR0001": {"name": "BARRIE PREGNANCY RESOURCE CENTRE", "designationCode": "C", "categoryCode": "09", "address": "5 SOPHIA STREET EAST", "city": "BARRIE", "province": "ON", "country": "CA", "postalCode": "L4M1Y1", "twitter": "None", "instagram": "None", "facebook": "None", "youtube": "None", "website": "None", "summary": "None", "logo": "None", "latitude": 44.392233877315554, "longitude": -79.69191992616427}, "106773716RR0001": {"name": "BARRIE PUBLIC LIBRARY BOARD", "designationCode": "C", "categoryCode": "50", "address": "60 WORSLEY ST", "city": "BARRIE", "province": "ON", "country": "CA", "postalCode": "L4M1L6", "twitter": "None", "instagram": "None", "facebook": "None", "youtube": "None", "website": "None", "summary": "None", "logo": "None", "latitude": 44.391534463788965, "longitude": -79.6883625}, "107797383RR0114": {"name": "BARRIE SEVENTH-DAY ADVENTIST CHURCH", "designationCode": "C", "categoryCode": "41", "address": "140 MAPLETON AVENUE", "city": "BARRIE", "province": "ON", "country": "CA", "postalCode": "L4N9N7", "twitter": "None", "instagram": "None", "facebook": "None", "youtube": "None", "website": "None", "summary": "None", "logo": "None", "latitude": 44.34059446378897, "longitude": -79.71356152553523}, "861743912RR0001": {"name": "BARRIE SO-MANG PRESBYTERIAN CHURCH", "designationCode": "C", "categoryCode": "37", "address": "54 ROSS STREET", "city": "BARRIE", "province": "ON", "country": "CA", "postalCode": "L4N1G3", "twitter": "None", "instagram": "None", "facebook": "None", "youtube": "None", "website": "None", "summary": "None", "logo": "None", "latitude": 44.39081446378896, "longitude": -79.696251}, "858505605RR0001": {"name": "BARRIE VICTORY CENTRE", "designationCode": "C", "categoryCode": "39", "address": "80 PRINCE WILLIAM WAY", "city": "BARRIE", "province": "ON", "country": "CA", "postalCode": "L4N0Y9", "twitter": "None", "instagram": "None", "facebook": "None", "youtube": "None", "website": "None", "summary": "None", "logo": "None", "latitude": 44.35916510046745, "longitude": -79.61275371844872}, "861705580RR0001": {"name": "BARRIE'S RIBBONS OF HOPE", "designationCode": "A", "categoryCode": "11", "address": "P.O. BOX 23055 MARKET PLACE", "city": "BARRIE", "province": "ON", "country": "CA", "postalCode": "L4N7W8", "twitter": "None", "instagram": "None", "facebook": "None", "youtube": "None", "website": "None", "summary": "None", "logo": "None", "latitude": 44.38929300000005, "longitude": -79.68626449999994}, "135405413RR0001": {"name": "BARRIERE & DISTRICT SENIORS' SOCIETY", "designationCode": "C", "categoryCode": "56", "address": "BOX 791", "city": "BARRIERE", "province": "BC", "country": "CA", "postalCode": "V0E1E0", "twitter": "None", "instagram": "None", "facebook": "None", "youtube": "None", "website": "None", "summary": "None", "logo": "None", "latitude": 51.29213204437867, "longitude": -119.92919375050194}, "106773740RR0001": {"name": "BARRIERE AND DISTRICT HERITAGE SOCIETY", "designationCode": "C", "categoryCode": "52", "address": "BOX 228", "city": "BARRIERE", "province": "BC", "country": "CA", "postalCode": "V0E1E0", "twitter": "None", "instagram": "None", "facebook": "None", "youtube": "None", "website": "None", "summary": "None", "logo": "None", "latitude": 51.29213204437867, "longitude": -119.92919375050194}, "893282129RR0001": {"name": "BARRIERE AND DISTRICT HOSPICE SOCIETY", "designationCode": "C", "categoryCode": "01", "address": "BOX 201", "city": "BARRIERE", "province": "BC", "country": "CA", "postalCode": "V0E1E0", "twitter": "None", "instagram": "None", "facebook": "None", "youtube": "None", "website": "None", "summary": "None", "logo": "None", "latitude": 51.29213204437867, "longitude": -119.92919375050194}, "119288918RR0174": {"name": "BARRIERE CONGREGATION OF JEHOVAH'S WITNESSES", "designationCode": "C", "categoryCode": "61", "address": "PO BOX 777", "city": "BARRIERE", "province": "BC", "country": "CA", "postalCode": "V0E1E0", "twitter": "None", "instagram": "None", "facebook": "None", "youtube": "None", "website": "None", "summary": "None", "logo": "None", "latitude": 51.29213204437867, "longitude": -119.92919375050194}, "873164966RR0001": {"name": "BARRIERE CRIMESTOPPERS ASSOCIATION", "designationCode": "C", "categoryCode": "59", "address": "BOX 360", "city": "BARRIERE", "province": "BC", "country": "CA", "postalCode": "V0E1E0", "twitter": "None", "instagram": "None", "facebook": "None", "youtube": "None", "website": "None", "summary": "None", "logo": "None", "latitude": 51.29213204437867, "longitude": -119.92919375050194}, "854042488RR0001": {"name": "BARRIERE OPEN DOOR FELLOWSHIP", "designationCode": "C", "categoryCode": "49", "address": "P.O. BOX #1372", "city": "BARRIERE", "province": "BC", "country": "CA", "postalCode": "V0E1E0", "twitter": "None", "instagram": "None", "facebook": "None", "youtube": "None", "website": "None", "summary": "None", "logo": "None"}, "890430341RR0001": {"name": "BARRIERE SEARCH & RESCUE ASSOCIATION", "designationCode": "C", "categoryCode": "59", "address": "BOX 309", "city": "BARRIERE", "province": "BC", "country": "CA", "postalCode": "V0E1E0", "twitter": "None", "instagram": "None", "facebook": "None", "youtube": "None", "website": "None", "summary": "None", "logo": "None", "latitude": 51.29213204437867, "longitude": -119.92919375050194}, "875455727RR0001": {"name": "BARRINGTON CEMETERY ASSOCIATION", "designationCode": "C", "categoryCode": "59", "address": "25 BRASS HILL", "city": "BARRINGTON", "province": "NS", "country": "CA", "postalCode": "B0W1E0", "twitter": "None", "instagram": "None", "facebook": "None", "youtube": "None", "website": "None", "summary": "None", "logo": "None", "latitude": 43.55481312960937, "longitude": -65.598816591552}, "892615048RR0001": {"name": "BARRINGTON GROUND SEARCH AND RESCUE", "designationCode": "C", "categoryCode": "59", "address": "65 ISLANDVIEW DR              BOX 7 COMP 1", "city": "BARRINGTON", "province": "NS", "country": "CA", "postalCode": "B0W1E0", "twitter": "None", "instagram": "None", "facebook": "None", "youtube": "None", "website": "None", "summary": "None", "logo": "None", "latitude": 43.55204888095089, "longitude": -65.59558948502502}, "106773864RR0001": {"name": "BARRINGTON PASTORAL CHARGE", "designationCode": "C", "categoryCode": "44", "address": "PO BOX 419", "city": "BARRINGTON PASSAGE", "province": "NS", "country": "CA", "postalCode": "B0W1G0", "twitter": "None", "instagram": "None", "facebook": "None", "youtube": "None", "website": "None", "summary": "None", "logo": "None", "latitude": 43.52570000000003, "longitude": -65.61060999999995}, "118799733RR0001": {"name": "BARRINGTON TEMPLE UNITED BAPTIST CHURCH", "designationCode": "C", "categoryCode": "31", "address": "BOX 157", "city": "BARRINGTON", "province": "NS", "country": "CA", "postalCode": "B0W1E0", "twitter": "None", "instagram": "None", "facebook": "None", "youtube": "None", "website": "None", "summary": "None", "logo": "None", "latitude": 44.107428523541074, "longitude": -66.06027088088527}, "131474553RR0001": {"name": "BARRINGTON 7-E VOLUNTEER FIRE DEPARTMENT", "designationCode": "B", "categoryCode": "59", "address": "P.O. BOX 196", "city": "BARRINGTON", "province": "NS", "country": "CA", "postalCode": "B0W1E0", "twitter": "None", "instagram": "None", "facebook": "None", "youtube": "None", "website": "None", "summary": "None", "logo": "None", "latitude": 44.107428523541074, "longitude": -66.06027088088527}, "830512554RR0001": {"name": "BARRY AND STEPHANIE ZEKELMAN FOUNDATION", "designationCode": "B", "categoryCode": "05", "address": "2600 AIRPORT ROAD, UNIT 101", "city": "WINDSOR", "province": "ON", "country": "CA", "postalCode": "N8V1A1", "twitter": "None", "instagram": "None", "facebook": "None", "youtube": "None", "website": "None", "summary": "None", "logo": "None", "latitude": 42.268323203628604, "longitude": -82.96827279139808}, "106774250RR0001": {"name": "BARRY MOORE MINISTRIES INC.", "designationCode": "C", "categoryCode": "47", "address": "BOX 9100", "city": "LONDON", "province": "ON", "country": "CA", "postalCode": "N6E3P3", "twitter": "None", "instagram": "None", "facebook": "None", "youtube": "None", "website": "None", "summary": "None", "logo": "None", "latitude": 42.98689500000006, "longitude": -81.24624349999993}, "890825847RR0001": {"name": "BARRY SULLIVAN Q C MEMORIAL BURSARY FUND SOCIETY", "designationCode": "C", "categoryCode": "21", "address": "425 DONALD ST", "city": "COQUITLAM", "province": "BC", "country": "CA", "postalCode": "V3K3Z9", "twitter": "None", "instagram": "None", "facebook": "None", "youtube": "None", "website": "None", "summary": "None", "logo": "None", "latitude": 49.24643441909515, "longitude": -122.88186894001409}, "106774342RR0001": {"name": "BARRY'S BAY & AREA SENIOR CITIZENS HOME SUPPORT SERVICES", "designationCode": "C", "categoryCode": "09", "address": "7 ST.FRANCIS MEMORIAL DR. #2  COMMUNITY SERVICES CENTRE", "city": "BARRY'S BAY", "province": "ON", "country": "CA", "postalCode": "K0J1B0", "twitter": "None", "instagram": "None", "facebook": "None", "youtube": "None", "website": "None", "summary": "None", "logo": "None", "latitude": 45.482674244503535, "longitude": -77.69379674724391}, "119288918RR0902": {"name": "BARRY'S BAY CONGREGATION OF JEHOVAH'S WITNESSES", "designationCode": "C", "categoryCode": "61", "address": "97 BLESKI RD.                 P.O. BOX 753", "city": "BARRY'S BAY", "province": "ON", "country": "CA", "postalCode": "K0J1B0", "twitter": "None", "instagram": "None", "facebook": "None", "youtube": "None", "website": "None", "summary": "None", "logo": "None", "latitude": 45.46408012657962, "longitude": -77.69461914527683}, "118799782RR0001": {"name": "BARSS CORNER COMMUNITY CEMETERY COMPANY", "designationCode": "C", "categoryCode": "59", "address": "1537 BARSS CORNER ROAD        RR#1", "city": "BARSS CORNER", "province": "NS", "country": "CA", "postalCode": "B0R1A0", "twitter": "None", "instagram": "None", "facebook": "None", "youtube": "None", "website": "None", "summary": "None", "logo": "None", "latitude": 44.588017004731874, "longitude": -64.65470851485941}, "843871583RR0001": {"name": "BARSS CORNER COMMUNITY HALL ASSOCIATION", "designationCode": "C", "categoryCode": "56", "address": "891 BARSS CORNER ROAD", "city": "BARSS CORNER", "province": "NS", "country": "CA", "postalCode": "B0R1A0", "twitter": "None", "instagram": "None", "facebook": "None", "youtube": "None", "website": "None", "summary": "None", "logo": "None", "latitude": 44.56836779516996, "longitude": -64.68112244465904}, "861022002RR0001": {"name": "BARTH SYNDROME FOUNDATION OF CANADA", "designationCode": "C", "categoryCode": "11", "address": "162 GUELPH STREET SUITE 115", "city": "GEORGETOWN", "province": "ON", "country": "CA", "postalCode": "L7G5X7", "twitter": "None", "instagram": "None", "facebook": "None", "youtube": "None", "website": "None", "summary": "None", "logo": "None", "latitude": 43.650522568382705, "longitude": -79.9087339432454}, "140442559RR0001": {"name": "BARWICK COMMUNITY CHURCH", "designationCode": "C", "categoryCode": "31", "address": "PO BOX 231", "city": "EMO", "province": "ON", "country": "CA", "postalCode": "P0W1E0", "twitter": "None", "instagram": "None", "facebook": "None", "youtube": "None", "website": "None", "summary": "None", "logo": "None", "latitude": 48.662577540629606, "longitude": -93.82672263965895}, "897624094RR0001": {"name": "BASE DE PLEIN AIR STE-EMELIE", "designationCode": "C", "categoryCode": "56", "address": "4375 RUE ONTARIO E", "city": "MONTREAL", "province": "QC", "country": "CA", "postalCode": "H1V1K5", "twitter": "None", "instagram": "None", "facebook": "None", "youtube": "None", "website": "None", "summary": "None", "logo": "None", "latitude": 45.553633457700776, "longitude": -73.53911170255009}, "134881101RR0001": {"name": "BASE DE PLEIN AIR VILLE LA JOIE INC", "designationCode": "C", "categoryCode": "56", "address": "150, RANG RHIMBAULT", "city": "STE VICTOIRE DE SOREL", "province": "QC", "country": "CA", "postalCode": "J0G1T0", "twitter": "None", "instagram": "None", "facebook": "None", "youtube": "None", "website": "None", "summary": "None", "logo": "None", "latitude": 45.984066544640335, "longitude": -73.09632367240988}, "888060043RR0001": {"name": "BASE DE PLEIN-AIR DESPATIE", "designationCode": "C", "categoryCode": "29", "address": "2105 RUE SAINT-GEORGE", "city": "SAINT-JEROME", "province": "QC", "country": "CA", "postalCode": "J7Y1N2", "twitter": "None", "instagram": "None", "facebook": "None", "youtube": "None", "website": "None", "summary": "None", "logo": "None", "latitude": 45.79893217929484, "longitude": -74.00698223604942}, "106774995RR0001": {"name": "BASEL HAKKA LUTHERAN CHURCH", "designationCode": "C", "categoryCode": "32", "address": "2575 NANAIMO ST", "city": "VANCOUVER", "province": "BC", "country": "CA", "postalCode": "V5N5E6", "twitter": "None", "instagram": "None", "facebook": "None", "youtube": "None", "website": "None", "summary": "None", "logo": "None", "latitude": 49.26148057507646, "longitude": -123.05665353834581}}