{"118836337RR0001": {"name": "Special Olympics Canada", "designationCode": "C", "categoryCode": "56", "address": "600-21 ST CLAIR AVE E", "city": "TORONTO", "province": "ON", "country": "CA", "postalCode": "M4T1L9", "twitter": "None", "instagram": "None", "facebook": "None", "youtube": "None", "website": "None", "summary": "None", "logo": "None", "latitude": 43.690058011175346, "longitude": -79.38485244552025}, "708142492RR0001": {"name": "Special Olympics 2018 National Games Society", "designationCode": "C", "categoryCode": "56", "address": "99 WYSE ROAD, SUITE 600       PO BOX 876", "city": "DARTMOUTH", "province": "NS", "country": "CA", "postalCode": "B2Y3Z5", "twitter": "None", "instagram": "None", "facebook": "None", "youtube": "None", "website": "None", "summary": "None", "logo": "None", "latitude": 44.669249572826104, "longitude": -63.57621785154917}, "843265174RR0001": {"name": "Specialisterne Canada Inc.", "designationCode": "C", "categoryCode": "59", "address": "2026 - 777 RICHMOND ST W", "city": "TORONTO", "province": "ON", "country": "CA", "postalCode": "M6J0C2", "twitter": "None", "instagram": "None", "facebook": "None", "youtube": "None", "website": "None", "summary": "None", "logo": "None", "latitude": 43.64543326500097, "longitude": -79.40870012881102}, "818541609RR0001": {"name": "Spect-Arts Trois-Rivi\u00e8re", "designationCode": "C", "categoryCode": "22", "address": "315-1060, ST-FRANCOIS-XAVIER", "city": "TROIS-RIVI\u00c8RES", "province": "QC", "country": "CA", "postalCode": "G9A1R8", "twitter": "None", "instagram": "None", "facebook": "None", "youtube": "None", "website": "None", "summary": "None", "logo": "None", "latitude": 46.35088687067911, "longitude": -72.54580268148787}, "861945004RR0001": {"name": "Spectacle pr\u00e9vention jeunesse", "designationCode": "C", "categoryCode": "09", "address": "703, RUE SHAW", "city": "PREVOST", "province": "QC", "country": "CA", "postalCode": "J0R1T0", "twitter": "None", "instagram": "None", "facebook": "None", "youtube": "None", "website": "None", "summary": "None", "logo": "None", "latitude": 45.870852721594055, "longitude": -74.08283649971153}, "889283248RR0001": {"name": "Spectra Community Support Services", "designationCode": "C", "categoryCode": "09", "address": "402-7700 HURONTARIO ST.", "city": "BRAMPTON", "province": "ON", "country": "CA", "postalCode": "L6Y4M3", "twitter": "None", "instagram": "None", "facebook": "None", "youtube": "None", "website": "None", "summary": "None", "logo": "None", "latitude": 43.66015379664278, "longitude": -79.7255409433323}, "845112309RR0001": {"name": "Spectrum of Hope Autism Foundation", "designationCode": "A", "categoryCode": "03", "address": "301 LANOR AVE", "city": "ETOBICOKE", "province": "ON", "country": "CA", "postalCode": "M8W2R1", "twitter": "None", "instagram": "None", "facebook": "None", "youtube": "None", "website": "None", "summary": "None", "logo": "None", "latitude": 43.61105476934628, "longitude": -79.53532689855159}, "821918695RR0001": {"name": "Spectrum Health Care Foundation", "designationCode": "B", "categoryCode": "09", "address": "2101 - 2 BLOOR ST E", "city": "TORONTO", "province": "ON", "country": "CA", "postalCode": "M4W1A8", "twitter": "None", "instagram": "None", "facebook": "None", "youtube": "None", "website": "None", "summary": "None", "logo": "None", "latitude": 43.670545165156554, "longitude": -79.38540856440065}, "106842867RR0001": {"name": "Speech-Language & Audiology Canada (SAC) / Orthophonie et Audiologie Canada (OAC)", "designationCode": "C", "categoryCode": "29", "address": "1000 - 1 NICHOLAS ST", "city": "OTTAWA", "province": "ON", "country": "CA", "postalCode": "K1N7B7", "twitter": "None", "instagram": "None", "facebook": "None", "youtube": "None", "website": "None", "summary": "None", "logo": "None", "latitude": 45.42176342184898, "longitude": -75.68497111848781}, "852510668RR0001": {"name": "Spence Family Foundation", "designationCode": "B", "categoryCode": "03", "address": "13364 COMBER WAY", "city": "SURREY", "province": "BC", "country": "CA", "postalCode": "V3W5V9", "twitter": "None", "instagram": "None", "facebook": "None", "youtube": "None", "website": "None", "summary": "None", "logo": "None", "latitude": 49.1354427108077, "longitude": -122.8523382837821}, "799935754RR0001": {"name": "Spencer Home Foundation Inc.", "designationCode": "B", "categoryCode": "03", "address": "35 ATLANTIC BAPTIST AVENUE", "city": "MONCTON", "province": "NB", "country": "CA", "postalCode": "E1E4N3", "twitter": "None", "instagram": "None", "facebook": "None", "youtube": "None", "website": "None", "summary": "None", "logo": "None", "latitude": 46.05999327145241, "longitude": -64.85879860263182}, "733201529RR0001": {"name": "Spencercreo Finca Foundation", "designationCode": "B", "categoryCode": "03", "address": "1800-510 GEORGIA W ST", "city": "VANCOUVER", "province": "BC", "country": "CA", "postalCode": "V6B0M3", "twitter": "None", "instagram": "None", "facebook": "None", "youtube": "None", "website": "None", "summary": "None", "logo": "None", "latitude": 49.28012307167682, "longitude": -123.11442679241839}, "852846203RR0001": {"name": "SpencerCreo Foundation", "designationCode": "B", "categoryCode": "03", "address": "4465 3RD AVE W", "city": "VANCOUVER", "province": "BC", "country": "CA", "postalCode": "V6R1M9", "twitter": "None", "instagram": "None", "facebook": "None", "youtube": "None", "website": "None", "summary": "None", "logo": "None", "latitude": 49.27050943963873, "longitude": -123.20773884583637}, "840438691RR0001": {"name": "Spences Bridge Volunteer Society (2008)", "designationCode": "C", "categoryCode": "59", "address": "P.O. BOX 56", "city": "SPENCES BRIDGE", "province": "BC", "country": "CA", "postalCode": "V0K2L0", "twitter": "None", "instagram": "None", "facebook": "None", "youtube": "None", "website": "None", "summary": "None", "logo": "None", "latitude": 50.42393000000004, "longitude": -121.34567999999996}, "801410960RR0001": {"name": "Spenser's Heart Children's Charity", "designationCode": "C", "categoryCode": "11", "address": "173385 COUNTY RD 25", "city": "GRAND VALLEY", "province": "ON", "country": "CA", "postalCode": "L9W0L7", "twitter": "None", "instagram": "None", "facebook": "None", "youtube": "None", "website": "None", "summary": "None", "logo": "None", "latitude": 43.909427863693075, "longitude": -80.31771505474092}, "118835057RR0001": {"name": "Spinal Cord Injury Newfoundland and Labrador Inc.", "designationCode": "A", "categoryCode": "11", "address": "P.O. BOX 21284", "city": "ST. JOHN'S", "province": "NL", "country": "CA", "postalCode": "A1A5G6", "twitter": "None", "instagram": "None", "facebook": "None", "youtube": "None", "website": "None", "summary": "None", "logo": "None", "latitude": 47.600088000000056, "longitude": -52.692861499999935}, "118835081RR0002": {"name": "Spinal Cord Injury Ontario", "designationCode": "C", "categoryCode": "11", "address": "520 SUTHERLAND DR", "city": "TORONTO", "province": "ON", "country": "CA", "postalCode": "M4G3V9", "twitter": "None", "instagram": "None", "facebook": "None", "youtube": "None", "website": "None", "summary": "None", "logo": "None", "latitude": 43.718298410785266, "longitude": -79.36936555470578}, "118835099RR0001": {"name": "Spinal Cord Injury P.E.I. Inc.", "designationCode": "C", "categoryCode": "11", "address": "P.O. BOX 2188", "city": "CHARLOTTETOWN", "province": "PE", "country": "CA", "postalCode": "C1A8B9", "twitter": "None", "instagram": "None", "facebook": "None", "youtube": "None", "website": "None", "summary": "None", "logo": "None", "latitude": 46.23659700000006, "longitude": -63.12815449999994}, "118835107RR0001": {"name": "Spinal Cord Injury Saskatchewan Inc.", "designationCode": "C", "categoryCode": "11", "address": "311 38 ST E", "city": "SASKATOON", "province": "SK", "country": "CA", "postalCode": "S7K0T1", "twitter": "None", "instagram": "None", "facebook": "None", "youtube": "None", "website": "None", "summary": "None", "logo": "None", "latitude": 52.151497307733585, "longitude": -106.66592783499027}, "770750297RR0001": {"name": "Spirit and Life Bible Church", "designationCode": "C", "categoryCode": "39", "address": "314 REXDALE BLVD", "city": "ETOBICOKE", "province": "ON", "country": "CA", "postalCode": "M9W1R6", "twitter": "None", "instagram": "None", "facebook": "None", "youtube": "None", "website": "None", "summary": "None", "logo": "None", "latitude": 43.714646139621344, "longitude": -79.58451670246411}, "842442428RR0001": {"name": "Spirit of the Children Society", "designationCode": "C", "categoryCode": "09", "address": "201-768 COLUMBIA STREET", "city": "NEW WESTMINSTER", "province": "BC", "country": "CA", "postalCode": "V3M1B4", "twitter": "None", "instagram": "None", "facebook": "None", "youtube": "None", "website": "None", "summary": "None", "logo": "None", "latitude": 49.20147203610279, "longitude": -122.91095189043776}, "795148295RR0001": {"name": "Spirit of Adriana Rajotte Society", "designationCode": "C", "categoryCode": "21", "address": "2929 15 AVE", "city": "WAINWRIGHT", "province": "AB", "country": "CA", "postalCode": "T9W0A4", "twitter": "None", "instagram": "None", "facebook": "None", "youtube": "None", "website": "None", "summary": "None", "logo": "None", "latitude": 52.844485444003325, "longitude": -110.8291272436758}, "118967744RR0009": {"name": "Spirit of Christ Ministries", "designationCode": "C", "categoryCode": "39", "address": "1145 HONEY HARBOUR RD         BOX 144", "city": "HONEY HARBOUR", "province": "ON", "country": "CA", "postalCode": "P0E1E0", "twitter": "None", "instagram": "None", "facebook": "None", "youtube": "None", "website": "None", "summary": "None", "logo": "None", "latitude": 44.860792438305516, "longitude": -79.8046317993355}, "838423432RR0001": {"name": "Spirit of Grace Lutheran Church Brooks", "designationCode": "C", "categoryCode": "31", "address": "PO BOX 1535", "city": "BROOKS", "province": "AB", "country": "CA", "postalCode": "T1R1C4", "twitter": "None", "instagram": "None", "facebook": "None", "youtube": "None", "website": "None", "summary": "None", "logo": "None", "latitude": 50.56584900000006, "longitude": -111.89848399999994}, "836652784RR0001": {"name": "Spirit of Life Deliverance Ministry", "designationCode": "C", "categoryCode": "39", "address": "334-7230 DARCEL AVENUE", "city": "MISSISSAUGA", "province": "ON", "country": "CA", "postalCode": "L4T3T6", "twitter": "None", "instagram": "None", "facebook": "None", "youtube": "None", "website": "None", "summary": "None", "logo": "None", "latitude": 43.72076031666581, "longitude": -79.63462873163468}, "820856854RR0001": {"name": "Spirit of Life Lutheran Church", "designationCode": "C", "categoryCode": "32", "address": "375 10TH AVE W", "city": "VANCOUVER", "province": "BC", "country": "CA", "postalCode": "V5Y3V1", "twitter": "None", "instagram": "None", "facebook": "None", "youtube": "None", "website": "None", "summary": "None", "logo": "None", "latitude": 49.26221151154118, "longitude": -123.11247133236193}, "852660141RR0001": {"name": "Spirit of Life, a Community Organization", "designationCode": "C", "categoryCode": "59", "address": "108 - 1020 DENISON ST", "city": "MARKHAM", "province": "ON", "country": "CA", "postalCode": "L3R3W5", "twitter": "None", "instagram": "None", "facebook": "None", "youtube": "None", "website": "None", "summary": "None", "logo": "None", "latitude": 43.826960103554526, "longitude": -79.32883877589579}, "136093085RR0001": {"name": "Spirit of Peace United Church", "designationCode": "C", "categoryCode": "44", "address": "P.O. BOX 267", "city": "SPIRIT RIVER", "province": "AB", "country": "CA", "postalCode": "T0H3G0", "twitter": "None", "instagram": "None", "facebook": "None", "youtube": "None", "website": "None", "summary": "None", "logo": "None", "latitude": 58.38582002553528, "longitude": -116.01813004501088}, "801758764RR0001": {"name": "Spirit Ablaze Ministries of High Level", "designationCode": "C", "categoryCode": "39", "address": "PO BOX 417", "city": "HIGH LEVEL", "province": "AB", "country": "CA", "postalCode": "T0H1Z0", "twitter": "None", "instagram": "None", "facebook": "None", "youtube": "None", "website": "None", "summary": "None", "logo": "None", "latitude": 58.52077909031678, "longitude": -117.13094845132863}, "834981953RR0001": {"name": "Spirit Builders Program Inc.", "designationCode": "C", "categoryCode": "09", "address": "PO BOX 425", "city": "BALCARRES", "province": "SK", "country": "CA", "postalCode": "S0G0C0", "twitter": "None", "instagram": "None", "facebook": "None", "youtube": "None", "website": "None", "summary": "None", "logo": "None", "latitude": 50.80006000000003, "longitude": -103.55101999999994}, "106885718RR0001": {"name": "Spirit Hills", "designationCode": "C", "categoryCode": "44", "address": "BOX 87", "city": "EYEBROW", "province": "SK", "country": "CA", "postalCode": "S0H1L0", "twitter": "None", "instagram": "None", "facebook": "None", "youtube": "None", "website": "None", "summary": "None", "logo": "None", "latitude": 50.80265000000003, "longitude": -106.15014999999994}, "821572187RR0001": {"name": "Spirit Horse Centre Incorporated", "designationCode": "C", "categoryCode": "59", "address": "4003 WHITEHORN DRIVE NE", "city": "CALGARY", "province": "AB", "country": "CA", "postalCode": "T1Y4T3", "twitter": "None", "instagram": "None", "facebook": "None", "youtube": "None", "website": "None", "summary": "None", "logo": "None", "latitude": 51.08519167831388, "longitude": -113.97654984901035}, "848277935RR0001": {"name": "Spirit Wave Ministries", "designationCode": "C", "categoryCode": "39", "address": "5 WEBSTER WAY", "city": "GEORGETOWN", "province": "ON", "country": "CA", "postalCode": "L7G5J1", "twitter": "None", "instagram": "None", "facebook": "None", "youtube": "None", "website": "None", "summary": "None", "logo": "None", "latitude": 43.63499232558127, "longitude": -79.87605563030185}, "107431942RR0001": {"name": "Spirit West United Church", "designationCode": "C", "categoryCode": "44", "address": "7003-199 ST NW", "city": "EDMONTON", "province": "AB", "country": "CA", "postalCode": "T5T3A8", "twitter": "None", "instagram": "None", "facebook": "None", "youtube": "None", "website": "None", "summary": "None", "logo": "None", "latitude": 53.504594999999995, "longitude": -113.6644577906119}, "814358248RR0001": {"name": "Spirit's Mission Rescue Society", "designationCode": "C", "categoryCode": "54", "address": "PO BOX 95", "city": "GABRIOLA", "province": "BC", "country": "CA", "postalCode": "V0R1X0", "twitter": "None", "instagram": "None", "facebook": "None", "youtube": "None", "website": "None", "summary": "None", "logo": "None", "latitude": 49.18637400000006, "longitude": -123.82815049999994}, "866818693RR0001": {"name": "Spiritual Assembly of the Baha'is of Rocky View County", "designationCode": "C", "categoryCode": "33", "address": "BOX 1566", "city": "COCHRANE", "province": "AB", "country": "CA", "postalCode": "T4C1B5", "twitter": "None", "instagram": "None", "facebook": "None", "youtube": "None", "website": "None", "summary": "None", "logo": "None", "latitude": 51.19089900000006, "longitude": -114.46804249999994}, "724480926RR0001": {"name": "Spiritual Growth Ministry", "designationCode": "B", "categoryCode": "39", "address": "56 BRAEBURN DRIVE,", "city": "THORNHILL", "province": "ON", "country": "CA", "postalCode": "L3T4W8", "twitter": "None", "instagram": "None", "facebook": "None", "youtube": "None", "website": "None", "summary": "None", "logo": "None", "latitude": 43.82669803719199, "longitude": -79.39644048892015}, "811346311RR0001": {"name": "Spiritual Hospital", "designationCode": "C", "categoryCode": "39", "address": "3 DENT ST", "city": "AJAX", "province": "ON", "country": "CA", "postalCode": "L1T4E8", "twitter": "None", "instagram": "None", "facebook": "None", "youtube": "None", "website": "None", "summary": "None", "logo": "None", "latitude": 43.875414860378676, "longitude": -79.05324801220502}, "849283395RR0001": {"name": "Spiritual Leaders for the Next Generation", "designationCode": "C", "categoryCode": "49", "address": "125 SHAUGHNESSY BLVD          UNIT 74", "city": "TORONTO", "province": "ON", "country": "CA", "postalCode": "M2J1J7", "twitter": "None", "instagram": "None", "facebook": "None", "youtube": "None", "website": "None", "summary": "None", "logo": "None", "latitude": 43.777432246465445, "longitude": -79.35283587754668}, "800850687RR0001": {"name": "Spiritual Motherhood of Priests (Ottawa) Inc.", "designationCode": "C", "categoryCode": "39", "address": "23 PARKMOUNT CRESCENT", "city": "OTTAWA", "province": "ON", "country": "CA", "postalCode": "K2H5T3", "twitter": "None", "instagram": "None", "facebook": "None", "youtube": "None", "website": "None", "summary": "None", "logo": "None", "latitude": 45.329990009694875, "longitude": -75.78396545960535}, "885485995RR0001": {"name": "Spiritual Society Canada Inc.", "designationCode": "C", "categoryCode": "60", "address": "1200 MARKHAM ROAD, UNIT 428", "city": "SCARBOROUGH", "province": "ON", "country": "CA", "postalCode": "M1H3C3", "twitter": "None", "instagram": "None", "facebook": "None", "youtube": "None", "website": "None", "summary": "None", "logo": "None", "latitude": 43.77665010629583, "longitude": -79.23186416307908}, "850389040RR0001": {"name": "Spiritualist Society of Barrie", "designationCode": "C", "categoryCode": "39", "address": "POST OFFICE BOX 28033", "city": "BARRIE", "province": "ON", "country": "CA", "postalCode": "L4N7W1", "twitter": "None", "instagram": "None", "facebook": "None", "youtube": "None", "website": "None", "summary": "None", "logo": "None", "latitude": 44.38929300000005, "longitude": -79.68626449999994}, "846761419RR0001": {"name": "Spiritualist Society of Burlington", "designationCode": "C", "categoryCode": "39", "address": "3027 NEW STREET", "city": "BURLINGTON", "province": "ON", "country": "CA", "postalCode": "L7R1K3", "twitter": "None", "instagram": "None", "facebook": "None", "youtube": "None", "website": "None", "summary": "None", "logo": "None", "latitude": 43.33914719497748, "longitude": -79.78447335992621}, "838729630RR0001": {"name": "Spiritus Ensemble Inc.", "designationCode": "C", "categoryCode": "22", "address": "308 GLASGOW ST", "city": "KITCHENER", "province": "ON", "country": "CA", "postalCode": "N2M2M8", "twitter": "None", "instagram": "None", "facebook": "None", "youtube": "None", "website": "None", "summary": "None", "logo": "None", "latitude": 43.45044860395858, "longitude": -80.52104135166475}, "130387665RR0016": {"name": "Sponsoring Committee of No. 200 (Wolf) Squadron Royal Canadian Air Cadets", "designationCode": "C", "categoryCode": "29", "address": "1553 WELLER ST", "city": "SUDBURY", "province": "ON", "country": "CA", "postalCode": "P3B1K9", "twitter": "None", "instagram": "None", "facebook": "None", "youtube": "None", "website": "None", "summary": "None", "logo": "None", "latitude": 46.48999745202797, "longitude": -80.94863564531241}, "130030158RR0002": {"name": "Sporobole", "designationCode": "C", "categoryCode": "22", "address": "74, RUE ALBERT", "city": "SHERBROOKE", "province": "QC", "country": "CA", "postalCode": "J1H1M9", "twitter": "None", "instagram": "None", "facebook": "None", "youtube": "None", "website": "None", "summary": "None", "logo": "None", "latitude": 45.40272692977097, "longitude": -71.89028544809283}, "824143721RR0001": {"name": "Sports for Kids Timmins", "designationCode": "C", "categoryCode": "09", "address": "BOX 732", "city": "TIMMINS", "province": "ON", "country": "CA", "postalCode": "P4N7G2", "twitter": "None", "instagram": "None", "facebook": "None", "youtube": "None", "website": "None", "summary": "None", "logo": "None", "latitude": 48.47611200000006, "longitude": -81.32891299999993}, "758328298RR0001": {"name": "Spotlight Charitable Children's Community Theatre", "designationCode": "C", "categoryCode": "22", "address": "6 - 75 ALFORD CRES", "city": "SCARBOROUGH", "province": "ON", "country": "CA", "postalCode": "M1B4E3", "twitter": "None", "instagram": "None", "facebook": "None", "youtube": "None", "website": "None", "summary": "None", "logo": "None", "latitude": 43.80922566662844, "longitude": -79.2137636081135}, "823311501RR0001": {"name": "Spotlight Church", "designationCode": "C", "categoryCode": "39", "address": "238 - 356 ONTARIO ST", "city": "STRATFORD", "province": "ON", "country": "CA", "postalCode": "N5A7X6", "twitter": "None", "instagram": "None", "facebook": "None", "youtube": "None", "website": "None", "summary": "None", "logo": "None", "latitude": 43.37125945715252, "longitude": -80.97183955536961}, "831621131RR0001": {"name": "Sprague Community Cemetery", "designationCode": "C", "categoryCode": "59", "address": "BOX 222", "city": "SPRAGUE", "province": "MB", "country": "CA", "postalCode": "R0A1Z0", "twitter": "None", "instagram": "None", "facebook": "None", "youtube": "None", "website": "None", "summary": "None", "logo": "None", "latitude": 49.03615000000008, "longitude": -95.64291999999995}, "878157916RR0001": {"name": "Spray Lake Sawmills Recreation Park Society", "designationCode": "C", "categoryCode": "56", "address": "800 GRIFFIN RD E", "city": "COCHRANE", "province": "AB", "country": "CA", "postalCode": "T4C2B8", "twitter": "None", "instagram": "None", "facebook": "None", "youtube": "None", "website": "None", "summary": "None", "logo": "None", "latitude": 51.17738939428204, "longitude": -114.45062811985531}, "758428726RR0001": {"name": "Spread The Word Global Ministries (STW-GM)", "designationCode": "C", "categoryCode": "39", "address": "127 OAKLANDS CRES", "city": "RED DEER", "province": "AB", "country": "CA", "postalCode": "T4P0C3", "twitter": "None", "instagram": "None", "facebook": "None", "youtube": "None", "website": "None", "summary": "None", "logo": "None", "latitude": 52.28027648124546, "longitude": -113.85772319455826}, "853254803RR0001": {"name": "Spreading Ideas Providing Opportunities for Skills Development", "designationCode": "C", "categoryCode": "29", "address": "3 - 7755 WARDEN AVE", "city": "MARKHAM", "province": "ON", "country": "CA", "postalCode": "L3R0N3", "twitter": "None", "instagram": "None", "facebook": "None", "youtube": "None", "website": "None", "summary": "None", "logo": "None", "latitude": 43.83703468832584, "longitude": -79.328916378903}, "812941912RR0001": {"name": "Spring for Kids Foundation", "designationCode": "B", "categoryCode": "13", "address": "307-5687 YEW STREET", "city": "VANCOUVER", "province": "BC", "country": "CA", "postalCode": "V6M3Y3", "twitter": "None", "instagram": "None", "facebook": "None", "youtube": "None", "website": "None", "summary": "None", "logo": "None", "latitude": 49.23486095337296, "longitude": -123.15774350891546}, "119288918RR1597": {"name": "Spring Valley Congregation of Jehovah's Witnesses, Kelowna, British Columbia", "designationCode": "C", "categoryCode": "61", "address": "153 SURELL COURT", "city": "KELOWNA", "province": "BC", "country": "CA", "postalCode": "V1X7Y3", "twitter": "None", "instagram": "None", "facebook": "None", "youtube": "None", "website": "None", "summary": "None", "logo": "None", "latitude": 49.88990110130419, "longitude": -119.37487864859504}, "812787356RR0001": {"name": "Spring Valley Seniors Society", "designationCode": "C", "categoryCode": "09", "address": "355 TERAI COURT", "city": "KELOWNA", "province": "BC", "country": "CA", "postalCode": "V1X5X6", "twitter": "None", "instagram": "None", "facebook": "None", "youtube": "None", "website": "None", "summary": "None", "logo": "None", "latitude": 49.886028253146655, "longitude": -119.41625897989574}, "825613383RR0001": {"name": "Springbank Chinese Baptist Church", "designationCode": "C", "categoryCode": "31", "address": "68 SIMCOE PL SW", "city": "CALGARY", "province": "AB", "country": "CA", "postalCode": "T3H4T8", "twitter": "None", "instagram": "None", "facebook": "None", "youtube": "None", "website": "None", "summary": "None", "logo": "None", "latitude": 51.03705026894224, "longitude": -114.18353010531487}, "119288918RR1530": {"name": "Springbank Spanish Congregation of Jehovah's Witnesses, London, Ontario", "designationCode": "C", "categoryCode": "61", "address": "86 BASE LINE ROAD WEST", "city": "LONDON", "province": "ON", "country": "CA", "postalCode": "N6J1V2", "twitter": "None", "instagram": "None", "facebook": "None", "youtube": "None", "website": "None", "summary": "None", "logo": "None", "latitude": 42.958775460470754, "longitude": -81.26696544907378}, "815543525RR0001": {"name": "Springboard to Music", "designationCode": "C", "categoryCode": "22", "address": "3739 KINGSTON RD", "city": "SCARBOROUGH", "province": "ON", "country": "CA", "postalCode": "M1J3H4", "twitter": "None", "instagram": "None", "facebook": "None", "youtube": "None", "website": "None", "summary": "None", "logo": "None", "latitude": 43.74604740354325, "longitude": -79.2091674390618}, "817195597RR0001": {"name": "Springboard Danse / Danse Springboard", "designationCode": "C", "categoryCode": "22", "address": "302 CH DU CLUB-MARIN", "city": "VERDUN", "province": "QC", "country": "CA", "postalCode": "H3E1V5", "twitter": "None", "instagram": "None", "facebook": "None", "youtube": "None", "website": "None", "summary": "None", "logo": "None", "latitude": 45.459675031363616, "longitude": -73.55482431207817}, "119288918RR1441": {"name": "Springdale, Newfoundland, Congregation of Jehovah's Witnesses", "designationCode": "C", "categoryCode": "61", "address": "430 MAIN STREET", "city": "SPRINGDALE", "province": "NL", "country": "CA", "postalCode": "A0J1T0", "twitter": "None", "instagram": "None", "facebook": "None", "youtube": "None", "website": "None", "summary": "None", "logo": "None", "latitude": 49.5126060510867, "longitude": -56.028893320351344}, "847747250RR0001": {"name": "Springfield Cemetery Fund", "designationCode": "C", "categoryCode": "59", "address": "629 LAKE PLEASANT ROAD", "city": "SPRINGFIELD", "province": "NS", "country": "CA", "postalCode": "B0R1H0", "twitter": "None", "instagram": "None", "facebook": "None", "youtube": "None", "website": "None", "summary": "None", "logo": "None", "latitude": 44.619331180679815, "longitude": -64.87924064544971}, "821303609RR0001": {"name": "Springfield Charitable Trust", "designationCode": "B", "categoryCode": "45", "address": "2500-201 PORTAGE AVE", "city": "WINNIPEG", "province": "MB", "country": "CA", "postalCode": "R3B3K6", "twitter": "None", "instagram": "None", "facebook": "None", "youtube": "None", "website": "None", "summary": "None", "logo": "None", "latitude": 49.895359615067065, "longitude": -97.13919299627776}, "807870761RR0001": {"name": "Springfield West Gospel Hall", "designationCode": "C", "categoryCode": "39", "address": "3857 KENNEDY RD", "city": "COLEMAN", "province": "PE", "country": "CA", "postalCode": "C0B1H0", "twitter": "None", "instagram": "None", "facebook": "None", "youtube": "None", "website": "None", "summary": "None", "logo": "None", "latitude": 46.648159228980305, "longitude": -64.22387533870992}, "831133053RR0001": {"name": "Springhill Heritage Group", "designationCode": "C", "categoryCode": "50", "address": "26 INDUSTRIAL PARK DRIVE      PO BOX 240", "city": "SPRINGHILL", "province": "NS", "country": "CA", "postalCode": "B0M1X0", "twitter": "None", "instagram": "None", "facebook": "None", "youtube": "None", "website": "None", "summary": "None", "logo": "None", "latitude": 45.6450142425703, "longitude": -64.0643905799239}, "824073571RR0001": {"name": "Springs of Living Waters Church - Manitoulin", "designationCode": "C", "categoryCode": "39", "address": "186B QUEEN STREET             POST OFFICE BOX 97", "city": "MANITOWANING", "province": "ON", "country": "CA", "postalCode": "P0P1N0", "twitter": "None", "instagram": "None", "facebook": "None", "youtube": "None", "website": "None", "summary": "None", "logo": "None", "latitude": 46.20808396253055, "longitude": -82.07998865049936}, "838267136RR0001": {"name": "Springtide Collective for Democracy Society", "designationCode": "C", "categoryCode": "29", "address": "1 - 5549 ALMON ST", "city": "HALIFAX", "province": "NS", "country": "CA", "postalCode": "B3K1T4", "twitter": "None", "instagram": "None", "facebook": "None", "youtube": "None", "website": "None", "summary": "None", "logo": "None", "latitude": 44.659311704974286, "longitude": -63.596110011945214}, "119288918RR0781": {"name": "Springwater Congregation of Jehovah's Witnesses, Barrie, Ontario", "designationCode": "C", "categoryCode": "61", "address": "115 FERRIS LANE", "city": "BARRIE", "province": "ON", "country": "CA", "postalCode": "L4M2Y1", "twitter": "None", "instagram": "None", "facebook": "None", "youtube": "None", "website": "None", "summary": "None", "logo": "None", "latitude": 44.4068773277743, "longitude": -79.69242296251956}, "842083594RR0001": {"name": "Springwater Park Foundation Incorporated", "designationCode": "B", "categoryCode": "03", "address": "1545 NURSERY RD", "city": "MINESING", "province": "ON", "country": "CA", "postalCode": "L9X1A2", "twitter": "None", "instagram": "None", "facebook": "None", "youtube": "None", "website": "None", "summary": "None", "logo": "None", "latitude": 44.47326127791502, "longitude": -79.78561958125249}, "846725018RR0001": {"name": "Springwater Township Public Library Board", "designationCode": "C", "categoryCode": "50", "address": "12 FINLAY MILL ROAD           P O BOX 129", "city": "MIDHURST", "province": "ON", "country": "CA", "postalCode": "L0L1X0", "twitter": "None", "instagram": "None", "facebook": "None", "youtube": "None", "website": "None", "summary": "None", "logo": "None", "latitude": 44.43966029279246, "longitude": -79.7318988818826}, "890310725RR0001": {"name": "Spruce Grove Global Connections Church & Ministries.", "designationCode": "C", "categoryCode": "47", "address": "RR 1", "city": "ONOWAY", "province": "AB", "country": "CA", "postalCode": "T0E1V0", "twitter": "None", "instagram": "None", "facebook": "None", "youtube": "None", "website": "None", "summary": "None", "logo": "None", "latitude": 53.70302000000004, "longitude": -114.19152999999994}, "821683364RR0001": {"name": "Spruce Meadows Leg Up Foundation", "designationCode": "A", "categoryCode": "03", "address": "18011 SPRUCE MEADOWS SW       RR #9", "city": "CALGARY", "province": "AB", "country": "CA", "postalCode": "T2J5G5", "twitter": "None", "instagram": "None", "facebook": "None", "youtube": "None", "website": "None", "summary": "None", "logo": "None", "latitude": 50.88857000000007, "longitude": -114.09517999999997}, "833467160RR0001": {"name": "Spruceland Baptist Church", "designationCode": "C", "categoryCode": "31", "address": "P.O.BOX 2694", "city": "PRINCE GEORGE", "province": "BC", "country": "CA", "postalCode": "V2N4T5", "twitter": "None", "instagram": "None", "facebook": "None", "youtube": "None", "website": "None", "summary": "None", "logo": "None", "latitude": 53.91241800000006, "longitude": -122.74463149999994}, "853209922RR0001": {"name": "Squamish Historical Society", "designationCode": "C", "categoryCode": "50", "address": "P.O. BOX 191", "city": "SQUAMISH", "province": "BC", "country": "CA", "postalCode": "V8B0A2", "twitter": "None", "instagram": "None", "facebook": "None", "youtube": "None", "website": "None", "summary": "None", "logo": "None", "latitude": 49.69853700000006, "longitude": -123.15505399999994}, "892297888RR0001": {"name": "Squamish Hospital Foundation", "designationCode": "A", "categoryCode": "13", "address": "PO BOX 763", "city": "GARIBALDI HIGHLANDS", "province": "BC", "country": "CA", "postalCode": "V0N1T0", "twitter": "None", "instagram": "None", "facebook": "None", "youtube": "None", "website": "None", "summary": "None", "logo": "None", "latitude": 49.742860000000064, "longitude": -123.11049999999994}, "821248051RR0001": {"name": "Squamish Montessori Society", "designationCode": "C", "categoryCode": "20", "address": "103 - 42000 LOGGERS LANE", "city": "SQUAMISH", "province": "BC", "country": "CA", "postalCode": "V8B0H3", "twitter": "None", "instagram": "None", "facebook": "None", "youtube": "None", "website": "None", "summary": "None", "logo": "None", "latitude": 49.72604222952857, "longitude": -123.14060909264852}, "873652861RR0001": {"name": "Squamish River Watershed Society", "designationCode": "C", "categoryCode": "59", "address": "PO BOX 1791", "city": "SQUAMISH", "province": "BC", "country": "CA", "postalCode": "V8B0B3", "twitter": "None", "instagram": "None", "facebook": "None", "youtube": "None", "website": "None", "summary": "None", "logo": "None", "latitude": 49.69853700000006, "longitude": -123.15505399999994}, "847051307RR0001": {"name": "Squamish Streamkeepers Society", "designationCode": "C", "categoryCode": "52", "address": "POST OFFICE BOX 122", "city": "BRACKENDALE", "province": "BC", "country": "CA", "postalCode": "V0N1H0", "twitter": "None", "instagram": "None", "facebook": "None", "youtube": "None", "website": "None", "summary": "None", "logo": "None", "latitude": 49.765930000000026, "longitude": -123.13947999999999}, "866968373RR0001": {"name": "Squamish Waldorf School Association", "designationCode": "C", "categoryCode": "02", "address": "PO 5356,38265 WESTWAY AVE", "city": "SQUAMISH", "province": "BC", "country": "CA", "postalCode": "V8B0C2", "twitter": "None", "instagram": "None", "facebook": "None", "youtube": "None", "website": "None", "summary": "None", "logo": "None", "latitude": 49.702076232615646, "longitude": -123.1306547816086}, "833038615RR0001": {"name": "Sri Anagha Datta Society of Calgary", "designationCode": "C", "categoryCode": "48", "address": "167 SIERRA VISTA CIRCLE SW", "city": "CALGARY", "province": "AB", "country": "CA", "postalCode": "T3H3A4", "twitter": "None", "instagram": "None", "facebook": "None", "youtube": "None", "website": "None", "summary": "None", "logo": "None", "latitude": 51.02158689702238, "longitude": -114.18169533582439}, "809530108RR0001": {"name": "Sri Guru Arjan Dev Ji Sikh Society Inc.", "designationCode": "C", "categoryCode": "62", "address": "250 - 15 WOROBETZ PL", "city": "SASKATOON", "province": "SK", "country": "CA", "postalCode": "S7L6R4", "twitter": "None", "instagram": "None", "facebook": "None", "youtube": "None", "website": "None", "summary": "None", "logo": "None", "latitude": 52.13064645265181, "longitude": -106.72645310975828}, "827321449RR0001": {"name": "Sri Guru Ravidass Sabha Brampton (Canada)", "designationCode": "C", "categoryCode": "62", "address": "7 GORERIDGE CRESCENT", "city": "BRAMPTON", "province": "ON", "country": "CA", "postalCode": "L6P1P2", "twitter": "None", "instagram": "None", "facebook": "None", "youtube": "None", "website": "None", "summary": "None", "logo": "None", "latitude": 43.78163830558595, "longitude": -79.66269329920932}, "833211618RR0001": {"name": "Sri Guru Singh Sabha Gurdwara Association", "designationCode": "C", "categoryCode": "62", "address": "202 - 9527 120 ST", "city": "DELTA", "province": "BC", "country": "CA", "postalCode": "V4C6S3", "twitter": "None", "instagram": "None", "facebook": "None", "youtube": "None", "website": "None", "summary": "None", "logo": "None", "latitude": 49.175757000000004, "longitude": -122.89030452723732}, "801001405RR0001": {"name": "Sri Krishna Brundavana Religious and Charitable Institution", "designationCode": "C", "categoryCode": "48", "address": "E - 3005 ISLINGTON AVE", "city": "NORTH YORK", "province": "ON", "country": "CA", "postalCode": "M9L2K9", "twitter": "None", "instagram": "None", "facebook": "None", "youtube": "None", "website": "None", "summary": "None", "logo": "None", "latitude": 43.75931930059431, "longitude": -79.57122344751592}, "834168452RR0001": {"name": "Sri Lanka Humanitarian Foundation of Canada", "designationCode": "C", "categoryCode": "09", "address": "11304-9 AVENUE", "city": "EDMONTON", "province": "AB", "country": "CA", "postalCode": "T6J6W4", "twitter": "None", "instagram": "None", "facebook": "None", "youtube": "None", "website": "None", "summary": "None", "logo": "None", "latitude": 53.439219669455746, "longitude": -113.52529293271382}, "836382226RR0001": {"name": "Sri Lanka Islamic Foundation of Ontario", "designationCode": "C", "categoryCode": "60", "address": "2201 ELLESMERE ROAD", "city": "SCARBOROUGH", "province": "ON", "country": "CA", "postalCode": "M1G3M6", "twitter": "None", "instagram": "None", "facebook": "None", "youtube": "None", "website": "None", "summary": "None", "logo": "None", "latitude": 43.776766878123624, "longitude": -79.23011391727748}, "802800045RR0001": {"name": "Sri Narayani Peedam of Calgary Centre", "designationCode": "C", "categoryCode": "48", "address": "117 PATTON PL SW", "city": "CALGARY", "province": "AB", "country": "CA", "postalCode": "T2V5E1", "twitter": "None", "instagram": "None", "facebook": "None", "youtube": "None", "website": "None", "summary": "None", "logo": "None", "latitude": 50.96915153318127, "longitude": -114.09711233293885}, "828944397RR0001": {"name": "Sri Samayapuram Mariamman Kovil", "designationCode": "C", "categoryCode": "48", "address": "6 GRAYBARK CRESCENT", "city": "SCARBOROUGH", "province": "ON", "country": "CA", "postalCode": "M1C4J1", "twitter": "None", "instagram": "None", "facebook": "None", "youtube": "None", "website": "None", "summary": "None", "logo": "None", "latitude": 43.795147767413035, "longitude": -79.18442730532617}, "841013550RR0001": {"name": "Sri Sathya Sai Baba Centre of Brampton Inc.", "designationCode": "C", "categoryCode": "48", "address": "65 PARKSIDE DR", "city": "BRAMPTON", "province": "ON", "country": "CA", "postalCode": "L6Y3A1", "twitter": "None", "instagram": "None", "facebook": "None", "youtube": "None", "website": "None", "summary": "None", "logo": "None", "latitude": 43.660439548444714, "longitude": -79.74657492587582}, "865091359RR0001": {"name": "Sri Sathya Sai Baba Centre of Middlefield", "designationCode": "C", "categoryCode": "48", "address": "80F. NAHSDENE ROAD            UNIT 130", "city": "TORONTO", "province": "ON", "country": "CA", "postalCode": "M1V5E4", "twitter": "None", "instagram": "None", "facebook": "None", "youtube": "None", "website": "None", "summary": "None", "logo": "None", "latitude": 43.818785413352366, "longitude": -79.25349667399513}, "810030080RR0001": {"name": "Sri Sathya Sai Baba Centre of Mississauga-Central", "designationCode": "C", "categoryCode": "49", "address": "226 BRISTOL ROAD WEST", "city": "MISSISSAUGA", "province": "ON", "country": "CA", "postalCode": "L5R2H1", "twitter": "None", "instagram": "None", "facebook": "None", "youtube": "None", "website": "None", "summary": "None", "logo": "None", "latitude": 43.60947675186114, "longitude": -79.66907685411758}, "860536093RR0001": {"name": "Sri Sathya Sai Baba Centre Of Saskatoon Corp.", "designationCode": "C", "categoryCode": "48", "address": "540 NESSLIN CR", "city": "SASKATOON", "province": "SK", "country": "CA", "postalCode": "S7J4V5", "twitter": "None", "instagram": "None", "facebook": "None", "youtube": "None", "website": "None", "summary": "None", "logo": "None", "latitude": 52.096254472964226, "longitude": -106.58455506719926}, "853720662RR0001": {"name": "Sri Selvavinayagar Temple of Canada", "designationCode": "C", "categoryCode": "48", "address": "3411 MCNICOLL AVE             UNIT 1-3", "city": "TORONTO", "province": "ON", "country": "CA", "postalCode": "M1V4B7", "twitter": "None", "instagram": "None", "facebook": "None", "youtube": "None", "website": "None", "summary": "None", "logo": "None", "latitude": 43.821503477090516, "longitude": -79.25912364167014}, "792841124RR0001": {"name": "Sri Shirdi Sai Sansthan", "designationCode": "C", "categoryCode": "48", "address": "5845 WHITEHORN AVE", "city": "MISSISSAUGA", "province": "ON", "country": "CA", "postalCode": "L5V2W6", "twitter": "None", "instagram": "None", "facebook": "None", "youtube": "None", "website": "None", "summary": "None", "logo": "None", "latitude": 43.597132071065765, "longitude": -79.70451322687416}, "823015227RR0001": {"name": "Sri Siva Hindu Temple of Canada", "designationCode": "C", "categoryCode": "48", "address": "596 FARWELL CRES", "city": "MISSISSAUGA", "province": "ON", "country": "CA", "postalCode": "L5R2A8", "twitter": "None", "instagram": "None", "facebook": "None", "youtube": "None", "website": "None", "summary": "None", "logo": "None", "latitude": 43.58919381098166, "longitude": -79.66023351483075}, "838232312RR0001": {"name": "Sri Yoga Hanuman Temple Society", "designationCode": "C", "categoryCode": "48", "address": "4, 13415 COMBER WAY", "city": "SURREY", "province": "BC", "country": "CA", "postalCode": "V3W5V8", "twitter": "None", "instagram": "None", "facebook": "None", "youtube": "None", "website": "None", "summary": "None", "logo": "None", "latitude": 49.13498549248697, "longitude": -122.8515749376166}, "107910259RR0171": {"name": "Ss. Salvador do Mundo's Parish", "designationCode": "C", "categoryCode": "38", "address": "1225 MELTON DRIVE", "city": "MISSISSAUGA", "province": "ON", "country": "CA", "postalCode": "L4Y4B1", "twitter": "None", "instagram": "None", "facebook": "None", "youtube": "None", "website": "None", "summary": "None", "logo": "None", "latitude": 43.59907938219164, "longitude": -79.57838148225505}, "807612494RR0001": {"name": "St Chad's Anglican Church Toronto", "designationCode": "C", "categoryCode": "30", "address": "1245 DUPONT STREET            P.O. BOX 99013 GALLERIA", "city": "TORONTO", "province": "ON", "country": "CA", "postalCode": "M6H4H7", "twitter": "None", "instagram": "None", "facebook": "None", "youtube": "None", "website": "None", "summary": "None", "logo": "None", "latitude": 43.66809776819243, "longitude": -79.44194655118602}, "729977322RR0001": {"name": "St James Anglican Fellowship", "designationCode": "C", "categoryCode": "30", "address": "15 SOUTH STREET", "city": "TRENTON", "province": "ON", "country": "CA", "postalCode": "K8V2N5", "twitter": "None", "instagram": "None", "facebook": "None", "youtube": "None", "website": "None", "summary": "None", "logo": "None", "latitude": 44.10604483596862, "longitude": -77.5699929190665}, "843432089RR0001": {"name": "St James Evangelical Lutheran Church, Perth East", "designationCode": "C", "categoryCode": "32", "address": "251 WOODLAND DR", "city": "OAKVILLE", "province": "ON", "country": "CA", "postalCode": "L6J4W6", "twitter": "None", "instagram": "None", "facebook": "None", "youtube": "None", "website": "None", "summary": "None", "logo": "None", "latitude": 43.47354888066241, "longitude": -79.64776855133024}}