{"808166375RR0001": {"name": "NOTCH HILL CEMETERY SOCIETY", "designationCode": "C", "categoryCode": "59", "address": "2241 TA LANA TRAIL", "city": "SORRENTO", "province": "BC", "country": "CA", "postalCode": "V0E2W2", "twitter": "None", "instagram": "None", "facebook": "None", "youtube": "None", "website": "None", "summary": "None", "logo": "None", "latitude": 50.88355050043269, "longitude": -119.39501957216227}, "885640607RR0001": {"name": "NOTRE DAME ALUMNI FOUNDATION", "designationCode": "A", "categoryCode": "23", "address": "200 - 2000 WEST 12TH AVENUE   MORROW & CO", "city": "VANCOUVER", "province": "BC", "country": "CA", "postalCode": "V6J2G2", "twitter": "None", "instagram": "None", "facebook": "None", "youtube": "None", "website": "None", "summary": "None", "logo": "None", "latitude": 49.26088793451594, "longitude": -123.1458751371245}, "887726438RR0001": {"name": "NOTRE DAME CATHOLIC SCHOOL COUNCIL", "designationCode": "C", "categoryCode": "21", "address": "6559 CASWELL STREET", "city": "NIAGARA FALLS", "province": "ON", "country": "CA", "postalCode": "L2J1C2", "twitter": "None", "instagram": "None", "facebook": "None", "youtube": "None", "website": "None", "summary": "None", "logo": "None", "latitude": 43.116153716231956, "longitude": -79.1053852797095}, "888104841RR0001": {"name": "NOTRE DAME DES ROCHEUSES FOUNDATION INC", "designationCode": "B", "categoryCode": "53", "address": "710 STEIGER PL", "city": "SASKATOON", "province": "SK", "country": "CA", "postalCode": "S7N4K3", "twitter": "None", "instagram": "None", "facebook": "None", "youtube": "None", "website": "None", "summary": "None", "logo": "None", "latitude": 52.14123894589981, "longitude": -106.56360165124944}, "107585085RR0046": {"name": "NOTRE DAME DES VICTOIRES PARISH, VICTOIRE, SK", "designationCode": "C", "categoryCode": "38", "address": "PO BOX 131", "city": "VICTOIRE", "province": "SK", "country": "CA", "postalCode": "S0J2X0", "twitter": "None", "instagram": "None", "facebook": "None", "youtube": "None", "website": "None", "summary": "None", "logo": "None", "latitude": 53.49738000000008, "longitude": -107.05054999999999}, "107585085RR0055": {"name": "NOTRE DAME DU LAC PARISH, CHITEK LAKE, SK", "designationCode": "C", "categoryCode": "38", "address": "BOX 142", "city": "CHITEK LAKE", "province": "SK", "country": "CA", "postalCode": "S0J0L0", "twitter": "None", "instagram": "None", "facebook": "None", "youtube": "None", "website": "None", "summary": "None", "logo": "None", "latitude": 53.72227000000004, "longitude": -107.71506999999997}, "119264174RR0034": {"name": "NOTRE DAME DU PORTAGE CHURCH", "designationCode": "C", "categoryCode": "38", "address": "222 FIRST STREET NORTH", "city": "KENORA", "province": "ON", "country": "CA", "postalCode": "P9N2K4", "twitter": "None", "instagram": "None", "facebook": "None", "youtube": "None", "website": "None", "summary": "None", "logo": "None", "latitude": 49.769191026371956, "longitude": -94.48743341243006}, "873867071RR0001": {"name": "NOTRE DAME ELEMENTARY (MORINVILLE) PARENT FUNDRAISING ASSOCIATION", "designationCode": "C", "categoryCode": "21", "address": "9717 MORINVILLE DRIVE", "city": "MORINVILLE", "province": "AB", "country": "CA", "postalCode": "T8R1M1", "twitter": "None", "instagram": "None", "facebook": "None", "youtube": "None", "website": "None", "summary": "None", "logo": "None", "latitude": 53.79763019842607, "longitude": -113.63174833451002}, "119063063RR0001": {"name": "NOTRE DAME MISSIONS", "designationCode": "C", "categoryCode": "09", "address": "1921 SNAKE RD", "city": "WATERDOWN", "province": "ON", "country": "CA", "postalCode": "L0R2H0", "twitter": "None", "instagram": "None", "facebook": "None", "youtube": "None", "website": "None", "summary": "None", "logo": "None", "latitude": 43.33574400000006, "longitude": -79.89364249999993}, "119063089RR0001": {"name": "NOTRE DAME PARISH", "designationCode": "C", "categoryCode": "38", "address": "PO BOX 179", "city": "STE ROSE DU LAC", "province": "MB", "country": "CA", "postalCode": "R0L1S0", "twitter": "None", "instagram": "None", "facebook": "None", "youtube": "None", "website": "None", "summary": "None", "logo": "None"}, "107585085RR0033": {"name": "NOTRE DAME PARISH, NORTH BATTLEFORD, SK", "designationCode": "C", "categoryCode": "38", "address": "1201-105 STREET", "city": "NORTH BATTLEFORD", "province": "SK", "country": "CA", "postalCode": "S9A1S8", "twitter": "None", "instagram": "None", "facebook": "None", "youtube": "None", "website": "None", "summary": "None", "logo": "None", "latitude": 52.77525236081135, "longitude": -108.2917174271739}, "119063105RR0001": {"name": "NOTRE DAME RECREATION DISTRICT BOARD", "designationCode": "C", "categoryCode": "56", "address": "PO BOX 529", "city": "NOTRE DAME DE LOURDES", "province": "MB", "country": "CA", "postalCode": "R0G1M0", "twitter": "None", "instagram": "None", "facebook": "None", "youtube": "None", "website": "None", "summary": "None", "logo": "None", "latitude": 49.53271200000006, "longitude": -98.55750049999993}, "119063113RR0001": {"name": "NOTRE DAME ROMAN CATHOLIC CHURCH", "designationCode": "C", "categoryCode": "38", "address": "269 JEMIMA ST", "city": "SELKIRK", "province": "MB", "country": "CA", "postalCode": "R1A1W9", "twitter": "None", "instagram": "None", "facebook": "None", "youtube": "None", "website": "None", "summary": "None", "logo": "None", "latitude": 50.13966772630058, "longitude": -96.88188842375719}, "119063121RR0001": {"name": "NOTRE JARDIN D'ENFANCE", "designationCode": "C", "categoryCode": "22", "address": "C.P. 361 METEGHAN", "city": "CTE' DE DIGBY", "province": "NS", "country": "CA", "postalCode": "B0W2J0", "twitter": "None", "instagram": "None", "facebook": "None", "youtube": "None", "website": "None", "summary": "None", "logo": "None", "latitude": 44.168405213897216, "longitude": -66.15996204131507}, "863881496RR0001": {"name": "NOTRE MAISON", "designationCode": "C", "categoryCode": "01", "address": "C.P. 1153", "city": "RIVIERE-DU-LOUP", "province": "QC", "country": "CA", "postalCode": "G5R4C3", "twitter": "None", "instagram": "None", "facebook": "None", "youtube": "None", "website": "None", "summary": "None", "logo": "None", "latitude": 47.77939500000005, "longitude": -69.56544499999994}, "125409243RR0001": {"name": "NOTRE-DAME CEMETERY", "designationCode": "C", "categoryCode": "59", "address": "4660 BANK ST", "city": "OTTAWA", "province": "ON", "country": "CA", "postalCode": "K1T3W7", "twitter": "None", "instagram": "None", "facebook": "None", "youtube": "None", "website": "None", "summary": "None", "logo": "None", "latitude": 45.32702101826721, "longitude": -75.5976190059086}, "131106098RR0007": {"name": "NOTRE-DAME DE FATIMA MISSION", "designationCode": "C", "categoryCode": "38", "address": "450 RUE PRINCIPALE N", "city": "AMOS", "province": "QC", "country": "CA", "postalCode": "J9T2M1", "twitter": "None", "instagram": "None", "facebook": "None", "youtube": "None", "website": "None", "summary": "None", "logo": "None", "latitude": 48.580161472964214, "longitude": -78.11595073218294}, "107585515RR0013": {"name": "NOTRE-DAME DE L'ASSOMPTION CHURCH", "designationCode": "C", "categoryCode": "38", "address": "815, RUE KITCHENER            CP 817", "city": "HEARST", "province": "ON", "country": "CA", "postalCode": "P0L1N0", "twitter": "None", "instagram": "None", "facebook": "None", "youtube": "None", "website": "None", "summary": "None", "logo": "None", "latitude": 49.68441432364717, "longitude": -83.66386912547527}, "119122786RR0012": {"name": "NOTRE-DAME PARISH", "designationCode": "C", "categoryCode": "39", "address": "6500 SOUTHRIDGE AVE", "city": "PRINCE GEORGE", "province": "BC", "country": "CA", "postalCode": "V2N5P9", "twitter": "None", "instagram": "None", "facebook": "None", "youtube": "None", "website": "None", "summary": "None", "logo": "None", "latitude": 53.86420563941114, "longitude": -122.78374828519728}, "128967353RR0096": {"name": "NOTRE-DAME-DE-LOURDES (VANIER)", "designationCode": "C", "categoryCode": "38", "address": "435 CHEMIN MONTREAL", "city": "OTTAWA", "province": "ON", "country": "CA", "postalCode": "K1K0V2", "twitter": "None", "instagram": "None", "facebook": "None", "youtube": "None", "website": "None", "summary": "None", "logo": "None", "latitude": 45.439526845460996, "longitude": -75.65174067115782}, "119063162RR0001": {"name": "NOTTAWA UNITED CHURCH", "designationCode": "C", "categoryCode": "44", "address": "P.O. BOX 140", "city": "NOTTAWA", "province": "ON", "country": "CA", "postalCode": "L0M1P0", "twitter": "None", "instagram": "None", "facebook": "None", "youtube": "None", "website": "None", "summary": "None", "logo": "None", "latitude": 44.459610000000055, "longitude": -80.20835999999997}, "119288918RR0409": {"name": "NOTTAWASAGA - COLLINGWOOD CONGREGATION OF JEHOVAH'S WITNESSES", "designationCode": "C", "categoryCode": "61", "address": "2981 10TH CON. N. NOTTEWASAGA", "city": "COLLINGWOOD", "province": "ON", "country": "CA", "postalCode": "L9Y3Y9", "twitter": "None", "instagram": "None", "facebook": "None", "youtube": "None", "website": "None", "summary": "None", "logo": "None", "latitude": 44.47154400000005, "longitude": -80.25405649999993}, "107787780RR0001": {"name": "NOTTAWASAGA VALLEY CONSERVATION AUTHORITY", "designationCode": "C", "categoryCode": "52", "address": "8195 LINE 8", "city": "UTOPIA", "province": "ON", "country": "CA", "postalCode": "L0M1T0", "twitter": "None", "instagram": "None", "facebook": "None", "youtube": "None", "website": "None", "summary": "None", "logo": "None", "latitude": 44.31683848816264, "longitude": -79.7992461064091}, "894065655RR0001": {"name": "NOTUKEU HERITAGE MUSEUM INC.", "designationCode": "C", "categoryCode": "50", "address": "BOX 11                        110 RAILWAY AVENUE", "city": "PONTEIX", "province": "SK", "country": "CA", "postalCode": "S0N1Z0", "twitter": "None", "instagram": "None", "facebook": "None", "youtube": "None", "website": "None", "summary": "None", "logo": "None", "latitude": 49.74797966005425, "longitude": -107.48920101629719}, "879216414RR0001": {"name": "NOURRI-SOURCE - LANAUDIERE", "designationCode": "C", "categoryCode": "19", "address": "231-2500 BOUL MASCOUCHE", "city": "MASCOUCHE", "province": "QC", "country": "CA", "postalCode": "J7K0H5", "twitter": "None", "instagram": "None", "facebook": "None", "youtube": "None", "website": "None", "summary": "None", "logo": "None", "latitude": 45.74389239018424, "longitude": -73.61772075862127}, "886736800RR0001": {"name": "NOURRI-SOURCE - MONTEREGIE", "designationCode": "C", "categoryCode": "11", "address": "318 RUE GANIVET", "city": "RIGAUD", "province": "QC", "country": "CA", "postalCode": "J0P1P0", "twitter": "None", "instagram": "None", "facebook": "None", "youtube": "None", "website": "None", "summary": "None", "logo": "None", "latitude": 45.44851625728549, "longitude": -74.30951871801601}, "869781815RR0001": {"name": "NOURRI-SOURCE-LAURENTIDES", "designationCode": "C", "categoryCode": "19", "address": "517 RUE SAINT-GEORGES", "city": "SAINT-JEROME", "province": "QC", "country": "CA", "postalCode": "J7Z5B6", "twitter": "None", "instagram": "None", "facebook": "None", "youtube": "None", "website": "None", "summary": "None", "logo": "None", "latitude": 45.78168987676728, "longitude": -74.00182336799604}, "874989213RR0001": {"name": "NOURRI-SOURCE-MONTREAL", "designationCode": "C", "categoryCode": "11", "address": "6006 RUE DE BORDEAUX", "city": "MONTREAL", "province": "QC", "country": "CA", "postalCode": "H2G2R7", "twitter": "None", "instagram": "None", "facebook": "None", "youtube": "None", "website": "None", "summary": "None", "logo": "None", "latitude": 45.54322581513661, "longitude": -73.59150363601465}, "141481630RR0001": {"name": "NOUVEAU REGARD, ASSOCIATION DE PARENTS ET AMIS DE LA PERSONNE ATTEINTE DE MALADIE MENTALE DE LA GASPESIE", "designationCode": "C", "categoryCode": "09", "address": "108 CHEMIN CYR", "city": "NEW RICHMOND", "province": "QC", "country": "CA", "postalCode": "G0C2B0", "twitter": "None", "instagram": "None", "facebook": "None", "youtube": "None", "website": "None", "summary": "None", "logo": "None", "latitude": 48.16188054564611, "longitude": -65.8568862630852}, "130483365RR0001": {"name": "NOUVEL ENSEMBLE MODERNE", "designationCode": "C", "categoryCode": "22", "address": "200, AVENUE VINCENT-D'INDY    C.P 6128 SUCC. CENTRE-VILLE", "city": "MONTR\u00c9AL", "province": "QC", "country": "CA", "postalCode": "H3C3J7", "twitter": "None", "instagram": "None", "facebook": "None", "youtube": "None", "website": "None", "summary": "None", "logo": "None", "latitude": 45.49833600000005, "longitude": -73.55148649999994}, "863532081RR0001": {"name": "NOUVEL ENVOL", "designationCode": "C", "categoryCode": "10", "address": "3205 BOUL. ROME, CASIER 1", "city": "BROSSARD", "province": "QC", "country": "CA", "postalCode": "J4N1R2", "twitter": "None", "instagram": "None", "facebook": "None", "youtube": "None", "website": "None", "summary": "None", "logo": "None", "latitude": 45.4491920868488, "longitude": -73.4546381517108}, "119063212RR0001": {"name": "NOUVEL ESSOR", "designationCode": "C", "categoryCode": "09", "address": "191, RUE LANGEVIN", "city": "SAINTE-JUSTINE", "province": "QC", "country": "CA", "postalCode": "G0R1Y0", "twitter": "None", "instagram": "None", "facebook": "None", "youtube": "None", "website": "None", "summary": "None", "logo": "None", "latitude": 46.409050897570644, "longitude": -70.34756712917667}, "896211513RR0001": {"name": "NOUVELLE APPROCHE HUMANITAIRE D'APPRENTISSAGE", "designationCode": "C", "categoryCode": "57", "address": "5995 HOCHELAGA", "city": "MONTREAL", "province": "QC", "country": "CA", "postalCode": "H1N1X3", "twitter": "None", "instagram": "None", "facebook": "None", "youtube": "None", "website": "None", "summary": "None", "logo": "None", "latitude": 45.57311069553922, "longitude": -73.5359297616133}, "858622038RR0001": {"name": "NOUVELLE VISION DES JEUNES / NEW VISION OF YOUNG PEOPLE", "designationCode": "C", "categoryCode": "09", "address": "2-8652 RUE BASSWOOD", "city": "PIERREFONDS", "province": "QC", "country": "CA", "postalCode": "H8Y1S7", "twitter": "None", "instagram": "None", "facebook": "None", "youtube": "None", "website": "None", "summary": "None", "logo": "None", "latitude": 45.50066061336497, "longitude": -73.774714904784}, "860613645RR0001": {"name": "NOVA CENTRAL SCHOOL DISTRICT TRUST FUND", "designationCode": "C", "categoryCode": "21", "address": "95 ELIZABETH AVE", "city": "ST. JOHN'S", "province": "NL", "country": "CA", "postalCode": "A1B1R6", "twitter": "None", "instagram": "None", "facebook": "None", "youtube": "None", "website": "None", "summary": "None", "logo": "None", "latitude": 47.581317106555645, "longitude": -52.71419621645815}, "119144616RR0001": {"name": "NOVA HOUSE INC.", "designationCode": "C", "categoryCode": "01", "address": "BOX 337", "city": "SELKIRK", "province": "MB", "country": "CA", "postalCode": "R1A2B3", "twitter": "None", "instagram": "None", "facebook": "None", "youtube": "None", "website": "None", "summary": "None", "logo": "None", "latitude": 50.14571100000006, "longitude": -96.87391999999993}, "125777011RR0001": {"name": "NOVA HUDSON", "designationCode": "C", "categoryCode": "11", "address": "PO BOX 66", "city": "HUDSON HEIGHTS", "province": "QC", "country": "CA", "postalCode": "J0P1J0", "twitter": "None", "instagram": "None", "facebook": "None", "youtube": "None", "website": "None", "summary": "None", "logo": "None", "latitude": 45.46838000000008, "longitude": -74.16361999999998}, "897435723RR0001": {"name": "NOVA JERUSALEM PORTUGUESA CHURCH INC.", "designationCode": "C", "categoryCode": "39", "address": "7 GLENORA AVE", "city": "TORONTO", "province": "ON", "country": "CA", "postalCode": "M6C3Y2", "twitter": "None", "instagram": "None", "facebook": "None", "youtube": "None", "website": "None", "summary": "None", "logo": "None", "latitude": 43.691747327178696, "longitude": -79.43875418014225}, "131294191RR0001": {"name": "NOVA L'OUEST DE L'ILE/NOVA WEST ISLAND", "designationCode": "C", "categoryCode": "11", "address": "447A BOUL BEACONSFIELD", "city": "BEASCONSFIELD", "province": "QC", "country": "CA", "postalCode": "H9W4C2", "twitter": "None", "instagram": "None", "facebook": "None", "youtube": "None", "website": "None", "summary": "None", "logo": "None", "latitude": 45.41997490137474, "longitude": -73.8796744453938}, "130350184RR0001": {"name": "NOVA MONTREAL", "designationCode": "C", "categoryCode": "11", "address": "310 VICTORIA AVE              SUITE 403", "city": "WESTMOUNT", "province": "QC", "country": "CA", "postalCode": "H3Z2M9", "twitter": "None", "instagram": "None", "facebook": "None", "youtube": "None", "website": "None", "summary": "None", "logo": "None", "latitude": 45.47766382234996, "longitude": -73.60060315433651}, "131475303RR0001": {"name": "NOVA MONTREAL FOUNDATION INC. - FONDATION NOVA MONTREAL INC.", "designationCode": "A", "categoryCode": "13", "address": "310 VICTORIA AV               SUITE 403", "city": "WESTMOUNT", "province": "QC", "country": "CA", "postalCode": "H3Z2M9", "twitter": "None", "instagram": "None", "facebook": "None", "youtube": "None", "website": "None", "summary": "None", "logo": "None", "latitude": 45.47766382234996, "longitude": -73.60060315433651}, "137152385RR0001": {"name": "NOVA SCOTIA - GAMBIA ASSOCIATION", "designationCode": "C", "categoryCode": "21", "address": "17-1574 ARGYLE ST", "city": "HALIFAX", "province": "NS", "country": "CA", "postalCode": "B3J2B3", "twitter": "None", "instagram": "None", "facebook": "None", "youtube": "None", "website": "None", "summary": "None", "logo": "None", "latitude": 44.64536955314791, "longitude": -63.57395294422634}, "119063253RR0001": {"name": "NOVA SCOTIA ADVENTIST CHRISTIAN CONFERENCE", "designationCode": "C", "categoryCode": "39", "address": "62 PECKS HILL", "city": "BEAR RIVER", "province": "NS", "country": "CA", "postalCode": "B0S1B0", "twitter": "None", "instagram": "None", "facebook": "None", "youtube": "None", "website": "None", "summary": "None", "logo": "None", "latitude": 44.572383576461455, "longitude": -65.63002643464705}, "106842529RR0001": {"name": "NOVA SCOTIA ASSOCIATION FOR COMMUNITY LIVING", "designationCode": "C", "categoryCode": "09", "address": "3845 JOSEPH HOWE DRIVE        SUITE 101", "city": "HALIFAX", "province": "NS", "country": "CA", "postalCode": "B3L4H9", "twitter": "None", "instagram": "None", "facebook": "None", "youtube": "None", "website": "None", "summary": "None", "logo": "None", "latitude": 44.660543519024685, "longitude": -63.627983858063644}, "873023550RR0001": {"name": "NOVA SCOTIA BIRD SOCIETY", "designationCode": "C", "categoryCode": "54", "address": "1747 SUMMER STREET            N.S. MUSEUM OF NATURAL HISTORY", "city": "HALIFAX", "province": "NS", "country": "CA", "postalCode": "B3H3A6", "twitter": "None", "instagram": "None", "facebook": "None", "youtube": "None", "website": "None", "summary": "None", "logo": "None", "latitude": 44.644553992660654, "longitude": -63.584995502446446}, "119063311RR0001": {"name": "NOVA SCOTIA CHORAL FEDERATION", "designationCode": "C", "categoryCode": "22", "address": "1113 MARGINAL ROAD", "city": "HALIFAX", "province": "NS", "country": "CA", "postalCode": "B3H4P7", "twitter": "None", "instagram": "None", "facebook": "None", "youtube": "None", "website": "None", "summary": "None", "logo": "None", "latitude": 44.639260983351576, "longitude": -63.56640067941039}, "119288918RR1317": {"name": "NOVA SCOTIA CIRCUIT NO 1-A OF JEHOVAH'S WITNESSES", "designationCode": "C", "categoryCode": "61", "address": "P.O. BOX 815", "city": "WINDSOR", "province": "NS", "country": "CA", "postalCode": "B0N2T0", "twitter": "None", "instagram": "None", "facebook": "None", "youtube": "None", "website": "None", "summary": "None", "logo": "None", "latitude": 44.990170000000035, "longitude": -64.12904999999995}, "119288918RR1148": {"name": "NOVA SCOTIA CIRCUIT 2C OF JEHOVAH'S WITNESSES", "designationCode": "C", "categoryCode": "61", "address": "89 SMITH AVENUE", "city": "TRURO", "province": "NS", "country": "CA", "postalCode": "B2N1C6", "twitter": "None", "instagram": "None", "facebook": "None", "youtube": "None", "website": "None", "summary": "None", "logo": "None", "latitude": 45.36395947489748, "longitude": -63.29136458534824}, "107788192RR0001": {"name": "NOVA SCOTIA COLLEGE OF ART AND DESIGN", "designationCode": "C", "categoryCode": "20", "address": "5163 DUKE ST", "city": "HALIFAX", "province": "NS", "country": "CA", "postalCode": "B3J3J6", "twitter": "None", "instagram": "None", "facebook": "None", "youtube": "None", "website": "None", "summary": "None", "logo": "None", "latitude": 44.649437070229034, "longitude": -63.574087384269106}, "892352014RR0001": {"name": "NOVA SCOTIA COLLEGE OF EARLY CHILDHOOD EDUCATION SOCIETY", "designationCode": "C", "categoryCode": "20", "address": "6208 QUINPOOL ROAD            2ND FLOOR", "city": "HALIFAX", "province": "NS", "country": "CA", "postalCode": "B3L1A3", "twitter": "None", "instagram": "None", "facebook": "None", "youtube": "None", "website": "None", "summary": "None", "logo": "None", "latitude": 44.64577805355194, "longitude": -63.59592378475394}, "866279425RR0001": {"name": "NOVA SCOTIA COMMUNITY COLLEGE", "designationCode": "C", "categoryCode": "20", "address": "5685 LEEDS STREET             P. O. BOX 1153", "city": "HALIFAX", "province": "NS", "country": "CA", "postalCode": "B3J2X1", "twitter": "None", "instagram": "None", "facebook": "None", "youtube": "None", "website": "None", "summary": "None", "logo": "None", "latitude": 44.66894286323462, "longitude": -63.61285759126259}, "887210318RR0001": {"name": "NOVA SCOTIA COMMUNITY COLLEGE FOUNDATION", "designationCode": "A", "categoryCode": "23", "address": "5685 LEEDS STREET             BOX 1153", "city": "HALIFAX", "province": "NS", "country": "CA", "postalCode": "B3J2X1", "twitter": "None", "instagram": "None", "facebook": "None", "youtube": "None", "website": "None", "summary": "None", "logo": "None", "latitude": 44.66894286323462, "longitude": -63.61285759126259}, "129827382RR0001": {"name": "NOVA SCOTIA COUNCIL FOR THE FAMILY", "designationCode": "C", "categoryCode": "01", "address": "302 - 1888 BRUNSWICK ST", "city": "HALIFAX", "province": "NS", "country": "CA", "postalCode": "B3J3J8", "twitter": "None", "instagram": "None", "facebook": "None", "youtube": "None", "website": "None", "summary": "None", "logo": "None", "latitude": 44.64937092838598, "longitude": -63.5781734293956}, "119063337RR0001": {"name": "NOVA SCOTIA CRIME STOPPERS ASSOCIATION", "designationCode": "C", "categoryCode": "59", "address": "PO BOX 44062", "city": "BEDFORD", "province": "NS", "country": "CA", "postalCode": "B4A3X5", "twitter": "None", "instagram": "None", "facebook": "None", "youtube": "None", "website": "None", "summary": "None", "logo": "None", "latitude": 44.71371600000006, "longitude": -63.67729399999993}, "889714572RR0001": {"name": "NOVA SCOTIA DEBATING SOCIETY", "designationCode": "C", "categoryCode": "21", "address": "UNIT 103-246                  287 LACEWOOD DRIVE", "city": "HALIFAX", "province": "NS", "country": "CA", "postalCode": "B3M3Y7", "twitter": "None", "instagram": "None", "facebook": "None", "youtube": "None", "website": "None", "summary": "None", "logo": "None", "latitude": 44.66225623411525, "longitude": -63.65935653892368}, "119063378RR0001": {"name": "NOVA SCOTIA DESIGNER CRAFTS COUNCIL", "designationCode": "C", "categoryCode": "22", "address": "1113 MARGINAL RD", "city": "HALIFAX", "province": "NS", "country": "CA", "postalCode": "B3H4P7", "twitter": "None", "instagram": "None", "facebook": "None", "youtube": "None", "website": "None", "summary": "None", "logo": "None", "latitude": 44.639260983351576, "longitude": -63.56640067941039}, "119063410RR0001": {"name": "NOVA SCOTIA FIRE FIGHTERS SCHOOL", "designationCode": "C", "categoryCode": "29", "address": "48 POWDER MILL RD", "city": "WAVERLEY", "province": "NS", "country": "CA", "postalCode": "B2R1E9", "twitter": "None", "instagram": "None", "facebook": "None", "youtube": "None", "website": "None", "summary": "None", "logo": "None", "latitude": 44.77561774023302, "longitude": -63.60633519643325}, "118915917RR0001": {"name": "NOVA SCOTIA FIREFIGHTERS BURN TREATMENT SOCIETY", "designationCode": "C", "categoryCode": "59", "address": "PO BOX 481", "city": "DARTMOUTH", "province": "NS", "country": "CA", "postalCode": "B2Y3Y8", "twitter": "None", "instagram": "None", "facebook": "None", "youtube": "None", "website": "None", "summary": "None", "logo": "None", "latitude": 44.67403500000006, "longitude": -63.57535099999993}, "119063428RR0001": {"name": "NOVA SCOTIA FORESTRY ASSOCIATION", "designationCode": "C", "categoryCode": "52", "address": "PO BOX 696", "city": "TRURO", "province": "NS", "country": "CA", "postalCode": "B2N5E5", "twitter": "None", "instagram": "None", "facebook": "None", "youtube": "None", "website": "None", "summary": "None", "logo": "None", "latitude": 45.36602700000006, "longitude": -63.289042999999936}, "886143213RR0001": {"name": "NOVA SCOTIA HEALTH AUTHORITY (NSHA)", "designationCode": "C", "categoryCode": "19", "address": "1276 SOUTH PARK ST", "city": "HALIFAX", "province": "NS", "country": "CA", "postalCode": "B3H2Y9", "twitter": "None", "instagram": "None", "facebook": "None", "youtube": "None", "website": "None", "summary": "None", "logo": "None", "latitude": 44.63947567992344, "longitude": -63.57842294489661}, "879969012RR0001": {"name": "NOVA SCOTIA HEALTH RESEARCH FOUNDATION", "designationCode": "A", "categoryCode": "13", "address": "PO BOX 2684", "city": "HALIFAX", "province": "NS", "country": "CA", "postalCode": "B3J3P7", "twitter": "None", "instagram": "None", "facebook": "None", "youtube": "None", "website": "None", "summary": "None", "logo": "None", "latitude": 44.645478000000054, "longitude": -63.576552499999934}, "868744384RR0001": {"name": "NOVA SCOTIA HEARING AND SPEECH FOUNDATION", "designationCode": "A", "categoryCode": "13", "address": "401 - 5657 SPRING GARDEN RD", "city": "HALIFAX", "province": "NS", "country": "CA", "postalCode": "B3J3R4", "twitter": "None", "instagram": "None", "facebook": "None", "youtube": "None", "website": "None", "summary": "None", "logo": "None", "latitude": 44.64321800521938, "longitude": -63.57617228611219}, "119063451RR0001": {"name": "NOVA SCOTIA HEMOPHILIA SOCIETY", "designationCode": "C", "categoryCode": "11", "address": "344 HANSFORD RD", "city": "OXFORD", "province": "NS", "country": "CA", "postalCode": "B0M1P0", "twitter": "None", "instagram": "None", "facebook": "None", "youtube": "None", "website": "None", "summary": "None", "logo": "None", "latitude": 45.72975480708651, "longitude": -63.82442207247938}, "107788408RR0001": {"name": "NOVA SCOTIA HIGHLAND VILLAGE SOCIETY", "designationCode": "C", "categoryCode": "53", "address": "4119 HIGHWAY 223 HWY", "city": "IONA", "province": "NS", "country": "CA", "postalCode": "B2C1A3", "twitter": "None", "instagram": "None", "facebook": "None", "youtube": "None", "website": "None", "summary": "None", "logo": "None", "latitude": 45.94956970974921, "longitude": -60.81495171188176}, "882096092RR0001": {"name": "NOVA SCOTIA HOSPICE/PALLIATIVE CARE ASSOCIATION", "designationCode": "C", "categoryCode": "19", "address": "P.O. BOX 103", "city": "LAKESIDE", "province": "NS", "country": "CA", "postalCode": "B3T1M6", "twitter": "None", "instagram": "None", "facebook": "None", "youtube": "None", "website": "None", "summary": "None", "logo": "None", "latitude": 44.638128819658114, "longitude": -63.70207997038875}, "871774295RR0001": {"name": "NOVA SCOTIA ISLAMIC COMMUNITY CENTER", "designationCode": "C", "categoryCode": "43", "address": "101 - 15 SHOREHAM LANE", "city": "HALIFAX", "province": "NS", "country": "CA", "postalCode": "B3P2R3", "twitter": "None", "instagram": "None", "facebook": "None", "youtube": "None", "website": "None", "summary": "None", "logo": "None", "latitude": 44.628910597813075, "longitude": -63.61606946710719}, "866988694RR0001": {"name": "NOVA SCOTIA KINGHTS OF COLUMBUS CHARITABLE FOUNDATION", "designationCode": "A", "categoryCode": "05", "address": "PO BOX 9408", "city": "HALIFAX", "province": "NS", "country": "CA", "postalCode": "B3K5S3", "twitter": "None", "instagram": "None", "facebook": "None", "youtube": "None", "website": "None", "summary": "None", "logo": "None", "latitude": 44.645478000000054, "longitude": -63.576552499999934}, "118950971RR0001": {"name": "NOVA SCOTIA KIWANIS MUSIC FESTIVAL ASSOCIATION", "designationCode": "C", "categoryCode": "22", "address": "BOX 107                       5657 SPRING GARDEN RD", "city": "HALIFAX", "province": "NS", "country": "CA", "postalCode": "B3J3R4", "twitter": "None", "instagram": "None", "facebook": "None", "youtube": "None", "website": "None", "summary": "None", "logo": "None", "latitude": 44.64263317294686, "longitude": -63.57850782405205}, "119063477RR0001": {"name": "NOVA SCOTIA LEAGUE FOR EQUAL OPPORTUNITIES (NS LEO)", "designationCode": "C", "categoryCode": "59", "address": "P.O.BOX 38034, STN. BURNSIDE", "city": "DARTMOUTH", "province": "NS", "country": "CA", "postalCode": "B3B1X2", "twitter": "None", "instagram": "None", "facebook": "None", "youtube": "None", "website": "None", "summary": "None", "logo": "None", "latitude": 44.7145707288881, "longitude": -63.59110854666608}, "873152474RR0001": {"name": "NOVA SCOTIA LIGHTHOUSE PRESERVATION SOCIETY", "designationCode": "C", "categoryCode": "52", "address": "1675 LOWER WATER STREET", "city": "HALIFAX", "province": "NS", "country": "CA", "postalCode": "B3J1S3", "twitter": "None", "instagram": "None", "facebook": "None", "youtube": "None", "website": "None", "summary": "None", "logo": "None", "latitude": 44.64696914413581, "longitude": -63.571038327366246}, "107788507RR0001": {"name": "NOVA SCOTIA LUNG ASSOCIATION", "designationCode": "C", "categoryCode": "11", "address": "6331 LADY HAMMOND ROAD", "city": "HALIFAX", "province": "NS", "country": "CA", "postalCode": "B3K2S2", "twitter": "None", "instagram": "None", "facebook": "None", "youtube": "None", "website": "None", "summary": "None", "logo": "None", "latitude": 44.66469001584037, "longitude": -63.6173978982918}, "892471764RR0001": {"name": "NOVA SCOTIA MASS CHOIR SOCIETY", "designationCode": "C", "categoryCode": "22", "address": "PO BOX 47041                  2151 GOTTINGEN ST", "city": "HALIFAX", "province": "NS", "country": "CA", "postalCode": "B3K5Y2", "twitter": "None", "instagram": "None", "facebook": "None", "youtube": "None", "website": "None", "summary": "None", "logo": "None", "latitude": 44.652463595620034, "longitude": -63.58398481320335}, "827409947RR0001": {"name": "NOVA SCOTIA MASTERWORKS AWARDS FOUNDATION", "designationCode": "B", "categoryCode": "22", "address": "P.O.BOX 730", "city": "HALIFAX", "province": "NS", "country": "CA", "postalCode": "B3J2V1", "twitter": "None", "instagram": "None", "facebook": "None", "youtube": "None", "website": "None", "summary": "None", "logo": "None", "latitude": 44.645478000000054, "longitude": -63.576552499999934}, "889627691RR0001": {"name": "NOVA SCOTIA NATURE TRUST", "designationCode": "C", "categoryCode": "53", "address": "PO BOX 284 STN MAIN", "city": "DARTMOUTH", "province": "NS", "country": "CA", "postalCode": "B2Y3Y3", "twitter": "None", "instagram": "None", "facebook": "None", "youtube": "None", "website": "None", "summary": "None", "logo": "None", "latitude": 44.67403500000006, "longitude": -63.57535099999993}, "891886442RR0001": {"name": "NOVA SCOTIA PEOPLE FIRST SOCIETY", "designationCode": "C", "categoryCode": "09", "address": "568A PRINCE ST", "city": "TRURO", "province": "NS", "country": "CA", "postalCode": "B2N1G3", "twitter": "None", "instagram": "None", "facebook": "None", "youtube": "None", "website": "None", "summary": "None", "logo": "None", "latitude": 45.365409681863106, "longitude": -63.28424421887917}, "888848637RR0001": {"name": "NOVA SCOTIA PHARMACEUTICAL SOCIETY MEMORIAL FUND", "designationCode": "C", "categoryCode": "21", "address": "200-1559 BRUNSWICK STREET", "city": "HAILFAX", "province": "NS", "country": "CA", "postalCode": "B3J2G1", "twitter": "None", "instagram": "None", "facebook": "None", "youtube": "None", "website": "None", "summary": "None", "logo": "None", "latitude": 44.64459007245074, "longitude": -63.575531409775664}, "864708755RR0001": {"name": "NOVA SCOTIA RAILWAY HERITAGE SOCIETY", "designationCode": "C", "categoryCode": "52", "address": "474 WILLIAMS POINT ROAD", "city": "ANTIGONISH", "province": "NS", "country": "CA", "postalCode": "B2G0B4", "twitter": "None", "instagram": "None", "facebook": "None", "youtube": "None", "website": "None", "summary": "None", "logo": "None", "latitude": 45.63063473714594, "longitude": -61.94235635801273}, "119063568RR0001": {"name": "NOVA SCOTIA SCHOOL ATHLETIC FEDERATION", "designationCode": "C", "categoryCode": "29", "address": "5516 - 5516 SPRING GARDEN RD", "city": "HALIFAX", "province": "NS", "country": "CA", "postalCode": "B3J1G6", "twitter": "None", "instagram": "None", "facebook": "None", "youtube": "None", "website": "None", "summary": "None", "logo": "None", "latitude": 44.64321800521938, "longitude": -63.57617228611219}, "896781762RR0001": {"name": "NOVA SCOTIA SEA SCHOOL SOCIETY", "designationCode": "C", "categoryCode": "20", "address": "PO BOX 118", "city": "LUNENBURG", "province": "NS", "country": "CA", "postalCode": "B0J2C0", "twitter": "None", "instagram": "None", "facebook": "None", "youtube": "None", "website": "None", "summary": "None", "logo": "None", "latitude": 44.37886006217898, "longitude": -64.31792993782098}, "107789133RR0001": {"name": "NOVA SCOTIA SPORT HERITAGE CENTRE", "designationCode": "C", "categoryCode": "50", "address": "446-1800 ARGYLE ST", "city": "HALIFAX", "province": "NS", "country": "CA", "postalCode": "B3J3N8", "twitter": "None", "instagram": "None", "facebook": "None", "youtube": "None", "website": "None", "summary": "None", "logo": "None", "latitude": 44.64853451511921, "longitude": -63.575583425096426}, "889483392RR0001": {"name": "NOVA SCOTIA TALENT TRUST", "designationCode": "C", "categoryCode": "22", "address": "PO BOX 575", "city": "HALIFAX", "province": "NS", "country": "CA", "postalCode": "B3J2R7", "twitter": "None", "instagram": "None", "facebook": "None", "youtube": "None", "website": "None", "summary": "None", "logo": "None", "latitude": 44.645478000000054, "longitude": -63.576552499999934}, "874582778RR0001": {"name": "NOVA SCOTIA TRAILS FEDERATION", "designationCode": "C", "categoryCode": "56", "address": "5516 SPRING GARDEN RD         4TH FLOOR", "city": "HALIFAX", "province": "NS", "country": "CA", "postalCode": "B3J1G6", "twitter": "None", "instagram": "None", "facebook": "None", "youtube": "None", "website": "None", "summary": "None", "logo": "None", "latitude": 44.64288100637664, "longitude": -63.57740502178431}, "885618405RR0001": {"name": "NOVA SCOTIA YOUTH ORCHESTRA FOUNDATION", "designationCode": "A", "categoryCode": "23", "address": "10 TRIDER CRES", "city": "DARTMOUTH", "province": "NS", "country": "CA", "postalCode": "B3B1R6", "twitter": "None", "instagram": "None", "facebook": "None", "youtube": "None", "website": "None", "summary": "None", "logo": "None", "latitude": 44.70832335639661, "longitude": -63.5938246529802}, "891023442RR0001": {"name": "NOVA SCOTIA 4H COUNCIL", "designationCode": "C", "categoryCode": "29", "address": "60 RESEARCH DR", "city": "BIBLE HILL", "province": "NS", "country": "CA", "postalCode": "B6L2R2", "twitter": "None", "instagram": "None", "facebook": "None", "youtube": "None", "website": "None", "summary": "None", "logo": "None", "latitude": 45.38779772996124, "longitude": -63.24204832214841}, "119063501RR0001": {"name": "NOVA SCOTIANS UNITED FOR LIFE", "designationCode": "C", "categoryCode": "09", "address": "BOX 8333 STATION A", "city": "HALIFAX", "province": "NS", "country": "CA", "postalCode": "B3K5M1", "twitter": "None", "instagram": "None", "facebook": "None", "youtube": "None", "website": "None", "summary": "None", "logo": "None", "latitude": 44.645478000000054, "longitude": -63.576552499999934}, "895925154RR0001": {"name": "NOVA SPRINGS FOUNDATION", "designationCode": "A", "categoryCode": "03", "address": "2900 - 550 BURRARD STREET", "city": "VANCOUVER", "province": "BC", "country": "CA", "postalCode": "V6C0A3", "twitter": "None", "instagram": "None", "facebook": "None", "youtube": "None", "website": "None", "summary": "None", "logo": "None", "latitude": 49.28596391921073, "longitude": -123.11870289255033}, "107771727RR0001": {"name": "NOVA VITA WOMEN'S SHELTER INCORPORATED", "designationCode": "C", "categoryCode": "09", "address": "59 NORTH PARK ST", "city": "BRANTFORD", "province": "ON", "country": "CA", "postalCode": "N3R4J8", "twitter": "None", "instagram": "None", "facebook": "None", "youtube": "None", "website": "None", "summary": "None", "logo": "None", "latitude": 43.156594528708624, "longitude": -80.2703285598013}, "869165175RR0001": {"name": "NOVA VOCE CHORAL SOCIETY", "designationCode": "C", "categoryCode": "22", "address": "2425C ROSEWALL CRES", "city": "COURTENAY", "province": "BC", "country": "CA", "postalCode": "V9N8R9", "twitter": "None", "instagram": "None", "facebook": "None", "youtube": "None", "website": "None", "summary": "None", "logo": "None", "latitude": 49.67036127108785, "longitude": -124.99755178146974}, "859161176RR0001": {"name": "NOVA'S ARK", "designationCode": "B", "categoryCode": "56", "address": "7505 CEDARBROOK TRAIL", "city": "BROOKLIN", "province": "ON", "country": "CA", "postalCode": "L1M1L9", "twitter": "None", "instagram": "None", "facebook": "None", "youtube": "None", "website": "None", "summary": "None", "logo": "None", "latitude": 43.977620899496074, "longitude": -78.97390093129731}, "882707763RR0001": {"name": "NOVAK FAMILY FOUNDATION", "designationCode": "B", "categoryCode": "05", "address": "500-299 VICTORIA STREET", "city": "PRINCE GEORGE", "province": "BC", "country": "CA", "postalCode": "V2L5B8", "twitter": "None", "instagram": "None", "facebook": "None", "youtube": "None", "website": "None", "summary": "None", "logo": "None", "latitude": 53.917995454304496, "longitude": -122.7491108372952}, "890670987RR0001": {"name": "NOVAYANA SOCIETY FOR EASTERN AND WESTERN STUDIES", "designationCode": "C", "categoryCode": "39", "address": "10933 - 77 AVE", "city": "EDMONTON", "province": "AB", "country": "CA", "postalCode": "T6G0L2", "twitter": "None", "instagram": "None", "facebook": "None", "youtube": "None", "website": "None", "summary": "None", "logo": "None", "latitude": 53.51319952510253, "longitude": -113.513733}, "822830436RR0001": {"name": "NPower Canada", "designationCode": "C", "categoryCode": "29", "address": "350 VICTORIA ST", "city": "TORONTO", "province": "ON", "country": "CA", "postalCode": "M5B2K3", "twitter": "None", "instagram": "None", "facebook": "None", "youtube": "None", "website": "None", "summary": "None", "logo": "None", "latitude": 43.65780337745978, "longitude": -79.38023396699161}, "887383263RR0001": {"name": "NSA CHARITABLE FUND INC", "designationCode": "C", "categoryCode": "54", "address": "P.O.BOX 871", "city": "BATHURST", "province": "NB", "country": "CA", "postalCode": "E2A4H7", "twitter": "None", "instagram": "None", "facebook": "None", "youtube": "None", "website": "None", "summary": "None", "logo": "None", "latitude": 47.61677400000005, "longitude": -65.64889249999993}, "864584511RR0001": {"name": "NSAMH FOUNDATION", "designationCode": "A", "categoryCode": "03", "address": "1070 ROOSEVELT CRES", "city": "NORTH VANCOUVER", "province": "BC", "country": "CA", "postalCode": "V7P1M3", "twitter": "None", "instagram": "None", "facebook": "None", "youtube": "None", "website": "None", "summary": "None", "logo": "None", "latitude": 49.32208752799383, "longitude": -123.10408951597}, "835397746RR0001": {"name": "NSDRC FOUNDATION", "designationCode": "A", "categoryCode": "03", "address": "3158 MOUNTAIN HWY", "city": "NORTH VANCOUVER", "province": "BC", "country": "CA", "postalCode": "V7K2H5", "twitter": "None", "instagram": "None", "facebook": "None", "youtube": "None", "website": "None", "summary": "None", "logo": "None", "latitude": 49.33757113776493, "longitude": -123.03816234317667}, "123978686RR0001": {"name": "NSIV OLAM", "designationCode": "C", "categoryCode": "21", "address": "155 PALM DRIVE AV.", "city": "TORONTO", "province": "ON", "country": "CA", "postalCode": "M3H2C6", "twitter": "None", "instagram": "None", "facebook": "None", "youtube": "None", "website": "None", "summary": "None", "logo": "None", "latitude": 43.74204784205681, "longitude": -79.44984740285076}, "860382548RR0001": {"name": "NSN - Northsask Special Needs Housing, Employment, Recreation Inc.", "designationCode": "C", "categoryCode": "09", "address": "719B LA RONGE AVENUE          POST OFFICE BOX 1322", "city": "LA RONGE", "province": "SK", "country": "CA", "postalCode": "S0J1L0", "twitter": "None", "instagram": "None", "facebook": "None", "youtube": "None", "website": "None", "summary": "None", "logo": "None", "latitude": 55.100421089448474, "longitude": -105.29253588686178}, "891428641RR0001": {"name": "NSNOA BURSARY TRUST", "designationCode": "C", "categoryCode": "21", "address": "PO BOX 801", "city": "HALIFAX", "province": "NS", "country": "CA", "postalCode": "B3J2V2", "twitter": "None", "instagram": "None", "facebook": "None", "youtube": "None", "website": "None", "summary": "None", "logo": "None", "latitude": 44.645478000000054, "longitude": -63.576552499999934}, "855599684RR0001": {"name": "NSO FOUNDATION INC.", "designationCode": "A", "categoryCode": "23", "address": "900 - 215 WATER ST", "city": "ST. JOHN'S", "province": "NL", "country": "CA", "postalCode": "A1C6C9", "twitter": "None", "instagram": "None", "facebook": "None", "youtube": "None", "website": "None", "summary": "None", "logo": "None", "latitude": 47.56334963806348, "longitude": -52.707746161492565}, "817942949RR0001": {"name": "NSTEP", "designationCode": "C", "categoryCode": "11", "address": "14-11625 ELBOW DRIVE S.W.     P.O. BOX 83090", "city": "CALGARY", "province": "AB", "country": "CA", "postalCode": "T2W6G8", "twitter": "None", "instagram": "None", "facebook": "None", "youtube": "None", "website": "None", "summary": "None", "logo": "None", "latitude": 50.94882120483007, "longitude": -114.08460396658758}}