{"897385654RR0001": {"name": "BEAR RIVER AND AREA COMMUNITY HEALTH CLINIC", "designationCode": "C", "categoryCode": "11", "address": "PO BOX 85                     1112 OLD RIVER ROAD", "city": "BEAR RIVER", "province": "NS", "country": "CA", "postalCode": "B0S1B0", "twitter": "None", "instagram": "None", "facebook": "None", "youtube": "None", "website": "None", "summary": "None", "logo": "None", "latitude": 44.58061517179302, "longitude": -65.64304195824904}, "134001155RR0001": {"name": "BEAR RIVER EAST BAPTIST CHURCH", "designationCode": "C", "categoryCode": "31", "address": "2710 CLEMENTSVALE RD          RR 1 BEAR RIVER EAST", "city": "ANNA CO", "province": "NS", "country": "CA", "postalCode": "B0S1B0", "twitter": "None", "instagram": "None", "facebook": "None", "youtube": "None", "website": "None", "summary": "None", "logo": "None", "latitude": 44.595311081306996, "longitude": -65.60371881952548}, "108151432RR0001": {"name": "BEAR RIVER UNITED BAPTIST CHURCH", "designationCode": "C", "categoryCode": "31", "address": "1361 RIVER RD BOX 203", "city": "BEAR RIVER", "province": "NS", "country": "CA", "postalCode": "B0S1B0", "twitter": "None", "instagram": "None", "facebook": "None", "youtube": "None", "website": "None", "summary": "None", "logo": "None", "latitude": 44.571598511800985, "longitude": -65.63581970785981}, "898978416RR0001": {"name": "BEAR WITH US INC", "designationCode": "C", "categoryCode": "54", "address": "3113 HWY 518 WEST", "city": "SPRUCEDALE", "province": "ON", "country": "CA", "postalCode": "P0A1Y0", "twitter": "None", "instagram": "None", "facebook": "None", "youtube": "None", "website": "None", "summary": "None", "logo": "None", "latitude": 45.48992000000004, "longitude": -79.46289999999993}, "890810344RR0001": {"name": "BEARDMORE REGIONAL HISTORICAL SOCIETY", "designationCode": "C", "categoryCode": "52", "address": "P O BOX 139", "city": "BEARDMORE", "province": "ON", "country": "CA", "postalCode": "P0T1G0", "twitter": "None", "instagram": "None", "facebook": "None", "youtube": "None", "website": "None", "summary": "None", "logo": "None", "latitude": 49.131541807289835, "longitude": -88.18428440661056}, "874965155RR0001": {"name": "BEARPARK FOUNDATION", "designationCode": "C", "categoryCode": "21", "address": "635 CHURCH STREET", "city": "COMOX", "province": "BC", "country": "CA", "postalCode": "V9M4G5", "twitter": "None", "instagram": "None", "facebook": "None", "youtube": "None", "website": "None", "summary": "None", "logo": "None", "latitude": 49.68502063780368, "longitude": -124.92501547129079}, "890643273RR0001": {"name": "BEARSPAW BENEVOLENT FOUNDATION", "designationCode": "B", "categoryCode": "03", "address": "61 CAMPBELL DRIVE", "city": "CALGARY", "province": "AB", "country": "CA", "postalCode": "T3L2P5", "twitter": "None", "instagram": "None", "facebook": "None", "youtube": "None", "website": "None", "summary": "None", "logo": "None", "latitude": 51.14801164051631, "longitude": -114.27752776813418}, "107478836RR0001": {"name": "BEARSPAW CHRISTIAN SCHOOL SOCIETY", "designationCode": "C", "categoryCode": "20", "address": "15001-69 STREET NW", "city": "CALGARY", "province": "AB", "country": "CA", "postalCode": "T3R1C5", "twitter": "None", "instagram": "None", "facebook": "None", "youtube": "None", "website": "None", "summary": "None", "logo": "None", "latitude": 51.18213739355994, "longitude": -114.1876366404294}, "865349732RR0001": {"name": "BEARSPAW HISTORICAL SOCIETY", "designationCode": "C", "categoryCode": "52", "address": "253253 BEARSPAW ROAD", "city": "CALGARY", "province": "AB", "country": "CA", "postalCode": "T3L2P7", "twitter": "None", "instagram": "None", "facebook": "None", "youtube": "None", "website": "None", "summary": "None", "logo": "None", "latitude": 51.15268048257135, "longitude": -114.28082560841574}, "106780109RR0001": {"name": "BEARSPAW-GLENDALE COMMUNITY ASSOCIATION", "designationCode": "C", "categoryCode": "56", "address": "253220 BEARSPAW ROAD", "city": "CALGARY", "province": "AB", "country": "CA", "postalCode": "T3L2P5", "twitter": "None", "instagram": "None", "facebook": "None", "youtube": "None", "website": "None", "summary": "None", "logo": "None", "latitude": 51.15172210618489, "longitude": -114.28065956210598}, "854802881RR0001": {"name": "BEATA VOCAL ENSEMBLE", "designationCode": "C", "categoryCode": "22", "address": "#44-1225 BRUNETTE AVE", "city": "COQUITLAM", "province": "BC", "country": "CA", "postalCode": "V3K6W2", "twitter": "None", "instagram": "None", "facebook": "None", "youtube": "None", "website": "None", "summary": "None", "logo": "None", "latitude": 49.239607095764256, "longitude": -122.85808935443471}, "128548849RR0001": {"name": "BEATTIE HAVEN,", "designationCode": "C", "categoryCode": "01", "address": "62 KEIL DR S", "city": "CHATHAM", "province": "ON", "country": "CA", "postalCode": "N7M3G8", "twitter": "None", "instagram": "None", "facebook": "None", "youtube": "None", "website": "None", "summary": "None", "logo": "None", "latitude": 42.3928666160776, "longitude": -82.20856959922669}, "881122311RR0001": {"name": "BEATTY HERITAGE HOUSE SOCIETY", "designationCode": "C", "categoryCode": "50", "address": "BOX 675", "city": "RIMBEY", "province": "AB", "country": "CA", "postalCode": "T0C2J0", "twitter": "None", "instagram": "None", "facebook": "None", "youtube": "None", "website": "None", "summary": "None", "logo": "None", "latitude": 52.63970000000006, "longitude": -114.23827999999997}, "118801646RR0001": {"name": "BEAUBIER LUTHERAN CHURCH", "designationCode": "C", "categoryCode": "39", "address": "P. O. BOX 42", "city": "BEAUBIER", "province": "SK", "country": "CA", "postalCode": "S0C0H0", "twitter": "None", "instagram": "None", "facebook": "None", "youtube": "None", "website": "None", "summary": "None", "logo": "None", "latitude": 49.12620000000004, "longitude": -104.07627999999994}, "141088062RR0001": {"name": "BEAUFORT CHILD CARE SOCIETY", "designationCode": "C", "categoryCode": "01", "address": "2300 RYAN ROAD", "city": "COURTENAY", "province": "BC", "country": "CA", "postalCode": "V9N8N6", "twitter": "None", "instagram": "None", "facebook": "None", "youtube": "None", "website": "None", "summary": "None", "logo": "None", "latitude": 49.707981017802254, "longitude": -124.97031430633577}, "812588564RR0001": {"name": "BEAUMONT COMMUNITY CHURCH SOCIETY", "designationCode": "C", "categoryCode": "47", "address": "5423-55 ST.", "city": "BEAUMONT", "province": "AB", "country": "CA", "postalCode": "T4X1A4", "twitter": "None", "instagram": "None", "facebook": "None", "youtube": "None", "website": "None", "summary": "None", "logo": "None", "latitude": 53.356971195943245, "longitude": -113.41925886632262}, "130135981RR0001": {"name": "BEAUMONT DAY CARE INC", "designationCode": "C", "categoryCode": "01", "address": "5880 BETSWORTH AVE", "city": "WINNIPEG", "province": "MB", "country": "CA", "postalCode": "R3R0J7", "twitter": "None", "instagram": "None", "facebook": "None", "youtube": "None", "website": "None", "summary": "None", "logo": "None", "latitude": 49.85500654284749, "longitude": -97.29926333097696}, "130918147RR0001": {"name": "BEAUREPAIRE UNITED CHURCH", "designationCode": "C", "categoryCode": "44", "address": "25 FIELDFARE AVENUE", "city": "BEACONSFIELD", "province": "QC", "country": "CA", "postalCode": "H9W4W4", "twitter": "None", "instagram": "None", "facebook": "None", "youtube": "None", "website": "None", "summary": "None", "logo": "None", "latitude": 45.41895599278663, "longitude": -73.8808865636795}, "890991581RR0001": {"name": "BEAUSEJOUR AND AREA FOOD BANK INCORPORATED", "designationCode": "C", "categoryCode": "09", "address": "P.O. BOX 40                   430 PARK AVENUE", "city": "BEAUSEJOUR", "province": "MB", "country": "CA", "postalCode": "R0E0C0", "twitter": "None", "instagram": "None", "facebook": "None", "youtube": "None", "website": "None", "summary": "None", "logo": "None", "latitude": 50.06170902428737, "longitude": -96.51986883340936}, "107396905RR0057": {"name": "BEAUSEJOUR COMMUNITY CHURCH OF THE FOURSQUARE GOSPEL", "designationCode": "C", "categoryCode": "39", "address": "BOX 1816                      748 PARK AVE", "city": "BEAUSEJOUR", "province": "MB", "country": "CA", "postalCode": "R0E0C0", "twitter": "None", "instagram": "None", "facebook": "None", "youtube": "None", "website": "None", "summary": "None", "logo": "None", "latitude": 50.06169102432065, "longitude": -96.50939055599505}, "886147636RR0001": {"name": "BEAUSEJOUR FAMILY CRISIS RESOURCE CENTRE INC./CENTRE DE RESSOURCES ET DE CRISES FAMILIALES BEAUSEJOUR INC.", "designationCode": "C", "categoryCode": "09", "address": "432 RUE MAIN", "city": "SHEDIAC", "province": "NB", "country": "CA", "postalCode": "E4P2G5", "twitter": "None", "instagram": "None", "facebook": "None", "youtube": "None", "website": "None", "summary": "None", "logo": "None", "latitude": 46.22036950858201, "longitude": -64.53424636718891}, "118801737RR0001": {"name": "BEAUSEJOUR HANDIVAN INC.", "designationCode": "C", "categoryCode": "09", "address": "PO BOX 1803", "city": "BEAUSEJOUR", "province": "MB", "country": "CA", "postalCode": "R0E0C0", "twitter": "None", "instagram": "None", "facebook": "None", "youtube": "None", "website": "None", "summary": "None", "logo": "None", "latitude": 50.061750000000075, "longitude": -96.50519999999995}, "118801752RR0001": {"name": "BEAUSEJOUR KIDS' CENTRE INC.", "designationCode": "C", "categoryCode": "09", "address": "BOX 1481", "city": "BEAUSEJOUR", "province": "MB", "country": "CA", "postalCode": "R0E0C0", "twitter": "None", "instagram": "None", "facebook": "None", "youtube": "None", "website": "None", "summary": "None", "logo": "None", "latitude": 50.061750000000075, "longitude": -96.50519999999995}, "118801760RR0001": {"name": "BEAUSEJOUR PASTORAL CHARGE", "designationCode": "C", "categoryCode": "44", "address": "BOX 398", "city": "BEAUSEJOUR", "province": "MB", "country": "CA", "postalCode": "R0E0C0", "twitter": "None", "instagram": "None", "facebook": "None", "youtube": "None", "website": "None", "summary": "None", "logo": "None", "latitude": 50.061750000000075, "longitude": -96.50519999999995}, "871018271RR0001": {"name": "BEAUTIFUL (KOREAN) PRESBYTERIAN CHURCH", "designationCode": "C", "categoryCode": "37", "address": "1 LORD SEATON RD.", "city": "TORONTO", "province": "ON", "country": "CA", "postalCode": "M2P2C1", "twitter": "None", "instagram": "None", "facebook": "None", "youtube": "None", "website": "None", "summary": "None", "logo": "None", "latitude": 43.75261108630055, "longitude": -79.40733609158066}, "885668236RR0001": {"name": "BEAUTIFUL JOE HERITAGE SOCIETY", "designationCode": "C", "categoryCode": "50", "address": "BOX NO. 3304", "city": "MEAFORD", "province": "ON", "country": "CA", "postalCode": "N4L1A5", "twitter": "None", "instagram": "None", "facebook": "None", "youtube": "None", "website": "None", "summary": "None", "logo": "None", "latitude": 44.60664300000006, "longitude": -80.59286149999993}, "890639941RR0001": {"name": "BEAUTIFUL PENTECOSTAL CHRISTIAN TEMPLE", "designationCode": "C", "categoryCode": "39", "address": "248 WESTMOUNT RD E", "city": "KITCHENER", "province": "ON", "country": "CA", "postalCode": "N2M4Z1", "twitter": "None", "instagram": "None", "facebook": "None", "youtube": "None", "website": "None", "summary": "None", "logo": "None", "latitude": 43.427167678342535, "longitude": -80.5059580790585}, "894809730RR0001": {"name": "BEAUTIFUL PLAINS COMMUNITY FOUNDATION INC.", "designationCode": "A", "categoryCode": "03", "address": "BOX 486", "city": "NEEPAWA", "province": "MB", "country": "CA", "postalCode": "R0J1H0", "twitter": "None", "instagram": "None", "facebook": "None", "youtube": "None", "website": "None", "summary": "None", "logo": "None", "latitude": 50.22581100000005, "longitude": -99.48963949999994}, "106780711RR0001": {"name": "BEAUTIFUL PLAINS MUSEUM INC.", "designationCode": "C", "categoryCode": "50", "address": "BOX 1732 HAMILTON ST W.", "city": "NEEPAWA", "province": "MB", "country": "CA", "postalCode": "R0J1H0", "twitter": "None", "instagram": "None", "facebook": "None", "youtube": "None", "website": "None", "summary": "None", "logo": "None", "latitude": 50.88765600000001, "longitude": -99.559584}, "129800322RR0001": {"name": "BEAUTIFUL PLAINS SCHOOL DIVISION", "designationCode": "C", "categoryCode": "20", "address": "BOX 700", "city": "NEEPAWA", "province": "MB", "country": "CA", "postalCode": "R0J1H0", "twitter": "None", "instagram": "None", "facebook": "None", "youtube": "None", "website": "None", "summary": "None", "logo": "None", "latitude": 50.22581100000005, "longitude": -99.48963949999994}, "106780745RR0001": {"name": "BEAUTIFUL SAVIOR LUTHERAN CHURCH", "designationCode": "C", "categoryCode": "32", "address": "1541 ST MARY'S RD", "city": "WINNIPEG", "province": "MB", "country": "CA", "postalCode": "R2M3V8", "twitter": "None", "instagram": "None", "facebook": "None", "youtube": "None", "website": "None", "summary": "None", "logo": "None", "latitude": 49.825236075826275, "longitude": -97.11420978345586}, "899176556RR0001": {"name": "BEAUTIFUL SAVIOR LUTHERAN SCHOOL INC", "designationCode": "C", "categoryCode": "20", "address": "52 BIRCHDALE AVE", "city": "WINNIPEG", "province": "MB", "country": "CA", "postalCode": "R2H1R9", "twitter": "None", "instagram": "None", "facebook": "None", "youtube": "None", "website": "None", "summary": "None", "logo": "None", "latitude": 49.87265318290151, "longitude": -97.13022005366753}, "857938088RR0001": {"name": "BEAUTY NIGHT SOCIETY", "designationCode": "C", "categoryCode": "09", "address": "4946 FRASER ST", "city": "VANCOUVER", "province": "BC", "country": "CA", "postalCode": "V5W2Y8", "twitter": "None", "instagram": "None", "facebook": "None", "youtube": "None", "website": "None", "summary": "None", "logo": "None", "latitude": 49.23978580079126, "longitude": -123.09033031585588}, "119095180RR0001": {"name": "BEAUVALLON SEVENTH-DAY ADVENTIST CHURCH", "designationCode": "C", "categoryCode": "41", "address": "5816 HIGHWAY 2A", "city": "LACOMBE", "province": "AB", "country": "CA", "postalCode": "T4L2G5", "twitter": "None", "instagram": "None", "facebook": "None", "youtube": "None", "website": "None", "summary": "None", "logo": "None", "latitude": 52.474063600197404, "longitude": -113.71692568401835}, "898921689RR0001": {"name": "BEAVER AMBULANCE SOCIETY", "designationCode": "C", "categoryCode": "11", "address": "BOX 1200", "city": "TOFIELD", "province": "AB", "country": "CA", "postalCode": "T0B4J0", "twitter": "None", "instagram": "None", "facebook": "None", "youtube": "None", "website": "None", "summary": "None", "logo": "None", "latitude": 53.36988000000008, "longitude": -112.66557999999998}, "118801810RR0001": {"name": "BEAVER BRAE SCHOLARSHIP & BURSARY FUND", "designationCode": "C", "categoryCode": "22", "address": "1400 NINTH STREET NORTH", "city": "KENORA", "province": "ON", "country": "CA", "postalCode": "P9N2T7", "twitter": "None", "instagram": "None", "facebook": "None", "youtube": "None", "website": "None", "summary": "None", "logo": "None", "latitude": 49.77578446378897, "longitude": -94.46350041618096}, "890451040RR0001": {"name": "BEAVER BURSARY FUND INC", "designationCode": "C", "categoryCode": "21", "address": "7 WEYMOND CRES.", "city": "RIVERVIEW", "province": "NB", "country": "CA", "postalCode": "E1B5H7", "twitter": "None", "instagram": "None", "facebook": "None", "youtube": "None", "website": "None", "summary": "None", "logo": "None", "latitude": 46.0506323716314, "longitude": -64.84002707926005}, "892994377RR0001": {"name": "BEAVER COUNTY VICTIM SERVICES ASSOCIATION", "designationCode": "C", "categoryCode": "09", "address": "POST OFFICE BOX 540", "city": "TOFIELD", "province": "AB", "country": "CA", "postalCode": "T0B4J0", "twitter": "None", "instagram": "None", "facebook": "None", "youtube": "None", "website": "None", "summary": "None", "logo": "None", "latitude": 53.36988000000008, "longitude": -112.66557999999998}, "862137924RR0001": {"name": "BEAVER CREEK BIBLE CAMP 2000 INC.", "designationCode": "C", "categoryCode": "49", "address": "DARREN KORNELSEN - TREASURER  PO BOX 659", "city": "RIVERTON", "province": "MB", "country": "CA", "postalCode": "R0C2R0", "twitter": "None", "instagram": "None", "facebook": "None", "youtube": "None", "website": "None", "summary": "None", "logo": "None", "latitude": 50.99870400000006, "longitude": -96.99624349999993}, "892225640RR0001": {"name": "BEAVER CREEK LUTHERAN CHURCH,", "designationCode": "C", "categoryCode": "32", "address": "PO BOX 50", "city": "GRONLID", "province": "SK", "country": "CA", "postalCode": "S0E0W0", "twitter": "None", "instagram": "None", "facebook": "None", "youtube": "None", "website": "None", "summary": "None", "logo": "None", "latitude": 53.100010000000054, "longitude": -104.46345999999994}, "118801877RR0001": {"name": "BEAVER HARBOUR BAPTIST CHURCH", "designationCode": "C", "categoryCode": "31", "address": "543 MAIN ST", "city": "BEAVER HARBOUR", "province": "NB", "country": "CA", "postalCode": "E5H1M6", "twitter": "None", "instagram": "None", "facebook": "None", "youtube": "None", "website": "None", "summary": "None", "logo": "None", "latitude": 45.0715624785236, "longitude": -66.74243717546719}, "106780927RR0001": {"name": "BEAVER HERITAGE AND AGRICULTURAL SOCIETY", "designationCode": "C", "categoryCode": "56", "address": "BOX 147", "city": "RYLEY", "province": "AB", "country": "CA", "postalCode": "T0B4A0", "twitter": "None", "instagram": "None", "facebook": "None", "youtube": "None", "website": "None", "summary": "None", "logo": "None", "latitude": 53.28344000000004, "longitude": -112.43517999999995}, "887232486RR0001": {"name": "BEAVER PASTORAL CHARGE", "designationCode": "C", "categoryCode": "44", "address": "BOX 119", "city": "TOFIELD", "province": "AB", "country": "CA", "postalCode": "T0B4J0", "twitter": "None", "instagram": "None", "facebook": "None", "youtube": "None", "website": "None", "summary": "None", "logo": "None", "latitude": 53.36988000000008, "longitude": -112.66557999999998}, "123471336RR0001": {"name": "BEAVER REGIONAL ARTS SOCIETY", "designationCode": "C", "categoryCode": "22", "address": "BOX 341", "city": "HOLDEN", "province": "AB", "country": "CA", "postalCode": "T0B2C0", "twitter": "None", "instagram": "None", "facebook": "None", "youtube": "None", "website": "None", "summary": "None", "logo": "None", "latitude": 53.232710000000054, "longitude": -112.23536999999999}, "891903007RR0001": {"name": "BEAVER RIVER HEALTH CARE FOUNDATION INC.", "designationCode": "C", "categoryCode": "13", "address": "BOX 176", "city": "GOODSOIL", "province": "SK", "country": "CA", "postalCode": "S0M1A0", "twitter": "None", "instagram": "None", "facebook": "None", "youtube": "None", "website": "None", "summary": "None", "logo": "None", "latitude": 54.400190000000066, "longitude": -109.21825999999999}, "118801968RR0001": {"name": "BEAVER RIVER UNITED BAPTIST CHURCH", "designationCode": "C", "categoryCode": "31", "address": "3772 HIGHWAY 1", "city": "BEAVER RIVER", "province": "NS", "country": "CA", "postalCode": "B5A5T8", "twitter": "None", "instagram": "None", "facebook": "None", "youtube": "None", "website": "None", "summary": "None", "logo": "None", "latitude": 44.006344629111624, "longitude": -66.14876530258573}, "118802016RR0001": {"name": "BEAVER VALLEY BAPTIST CHURCH", "designationCode": "C", "categoryCode": "31", "address": "P.O. BOX 471", "city": "MONTROSE", "province": "BC", "country": "CA", "postalCode": "V0G1P0", "twitter": "None", "instagram": "None", "facebook": "None", "youtube": "None", "website": "None", "summary": "None", "logo": "None", "latitude": 49.07853000000006, "longitude": -117.59350999999998}, "119288918RR0049": {"name": "BEAVER VALLEY BRITISH COLUMBIA CONGREGATION OF JEHOVAH'S WITNESSES", "designationCode": "C", "categoryCode": "61", "address": "P. O. BOX 473", "city": "FRUITVALE", "province": "BC", "country": "CA", "postalCode": "V0G1L0", "twitter": "None", "instagram": "None", "facebook": "None", "youtube": "None", "website": "None", "summary": "None", "logo": "None", "latitude": 49.115270000000066, "longitude": -117.54598999999996}, "118802057RR0001": {"name": "BEAVER VALLEY MANOR SOCIETY", "designationCode": "C", "categoryCode": "01", "address": "PO BOX 826", "city": "FRUITVALE", "province": "BC", "country": "CA", "postalCode": "V0G1L0", "twitter": "None", "instagram": "None", "facebook": "None", "youtube": "None", "website": "None", "summary": "None", "logo": "None", "latitude": 49.115270000000066, "longitude": -117.54598999999996}, "888625191RR0001": {"name": "BEAVER VALLEY OUTREACH", "designationCode": "C", "categoryCode": "09", "address": "BOX 599", "city": "THORNBURY", "province": "ON", "country": "CA", "postalCode": "N0H2P0", "twitter": "None", "instagram": "None", "facebook": "None", "youtube": "None", "website": "None", "summary": "None", "logo": "None", "latitude": 44.561600000000055, "longitude": -80.45108999999997}, "106781172RR0001": {"name": "BEAVER VALLEY PUBLIC LIBRARY", "designationCode": "C", "categoryCode": "50", "address": "BOX 429", "city": "FRUITVALE", "province": "BC", "country": "CA", "postalCode": "V0G1L0", "twitter": "None", "instagram": "None", "facebook": "None", "youtube": "None", "website": "None", "summary": "None", "logo": "None", "latitude": 49.115270000000066, "longitude": -117.54598999999996}, "106780851RR0001": {"name": "BEAVERBROOK ART GALLERY", "designationCode": "C", "categoryCode": "22", "address": "PO BOX 605", "city": "FREDERICTON", "province": "NB", "country": "CA", "postalCode": "E3B5A6", "twitter": "None", "instagram": "None", "facebook": "None", "youtube": "None", "website": "None", "summary": "None", "logo": "None", "latitude": 45.96062100000006, "longitude": -66.63911299999994}, "118801836RR0001": {"name": "BEAVERBROOK AUDITORIUM", "designationCode": "C", "categoryCode": "50", "address": "55 WHITING ROAD # 31", "city": "FREDERICTON", "province": "NB", "country": "CA", "postalCode": "E3B5Y5", "twitter": "None", "instagram": "None", "facebook": "None", "youtube": "None", "website": "None", "summary": "None", "logo": "None", "latitude": 45.91572427782903, "longitude": -66.6189807450518}, "118801869RR0001": {"name": "BEAVERDELL CARMI FIRE AND FIRST RESPONDER SOCIETY", "designationCode": "C", "categoryCode": "59", "address": "5896 HIGHWAY 33               POST OFFICE BOX 114", "city": "BEAVERDELL", "province": "BC", "country": "CA", "postalCode": "V0H1A0", "twitter": "None", "instagram": "None", "facebook": "None", "youtube": "None", "website": "None", "summary": "None", "logo": "None", "latitude": 49.4352712087668, "longitude": -119.08797263138251}, "850476920RR0001": {"name": "BEAVERDELL COMMUNITY CLUB AND RECREATION COMMISSION", "designationCode": "C", "categoryCode": "56", "address": "5841 HWY 33                   P.O. BOX 114", "city": "BEAVERDELL", "province": "BC", "country": "CA", "postalCode": "V0H1A0", "twitter": "None", "instagram": "None", "facebook": "None", "youtube": "None", "website": "None", "summary": "None", "logo": "None", "latitude": 49.4352712087668, "longitude": -119.08797263138251}, "134413525RR0001": {"name": "BEAVERHILL BIRD OBSERVATORY SOCIETY", "designationCode": "C", "categoryCode": "54", "address": "PO BOX 1418 STN MAIN", "city": "EDMONTON", "province": "AB", "country": "CA", "postalCode": "T5J2N5", "twitter": "None", "instagram": "None", "facebook": "None", "youtube": "None", "website": "None", "summary": "None", "logo": "None", "latitude": 53.54623500000005, "longitude": -113.49037249999994}, "118801893RR0001": {"name": "BEAVERLODGE ALLIANCE CHURCH OF THE CHRISTIAN & MISSIONARY ALLIANCE", "designationCode": "C", "categoryCode": "39", "address": "PO BOX 177", "city": "BEAVERLODGE", "province": "AB", "country": "CA", "postalCode": "T0H0C0", "twitter": "None", "instagram": "None", "facebook": "None", "youtube": "None", "website": "None", "summary": "None", "logo": "None", "latitude": 55.209100000000035, "longitude": -119.42957999999999}, "860245729RR0001": {"name": "BEAVERLODGE CHILD DEVELOPMENT SOCIETY", "designationCode": "C", "categoryCode": "56", "address": "PO BOX 625", "city": "BEAVERLODGE", "province": "AB", "country": "CA", "postalCode": "T0H0C0", "twitter": "None", "instagram": "None", "facebook": "None", "youtube": "None", "website": "None", "summary": "None", "logo": "None", "latitude": 55.209100000000035, "longitude": -119.42957999999999}, "883900417RR0001": {"name": "BEAVERLODGE CHRISTMAS HAMPER & FOOD BANK", "designationCode": "C", "categoryCode": "09", "address": "PO BOX 36", "city": "BEAVERLODGE", "province": "AB", "country": "CA", "postalCode": "T0H0C0", "twitter": "None", "instagram": "None", "facebook": "None", "youtube": "None", "website": "None", "summary": "None", "logo": "None"}, "118801901RR0001": {"name": "BEAVERLODGE CONGREGATION OF JEHOVAH'S WITNESSES", "designationCode": "C", "categoryCode": "61", "address": "BOX 1139", "city": "BEAVERLODGE", "province": "AB", "country": "CA", "postalCode": "T0H0C0", "twitter": "None", "instagram": "None", "facebook": "None", "youtube": "None", "website": "None", "summary": "None", "logo": "None", "latitude": 55.209100000000035, "longitude": -119.42957999999999}, "889823597RR0001": {"name": "BEAVERLODGE HOSPITAL FOUNDATION", "designationCode": "A", "categoryCode": "15", "address": "BOX 480", "city": "BEAVER LODGE", "province": "AB", "country": "CA", "postalCode": "T0H0C0", "twitter": "None", "instagram": "None", "facebook": "None", "youtube": "None", "website": "None", "summary": "None", "logo": "None", "latitude": 55.208670000000055, "longitude": -119.42911249999993}, "118801935RR0001": {"name": "BEAVERLODGE SENIOR CITIZENS ASSOCIATION", "designationCode": "C", "categoryCode": "56", "address": "PO BOX 924", "city": "BEAVERLODGE", "province": "AB", "country": "CA", "postalCode": "T0H0C0", "twitter": "None", "instagram": "None", "facebook": "None", "youtube": "None", "website": "None", "summary": "None", "logo": "None", "latitude": 55.209100000000035, "longitude": -119.42957999999999}, "888973195RR0001": {"name": "BEAVERLODGE UNITED CHURCH", "designationCode": "C", "categoryCode": "44", "address": "BOX 387", "city": "BEAVERLODGE", "province": "AB", "country": "CA", "postalCode": "T0H0C0", "twitter": "None", "instagram": "None", "facebook": "None", "youtube": "None", "website": "None", "summary": "None", "logo": "None", "latitude": 55.209100000000035, "longitude": -119.42957999999999}, "125280867RR0001": {"name": "BEAVERTON AGRICULTURAL SOCIETY", "designationCode": "C", "categoryCode": "56", "address": "P.O. BOX 459", "city": "BEAVERTON", "province": "ON", "country": "CA", "postalCode": "L0K1A0", "twitter": "None", "instagram": "None", "facebook": "None", "youtube": "None", "website": "None", "summary": "None", "logo": "None", "latitude": 44.43273000000005, "longitude": -79.15524999999997}, "118801976RR0001": {"name": "BEAVERTON LIONS CLUB CHARITABLE TRUST", "designationCode": "C", "categoryCode": "65", "address": "BOX 297", "city": "BEAVERTON", "province": "ON", "country": "CA", "postalCode": "L0K1A0", "twitter": "None", "instagram": "None", "facebook": "None", "youtube": "None", "website": "None", "summary": "None", "logo": "None", "latitude": 44.43273000000005, "longitude": -79.15524999999997}, "118801992RR0001": {"name": "BEAVERTON THORAH ELDON HISTORICAL SOCIETY", "designationCode": "C", "categoryCode": "50", "address": "BOX 314", "city": "BEAVERTON", "province": "ON", "country": "CA", "postalCode": "L0K1A0", "twitter": "None", "instagram": "None", "facebook": "None", "youtube": "None", "website": "None", "summary": "None", "logo": "None", "latitude": 44.43273000000005, "longitude": -79.15524999999997}, "118802008RR0001": {"name": "BEAVERTON TOWN HALL PLAYERS", "designationCode": "C", "categoryCode": "22", "address": "P.O. BOX 527", "city": "BEAVERTON", "province": "ON", "country": "CA", "postalCode": "L0K1A0", "twitter": "None", "instagram": "None", "facebook": "None", "youtube": "None", "website": "None", "summary": "None", "logo": "None", "latitude": 44.43273000000005, "longitude": -79.15524999999997}, "804275477RR0001": {"name": "BEBE LAYETTE", "designationCode": "C", "categoryCode": "09", "address": "222 RUE ALPHONSE-DESJARDINS   BUREAU 101", "city": "SALABERRY-DE-VALLEYFIELD", "province": "QC", "country": "CA", "postalCode": "J6S2N9", "twitter": "None", "instagram": "None", "facebook": "None", "youtube": "None", "website": "None", "summary": "None", "logo": "None", "latitude": 45.26010219175965, "longitude": -74.12101330056564}, "887774461RR0001": {"name": "BECKLEY FARM LODGE FOUNDATION", "designationCode": "A", "categoryCode": "13", "address": "530 SIMCOE STREET", "city": "VICTORIA", "province": "BC", "country": "CA", "postalCode": "V8V4W4", "twitter": "None", "instagram": "None", "facebook": "None", "youtube": "None", "website": "None", "summary": "None", "logo": "None", "latitude": 48.41481826146907, "longitude": -123.37274162695496}, "118972710RR0001": {"name": "BECKLEY FARM LODGE SOCIETY", "designationCode": "C", "categoryCode": "09", "address": "530 SIMCOE STREET", "city": "VICTORIA", "province": "BC", "country": "CA", "postalCode": "V8V4W4", "twitter": "None", "instagram": "None", "facebook": "None", "youtube": "None", "website": "None", "summary": "None", "logo": "None", "latitude": 48.41481826146907, "longitude": -123.37274162695496}, "118802107RR0001": {"name": "BECKONING HILLS ACTIVITIES CLUB INC.", "designationCode": "C", "categoryCode": "56", "address": "BOX 1016", "city": "BOISSEVAIN", "province": "MB", "country": "CA", "postalCode": "R0K0E0", "twitter": "None", "instagram": "None", "facebook": "None", "youtube": "None", "website": "None", "summary": "None", "logo": "None", "latitude": 49.23156000000006, "longitude": -100.05945999999994}, "131784779RR0001": {"name": "BECKONING HILLS MUSEUM INCORPORATED", "designationCode": "C", "categoryCode": "50", "address": "PO BOX 389", "city": "BOISSEVAIN", "province": "MB", "country": "CA", "postalCode": "R0K0E0", "twitter": "None", "instagram": "None", "facebook": "None", "youtube": "None", "website": "None", "summary": "None", "logo": "None", "latitude": 49.23156000000006, "longitude": -100.05945999999994}, "118802115RR0001": {"name": "BECKWITH BAPTIST CHURCH", "designationCode": "C", "categoryCode": "31", "address": "277 TENNYSON RD, RR#2", "city": "CARLETON PLACE", "province": "ON", "country": "CA", "postalCode": "K7C3P2", "twitter": "None", "instagram": "None", "facebook": "None", "youtube": "None", "website": "None", "summary": "None", "logo": "None", "latitude": 45.038299969759166, "longitude": -76.16007003476477}, "801319146RR0001": {"name": "BECOMING NEIGHBOURS JOINT APOSTOLIC MINISTRY", "designationCode": "C", "categoryCode": "09", "address": "2685 KINGSTON RD              SCARBORO MISSIONS", "city": "TORONTO", "province": "ON", "country": "CA", "postalCode": "M1M1M4", "twitter": "None", "instagram": "None", "facebook": "None", "youtube": "None", "website": "None", "summary": "None", "logo": "None", "latitude": 43.717212861475176, "longitude": -79.24139338268257}, "118802156RR0001": {"name": "BEDDINGTON PENTECOSTAL CHURCH", "designationCode": "C", "categoryCode": "36", "address": "16 BERMUDA DR NW", "city": "CALGARY", "province": "AB", "country": "CA", "postalCode": "T3K1H7", "twitter": "None", "instagram": "None", "facebook": "None", "youtube": "None", "website": "None", "summary": "None", "logo": "None", "latitude": 51.12774466305043, "longitude": -114.07675207311456}, "855507596RR0001": {"name": "BEDEQUE AND AREA ENVIRONMENTAL COMMITTEE LTD.", "designationCode": "C", "categoryCode": "52", "address": "48 LEARD MILL ROAD", "city": "BEDEQUE", "province": "PE", "country": "CA", "postalCode": "C0B1C0", "twitter": "None", "instagram": "None", "facebook": "None", "youtube": "None", "website": "None", "summary": "None", "logo": "None", "latitude": 46.33201769663573, "longitude": -63.719555835968606}, "118802164RR0001": {"name": "BEDEQUE AREA RECREATIONAL CENTRE", "designationCode": "C", "categoryCode": "56", "address": "PO BOX 3979", "city": "CENTRAL BEDEQUE", "province": "PE", "country": "CA", "postalCode": "C0B1G0", "twitter": "None", "instagram": "None", "facebook": "None", "youtube": "None", "website": "None", "summary": "None", "logo": "None", "latitude": 46.33343000000008, "longitude": -63.69871999999998}, "135366219RR0001": {"name": "BEDEQUE BAY ENVIRONMENTAL MANAGEMENT ASSOCIATION INC", "designationCode": "C", "categoryCode": "59", "address": "P O BOX 8310", "city": "EMERALD", "province": "PE", "country": "CA", "postalCode": "C0B1M0", "twitter": "None", "instagram": "None", "facebook": "None", "youtube": "None", "website": "None", "summary": "None", "logo": "None", "latitude": 46.31838024048686, "longitude": -63.80300470577736}, "118802172RR0001": {"name": "BEDEQUE NORTH PASTORAL CHARGE", "designationCode": "C", "categoryCode": "44", "address": "680 DRUMMOND RD               RTE 113 RR 7", "city": "FREETOWN", "province": "PE", "country": "CA", "postalCode": "C0B1L0", "twitter": "None", "instagram": "None", "facebook": "None", "youtube": "None", "website": "None", "summary": "None", "logo": "None", "latitude": 46.35605572217098, "longitude": -63.624628671244736}, "118802180RR0001": {"name": "BEDEQUE PASTORAL CHARGE", "designationCode": "C", "categoryCode": "44", "address": "3420 ROUTE 10", "city": "ALBANY", "province": "PE", "country": "CA", "postalCode": "C0B1A0", "twitter": "None", "instagram": "None", "facebook": "None", "youtube": "None", "website": "None", "summary": "None", "logo": "None", "latitude": 46.286760750764614, "longitude": -63.698425125714216}, "128846490RR0001": {"name": "BEDEQUE UNITED BAPTIST CHURCH", "designationCode": "C", "categoryCode": "31", "address": "323 NORMAN DRIVE", "city": "SUMMERSIDE", "province": "PE", "country": "CA", "postalCode": "C1N5X9", "twitter": "None", "instagram": "None", "facebook": "None", "youtube": "None", "website": "None", "summary": "None", "logo": "None", "latitude": 46.406668725229395, "longitude": -63.79707896557797}, "132551623RR0001": {"name": "BEDFORD (CENTRAL) CHRISTADELPHIAN ECCLESIA", "designationCode": "B", "categoryCode": "39", "address": "P.O. BOX 44023                1658 BEDFORD HWY", "city": "BEDFORD", "province": "NS", "country": "CA", "postalCode": "B4A3X5", "twitter": "None", "instagram": "None", "facebook": "None", "youtube": "None", "website": "None", "summary": "None", "logo": "None", "latitude": 44.73586941081393, "longitude": -63.654844949966886}, "118802255RR0001": {"name": "BEDFORD BAPTIST CHURCH", "designationCode": "C", "categoryCode": "31", "address": "PO BOX 44073", "city": "BEDFORD", "province": "NS", "country": "CA", "postalCode": "B4A3X5", "twitter": "None", "instagram": "None", "facebook": "None", "youtube": "None", "website": "None", "summary": "None", "logo": "None", "latitude": 44.71371600000006, "longitude": -63.67729399999993}, "130556103RR0001": {"name": "BEDFORD PARK UNITED CHURCH,", "designationCode": "C", "categoryCode": "44", "address": "3230 YONGE STREET, STE 1011", "city": "TORONTO", "province": "ON", "country": "CA", "postalCode": "M4N3P6", "twitter": "None", "instagram": "None", "facebook": "None", "youtube": "None", "website": "None", "summary": "None", "logo": "None", "latitude": 43.72931070330083, "longitude": -79.40334626576825}, "118802248RR0001": {"name": "BEDFORD PASTORAL CHARGE", "designationCode": "C", "categoryCode": "44", "address": "53 RIVER", "city": "BEDFORD", "province": "QC", "country": "CA", "postalCode": "J0J1A0", "twitter": "None", "instagram": "None", "facebook": "None", "youtube": "None", "website": "None", "summary": "None", "logo": "None", "latitude": 45.11803120595524, "longitude": -72.90992407366281}, "890843865RR0001": {"name": "BEDFORD PASTORAL CHARGE,", "designationCode": "C", "categoryCode": "44", "address": "1200 BEDFORD HIGHWAY", "city": "BEDFORD", "province": "NS", "country": "CA", "postalCode": "B4A1C3", "twitter": "None", "instagram": "None", "facebook": "None", "youtube": "None", "website": "None", "summary": "None", "logo": "None", "latitude": 44.723266248975605, "longitude": -63.670303158260324}, "898301783RR0001": {"name": "BEDFORD PRESBYTERIAN CHURCH", "designationCode": "C", "categoryCode": "37", "address": "49 NELSONS LANDING BLVD", "city": "BEDFORD", "province": "NS", "country": "CA", "postalCode": "B4A3Z6", "twitter": "None", "instagram": "None", "facebook": "None", "youtube": "None", "website": "None", "summary": "None", "logo": "None", "latitude": 44.712581101044364, "longitude": -63.67725460326608}, "133875641RR0001": {"name": "BEDFORD UNITED CHURCH", "designationCode": "C", "categoryCode": "44", "address": "3340 SANDWICH STREET", "city": "WINDSOR", "province": "ON", "country": "CA", "postalCode": "N9C1B1", "twitter": "None", "instagram": "None", "facebook": "None", "youtube": "None", "website": "None", "summary": "None", "logo": "None", "latitude": 42.29885162421368, "longitude": -83.07760902515986}, "894642032RR0001": {"name": "BEDFORD-SACKVILLE LITERACY NETWORK SOCIETY", "designationCode": "C", "categoryCode": "21", "address": "PO BOX 77                     SUPERSTORE MALL", "city": "LOWER SACKVILLE", "province": "NS", "country": "CA", "postalCode": "B4C2S8", "twitter": "None", "instagram": "None", "facebook": "None", "youtube": "None", "website": "None", "summary": "None", "logo": "None", "latitude": 44.76871500000006, "longitude": -63.65960449999993}, "866682396RR0001": {"name": "BEECH FOUNDATION", "designationCode": "A", "categoryCode": "03", "address": "50 - 133 KEEFER ST", "city": "VANCOUVER", "province": "BC", "country": "CA", "postalCode": "V6A1X3", "twitter": "None", "instagram": "None", "facebook": "None", "youtube": "None", "website": "None", "summary": "None", "logo": "None", "latitude": 49.27954712519463, "longitude": -123.10119695074722}, "118802289RR0001": {"name": "BEECH HILL UNITED BAPTIST CHURCH", "designationCode": "C", "categoryCode": "31", "address": "RR #2 CHESTER BASIN", "city": "LUNENBURG COUNTY", "province": "NS", "country": "CA", "postalCode": "B0J1K0", "twitter": "None", "instagram": "None", "facebook": "None", "youtube": "None", "website": "None", "summary": "None", "logo": "None", "latitude": 44.56905000000006, "longitude": -64.30023349999993}, "891152381RR0001": {"name": "BEECHRIDGE PRESBYTERIAN CHURCH,", "designationCode": "C", "categoryCode": "37", "address": "333 RANG DOUBLE", "city": "ST URBAIN", "province": "QC", "country": "CA", "postalCode": "J0S1Y0", "twitter": "None", "instagram": "None", "facebook": "None", "youtube": "None", "website": "None", "summary": "None", "logo": "None", "latitude": 45.208026374170224, "longitude": -73.72204532064785}, "898528716RR0001": {"name": "BEECHVILLE UNITED BAPTIST CHURCH", "designationCode": "C", "categoryCode": "31", "address": "1135 ST. MARGARET'S ROAD", "city": "HALIFAX", "province": "NS", "country": "CA", "postalCode": "B3T1A7", "twitter": "None", "instagram": "None", "facebook": "None", "youtube": "None", "website": "None", "summary": "None", "logo": "None", "latitude": 44.636440363378824, "longitude": -63.68059702389045}, "119288918RR1083": {"name": "BEECHWOOD CONGREGATION OF JEHOVAH'S WITNESSES", "designationCode": "C", "categoryCode": "61", "address": "129 BANKSIDE DR", "city": "KITCHENER", "province": "ON", "country": "CA", "postalCode": "N2N3E2", "twitter": "None", "instagram": "None", "facebook": "None", "youtube": "None", "website": "None", "summary": "None", "logo": "None", "latitude": 43.4317216816321, "longitude": -80.53188619484672}, "106781776RR0001": {"name": "BEECHWOOD UNITED BAPTIST CHURCH", "designationCode": "C", "categoryCode": "31", "address": "10069 ROUTE 105", "city": "BEECHWOOD", "province": "NB", "country": "CA", "postalCode": "E7J2A3", "twitter": "None", "instagram": "None", "facebook": "None", "youtube": "None", "website": "None", "summary": "None", "logo": "None", "latitude": 46.53869519253583, "longitude": -67.64721226879621}, "887403269RR0001": {"name": "BEECHY AND DISTRICT COMBINED APPEAL", "designationCode": "C", "categoryCode": "05", "address": "P.O.BOX 263", "city": "BEECHY", "province": "SK", "country": "CA", "postalCode": "S0L0C0", "twitter": "None", "instagram": "None", "facebook": "None", "youtube": "None", "website": "None", "summary": "None", "logo": "None", "latitude": 50.87650000000008, "longitude": -107.38328999999999}, "888528098RR0001": {"name": "BEECHY CHARITABLE TRUST", "designationCode": "B", "categoryCode": "39", "address": "50 1ST AVE NE", "city": "SWIFT CURRENT", "province": "SK", "country": "CA", "postalCode": "S9H4W4", "twitter": "None", "instagram": "None", "facebook": "None", "youtube": "None", "website": "None", "summary": "None", "logo": "None", "latitude": 50.282664378132, "longitude": -107.79863205289816}, "891240087RR0001": {"name": "BEECHY FIRE DEPARTMENT", "designationCode": "C", "categoryCode": "59", "address": "POST OFFICE BOX 85", "city": "BEECHY", "province": "SK", "country": "CA", "postalCode": "S0L0C0", "twitter": "None", "instagram": "None", "facebook": "None", "youtube": "None", "website": "None", "summary": "None", "logo": "None", "latitude": 50.87650000000008, "longitude": -107.38328999999999}, "896806254RR0001": {"name": "BEECHY PERSONAL CARE HOME INC.", "designationCode": "C", "categoryCode": "01", "address": "BOX 381", "city": "BEECHY", "province": "SK", "country": "CA", "postalCode": "S0L0C0", "twitter": "None", "instagram": "None", "facebook": "None", "youtube": "None", "website": "None", "summary": "None", "logo": "None", "latitude": 50.87650000000008, "longitude": -107.38328999999999}, "118802339RR0001": {"name": "BEECHY SOCIAL CLUB INC.", "designationCode": "C", "categoryCode": "59", "address": "PO BOX 62", "city": "BEECHY", "province": "SK", "country": "CA", "postalCode": "S0L0C0", "twitter": "None", "instagram": "None", "facebook": "None", "youtube": "None", "website": "None", "summary": "None", "logo": "None", "latitude": 50.87650000000008, "longitude": -107.38328999999999}}