{"106787203RR0001": {"name": "BERWICK UNITED BAPTIST CHURCH", "designationCode": "C", "categoryCode": "31", "address": "PO BOX 718", "city": "BERWICK", "province": "NS", "country": "CA", "postalCode": "B0P1E0", "twitter": "None", "instagram": "None", "facebook": "None", "youtube": "None", "website": "None", "summary": "None", "logo": "None", "latitude": 45.04982000000007, "longitude": -64.73769999999996}, "106787229RR0001": {"name": "BERWICK UNITED CHURCH", "designationCode": "C", "categoryCode": "44", "address": "BOX 248", "city": "BERWICK", "province": "NS", "country": "CA", "postalCode": "B0P1E0", "twitter": "None", "instagram": "None", "facebook": "None", "youtube": "None", "website": "None", "summary": "None", "logo": "None", "latitude": 45.04982000000007, "longitude": -64.73769999999996}, "831677349RR0001": {"name": "BESSIE BORDEN PERPETUITY TRUST", "designationCode": "B", "categoryCode": "03", "address": "155 WELLINGTON ST WEST 20TH FL", "city": "TORONTO", "province": "ON", "country": "CA", "postalCode": "M5V3K7", "twitter": "None", "instagram": "None", "facebook": "None", "youtube": "None", "website": "None", "summary": "None", "logo": "None", "latitude": 43.64596585316531, "longitude": -79.38574575644876}, "100489897RR0001": {"name": "BESSIN FAMILY FOUNDATION", "designationCode": "B", "categoryCode": "03", "address": "24 SHELBORNE AVENUE", "city": "TORONTO", "province": "ON", "country": "CA", "postalCode": "M5N1Y7", "twitter": "None", "instagram": "None", "facebook": "None", "youtube": "None", "website": "None", "summary": "None", "logo": "None", "latitude": 43.717377183478426, "longitude": -79.42249731294355}, "895300861RR0001": {"name": "BEST BUDDIES OF CANADA", "designationCode": "C", "categoryCode": "09", "address": "907-1243 ISLINGTON AVENUE", "city": "TORONTO", "province": "ON", "country": "CA", "postalCode": "M8X1Y9", "twitter": "None", "instagram": "None", "facebook": "None", "youtube": "None", "website": "None", "summary": "None", "logo": "None", "latitude": 43.64582694338964, "longitude": -79.52391070006952}, "106787468RR0001": {"name": "BEST FRIENDS LEARNING CENTRE OF WINDSOR", "designationCode": "C", "categoryCode": "20", "address": "1400 ROSELAWN DR.", "city": "WINDSOR", "province": "ON", "country": "CA", "postalCode": "N9E1L8", "twitter": "None", "instagram": "None", "facebook": "None", "youtube": "None", "website": "None", "summary": "None", "logo": "None", "latitude": 42.2571172508792, "longitude": -83.01948849535148}, "861733160RR0001": {"name": "BEST NEWS MINISTRIES ALBERTA", "designationCode": "C", "categoryCode": "47", "address": "SUITE 101                     12407 LANSDOWNE DRIVE NW", "city": "EDMONTON", "province": "AB", "country": "CA", "postalCode": "T6H4L4", "twitter": "None", "instagram": "None", "facebook": "None", "youtube": "None", "website": "None", "summary": "None", "logo": "None", "latitude": 53.48449427361677, "longitude": -113.54339569683822}, "888473865RR0001": {"name": "BET YOSEF SEPHARDIC CONGREGATION", "designationCode": "C", "categoryCode": "42", "address": "33 MILLCREEK CRES.", "city": "THORNHILL", "province": "ON", "country": "CA", "postalCode": "L4J6N5", "twitter": "None", "instagram": "None", "facebook": "None", "youtube": "None", "website": "None", "summary": "None", "logo": "None", "latitude": 43.79901902469852, "longitude": -79.45983052106315}, "889849998RR0001": {"name": "BETA THETA PI FOUNDATION OF CANADA", "designationCode": "B", "categoryCode": "21", "address": "2376 WILDWOOD CRES", "city": "PICKERING", "province": "ON", "country": "CA", "postalCode": "L1X2M8", "twitter": "None", "instagram": "None", "facebook": "None", "youtube": "None", "website": "None", "summary": "None", "logo": "None", "latitude": 43.85558703191187, "longitude": -79.08712150057691}, "888521663RR0001": {"name": "BETEL HERITAGE FOUNDATION INC", "designationCode": "A", "categoryCode": "03", "address": "106-94 1ST AVENUE", "city": "GIMLI", "province": "MB", "country": "CA", "postalCode": "R0C1B1", "twitter": "None", "instagram": "None", "facebook": "None", "youtube": "None", "website": "None", "summary": "None", "logo": "None", "latitude": 50.633473677511994, "longitude": -96.98544729783993}, "118803907RR0001": {"name": "BETEL HOME FOUNDATION", "designationCode": "C", "categoryCode": "01", "address": "212 MANCHESTER AVENUE", "city": "SELKIRK", "province": "MB", "country": "CA", "postalCode": "R1A0B6", "twitter": "None", "instagram": "None", "facebook": "None", "youtube": "None", "website": "None", "summary": "None", "logo": "None", "latitude": 50.12950863955169, "longitude": -96.88703345477222}, "106788342RR0001": {"name": "BETH AVRAHAM YOSEPH OF TORONTO CONGREGATION", "designationCode": "C", "categoryCode": "42", "address": "613 CLARK AVE. W.", "city": "THORNHILL", "province": "ON", "country": "CA", "postalCode": "L4J5V3", "twitter": "None", "instagram": "None", "facebook": "None", "youtube": "None", "website": "None", "summary": "None", "logo": "None", "latitude": 43.80414659997745, "longitude": -79.44404892073995}, "888100922RR0001": {"name": "BETH CHABAD ISRAELI COMMUNITY CENTRE", "designationCode": "C", "categoryCode": "42", "address": "7770 BATHURST ST", "city": "THORNHILL", "province": "ON", "country": "CA", "postalCode": "L4J0H6", "twitter": "None", "instagram": "None", "facebook": "None", "youtube": "None", "website": "None", "summary": "None", "logo": "None", "latitude": 43.812693356916206, "longitude": -79.4504866431411}, "118804616RR0001": {"name": "BETH DAVID B'NAI ISRAEL BETH AM", "designationCode": "C", "categoryCode": "42", "address": "55 YEOMENS RD.", "city": "DOWNSVIEW", "province": "ON", "country": "CA", "postalCode": "M3H3J7", "twitter": "None", "instagram": "None", "facebook": "None", "youtube": "None", "website": "None", "summary": "None", "logo": "None", "latitude": 43.749016688614326, "longitude": -79.44086751627398}, "106967227RR0001": {"name": "BETH EL OF WINDSOR CONGREGATION", "designationCode": "C", "categoryCode": "42", "address": "2525 MARK AVE", "city": "WINDSOR", "province": "ON", "country": "CA", "postalCode": "N9E2W2", "twitter": "None", "instagram": "None", "facebook": "None", "youtube": "None", "website": "None", "summary": "None", "logo": "None", "latitude": 42.27383457034461, "longitude": -83.03426057761529}, "118806488RR0001": {"name": "BETH EMETH BAIS YEHUDA SYNAGOGUE", "designationCode": "C", "categoryCode": "42", "address": "100 ELDER ST", "city": "NORTH YORK", "province": "ON", "country": "CA", "postalCode": "M3H5G7", "twitter": "None", "instagram": "None", "facebook": "None", "youtube": "None", "website": "None", "summary": "None", "logo": "None", "latitude": 43.76074272716263, "longitude": -79.45356683948839}, "132671744RR0001": {"name": "BETH EZEKIEL SYNAGOGUE", "designationCode": "C", "categoryCode": "42", "address": "313 11TH ST EAST", "city": "OWEN SOUND", "province": "ON", "country": "CA", "postalCode": "N4K1V1", "twitter": "None", "instagram": "None", "facebook": "None", "youtube": "None", "website": "None", "summary": "None", "logo": "None", "latitude": 44.569575367187994, "longitude": -80.94017170858095}, "892435769RR0001": {"name": "BETH HA-MIDRASH AGUDATH ISRAEL (SOUTH)", "designationCode": "C", "categoryCode": "42", "address": "120 CARIBOU ROAD", "city": "TORONTO", "province": "ON", "country": "CA", "postalCode": "M5N2B2", "twitter": "None", "instagram": "None", "facebook": "None", "youtube": "None", "website": "None", "summary": "None", "logo": "None", "latitude": 43.71894212519462, "longitude": -79.42322639676257}, "893111575RR0001": {"name": "BETH HAMEDRASH L'HORAAH", "designationCode": "C", "categoryCode": "20", "address": "6258 DE VIMY", "city": "MONTREAL", "province": "QC", "country": "CA", "postalCode": "H3S2R3", "twitter": "None", "instagram": "None", "facebook": "None", "youtube": "None", "website": "None", "summary": "None", "logo": "None", "latitude": 45.51401100830988, "longitude": -73.6220942482831}, "886470590RR0001": {"name": "BETH HAMINYAN CONGREGATION", "designationCode": "C", "categoryCode": "39", "address": "136 VIEWMOUNT AVE", "city": "TORONTO", "province": "ON", "country": "CA", "postalCode": "M6B1T7", "twitter": "None", "instagram": "None", "facebook": "None", "youtube": "None", "website": "None", "summary": "None", "logo": "None", "latitude": 43.70885013962134, "longitude": -79.43541884569214}, "118806728RR0001": {"name": "BETH ISAIAH CONGREGATION", "designationCode": "C", "categoryCode": "42", "address": "PO BOX 1552                   STN MAIN", "city": "GUELPH", "province": "ON", "country": "CA", "postalCode": "N1H6N9", "twitter": "None", "instagram": "None", "facebook": "None", "youtube": "None", "website": "None", "summary": "None", "logo": "None", "latitude": 43.54455300000005, "longitude": -80.24788249999993}, "106790124RR0001": {"name": "BETH ISRAEL CONGREGATION", "designationCode": "C", "categoryCode": "42", "address": "116 CENTRE ST", "city": "KINGSTON", "province": "ON", "country": "CA", "postalCode": "K7L4E6", "twitter": "None", "instagram": "None", "facebook": "None", "youtube": "None", "website": "None", "summary": "None", "logo": "None", "latitude": 44.2253593447112, "longitude": -76.50493150002866}, "118806777RR0001": {"name": "BETH ISRAEL CONGREGATION OF PETERBOROUGH", "designationCode": "C", "categoryCode": "42", "address": "PO BOX 144 STN MAIN", "city": "PETERBOROUGH", "province": "ON", "country": "CA", "postalCode": "K9J6Y5", "twitter": "None", "instagram": "None", "facebook": "None", "youtube": "None", "website": "None", "summary": "None", "logo": "None", "latitude": 44.30591700000005, "longitude": -78.31950199999993}, "132265109RR0001": {"name": "BETH ISRAEL OHEV SHOLOM CONGREGATION", "designationCode": "C", "categoryCode": "42", "address": "1253 PLACE DE MERICI", "city": "QUEBEC", "province": "QC", "country": "CA", "postalCode": "G1S3H8", "twitter": "None", "instagram": "None", "facebook": "None", "youtube": "None", "website": "None", "summary": "None", "logo": "None", "latitude": 46.7930793455479, "longitude": -71.23621181542505}, "118806827RR0001": {"name": "BETH JACOB CONGREGATION", "designationCode": "C", "categoryCode": "42", "address": "147 BRUCE ST", "city": "SAULT STE. MARIE", "province": "ON", "country": "CA", "postalCode": "P6A2Y1", "twitter": "None", "instagram": "None", "facebook": "None", "youtube": "None", "website": "None", "summary": "None", "logo": "None", "latitude": 46.51484332835124, "longitude": -84.33389807259495}, "132002577RR0001": {"name": "BETH JACOB CONGREGATION", "designationCode": "C", "categoryCode": "42", "address": "161 STIRLING AVE S.", "city": "KITCHENER", "province": "ON", "country": "CA", "postalCode": "N2G3N8", "twitter": "None", "instagram": "None", "facebook": "None", "youtube": "None", "website": "None", "summary": "None", "logo": "None", "latitude": 43.4422453011139, "longitude": -80.48238070661905}, "118806835RR0001": {"name": "BETH JACOB HIGH SCHOOL FOR GIRLS", "designationCode": "C", "categoryCode": "20", "address": "410 LAWRENCE AVE. WEST", "city": "TORONTO", "province": "ON", "country": "CA", "postalCode": "M5M1C2", "twitter": "None", "instagram": "None", "facebook": "None", "youtube": "None", "website": "None", "summary": "None", "logo": "None", "latitude": 43.72059213240799, "longitude": -79.42362778740832}, "106790173RR0001": {"name": "BETH JACOB SCHOOL", "designationCode": "C", "categoryCode": "20", "address": "1750 GLENDALE AVENUE", "city": "OUTREMONT", "province": "QC", "country": "CA", "postalCode": "H2V1B3", "twitter": "None", "instagram": "None", "facebook": "None", "youtube": "None", "website": "None", "summary": "None", "logo": "None", "latitude": 45.51746852732425, "longitude": -73.62399950204882}, "106790181RR0001": {"name": "BETH JACOB SYNAGOGUE", "designationCode": "C", "categoryCode": "42", "address": "375 ABERDEEN AVENUE", "city": "HAMILTON", "province": "ON", "country": "CA", "postalCode": "L8P2R7", "twitter": "None", "instagram": "None", "facebook": "None", "youtube": "None", "website": "None", "summary": "None", "logo": "None", "latitude": 43.25031687480537, "longitude": -79.88989914821967}, "118806876RR0001": {"name": "BETH JACOB SYNAGOGUE", "designationCode": "C", "categoryCode": "42", "address": "4715 MCTAVISH ST", "city": "REGINA", "province": "SK", "country": "CA", "postalCode": "S4S6H2", "twitter": "None", "instagram": "None", "facebook": "None", "youtube": "None", "website": "None", "summary": "None", "logo": "None", "latitude": 50.404523097852696, "longitude": -104.63379485659502}, "118806884RR0001": {"name": "BETH JACOB VIANSHEI DRILDZ CONGREGATION", "designationCode": "C", "categoryCode": "42", "address": "147 OVERBROOK PLACE", "city": "DOWNSVIEW", "province": "ON", "country": "CA", "postalCode": "M3H4R2", "twitter": "None", "instagram": "None", "facebook": "None", "youtube": "None", "website": "None", "summary": "None", "logo": "None", "latitude": 43.76258080209485, "longitude": -79.45788606327547}, "118807056RR0001": {"name": "BETH LIDA FOREST HILL SYNAGOGUE", "designationCode": "C", "categoryCode": "42", "address": "PO BOX 38089                  RPO  CASTLEWOOD", "city": "TORONTO", "province": "ON", "country": "CA", "postalCode": "M5N3A8", "twitter": "None", "instagram": "None", "facebook": "None", "youtube": "None", "website": "None", "summary": "None", "logo": "None", "latitude": 43.7066917058492, "longitude": -79.41580685343143}, "118807080RR0001": {"name": "BETH OLOTH CHARITABLE ORGANIZATION", "designationCode": "C", "categoryCode": "47", "address": "525 COLDSTREAM AVE", "city": "TORONTO", "province": "ON", "country": "CA", "postalCode": "M6B2K7", "twitter": "None", "instagram": "None", "facebook": "None", "youtube": "None", "website": "None", "summary": "None", "logo": "None", "latitude": 43.714529802094866, "longitude": -79.43095487301638}, "106967276RR0001": {"name": "BETH ORA CONGREGATION", "designationCode": "C", "categoryCode": "42", "address": "2600 RUE BADEAUX", "city": "SAINT-LAURENT", "province": "QC", "country": "CA", "postalCode": "H4M1M5", "twitter": "None", "instagram": "None", "facebook": "None", "youtube": "None", "website": "None", "summary": "None", "logo": "None", "latitude": 45.49708474297434, "longitude": -73.6893936064114}, "118807106RR0001": {"name": "BETH RADOM CONGREGATION", "designationCode": "C", "categoryCode": "42", "address": "18 REINER RD", "city": "NORTH YORK", "province": "ON", "country": "CA", "postalCode": "M3H2K9", "twitter": "None", "instagram": "None", "facebook": "None", "youtube": "None", "website": "None", "summary": "None", "logo": "None", "latitude": 43.75214922344036, "longitude": -79.43888711977026}, "100493253RR0001": {"name": "BETH SHALOM INC.", "designationCode": "C", "categoryCode": "01", "address": "1470 ROUTE 109", "city": "RED RAPIDS", "province": "NB", "country": "CA", "postalCode": "E7H4H5", "twitter": "None", "instagram": "None", "facebook": "None", "youtube": "None", "website": "None", "summary": "None", "logo": "None", "latitude": 46.78327947753796, "longitude": -67.51612564543383}, "876474875RR0001": {"name": "BETH SHECHINAH (MESSIANIC CONGREGATION (HOUSE OF GLORY)", "designationCode": "C", "categoryCode": "39", "address": "2635-32 STREET SW", "city": "CALGARY", "province": "AB", "country": "CA", "postalCode": "T3E2R8", "twitter": "None", "instagram": "None", "facebook": "None", "youtube": "None", "website": "None", "summary": "None", "logo": "None", "latitude": 51.03031642492354, "longitude": -114.13412412643537}, "848685947RR0001": {"name": "BETH SHOLOM FOUNDATION", "designationCode": "A", "categoryCode": "43", "address": "1445 EGLINTON AVENUE WEST", "city": "TORONTO", "province": "ON", "country": "CA", "postalCode": "M6C2E6", "twitter": "None", "instagram": "None", "facebook": "None", "youtube": "None", "website": "None", "summary": "None", "logo": "None", "latitude": 43.69834985648354, "longitude": -79.43777601941838}, "106790413RR0001": {"name": "BETH SHOLOM SYNAGOGUE", "designationCode": "C", "categoryCode": "42", "address": "1445 EGLINTON AVE W", "city": "TORONTO", "province": "ON", "country": "CA", "postalCode": "M6C2E6", "twitter": "None", "instagram": "None", "facebook": "None", "youtube": "None", "website": "None", "summary": "None", "logo": "None", "latitude": 43.69834985648354, "longitude": -79.43777601941838}, "106790421RR0001": {"name": "BETH TIKVAH CONGREGATION & CENTRE ASSOCIATION", "designationCode": "C", "categoryCode": "59", "address": "9711 GEAL ROAD", "city": "RICHMOND", "province": "BC", "country": "CA", "postalCode": "V7E1R4", "twitter": "None", "instagram": "None", "facebook": "None", "youtube": "None", "website": "None", "summary": "None", "logo": "None", "latitude": 49.14177400582838, "longitude": -123.17028595625756}, "129380291RR0001": {"name": "BETH TIKVAH FOUNDATION OF HAMILTON", "designationCode": "C", "categoryCode": "01", "address": "81 ARKELL ST", "city": "HAMILTON", "province": "ON", "country": "CA", "postalCode": "L8S1N6", "twitter": "None", "instagram": "None", "facebook": "None", "youtube": "None", "website": "None", "summary": "None", "logo": "None", "latitude": 43.25930662724343, "longitude": -79.90587015736628}, "118807171RR0001": {"name": "BETH TIKVAH SYNAGOGUE", "designationCode": "C", "categoryCode": "42", "address": "3080 BAYVIEW AVENUE", "city": "TORONTO", "province": "ON", "country": "CA", "postalCode": "M2N5L3", "twitter": "None", "instagram": "None", "facebook": "None", "youtube": "None", "website": "None", "summary": "None", "logo": "None", "latitude": 43.77922612822437, "longitude": -79.39089948017758}, "106790447RR0001": {"name": "BETH TORAH CONGREGATION", "designationCode": "C", "categoryCode": "42", "address": "47 GLENBROOK AVE", "city": "TORONTO", "province": "ON", "country": "CA", "postalCode": "M6B2L7", "twitter": "None", "instagram": "None", "facebook": "None", "youtube": "None", "website": "None", "summary": "None", "logo": "None", "latitude": 43.71001184811632, "longitude": -79.45226606269856}, "130397706RR0001": {"name": "BETH TZEDEC CONGREGATION,", "designationCode": "C", "categoryCode": "42", "address": "1700 BATHURST ST.", "city": "TORONTO", "province": "ON", "country": "CA", "postalCode": "M5P3K3", "twitter": "None", "instagram": "None", "facebook": "None", "youtube": "None", "website": "None", "summary": "None", "logo": "None", "latitude": 43.69565432970755, "longitude": -79.42344648704423}, "869747295RR0001": {"name": "BETH TZEDEC FOUNDATION OF TORONTO", "designationCode": "A", "categoryCode": "43", "address": "1700 BATHURST STREET", "city": "TORONTO", "province": "ON", "country": "CA", "postalCode": "M5P3K3", "twitter": "None", "instagram": "None", "facebook": "None", "youtube": "None", "website": "None", "summary": "None", "logo": "None", "latitude": 43.69565432970755, "longitude": -79.42344648704423}, "897999595RR0001": {"name": "BETH TZEDEK CONGREGATION OF EDMONTON", "designationCode": "C", "categoryCode": "39", "address": "18107 62B AVE", "city": "EDMONTON", "province": "AB", "country": "CA", "postalCode": "T5T3J9", "twitter": "None", "instagram": "None", "facebook": "None", "youtube": "None", "website": "None", "summary": "None", "logo": "None", "latitude": 53.49635612323271, "longitude": -113.63681882621644}, "118807247RR0001": {"name": "BETH YEHUDAH WINDSOR ASSOCIATION", "designationCode": "C", "categoryCode": "21", "address": "3063 WALKER ROAD", "city": "WINDSOR", "province": "ON", "country": "CA", "postalCode": "N8W3R4", "twitter": "None", "instagram": "None", "facebook": "None", "youtube": "None", "website": "None", "summary": "None", "logo": "None", "latitude": 42.284289573403036, "longitude": -82.98293477052877}, "106790496RR0001": {"name": "BETH ZION CONGREGATION", "designationCode": "C", "categoryCode": "42", "address": "5740 HUDSON AVE", "city": "COTE ST-LUC QUEBEC", "province": "QC", "country": "CA", "postalCode": "H4W2K5", "twitter": "None", "instagram": "None", "facebook": "None", "youtube": "None", "website": "None", "summary": "None", "logo": "None", "latitude": 45.46180565471189, "longitude": -73.67049268789316}, "106790504RR0001": {"name": "BETH ZION CONGREGATION OSHAWA", "designationCode": "C", "categoryCode": "42", "address": "144 KING ST EAST", "city": "OSHAWA", "province": "ON", "country": "CA", "postalCode": "L1H1B6", "twitter": "None", "instagram": "None", "facebook": "None", "youtube": "None", "website": "None", "summary": "None", "logo": "None", "latitude": 43.898825081914445, "longitude": -78.85836976868244}, "118803915RR0001": {"name": "BETHANIA LUTHERAN CHURCH", "designationCode": "C", "categoryCode": "32", "address": "BOX 83", "city": "DOMREMY", "province": "SK", "country": "CA", "postalCode": "S0K1G0", "twitter": "None", "instagram": "None", "facebook": "None", "youtube": "None", "website": "None", "summary": "None", "logo": "None", "latitude": 52.789660000000026, "longitude": -105.73282999999998}, "118803931RR0001": {"name": "BETHANIA LUTHERAN CHURCH", "designationCode": "C", "categoryCode": "32", "address": "PO BOX 202", "city": "SEDGEWICK", "province": "AB", "country": "CA", "postalCode": "T0B4C0", "twitter": "None", "instagram": "None", "facebook": "None", "youtube": "None", "website": "None", "summary": "None", "logo": "None", "latitude": 52.766850000000034, "longitude": -111.68503999999996}, "852677145RR0001": {"name": "BETHANIA MENNONITE MEMORIAL FOUNDATION INC.", "designationCode": "A", "categoryCode": "09", "address": "1045 CONCORDIA AVENUE", "city": "WINNIPEG", "province": "MB", "country": "CA", "postalCode": "R2K3S7", "twitter": "None", "instagram": "None", "facebook": "None", "youtube": "None", "website": "None", "summary": "None", "logo": "None", "latitude": 49.913237016994216, "longitude": -97.06704277347255}, "106787757RR0001": {"name": "BETHANIA MENNONITE PERSONAL CARE HOME INC.", "designationCode": "C", "categoryCode": "01", "address": "1045 CONCORDIA AVENUE", "city": "WINNIPEG", "province": "MB", "country": "CA", "postalCode": "R2K3S7", "twitter": "None", "instagram": "None", "facebook": "None", "youtube": "None", "website": "None", "summary": "None", "logo": "None", "latitude": 49.913237016994216, "longitude": -97.06704277347255}, "873691034RR0001": {"name": "BETHANY ASSISTED LIVING HOMES (WILKIE) INC", "designationCode": "C", "categoryCode": "01", "address": "BOX 629                       402 7TH AVENUE EAST", "city": "WILKIE", "province": "SK", "country": "CA", "postalCode": "S0K4W0", "twitter": "None", "instagram": "None", "facebook": "None", "youtube": "None", "website": "None", "summary": "None", "logo": "None", "latitude": 52.05769238001596, "longitude": -107.9756265651051}, "886055193RR0001": {"name": "BETHANY BANNER HISTORICAL SOCIETY", "designationCode": "C", "categoryCode": "52", "address": "BOX 582", "city": "BEAVERLODGE", "province": "AB", "country": "CA", "postalCode": "T0H0C0", "twitter": "None", "instagram": "None", "facebook": "None", "youtube": "None", "website": "None", "summary": "None", "logo": "None", "latitude": 55.209100000000035, "longitude": -119.42957999999999}, "106787765RR0001": {"name": "BETHANY BAPTIST CHURCH", "designationCode": "C", "categoryCode": "31", "address": "382 CENTREPOINTE DRIVE", "city": "OTTAWA", "province": "ON", "country": "CA", "postalCode": "K2G6A1", "twitter": "None", "instagram": "None", "facebook": "None", "youtube": "None", "website": "None", "summary": "None", "logo": "None", "latitude": 45.34620149070916, "longitude": -75.77454076377768}, "106787773RR0001": {"name": "BETHANY BAPTIST CHURCH", "designationCode": "C", "categoryCode": "31", "address": "1041 PAPE AVENUE", "city": "TORONTO", "province": "ON", "country": "CA", "postalCode": "M4K3W1", "twitter": "None", "instagram": "None", "facebook": "None", "youtube": "None", "website": "None", "summary": "None", "logo": "None", "latitude": 43.68916670053087, "longitude": -79.34868881859904}, "106787815RR0001": {"name": "BETHANY BAPTIST CHURCH", "designationCode": "C", "categoryCode": "31", "address": "3901 - 44 STREET", "city": "RED DEER", "province": "AB", "country": "CA", "postalCode": "T4N1G7", "twitter": "None", "instagram": "None", "facebook": "None", "youtube": "None", "website": "None", "summary": "None", "logo": "None", "latitude": 52.263062488458814, "longitude": -113.788134}, "106787831RR0001": {"name": "BETHANY BAPTIST CHURCH", "designationCode": "C", "categoryCode": "31", "address": "PO BOX 46", "city": "BARRIERE", "province": "BC", "country": "CA", "postalCode": "V0E1E0", "twitter": "None", "instagram": "None", "facebook": "None", "youtube": "None", "website": "None", "summary": "None", "logo": "None", "latitude": 51.29213204437867, "longitude": -119.92919375050194}, "118804020RR0001": {"name": "BETHANY BAPTIST CHURCH", "designationCode": "C", "categoryCode": "31", "address": "22680 WESTMINSTER HIGHWAY", "city": "RICHMOND", "province": "BC", "country": "CA", "postalCode": "V6V1B7", "twitter": "None", "instagram": "None", "facebook": "None", "youtube": "None", "website": "None", "summary": "None", "logo": "None", "latitude": 49.173471934474186, "longitude": -122.97066081352139}, "890799448RR0001": {"name": "BETHANY BAPTIST CHURCH", "designationCode": "C", "categoryCode": "31", "address": "155 VICTORIA RD N", "city": "GUELPH", "province": "ON", "country": "CA", "postalCode": "N1E6J8", "twitter": "None", "instagram": "None", "facebook": "None", "youtube": "None", "website": "None", "summary": "None", "logo": "None", "latitude": 43.563890534018, "longitude": -80.24060541476732}, "891699423RR0001": {"name": "BETHANY BAPTIST CHURCH", "designationCode": "C", "categoryCode": "31", "address": "504 CAYUGA RD                 RR 6", "city": "HAGERSVILLE", "province": "ON", "country": "CA", "postalCode": "N0A1H0", "twitter": "None", "instagram": "None", "facebook": "None", "youtube": "None", "website": "None", "summary": "None", "logo": "None", "latitude": 42.96624567435869, "longitude": -80.04526476987148}, "106787898RR0001": {"name": "BETHANY CARE SOCIETY", "designationCode": "C", "categoryCode": "10", "address": "1001 17 ST NW", "city": "CALGARY", "province": "AB", "country": "CA", "postalCode": "T2N2E5", "twitter": "None", "instagram": "None", "facebook": "None", "youtube": "None", "website": "None", "summary": "None", "logo": "None", "latitude": 51.06015967055225, "longitude": -114.10078623968477}, "118804053RR0001": {"name": "BETHANY CHAPEL", "designationCode": "C", "categoryCode": "39", "address": "PO BOX 612", "city": "WINCHESTER", "province": "ON", "country": "CA", "postalCode": "K0C2K0", "twitter": "None", "instagram": "None", "facebook": "None", "youtube": "None", "website": "None", "summary": "None", "logo": "None", "latitude": 45.0389951460454, "longitude": -75.27678656455626}, "118804079RR0001": {"name": "BETHANY CHAPEL OF CALGARY", "designationCode": "C", "categoryCode": "39", "address": "3333 RICHARDSON WAY SW", "city": "CALGARY", "province": "AB", "country": "CA", "postalCode": "T3E7B6", "twitter": "None", "instagram": "None", "facebook": "None", "youtube": "None", "website": "None", "summary": "None", "logo": "None", "latitude": 51.01541264392051, "longitude": -114.13369166002066}, "118804095RR0001": {"name": "BETHANY CHAPEL, YORKDALE", "designationCode": "C", "categoryCode": "39", "address": "22 MCADAM AVE", "city": "TORONTO", "province": "ON", "country": "CA", "postalCode": "M6A1S5", "twitter": "None", "instagram": "None", "facebook": "None", "youtube": "None", "website": "None", "summary": "None", "logo": "None", "latitude": 43.72257018347842, "longitude": -79.45747678740832}, "869781963RR0001": {"name": "BETHANY CHILD CARE SOCIETY", "designationCode": "C", "categoryCode": "01", "address": "22680 WESTMINSTER HIGHWAY", "city": "RICHMOND", "province": "BC", "country": "CA", "postalCode": "V6V1B7", "twitter": "None", "instagram": "None", "facebook": "None", "youtube": "None", "website": "None", "summary": "None", "logo": "None", "latitude": 49.173471934474186, "longitude": -122.97066081352139}, "106787963RR0001": {"name": "BETHANY CHRISTIAN REFORMED CHURCH IN FENWICK", "designationCode": "C", "categoryCode": "39", "address": "PO BOX 61", "city": "FENWICK", "province": "ON", "country": "CA", "postalCode": "L0S1C0", "twitter": "None", "instagram": "None", "facebook": "None", "youtube": "None", "website": "None", "summary": "None", "logo": "None", "latitude": 43.027120000000025, "longitude": -79.35452999999995}, "118804111RR0001": {"name": "BETHANY CHRISTIAN REFORMED CHURCH OF BLOOMFIELD", "designationCode": "C", "categoryCode": "39", "address": "158 MAIN STREET PO BOX 309", "city": "BLOOMFIELD", "province": "ON", "country": "CA", "postalCode": "K0K1G0", "twitter": "None", "instagram": "None", "facebook": "None", "youtube": "None", "website": "None", "summary": "None", "logo": "None", "latitude": 43.9898061058523, "longitude": -77.22180003244424}, "118863380RR0001": {"name": "BETHANY CHURCH OF THE NAZARENE", "designationCode": "C", "categoryCode": "39", "address": "34 TROWBRIDGE ST W", "city": "MEAFORD", "province": "ON", "country": "CA", "postalCode": "N4L1N2", "twitter": "None", "instagram": "None", "facebook": "None", "youtube": "None", "website": "None", "summary": "None", "logo": "None", "latitude": 44.606625233971954, "longitude": -80.59311897377229}, "118804046RR0001": {"name": "BETHANY COLLEGE", "designationCode": "C", "categoryCode": "20", "address": "BOX 160", "city": "HEPBURN", "province": "SK", "country": "CA", "postalCode": "S0K1Z0", "twitter": "None", "instagram": "None", "facebook": "None", "youtube": "None", "website": "None", "summary": "None", "logo": "None", "latitude": 52.51681000000008, "longitude": -106.73447999999996}, "887219525RR0001": {"name": "BETHANY COMMUNITY CHURCH OF ST. CATHARINES", "designationCode": "C", "categoryCode": "39", "address": "1388 3RD STREET               R.R. #3", "city": "ST. CATHARINES", "province": "ON", "country": "CA", "postalCode": "L2R6P9", "twitter": "None", "instagram": "None", "facebook": "None", "youtube": "None", "website": "None", "summary": "None", "logo": "None", "latitude": 43.16368200000005, "longitude": -79.31580649999994}, "130620065RR0001": {"name": "BETHANY COURT HOUSING SOCIETY", "designationCode": "C", "categoryCode": "01", "address": "826 NORTH PARK ST", "city": "VICTORIA", "province": "BC", "country": "CA", "postalCode": "V8W3B4", "twitter": "None", "instagram": "None", "facebook": "None", "youtube": "None", "website": "None", "summary": "None", "logo": "None", "latitude": 48.43000948600596, "longitude": -123.3605817768481}, "846022671RR0001": {"name": "BETHANY EVANGELICAL CHURCH", "designationCode": "C", "categoryCode": "39", "address": "17 HIGHBRIDGE ROAD", "city": "RICHMOND HILL", "province": "ON", "country": "CA", "postalCode": "L4B1Y2", "twitter": "None", "instagram": "None", "facebook": "None", "youtube": "None", "website": "None", "summary": "None", "logo": "None", "latitude": 43.85124535359798, "longitude": -79.40698870771558}, "107353781RR0001": {"name": "BETHANY EVANGELICAL COVENANT CHURCH", "designationCode": "C", "categoryCode": "39", "address": "PO BOX 424", "city": "NORQUAY", "province": "SK", "country": "CA", "postalCode": "S0A2V0", "twitter": "None", "instagram": "None", "facebook": "None", "youtube": "None", "website": "None", "summary": "None", "logo": "None", "latitude": 51.88199000000003, "longitude": -102.08761999999996}, "106788128RR0001": {"name": "BETHANY EVANGELICAL LUTHERAN CHURCH OF CAMPBELL RIVER, BRITISH COLUMBIA", "designationCode": "C", "categoryCode": "32", "address": "201 BIRCH STREET", "city": "CAMPBELL RIVER", "province": "BC", "country": "CA", "postalCode": "V9W2S4", "twitter": "None", "instagram": "None", "facebook": "None", "youtube": "None", "website": "None", "summary": "None", "logo": "None", "latitude": 50.01122699999999, "longitude": -125.2417997628254}, "131548398RR0001": {"name": "BETHANY EVANGELICAL LUTHERAN CHURCH,", "designationCode": "C", "categoryCode": "32", "address": "BOX 238", "city": "LOMOND", "province": "AB", "country": "CA", "postalCode": "T0L1G0", "twitter": "None", "instagram": "None", "facebook": "None", "youtube": "None", "website": "None", "summary": "None", "logo": "None", "latitude": 50.35039000000006, "longitude": -112.63985999999994}, "118804194RR0001": {"name": "BETHANY EVANGELICAL LUTHERAN CONGREGATION", "designationCode": "C", "categoryCode": "32", "address": "PO BOX 29", "city": "TILLEY", "province": "AB", "country": "CA", "postalCode": "T0J3K0", "twitter": "None", "instagram": "None", "facebook": "None", "youtube": "None", "website": "None", "summary": "None", "logo": "None", "latitude": 50.451130000000035, "longitude": -111.65233999999998}, "106787997RR0001": {"name": "BETHANY EVANGELICAL MISSIONARY CHURCH", "designationCode": "C", "categoryCode": "39", "address": "BOX 538", "city": "MELVILLE", "province": "SK", "country": "CA", "postalCode": "S0A2P0", "twitter": "None", "instagram": "None", "facebook": "None", "youtube": "None", "website": "None", "summary": "None", "logo": "None", "latitude": 50.87164886256234, "longitude": -103.09293300498788}, "130866288RR0001": {"name": "BETHANY GOSPEL CHAPEL", "designationCode": "C", "categoryCode": "39", "address": "14 BRUCE STREET", "city": "DARTMOUTH", "province": "NS", "country": "CA", "postalCode": "B2W1L4", "twitter": "None", "instagram": "None", "facebook": "None", "youtube": "None", "website": "None", "summary": "None", "logo": "None", "latitude": 44.671668338334555, "longitude": -63.530759139852485}, "849675293RR0001": {"name": "BETHANY GOSPEL CHAPEL OF HAMILTON", "designationCode": "C", "categoryCode": "39", "address": "12 INDIGO PLACE", "city": "ANCASTER", "province": "ON", "country": "CA", "postalCode": "L9K1B5", "twitter": "None", "instagram": "None", "facebook": "None", "youtube": "None", "website": "None", "summary": "None", "logo": "None", "latitude": 43.23587968942238, "longitude": -79.9321055997463}, "118804228RR0001": {"name": "BETHANY GOSPEL CHAPEL OF REGINA", "designationCode": "C", "categoryCode": "39", "address": "1850 PARKER AVE.", "city": "REGINA", "province": "SK", "country": "CA", "postalCode": "S4S4S2", "twitter": "None", "instagram": "None", "facebook": "None", "youtube": "None", "website": "None", "summary": "None", "logo": "None", "latitude": 50.41190645325739, "longitude": -104.60861002553523}, "106788037RR0001": {"name": "BETHANY INDEPENDENT BAPTIST CHURCH INC.", "designationCode": "C", "categoryCode": "31", "address": "116 LITTLE LEPREAU RD", "city": "LITTLE LEPREAU", "province": "NB", "country": "CA", "postalCode": "E5J1P7", "twitter": "None", "instagram": "None", "facebook": "None", "youtube": "None", "website": "None", "summary": "None", "logo": "None", "latitude": 45.13423151836112, "longitude": -66.45995741520592}, "898471719RR0001": {"name": "BETHANY INDONESIAN CHURCH", "designationCode": "C", "categoryCode": "39", "address": "1806 .E.HASTINGS ST", "city": "VANCOUVER", "province": "BC", "country": "CA", "postalCode": "V5L1T2", "twitter": "None", "instagram": "None", "facebook": "None", "youtube": "None", "website": "None", "summary": "None", "logo": "None", "latitude": 49.28116652120739, "longitude": -123.06803344463037}, "857013189RR0001": {"name": "BETHANY KOREAN PRESBYTERIAN CHURCH", "designationCode": "C", "categoryCode": "37", "address": "118 BELINDA SQ", "city": "TORONTO", "province": "ON", "country": "CA", "postalCode": "M1W3M2", "twitter": "None", "instagram": "None", "facebook": "None", "youtube": "None", "website": "None", "summary": "None", "logo": "None", "latitude": 43.81650475823778, "longitude": -79.32050818275727}, "106788045RR0001": {"name": "BETHANY LODGE", "designationCode": "C", "categoryCode": "01", "address": "23 SECOND ST S", "city": "MARKHAM", "province": "ON", "country": "CA", "postalCode": "L3R2C2", "twitter": "None", "instagram": "None", "facebook": "None", "youtube": "None", "website": "None", "summary": "None", "logo": "None", "latitude": 43.8625453610065, "longitude": -79.3024690905839}, "893207647RR0001": {"name": "BETHANY LODGE FOUNDATION", "designationCode": "A", "categoryCode": "03", "address": "23 SECOND ST S", "city": "UNIONVILLE", "province": "ON", "country": "CA", "postalCode": "L3R2C2", "twitter": "None", "instagram": "None", "facebook": "None", "youtube": "None", "website": "None", "summary": "None", "logo": "None", "latitude": 43.8625453610065, "longitude": -79.3024690905839}, "889811576RR0001": {"name": "BETHANY LUTHERAN BRETHERN CHURCH,", "designationCode": "C", "categoryCode": "32", "address": "PO BOX 7", "city": "MORRIN", "province": "AB", "country": "CA", "postalCode": "T0J2B0", "twitter": "None", "instagram": "None", "facebook": "None", "youtube": "None", "website": "None", "summary": "None", "logo": "None", "latitude": 51.66683000000006, "longitude": -112.78517999999997}, "106788060RR0001": {"name": "BETHANY LUTHERAN CHURCH", "designationCode": "C", "categoryCode": "32", "address": "175 SPRINGBANK AVE", "city": "WOODSTOCK", "province": "ON", "country": "CA", "postalCode": "N4S7R2", "twitter": "None", "instagram": "None", "facebook": "None", "youtube": "None", "website": "None", "summary": "None", "logo": "None", "latitude": 43.139781896206486, "longitude": -80.7309710658584}, "118804285RR0001": {"name": "BETHANY LUTHERAN CHURCH", "designationCode": "C", "categoryCode": "32", "address": "LINDA HANSEN                  3024- ROUTE 108 APT 15", "city": "NEW DENMARK", "province": "NB", "country": "CA", "postalCode": "E7G4M3", "twitter": "None", "instagram": "None", "facebook": "None", "youtube": "None", "website": "None", "summary": "None", "logo": "None", "latitude": 46.9969851928991, "longitude": -67.59843515999226}, "118804301RR0001": {"name": "BETHANY LUTHERAN CHURCH", "designationCode": "C", "categoryCode": "32", "address": "BOX 86", "city": "ARCHERWILL", "province": "SK", "country": "CA", "postalCode": "S0E0B0", "twitter": "None", "instagram": "None", "facebook": "None", "youtube": "None", "website": "None", "summary": "None", "logo": "None", "latitude": 52.440810000000056, "longitude": -103.86157999999995}, "118804319RR0001": {"name": "BETHANY LUTHERAN CHURCH", "designationCode": "C", "categoryCode": "32", "address": "BOX 264", "city": "MORTLACH", "province": "SK", "country": "CA", "postalCode": "S0H3E0", "twitter": "None", "instagram": "None", "facebook": "None", "youtube": "None", "website": "None", "summary": "None", "logo": "None", "latitude": 50.45562000000007, "longitude": -106.06705999999997}, "118804335RR0001": {"name": "BETHANY LUTHERAN CHURCH", "designationCode": "C", "categoryCode": "32", "address": "BOX 9 SITE 2 RR 3", "city": "CORONATION", "province": "AB", "country": "CA", "postalCode": "T0C1C0", "twitter": "None", "instagram": "None", "facebook": "None", "youtube": "None", "website": "None", "summary": "None", "logo": "None", "latitude": 52.08834149999997, "longitude": -111.43338299999999}, "129428538RR0001": {"name": "BETHANY LUTHERAN CHURCH", "designationCode": "C", "categoryCode": "32", "address": "20577 TWP ROAD 550", "city": "FORT SASKATCHEWAN", "province": "AB", "country": "CA", "postalCode": "T8L4B6", "twitter": "None", "instagram": "None", "facebook": "None", "youtube": "None", "website": "None", "summary": "None", "logo": "None", "latitude": 53.71624552063048, "longitude": -112.94802}, "131691826RR0001": {"name": "BETHANY LUTHERAN CHURCH", "designationCode": "C", "categoryCode": "32", "address": "BOX 159", "city": "DONALDA", "province": "AB", "country": "CA", "postalCode": "T0B1H0", "twitter": "None", "instagram": "None", "facebook": "None", "youtube": "None", "website": "None", "summary": "None", "logo": "None", "latitude": 52.58343000000008, "longitude": -112.56860999999998}, "131909541RR0001": {"name": "BETHANY LUTHERAN CHURCH", "designationCode": "C", "categoryCode": "32", "address": "1911-2ND AVENUE", "city": "DICKSON", "province": "AB", "country": "CA", "postalCode": "T4G0K8", "twitter": "None", "instagram": "None", "facebook": "None", "youtube": "None", "website": "None", "summary": "None", "logo": "None", "latitude": 51.96966900000005, "longitude": -114.31345399999994}, "804663904RR0001": {"name": "BETHANY MEMORIAL BAPTIST CHURCH", "designationCode": "C", "categoryCode": "31", "address": "539 ALDERSHOT ROAD", "city": "KENTVILLE", "province": "NS", "country": "CA", "postalCode": "B4N3A5", "twitter": "None", "instagram": "None", "facebook": "None", "youtube": "None", "website": "None", "summary": "None", "logo": "None", "latitude": 45.09445585363301, "longitude": -64.50339667690945}, "106788169RR0001": {"name": "BETHANY MENNONITE CHURCH", "designationCode": "C", "categoryCode": "34", "address": "PO BOX 40", "city": "CODETTE", "province": "SK", "country": "CA", "postalCode": "S0E0P0", "twitter": "None", "instagram": "None", "facebook": "None", "youtube": "None", "website": "None", "summary": "None", "logo": "None", "latitude": 53.28337000000005, "longitude": -104.03422999999998}, "118804400RR0001": {"name": "BETHANY MENNONITE CHURCH", "designationCode": "C", "categoryCode": "34", "address": "BOX 249                       572 EAST & WEST LINE", "city": "VIRGIL", "province": "ON", "country": "CA", "postalCode": "L0S1T0", "twitter": "None", "instagram": "None", "facebook": "None", "youtube": "None", "website": "None", "summary": "None", "logo": "None", "latitude": 43.23349650043268, "longitude": -79.12598288926077}, "118804434RR0001": {"name": "BETHANY MENNONITE CHURCH", "designationCode": "C", "categoryCode": "34", "address": "PO BOX 62", "city": "SMITH", "province": "AB", "country": "CA", "postalCode": "T0G2B0", "twitter": "None", "instagram": "None", "facebook": "None", "youtube": "None", "website": "None", "summary": "None", "logo": "None", "latitude": 55.163650000000075, "longitude": -114.03854999999999}}