{"896213238RR0001": {"name": "ASSOCIATION POUR LA DEFENSE DES DROITS SOCIAUX DU KAMOURASKA (ADDS-KAMOURASKA)", "designationCode": "C", "categoryCode": "09", "address": "82B, CHEMIN DE LA STATION", "city": "LA POCATIERE", "province": "QC", "country": "CA", "postalCode": "G0R1Z0", "twitter": "None", "instagram": "None", "facebook": "None", "youtube": "None", "website": "None", "summary": "None", "logo": "None", "latitude": 47.36197204025297, "longitude": -70.02475356711119}, "118794676RR0001": {"name": "ASSOCIATION POUR LA DEFENSE DES DROITS SOCIAUX DU MONTREAL METROPOLITAIN (A.D.D.S.M.M.)", "designationCode": "C", "categoryCode": "59", "address": "1691, BOULEVARD PIE-IX        LOCAL S-02", "city": "MONTREAL", "province": "QC", "country": "CA", "postalCode": "H1V2C3", "twitter": "None", "instagram": "None", "facebook": "None", "youtube": "None", "website": "None", "summary": "None", "logo": "None", "latitude": 45.549584819348844, "longitude": -73.53872267288952}, "118794668RR0001": {"name": "ASSOCIATION POUR LA DEFENSE DES DROITS SOCIAUX QUEBEC METROPOLITAIN (ADDSQM)", "designationCode": "C", "categoryCode": "59", "address": "301 RUE DE CARILLON", "city": "QUEBEC", "province": "QC", "country": "CA", "postalCode": "G1K5B3", "twitter": "None", "instagram": "None", "facebook": "None", "youtube": "None", "website": "None", "summary": "None", "logo": "None", "latitude": 46.81151905689884, "longitude": -71.23715662155928}, "140591843RR0001": {"name": "ASSOCIATION POUR LA DEFICIENCE INTELLECTUELLE CENTRE-MAURICIE", "designationCode": "C", "categoryCode": "11", "address": "2153 RUE GIGNAC", "city": "SHAWINIGAN", "province": "QC", "country": "CA", "postalCode": "G9N3X3", "twitter": "None", "instagram": "None", "facebook": "None", "youtube": "None", "website": "None", "summary": "None", "logo": "None", "latitude": 46.56323940048484, "longitude": -72.74710787235254}, "890830797RR0001": {"name": "ASSOCIATION POUR LA PRESERVATION DU LAC MAGOG", "designationCode": "C", "categoryCode": "59", "address": "C.P. 66", "city": "SAINTE-CATHERINE DE HATLEY", "province": "QC", "country": "CA", "postalCode": "J0B1W0", "twitter": "None", "instagram": "None", "facebook": "None", "youtube": "None", "website": "None", "summary": "None", "logo": "None", "latitude": 45.25108005107051, "longitude": -72.04712004385702}, "891826844RR0001": {"name": "ASSOCIATION POUR LA PROTECTION DE L'ENVIRONNEMENT DU LAC DESSABLES (A.P.E.L.S.) INC.", "designationCode": "C", "categoryCode": "59", "address": "3, RUE PR\u00c9FONTAINE EST", "city": "SAINTE-AGATHE-DES-MONTS", "province": "QC", "country": "CA", "postalCode": "J8C1R5", "twitter": "None", "instagram": "None", "facebook": "None", "youtube": "None", "website": "None", "summary": "None", "logo": "None", "latitude": 46.049805525102535, "longitude": -74.28753291771018}, "806470746RR0001": {"name": "ASSOCIATION POUR LA PROTECTION DU BOISE SAINTE-DOROTHEE", "designationCode": "C", "categoryCode": "52", "address": "400, RUE PRINCIPALE", "city": "LAVAL", "province": "QC", "country": "CA", "postalCode": "H7X3T9", "twitter": "None", "instagram": "None", "facebook": "None", "youtube": "None", "website": "None", "summary": "None", "logo": "None", "latitude": 45.53227481652157, "longitude": -73.80914829641071}, "106733280RR0001": {"name": "ASSOCIATION POUR LA SANTE PUBLIQUE DU QUEBEC (A.S.P.Q.)", "designationCode": "C", "categoryCode": "11", "address": "102 - 4529 RUE CLARK", "city": "MONTREAL", "province": "QC", "country": "CA", "postalCode": "H2T2T3", "twitter": "None", "instagram": "None", "facebook": "None", "youtube": "None", "website": "None", "summary": "None", "logo": "None", "latitude": 45.52002317375491, "longitude": -73.58769895891288}, "106956659RR0001": {"name": "ASSOCIATION POUR LE BIEN-ETRE DES R\u00c9SIDENTS DE LA R\u00c9SIDENCE COOKE DU C.S.S.S.T.R.", "designationCode": "C", "categoryCode": "19", "address": "3450, RUE STE-MARGUERITE", "city": "TROIS-RIVIERES", "province": "QC", "country": "CA", "postalCode": "G8Z1X3", "twitter": "None", "instagram": "None", "facebook": "None", "youtube": "None", "website": "None", "summary": "None", "logo": "None", "latitude": 46.34406445268046, "longitude": -72.57355088926077}, "844104794RR0001": {"name": "ASSOCIATION POUR LE D\u00c9VELOPPEMENT DES COMMUNAUT\u00c9S RURALES DU CONGO (ADERC) / ASSOCIATION FOR THE DEVELOPMENT OF THE RURAL COMMUNITIES IN CONGO (ADERC)", "designationCode": "C", "categoryCode": "09", "address": "95 PLAINSVIEW DRIVE", "city": "REGINA", "province": "SK", "country": "CA", "postalCode": "S4S6K1", "twitter": "None", "instagram": "None", "facebook": "None", "youtube": "None", "website": "None", "summary": "None", "logo": "None", "latitude": 50.39977449822763, "longitude": -104.61965984649035}, "119857282RR0001": {"name": "ASSOCIATION POUR LE DEVELOPPEMENT DE LA PERSONNE HANDICAPEE INTELLECTUELLE DU SAGUENAY (A D H I S )", "designationCode": "C", "categoryCode": "56", "address": "766 DU CENACLE", "city": "CHICOUTIMI", "province": "QC", "country": "CA", "postalCode": "G7H2J2", "twitter": "None", "instagram": "None", "facebook": "None", "youtube": "None", "website": "None", "summary": "None", "logo": "None", "latitude": 48.42261770601347, "longitude": -71.04532793147307}, "872948138RR0001": {"name": "ASSOCIATION POUR LE DEVELOPPEMENT JEUNESSE DE LOYOLA", "designationCode": "C", "categoryCode": "09", "address": "P.O.BOX 86,SUCC.N.D.G.", "city": "MONTREAL", "province": "QC", "country": "CA", "postalCode": "H4A3P4", "twitter": "None", "instagram": "None", "facebook": "None", "youtube": "None", "website": "None", "summary": "None", "logo": "None", "latitude": 45.47400000000006, "longitude": -73.61589949999993}, "141302034RR0001": {"name": "ASSOCIATION POUR LE DEVELOPPEMENT SOCIO-CULTUREL DE LA FEMME/ASSOCIATION FOR THE SOCIO-CULTURAL DEVELOPMENT OF WOMEN", "designationCode": "C", "categoryCode": "09", "address": "6404 13TH AVENUE", "city": "MONTREAL", "province": "QC", "country": "CA", "postalCode": "H1X2Y7", "twitter": "None", "instagram": "None", "facebook": "None", "youtube": "None", "website": "None", "summary": "None", "logo": "None", "latitude": 45.556031086300536, "longitude": -73.58412995948979}, "120523436RR0001": {"name": "ASSOCIATION POUR LE SOUTIEN ET L'USAGE DE LA LANGUE FRANCAISE (ASULF)", "designationCode": "C", "categoryCode": "29", "address": "5000, BOUL. DES GRADINS       BUREAU 125", "city": "QU\u00c9BEC", "province": "QC", "country": "CA", "postalCode": "G2J1N3", "twitter": "None", "instagram": "None", "facebook": "None", "youtube": "None", "website": "None", "summary": "None", "logo": "None", "latitude": 46.83648102002395, "longitude": -71.27148947048366}, "140708876RR0001": {"name": "ASSOCIATION POUR LES JEUNES DE LA RUE JOLIETTE", "designationCode": "C", "categoryCode": "09", "address": "144 RUE SAINT-JOSEPH", "city": "JOLIETTE", "province": "QC", "country": "CA", "postalCode": "J6E5C4", "twitter": "None", "instagram": "None", "facebook": "None", "youtube": "None", "website": "None", "summary": "None", "logo": "None", "latitude": 46.026606530122855, "longitude": -73.44158207325879}, "106734080RR0001": {"name": "ASSOCIATION POUR PERSONNES EXCEPTIONNELLES DE PAPINEAU INC.", "designationCode": "C", "categoryCode": "11", "address": "C.P.2861", "city": "GATINEAU", "province": "QC", "country": "CA", "postalCode": "J8L2X2", "twitter": "None", "instagram": "None", "facebook": "None", "youtube": "None", "website": "None", "summary": "None", "logo": "None", "latitude": 45.70998900000005, "longitude": -75.38733349999994}, "100305283RR0001": {"name": "ASSOCIATION POUR PERSONNES HANDICAP\u00c9ES A.B.C.S.", "designationCode": "C", "categoryCode": "09", "address": "187 RUE SIMARD", "city": "SAINT-AMBROISE", "province": "QC", "country": "CA", "postalCode": "G7P2R8", "twitter": "None", "instagram": "None", "facebook": "None", "youtube": "None", "website": "None", "summary": "None", "logo": "None", "latitude": 48.5504424163252, "longitude": -71.32260339976368}, "131920548RR0001": {"name": "ASSOCIATION POUR PERSONNES HANDICAPEES LE GOELAND INC", "designationCode": "C", "categoryCode": "09", "address": "1255 RUE DES MELEZES", "city": "SAINT-FELICIEN", "province": "QC", "country": "CA", "postalCode": "G8K2W7", "twitter": "None", "instagram": "None", "facebook": "None", "youtube": "None", "website": "None", "summary": "None", "logo": "None", "latitude": 48.65426310519931, "longitude": -72.45384840824646}, "853440337RR0001": {"name": "ASSOCIATION PREMATERNELLE CHRETIENNE MANON BOUTHILLIER", "designationCode": "C", "categoryCode": "20", "address": "8505 68A ST NW", "city": "EDMONTON", "province": "AB", "country": "CA", "postalCode": "T6B0J9", "twitter": "None", "instagram": "None", "facebook": "None", "youtube": "None", "website": "None", "summary": "None", "logo": "None", "latitude": 53.520472242769024, "longitude": -113.4321878326041}, "893304568RR0001": {"name": "ASSOCIATION QU\u00c9B\u00c9COISE DE LA DYSPHASIE, ESTRIE", "designationCode": "C", "categoryCode": "20", "address": "200 - 600 RUE WOODWARD", "city": "SHERBROOKE", "province": "QC", "country": "CA", "postalCode": "J1G1W3", "twitter": "None", "instagram": "None", "facebook": "None", "youtube": "None", "website": "None", "summary": "None", "logo": "None", "latitude": 45.3985417621329, "longitude": -71.87447667554392}, "873942379RR0001": {"name": "ASSOCIATION QU\u00c9B\u00c9COISE DE LA DYSPHASIE, R\u00c9GION MONT\u00c9R\u00c9GIE", "designationCode": "C", "categoryCode": "11", "address": "205-55 RUE SAINT-PIERRE", "city": "SAINT-CONSTANT", "province": "QC", "country": "CA", "postalCode": "J5A1B9", "twitter": "None", "instagram": "None", "facebook": "None", "youtube": "None", "website": "None", "summary": "None", "logo": "None", "latitude": 45.38080000418359, "longitude": -73.56168763047474}, "129594792RR0001": {"name": "ASSOCIATION QU\u00c9B\u00c9COISE DE PR\u00c9VENTION DU SUICIDE", "designationCode": "C", "categoryCode": "21", "address": "230-1135 GRANDE-ALL\u00c9E O", "city": "QU\u00c9BEC", "province": "QC", "country": "CA", "postalCode": "G1S1E7", "twitter": "None", "instagram": "None", "facebook": "None", "youtube": "None", "website": "None", "summary": "None", "logo": "None", "latitude": 46.79707551669151, "longitude": -71.23267117488822}, "892588849RR0001": {"name": "ASSOCIATION QU\u00c9B\u00c9COISE DE SOINS PALLIATIFS", "designationCode": "C", "categoryCode": "11", "address": "CP 321 SUCC BUREAU-CHEF", "city": "GRANBY", "province": "QC", "country": "CA", "postalCode": "J2G8E5", "twitter": "None", "instagram": "None", "facebook": "None", "youtube": "None", "website": "None", "summary": "None", "logo": "None", "latitude": 45.39837300000005, "longitude": -72.72281149999993}, "140883653RR0001": {"name": "ASSOCIATION QU\u00c9B\u00c9COISE DE SPORT POUR PARALYTIQUES C\u00c9R\u00c9BRAUX", "designationCode": "C", "categoryCode": "56", "address": "AQSPC                         4545 AV. PIERRE-DE COUBERTIN", "city": "MONTREAL", "province": "QC", "country": "CA", "postalCode": "H1V3R2", "twitter": "None", "instagram": "None", "facebook": "None", "youtube": "None", "website": "None", "summary": "None", "logo": "None", "latitude": 45.555920590080106, "longitude": -73.55036240097485}, "861919355RR0001": {"name": "ASSOCIATION QU\u00c9B\u00c9COISE DES B\u00c9N\u00c9VOLES EN RECHERCHE ET SAUVETAGE (A.Q.B.R.S.)", "designationCode": "C", "categoryCode": "59", "address": "1390, RUE DES FOUG\u00c8RES", "city": "PR\u00c9VOST", "province": "QC", "country": "CA", "postalCode": "J0R1T0", "twitter": "None", "instagram": "None", "facebook": "None", "youtube": "None", "website": "None", "summary": "None", "logo": "None", "latitude": 45.82008297530151, "longitude": -74.03651823082662}, "895555142RR0001": {"name": "ASSOCIATION QU\u00c9B\u00c9COISE DES JEUNES PARLEMENTAIRES", "designationCode": "C", "categoryCode": "29", "address": "C.P. 32165                    SUCC ST-ANDR\u00c9", "city": "MONTR\u00c9AL", "province": "QC", "country": "CA", "postalCode": "H2L4Y5", "twitter": "None", "instagram": "None", "facebook": "None", "youtube": "None", "website": "None", "summary": "None", "logo": "None", "latitude": 45.518293863210474, "longitude": -73.56232569710893}, "106733496RR0001": {"name": "ASSOCIATION QU\u00c9B\u00c9COISE DES PARENTS ET AMIS DE LA PERSONNE ATTEINTE DE MALADIE MENTALE INC.", "designationCode": "C", "categoryCode": "09", "address": "1260 STE-CATHERINE E PORTE 208", "city": "MONTR\u00c9AL", "province": "QC", "country": "CA", "postalCode": "H2L2H2", "twitter": "None", "instagram": "None", "facebook": "None", "youtube": "None", "website": "None", "summary": "None", "logo": "None", "latitude": 45.518927166512874, "longitude": -73.55569662153061}, "106733462RR0001": {"name": "ASSOCIATION QU\u00c9B\u00c9COISE DES PERSONNES DE PETITE TAILLE INC.", "designationCode": "C", "categoryCode": "09", "address": "430 - 6300 AV DU PARC", "city": "MONTREAL", "province": "QC", "country": "CA", "postalCode": "H2V4H8", "twitter": "None", "instagram": "None", "facebook": "None", "youtube": "None", "website": "None", "summary": "None", "logo": "None", "latitude": 45.52650066192527, "longitude": -73.61232384168142}, "837122548RR0001": {"name": "ASSOCIATION QU\u00c9B\u00c9COISE DES PERSONNES STOMIS\u00c9ES", "designationCode": "C", "categoryCode": "11", "address": "949 RUE PIERRE-LACROIX", "city": "MONTREAL", "province": "QC", "country": "CA", "postalCode": "H1B3C7", "twitter": "None", "instagram": "None", "facebook": "None", "youtube": "None", "website": "None", "summary": "None", "logo": "None", "latitude": 45.64720034000799, "longitude": -73.4949557396561}, "100305663RR0001": {"name": "ASSOCIATION QU\u00c9B\u00c9COISE PLAIDOYER-VICTIMES", "designationCode": "C", "categoryCode": "09", "address": "4305 D'IBERVILLE #201", "city": "MONTREAL", "province": "QC", "country": "CA", "postalCode": "H2H2L5", "twitter": "None", "instagram": "None", "facebook": "None", "youtube": "None", "website": "None", "summary": "None", "logo": "None", "latitude": 45.53782436692819, "longitude": -73.56576246474125}, "118794957RR0001": {"name": "ASSOCIATION QU\u00c9B\u00c9COISE POUR L'AVANCEMENT DES NATIONS UNIES", "designationCode": "C", "categoryCode": "59", "address": "304-473 RUE DE CANNES", "city": "GATINEAU", "province": "QC", "country": "CA", "postalCode": "J8V4E6", "twitter": "None", "instagram": "None", "facebook": "None", "youtube": "None", "website": "None", "summary": "None", "logo": "None", "latitude": 45.49268040541919, "longitude": -75.74009032298419}, "100306950RR0001": {"name": "ASSOCIATION QU\u00c9B\u00c9COISE POUR LA D\u00c9FENSE DES DROITS DES RETRAIT\u00c9S ET PR\u00c9-RETRAIT\u00c9S (A.Q.D.R.) SECTION BRANDON", "designationCode": "C", "categoryCode": "09", "address": "30 RUE ST-GABRIEL BUREAU 310", "city": "ST-GABRIEL DE BRANDON", "province": "QC", "country": "CA", "postalCode": "J0K2N0", "twitter": "None", "instagram": "None", "facebook": "None", "youtube": "None", "website": "None", "summary": "None", "logo": "None", "latitude": 46.29290165526016, "longitude": -73.38389246687605}, "801362112RR0001": {"name": "ASSOCIATION QU\u00c9B\u00c9COISE POUR LA PROMOTION DE LA sant\u00e9 des pers. Utilisatrices de drogues.", "designationCode": "C", "categoryCode": "57", "address": "1495, AVE BENNETT", "city": "MONTREAL", "province": "QC", "country": "CA", "postalCode": "H1V2S5", "twitter": "None", "instagram": "None", "facebook": "None", "youtube": "None", "website": "None", "summary": "None", "logo": "None", "latitude": 45.55351981155857, "longitude": -73.53367327892555}, "875856130RR0001": {"name": "ASSOCIATION QU\u00c9B\u00c9COISE POUR LA SANT\u00c9 MENTALE DES NOURRISONS", "designationCode": "C", "categoryCode": "19", "address": "340, BOUL. ST-LUC             C.P. 10009", "city": "ST-JEAN-SUR-RICHELIEU", "province": "QC", "country": "CA", "postalCode": "J2W0G6", "twitter": "None", "instagram": "None", "facebook": "None", "youtube": "None", "website": "None", "summary": "None", "logo": "None", "latitude": 45.35850696693431, "longitude": -73.3003444377628}, "133745901RR0001": {"name": "ASSOCIATION QU\u00c9B\u00c9COISE POUR LE PATRIMOINE INDUSTRIEL", "designationCode": "C", "categoryCode": "52", "address": "2050 RUE AMHERST", "city": "MONTREAL", "province": "QC", "country": "CA", "postalCode": "H2L3L8", "twitter": "None", "instagram": "None", "facebook": "None", "youtube": "None", "website": "None", "summary": "None", "logo": "None", "latitude": 45.52043385509856, "longitude": -73.5635625960527}, "886797406RR0001": {"name": "ASSOCIATION QU\u00c9B\u00c9COISE POUR LES ENFANTS DYSPRAXIQUES (AQED)", "designationCode": "C", "categoryCode": "11", "address": "1075 RUE DE LA FALAISE", "city": "SHERBROOKE", "province": "QC", "country": "CA", "postalCode": "J1N2M9", "twitter": "None", "instagram": "None", "facebook": "None", "youtube": "None", "website": "None", "summary": "None", "logo": "None", "latitude": 45.3587014421489, "longitude": -72.00091955092623}, "892710757RR0001": {"name": "ASSOCIATION QU\u00c9BECOISE DES PERSONNES APHASIQUES", "designationCode": "C", "categoryCode": "11", "address": "454, AVENUE LAURIER EST", "city": "MONTREAL", "province": "QC", "country": "CA", "postalCode": "H2J1E7", "twitter": "None", "instagram": "None", "facebook": "None", "youtube": "None", "website": "None", "summary": "None", "logo": "None", "latitude": 45.52778586981374, "longitude": -73.58872538588521}, "118794841RR0001": {"name": "ASSOCIATION QUEBEC DANS LE MONDE", "designationCode": "C", "categoryCode": "20", "address": "200 - 511 RUE SAINT-JOSEPH E", "city": "QUEBEC", "province": "QC", "country": "CA", "postalCode": "G1K3B7", "twitter": "None", "instagram": "None", "facebook": "None", "youtube": "None", "website": "None", "summary": "None", "logo": "None", "latitude": 46.814172805930426, "longitude": -71.224582013745}, "888924263RR0001": {"name": "ASSOCIATION QUEBEC-CAMBODGE", "designationCode": "C", "categoryCode": "09", "address": "340, RUE DES EMBARCATIONS #103", "city": "QUEBEC", "province": "QC", "country": "CA", "postalCode": "G1K8E6", "twitter": "None", "instagram": "None", "facebook": "None", "youtube": "None", "website": "None", "summary": "None", "logo": "None", "latitude": 46.818325156413856, "longitude": -71.22779908894891}, "106733413RR0001": {"name": "ASSOCIATION QUEBECOISE DE GERONTOLOGIE", "designationCode": "C", "categoryCode": "21", "address": "210 - 8110 BOUL SAINT-MICHEL", "city": "MONTREAL", "province": "QC", "country": "CA", "postalCode": "H1Z3E2", "twitter": "None", "instagram": "None", "facebook": "None", "youtube": "None", "website": "None", "summary": "None", "logo": "None", "latitude": 45.56391277127952, "longitude": -73.61007417695755}, "135563021RR0001": {"name": "ASSOCIATION QUEBECOISE DE L'ENCEPHALOMYELITE MYALGIQUE", "designationCode": "C", "categoryCode": "11", "address": "403-2030 BOUL. PIE 1X", "city": "MONTR\u00c9AL", "province": "QC", "country": "CA", "postalCode": "H1V2C8", "twitter": "None", "instagram": "None", "facebook": "None", "youtube": "None", "website": "None", "summary": "None", "logo": "None", "latitude": 45.55062515569284, "longitude": -73.54249161172018}, "131261364RR0001": {"name": "ASSOCIATION QUEBECOISE DE L'EPILEPSIE/QUEBEC EPILEPSY ASSOCIATION", "designationCode": "C", "categoryCode": "11", "address": "2408 AV WEST HILL", "city": "MONTREAL", "province": "QC", "country": "CA", "postalCode": "H4B2S4", "twitter": "None", "instagram": "None", "facebook": "None", "youtube": "None", "website": "None", "summary": "None", "logo": "None", "latitude": 45.4645717241042, "longitude": -73.62421566584905}, "891415143RR0001": {"name": "ASSOCIATION QUEBECOISE DE LA DEGENERESCENCE MACULAIRE", "designationCode": "C", "categoryCode": "09", "address": "403 - 400 AV LAURIER O", "city": "MONTREAL", "province": "QC", "country": "CA", "postalCode": "H2V2K7", "twitter": "None", "instagram": "None", "facebook": "None", "youtube": "None", "website": "None", "summary": "None", "logo": "None", "latitude": 45.518827589503175, "longitude": -73.59648548430387}, "860295633RR0001": {"name": "ASSOCIATION QUEBECOISE DE LA DOULEUR CHRONIQUE", "designationCode": "C", "categoryCode": "11", "address": "1576, RUE D'IBERVILLE", "city": "SAINT-BRUNO", "province": "QC", "country": "CA", "postalCode": "J3V4L7", "twitter": "None", "instagram": "None", "facebook": "None", "youtube": "None", "website": "None", "summary": "None", "logo": "None", "latitude": 45.53258663947711, "longitude": -73.3324649995673}, "137165361RR0001": {"name": "ASSOCIATION QUEBECOISE DE LA FIBROMYALGIE", "designationCode": "C", "categoryCode": "11", "address": "225 - 2465 RUE HONORE-MERCIER", "city": "LAVAL", "province": "QC", "country": "CA", "postalCode": "H7L2S9", "twitter": "None", "instagram": "None", "facebook": "None", "youtube": "None", "website": "None", "summary": "None", "logo": "None", "latitude": 45.60411285815697, "longitude": -73.78189520347372}, "815359948RR0001": {"name": "ASSOCIATION QUEBECOISE DE LA NEVRALGIE DU TRIJUMEAU", "designationCode": "C", "categoryCode": "59", "address": "470, RUE PRINCIPALE", "city": "VALLEE JONCTION", "province": "QC", "country": "CA", "postalCode": "G0S3J0", "twitter": "None", "instagram": "None", "facebook": "None", "youtube": "None", "website": "None", "summary": "None", "logo": "None", "latitude": 46.369224, "longitude": -70.91879328965868}, "118794874RR0001": {"name": "ASSOCIATION QUEBECOISE DE LUTTE CONTRE LA POLLUTION ATMOSPH\u00c9RIQUE (AQLPA)", "designationCode": "C", "categoryCode": "59", "address": "473 RUE PRINCIPALE", "city": "STANDON", "province": "QC", "country": "CA", "postalCode": "G0R4L0", "twitter": "None", "instagram": "None", "facebook": "None", "youtube": "None", "website": "None", "summary": "None", "logo": "None", "latitude": 46.48036811102771, "longitude": -70.61996418829719}, "848703369RR0001": {"name": "ASSOCIATION QUEBECOISE DE PROMOTION DES RECHERCHES ETUDIANTES EN MUSEOLOGIE (AQPREM)", "designationCode": "C", "categoryCode": "21", "address": "90 RUE BERLIOZ APP 402", "city": "ILE-DES-SOEURS", "province": "QC", "country": "CA", "postalCode": "H3E1N1", "twitter": "None", "instagram": "None", "facebook": "None", "youtube": "None", "website": "None", "summary": "None", "logo": "None", "latitude": 45.46437416758076, "longitude": -73.54065016382984}, "898250048RR0001": {"name": "ASSOCIATION QUEBECOISE DE SPECIALISTES EN SCIENCES DU SOL", "designationCode": "C", "categoryCode": "21", "address": "4974 CHEMIN GODBOUT", "city": "DUNHAM", "province": "QC", "country": "CA", "postalCode": "J0E1M0", "twitter": "None", "instagram": "None", "facebook": "None", "youtube": "None", "website": "None", "summary": "None", "logo": "None", "latitude": 45.08266582791854, "longitude": -72.85456980662423}, "887688737RR0001": {"name": "ASSOCIATION QUEBECOISE DE VOILE ADAPTEE (A.Q.V.A.)", "designationCode": "C", "categoryCode": "56", "address": "2025 QUESNEL                  SUITE 35", "city": "MONTREAL", "province": "QC", "country": "CA", "postalCode": "H3J2K9", "twitter": "None", "instagram": "None", "facebook": "None", "youtube": "None", "website": "None", "summary": "None", "logo": "None", "latitude": 45.48807611769279, "longitude": -73.57446635723333}, "866095417RR0001": {"name": "ASSOCIATION QUEBECOISE DES MALADIE METABOLIQUES DU RESEAU", "designationCode": "C", "categoryCode": "11", "address": "1600, AVENUE DE LORIMIER      BUREAU 342", "city": "MONTREAL", "province": "QC", "country": "CA", "postalCode": "H2K3W5", "twitter": "None", "instagram": "None", "facebook": "None", "youtube": "None", "website": "None", "summary": "None", "logo": "None", "latitude": 45.52597796055766, "longitude": -73.55291510286204}, "106733504RR0001": {"name": "ASSOCIATION QUEBECOISE DES PARENTS D'ENFANTS HANDICAPES VISUELS (AQPEHV)", "designationCode": "C", "categoryCode": "59", "address": "10, RUE  CHURCHILL            BUREAU 203", "city": "GREENFIELD PARK", "province": "QC", "country": "CA", "postalCode": "J4V2L7", "twitter": "None", "instagram": "None", "facebook": "None", "youtube": "None", "website": "None", "summary": "None", "logo": "None", "latitude": 45.489282987794994, "longitude": -73.491302828207}, "144772704RR0001": {"name": "ASSOCIATION QUEBECOISE DES REGISTRAIRES EN ONCOLOGIE", "designationCode": "C", "categoryCode": "11", "address": "1590 CH SAINT-HENRI", "city": "MASCOUCHE", "province": "QC", "country": "CA", "postalCode": "J7K2N4", "twitter": "None", "instagram": "None", "facebook": "None", "youtube": "None", "website": "None", "summary": "None", "logo": "None", "latitude": 45.761584787956586, "longitude": -73.59531826299828}, "120795141RR0001": {"name": "ASSOCIATION QUEBECOISE DES TRAUMATISES CRANIENS", "designationCode": "C", "categoryCode": "01", "address": "911 JEAN TALON EST            BUREAU 106", "city": "MONTREAL", "province": "QC", "country": "CA", "postalCode": "H2R1V5", "twitter": "None", "instagram": "None", "facebook": "None", "youtube": "None", "website": "None", "summary": "None", "logo": "None", "latitude": 45.54149052013953, "longitude": -73.61280380287332}, "884202409RR0001": {"name": "ASSOCIATION QUEBECOISE DES TROUBLES D'APPRENTISSAGE - SECTION SAINT-LEONARD", "designationCode": "C", "categoryCode": "21", "address": "207-5960 JEAN-TALON E", "city": "ST-L\u00c9ONARD", "province": "QC", "country": "CA", "postalCode": "H1S1M2", "twitter": "None", "instagram": "None", "facebook": "None", "youtube": "None", "website": "None", "summary": "None", "logo": "None", "latitude": 45.58668644794861, "longitude": -73.57915240795799}, "136598828RR0001": {"name": "ASSOCIATION QUEBECOISE DES TROUBLES D'APPRENTISSAGE-SECTION LAVAL", "designationCode": "C", "categoryCode": "09", "address": "100 RUE TOURANGEAU EST", "city": "LAVAL", "province": "QC", "country": "CA", "postalCode": "H7G1L1", "twitter": "None", "instagram": "None", "facebook": "None", "youtube": "None", "website": "None", "summary": "None", "logo": "None", "latitude": 45.56771383847877, "longitude": -73.68208487497827}, "886482397RR0001": {"name": "ASSOCIATION QUEBECOISE DU SYNDROME DE LA TOURETTE", "designationCode": "C", "categoryCode": "09", "address": "7070, PERRAS", "city": "MONTREAL", "province": "QC", "country": "CA", "postalCode": "H1E1A4", "twitter": "None", "instagram": "None", "facebook": "None", "youtube": "None", "website": "None", "summary": "None", "logo": "None", "latitude": 45.62713032411631, "longitude": -73.61503279757376}, "892341249RR0001": {"name": "ASSOCIATION QUEBECOISE DU SYNDROME DE RETT", "designationCode": "C", "categoryCode": "11", "address": "903 BOUL LA FAYETTE", "city": "LONGUEUIL", "province": "QC", "country": "CA", "postalCode": "J4K3A8", "twitter": "None", "instagram": "None", "facebook": "None", "youtube": "None", "website": "None", "summary": "None", "logo": "None", "latitude": 45.51736672773956, "longitude": -73.50849077601136}, "120407739RR0001": {"name": "ASSOCIATION QUEBECOISE POUR LA DEFENSE DES DROITS DES RETRAITES ET PRE-RETRAITES A Q D R LAPRAIRIE RIVE-SUD OUEST INC", "designationCode": "C", "categoryCode": "09", "address": "75 RUE ST-LAURENT             BUREAU 100", "city": "LA PRAIRIE", "province": "QC", "country": "CA", "postalCode": "J5R1H1", "twitter": "None", "instagram": "None", "facebook": "None", "youtube": "None", "website": "None", "summary": "None", "logo": "None"}, "875915134RR0001": {"name": "ASSOCIATION QUEBECOISE POUR LA PROMOTION DE L'EDUCATION RELATIVE A L'ENVIRONNEMENT (A.Q.P.E.R.E.)", "designationCode": "C", "categoryCode": "55", "address": "6400, 16E AVENUE              C.E.G.E.P. DE ROSEMONT", "city": "MONTREAL", "province": "QC", "country": "CA", "postalCode": "H1X2S9", "twitter": "None", "instagram": "None", "facebook": "None", "youtube": "None", "website": "None", "summary": "None", "logo": "None"}, "100305507RR0001": {"name": "ASSOCIATION QUEBECOISE POUR LE LOISIR DES PERSONNES HANDICAPEES", "designationCode": "C", "categoryCode": "56", "address": "858 RUE LAVIOLETTE", "city": "TROIS-RIVIERES", "province": "QC", "country": "CA", "postalCode": "G9A5J1", "twitter": "None", "instagram": "None", "facebook": "None", "youtube": "None", "website": "None", "summary": "None", "logo": "None", "latitude": 46.34869787846938, "longitude": -72.54542115869394}, "891496747RR0001": {"name": "ASSOCIATION RECREATIVE ROBINSON BAY", "designationCode": "C", "categoryCode": "56", "address": "148, ROBINSON BAY", "city": "VILLE DE LAC BROME", "province": "QC", "country": "CA", "postalCode": "J0E1R0", "twitter": "None", "instagram": "None", "facebook": "None", "youtube": "None", "website": "None", "summary": "None", "logo": "None", "latitude": 45.25331124570272, "longitude": -72.53884562734905}, "891158149RR0001": {"name": "ASSOCIATION REGIONALE ANGLOPHONE DU SPORT SCOLAIRE DE L'AGGLOMERATION MONTREALAISE/GREATER MONTREAL ENGLISH-SPEAKING REG", "designationCode": "C", "categoryCode": "56", "address": "5925 AV MONKLAND              SUITE 101", "city": "MONTREAL", "province": "QC", "country": "CA", "postalCode": "H4A1G7", "twitter": "None", "instagram": "None", "facebook": "None", "youtube": "None", "website": "None", "summary": "None", "logo": "None", "latitude": 45.472040705811, "longitude": -73.6261150422123}, "881100911RR0001": {"name": "ASSOCIATION REGIONALE DE LOISIR POUR PERSONNES HANDICAPEES CHAUDIERE-APPALACHES", "designationCode": "C", "categoryCode": "56", "address": "5515, RUE ST-GEORGES", "city": "L\u00c9VIS", "province": "QC", "country": "CA", "postalCode": "G6V4M7", "twitter": "None", "instagram": "None", "facebook": "None", "youtube": "None", "website": "None", "summary": "None", "logo": "None", "latitude": 46.798453528737866, "longitude": -71.18260715021023}, "118794973RR0001": {"name": "ASSOCIATION REGIONALE DE LOISIR POUR PERSONNES HANDICAPEES DE LA CAPITALE-NATIONALE", "designationCode": "C", "categoryCode": "56", "address": "202 - 5121 BOUL CHAUVEAU O", "city": "QUEBEC", "province": "QC", "country": "CA", "postalCode": "G2E5A6", "twitter": "None", "instagram": "None", "facebook": "None", "youtube": "None", "website": "None", "summary": "None", "logo": "None", "latitude": 46.81463455698191, "longitude": -71.37544193773472}, "129481537RR0001": {"name": "ASSOCIATION REGIONALE DE LOISIR POUR PERSONNES HANDICAPEES DU CENTRE DU QUEBEC INC", "designationCode": "C", "categoryCode": "09", "address": "59, RUE MONFETTE, LOCAL 236", "city": "VICTORIAVILLE", "province": "QC", "country": "CA", "postalCode": "G6P1J8", "twitter": "None", "instagram": "None", "facebook": "None", "youtube": "None", "website": "None", "summary": "None", "logo": "None", "latitude": 46.06164779188039, "longitude": -71.9668892342031}, "130345804RR0001": {"name": "ASSOCIATION REGIONALE DE LOISIRS POUR PERSONNES HANDICAPEES DE LAVAL INC", "designationCode": "C", "categoryCode": "09", "address": "387 BOUL DES PRAIRIES 215", "city": "LAVAL", "province": "QC", "country": "CA", "postalCode": "H7N2W4", "twitter": "None", "instagram": "None", "facebook": "None", "youtube": "None", "website": "None", "summary": "None", "logo": "None", "latitude": 45.54674685486739, "longitude": -73.70770992148975}, "100307016RR0001": {"name": "ASSOCIATION REGIONALE DU SPORT ETUDIANT DE L'ABITIBI-TEMISCAMINGUE", "designationCode": "C", "categoryCode": "21", "address": "375 AVENUE CENTRALE", "city": "VAL-D'OR", "province": "QC", "country": "CA", "postalCode": "J9P1P4", "twitter": "None", "instagram": "None", "facebook": "None", "youtube": "None", "website": "None", "summary": "None", "logo": "None", "latitude": 48.10108560892156, "longitude": -77.77786759270583}, "125468710RR0001": {"name": "ASSOCIATION REGIONALE DU SPORT ETUDIANT DE L'EST DU QUEBEC", "designationCode": "C", "categoryCode": "21", "address": "60, RUE DE L'EVECHE OUEST     BUREAU J-21", "city": "RIMOUSKI", "province": "QC", "country": "CA", "postalCode": "G5L4H6", "twitter": "None", "instagram": "None", "facebook": "None", "youtube": "None", "website": "None", "summary": "None", "logo": "None", "latitude": 48.44732425877617, "longitude": -68.52640246029172}, "118795038RR0001": {"name": "ASSOCIATION REGIONALE DU SPORT ETUDIANT DE L'OUTAOUAIS", "designationCode": "C", "categoryCode": "21", "address": "100 - 499 BOUL LABROSSE", "city": "GATINEAU", "province": "QC", "country": "CA", "postalCode": "J8P4R1", "twitter": "None", "instagram": "None", "facebook": "None", "youtube": "None", "website": "None", "summary": "None", "logo": "None", "latitude": 45.49832711647314, "longitude": -75.64221757716824}, "892715194RR0001": {"name": "ASSOCIATION REGIONALE POUR LES PERSONNES EPILEPTIQUES (REGION 02)", "designationCode": "C", "categoryCode": "11", "address": "110 RACINE EST, SUITE 218     CP 8333", "city": "CHICOUTIMI", "province": "QC", "country": "CA", "postalCode": "G7H5C2", "twitter": "None", "instagram": "None", "facebook": "None", "youtube": "None", "website": "None", "summary": "None", "logo": "None", "latitude": 48.42781451457097, "longitude": -71.06486453427779}, "118795053RR0001": {"name": "ASSOCIATION RENAISSANCE DE LA REGION DE L'AMIANTE", "designationCode": "C", "categoryCode": "53", "address": "76 ST-JOSEPH NORD", "city": "THETFORD-MINES", "province": "QC", "country": "CA", "postalCode": "G6G3N8", "twitter": "None", "instagram": "None", "facebook": "None", "youtube": "None", "website": "None", "summary": "None", "logo": "None", "latitude": 46.089289366372896, "longitude": -71.30349249536079}, "887926574RR0001": {"name": "ASSOCIATION RENAISSANCE DES PERSONNES TRAUMATISEES CRANIENNES DU SAGUENAY-LAC-ST-JEAN", "designationCode": "C", "categoryCode": "11", "address": "2223 BOUL SAGUENAY", "city": "JONQUIERE", "province": "QC", "country": "CA", "postalCode": "G7S4H5", "twitter": "None", "instagram": "None", "facebook": "None", "youtube": "None", "website": "None", "summary": "None", "logo": "None", "latitude": 48.43601346485684, "longitude": -71.13938121562144}, "118795061RR0001": {"name": "ASSOCIATION SAINTE-MARIE DI CANNETO", "designationCode": "C", "categoryCode": "49", "address": "12230 AV. ALFRED-NOBEL", "city": "MONTREAL", "province": "QC", "country": "CA", "postalCode": "H1E4T5", "twitter": "None", "instagram": "None", "facebook": "None", "youtube": "None", "website": "None", "summary": "None", "logo": "None", "latitude": 45.64080221175496, "longitude": -73.58752358162599}, "120592456RR0001": {"name": "ASSOCIATION SCLEROSE EN PLAQUES DE LANAUDIERE", "designationCode": "C", "categoryCode": "11", "address": "200 RUE DE SALABERRY", "city": "JOLIETTE", "province": "QC", "country": "CA", "postalCode": "J6E4G1", "twitter": "None", "instagram": "None", "facebook": "None", "youtube": "None", "website": "None", "summary": "None", "logo": "None", "latitude": 46.018426513762904, "longitude": -73.43291349685467}, "100306174RR0001": {"name": "ASSOCIATION SCLEROSE EN PLAQUES EST DE MONTREAL/EAST END OF MONTREAL MULTIPLE SCLEROSIS ASSOCIATION", "designationCode": "C", "categoryCode": "01", "address": "12125, RUE NOTRE-DAME EST,    LOCAL 309", "city": "MONTR\u00c9AL", "province": "QC", "country": "CA", "postalCode": "H1B2Y9", "twitter": "None", "instagram": "None", "facebook": "None", "youtube": "None", "website": "None", "summary": "None", "logo": "None", "latitude": 45.64067987705574, "longitude": -73.49013857836508}, "119865111RR0001": {"name": "ASSOCIATION SCLEROSE EN PLAQUES RIVE-SUD", "designationCode": "C", "categoryCode": "09", "address": "3825 RUE WINDSOR", "city": "ST-HUBERT", "province": "QC", "country": "CA", "postalCode": "J4T2Z6", "twitter": "None", "instagram": "None", "facebook": "None", "youtube": "None", "website": "None", "summary": "None", "logo": "None", "latitude": 45.492572513474435, "longitude": -73.46361095360409}, "891294688RR0001": {"name": "ASSOCIATION SCOUTE CATHOLIQUE DE MONTR\u00c9AL INCORPOR\u00c9E", "designationCode": "C", "categoryCode": "29", "address": "5861 RUE DE TERREBONNE", "city": "MONTR\u00c9AL", "province": "QC", "country": "CA", "postalCode": "H4A1B4", "twitter": "None", "instagram": "None", "facebook": "None", "youtube": "None", "website": "None", "summary": "None", "logo": "None", "latitude": 45.47383137053487, "longitude": -73.62891709619693}, "121358527RR0001": {"name": "ASSOCIATION SECTORIELLE TRANSPORT ENTREPOSAGE", "designationCode": "C", "categoryCode": "11", "address": "301-6455, RUE JEAN-TALON EST", "city": "SAINT-L\u00c9ONARD", "province": "QC", "country": "CA", "postalCode": "H1S3E8", "twitter": "None", "instagram": "None", "facebook": "None", "youtube": "None", "website": "None", "summary": "None", "logo": "None", "latitude": 45.58218820629318, "longitude": -73.58052829407441}, "118795103RR0001": {"name": "ASSOCIATION SECURITE INFORMATIQUE DE MONTREAL METROPOLITAIN (A.S.I.M.M.)", "designationCode": "C", "categoryCode": "59", "address": "230-655 PROM DU CENTROPOLIS", "city": "LAVAL", "province": "QC", "country": "CA", "postalCode": "H7T0A3", "twitter": "None", "instagram": "None", "facebook": "None", "youtube": "None", "website": "None", "summary": "None", "logo": "None", "latitude": 45.56075948877593, "longitude": -73.74730566890746}, "118795111RR0001": {"name": "ASSOCIATION SEPHARADE DE LA BANLIEUE OUEST DE MONTREAL", "designationCode": "C", "categoryCode": "43", "address": "101 - 96 RUE FREDMIR", "city": "DOLLARD-DES-ORMEAUX", "province": "QC", "country": "CA", "postalCode": "H9A2R3", "twitter": "None", "instagram": "None", "facebook": "None", "youtube": "None", "website": "None", "summary": "None", "logo": "None", "latitude": 45.49223904356863, "longitude": -73.8303464309248}, "892796475RR0001": {"name": "ASSOCIATION SEPT-ILIENNE DES LOISIRS, DES SPORTS ET DE LA CULTURE POUR PERSONNES VIVANT AVEC UN HANDICAP", "designationCode": "C", "categoryCode": "56", "address": "C.P. 1485", "city": "SEPT-ILES", "province": "QC", "country": "CA", "postalCode": "G4R4X8", "twitter": "None", "instagram": "None", "facebook": "None", "youtube": "None", "website": "None", "summary": "None", "logo": "None", "latitude": 50.209593000000055, "longitude": -66.38952049999993}, "100306323RR0002": {"name": "ASSOCIATION SOLIDARITE D'ARGENTEUIL INC.", "designationCode": "C", "categoryCode": "09", "address": "212 RUE WILSON", "city": "LACHUTE", "province": "QC", "country": "CA", "postalCode": "J8H3J3", "twitter": "None", "instagram": "None", "facebook": "None", "youtube": "None", "website": "None", "summary": "None", "logo": "None", "latitude": 45.64943298837191, "longitude": -74.35068524496488}, "864772389RR0001": {"name": "ASSOCIATION SPECIAL SPATIAL", "designationCode": "C", "categoryCode": "09", "address": "CASIER POSTAL 9", "city": "LAVALTRIE", "province": "QC", "country": "CA", "postalCode": "J5T4A9", "twitter": "None", "instagram": "None", "facebook": "None", "youtube": "None", "website": "None", "summary": "None", "logo": "None", "latitude": 45.885183000000055, "longitude": -73.27745449999993}, "118795137RR0001": {"name": "ASSOCIATION SPORTIVE DE L'OUEST DE MONTREAL INC./WEST END SPORTS ASSOCIATION OF MONTREAL INC.", "designationCode": "C", "categoryCode": "56", "address": "110 - 5050 RUE DE SOREL", "city": "MONTREAL", "province": "QC", "country": "CA", "postalCode": "H4P1G5", "twitter": "None", "instagram": "None", "facebook": "None", "youtube": "None", "website": "None", "summary": "None", "logo": "None", "latitude": 45.50082767441875, "longitude": -73.65971963030185}, "890168578RR0001": {"name": "ASSOCIATION SPORTIVE DE LA PETITE BOURGOGNE INC./ LITTLE BURGUNDY SPORTS ASSOCIATION INC.", "designationCode": "C", "categoryCode": "56", "address": "#42-904 RUE DU COLLEGE", "city": "MONTREAL", "province": "QC", "country": "CA", "postalCode": "H4C2S2", "twitter": "None", "instagram": "None", "facebook": "None", "youtube": "None", "website": "None", "summary": "None", "logo": "None", "latitude": 45.47886387010219, "longitude": -73.58930404830049}, "130432545RR0001": {"name": "ASSOCIATION SPORTIVE DES AVEUGLES DU QUEBEC", "designationCode": "C", "categoryCode": "09", "address": "4545 AV PIERRE-DE COUBERTIN", "city": "MONTREAL", "province": "QC", "country": "CA", "postalCode": "H1V0B2", "twitter": "None", "instagram": "None", "facebook": "None", "youtube": "None", "website": "None", "summary": "None", "logo": "None", "latitude": 45.555920590080106, "longitude": -73.55036240097485}, "816571541RR0001": {"name": "ASSOCIATION SPORTIVE DES JEUNES HANDICAPES DE L'ESTRIE", "designationCode": "C", "categoryCode": "09", "address": "154 RUE DES JONQUILLES", "city": "COATICOOK", "province": "QC", "country": "CA", "postalCode": "J1A2Z9", "twitter": "None", "instagram": "None", "facebook": "None", "youtube": "None", "website": "None", "summary": "None", "logo": "None", "latitude": 45.12993404636724, "longitude": -71.79331241482465}, "133532960RR0001": {"name": "ASSOCIATION SPORTIVE DES SOURDS DU QUEBEC INC.", "designationCode": "C", "categoryCode": "56", "address": "4545, AV PIERRE DE COUBERTIN  CP 1000, AUCC M", "city": "MONTREAL", "province": "QC", "country": "CA", "postalCode": "H1V3R2", "twitter": "None", "instagram": "None", "facebook": "None", "youtube": "None", "website": "None", "summary": "None", "logo": "None", "latitude": 45.555920590080106, "longitude": -73.55036240097485}, "131201220RR0001": {"name": "ASSOCIATION SPORTIVE ET COMMUNAUTAIRE DU CENTRE-SUD INC", "designationCode": "C", "categoryCode": "56", "address": "2093 RUE DE LA VISITATION", "city": "MONTREAL", "province": "QC", "country": "CA", "postalCode": "H2L3C9", "twitter": "None", "instagram": "None", "facebook": "None", "youtube": "None", "website": "None", "summary": "None", "logo": "None", "latitude": 45.5228061848634, "longitude": -73.56293892226914}, "118795145RR0001": {"name": "ASSOCIATION SPORTIVE MONTEUIL DE LAVAL INC.", "designationCode": "C", "categoryCode": "56", "address": "C.P.37327                     C.S.P.AUTEUIL", "city": "LAVAL", "province": "QC", "country": "CA", "postalCode": "H7H3C2", "twitter": "None", "instagram": "None", "facebook": "None", "youtube": "None", "website": "None", "summary": "None", "logo": "None", "latitude": 45.641436000000056, "longitude": -73.75510249999994}, "883330078RR0001": {"name": "ASSOCIATION ST-JOSEPH (A.S.J.)/ST.JOSEPH ASSOCIATION (S.J.A.)", "designationCode": "C", "categoryCode": "39", "address": "17400 BOUL PIERREFONDS", "city": "PIERREFONDS", "province": "QC", "country": "CA", "postalCode": "H9J3E4", "twitter": "None", "instagram": "None", "facebook": "None", "youtube": "None", "website": "None", "summary": "None", "logo": "None", "latitude": 45.46595734883747, "longitude": -73.87963420990863}, "107283749RR0001": {"name": "ASSOCIATION SUPPORTING CHOICES OF PEOPLE, EDSON", "designationCode": "C", "categoryCode": "11", "address": "4926 17 AVE.", "city": "EDSON", "province": "AB", "country": "CA", "postalCode": "T7E1G4", "twitter": "None", "instagram": "None", "facebook": "None", "youtube": "None", "website": "None", "summary": "None", "logo": "None", "latitude": 53.592919478792616, "longitude": -116.43790436081136}, "867900094RR0001": {"name": "ASSOCIATION URANTIA DU QU\u00c9BEC", "designationCode": "C", "categoryCode": "39", "address": "C.P. 304", "city": "ST-JEROME", "province": "QC", "country": "CA", "postalCode": "J7Z5L0", "twitter": "None", "instagram": "None", "facebook": "None", "youtube": "None", "website": "None", "summary": "None", "logo": "None", "latitude": 45.779878863444594, "longitude": -73.97896500000002}, "106731359RR0001": {"name": "ASSOCIATION VIVRE ET VIEILLIR CHEZ SOI DU BAS RICHELIEU INC.", "designationCode": "C", "categoryCode": "09", "address": "105 RUE DU PRINCE, LOCAL 120", "city": "SOREL-TRACY", "province": "QC", "country": "CA", "postalCode": "J3P4J9", "twitter": "None", "instagram": "None", "facebook": "None", "youtube": "None", "website": "None", "summary": "None", "logo": "None", "latitude": 46.04260853012287, "longitude": -73.11358937630592}, "140470253RR0001": {"name": "ASSOCIATION VO-VI DU CANADA", "designationCode": "C", "categoryCode": "39", "address": "# 1C- 7021, LOUIS HEBERT", "city": "LASALLE", "province": "QC", "country": "CA", "postalCode": "H8N3E9", "twitter": "None", "instagram": "None", "facebook": "None", "youtube": "None", "website": "None", "summary": "None", "logo": "None", "latitude": 45.443917015003635, "longitude": -73.6102778704193}, "882482789RR0001": {"name": "ASSOCIATION VOIR SANS VOIR", "designationCode": "C", "categoryCode": "11", "address": "460 7E AV", "city": "VAL-D'OR", "province": "QC", "country": "CA", "postalCode": "J9P6A7", "twitter": "None", "instagram": "None", "facebook": "None", "youtube": "None", "website": "None", "summary": "None", "logo": "None", "latitude": 48.10646240940029, "longitude": -77.77914530988512}, "107701492RR0001": {"name": "ASSOCIATION Y.W.C.A. DE QUEBEC / THE YOUNG WOMEN'S CHRISTIAN ASSOCIATION OF QUEBEC", "designationCode": "C", "categoryCode": "49", "address": "DIR. GENERALE                 855 HOLLAND", "city": "QUEBEC", "province": "QC", "country": "CA", "postalCode": "G1S3S5", "twitter": "None", "instagram": "None", "facebook": "None", "youtube": "None", "website": "None", "summary": "None", "logo": "None", "latitude": 46.79410636055157, "longitude": -71.25181022713397}, "107910275RR0008": {"name": "ASSUMPTION CATHOLIC CHURCH", "designationCode": "C", "categoryCode": "38", "address": "67 WOODLAND DR", "city": "HAY RIVER", "province": "NT", "country": "CA", "postalCode": "X0E0R8", "twitter": "None", "instagram": "None", "facebook": "None", "youtube": "None", "website": "None", "summary": "None", "logo": "None", "latitude": 60.811761672792265, "longitude": -115.78718580454759}, "118795244RR0001": {"name": "ASSUMPTION MISSION CENTRE", "designationCode": "C", "categoryCode": "38", "address": "71 INDIAN TRAIL", "city": "TORONTO", "province": "ON", "country": "CA", "postalCode": "M6R2A1", "twitter": "None", "instagram": "None", "facebook": "None", "youtube": "None", "website": "None", "summary": "None", "logo": "None", "latitude": 43.65383845432525, "longitude": -79.45725154328017}}