{"878579408RR0001": {"name": "SARNIA MASJID", "designationCode": "C", "categoryCode": "60", "address": "281 COBDEN STREET", "city": "SARNIA", "province": "ON", "country": "CA", "postalCode": "N7T4A2", "twitter": "None", "instagram": "None", "facebook": "None", "youtube": "None", "website": "None", "summary": "None", "logo": "None", "latitude": 42.97193904297462, "longitude": -82.39239460946379}, "130352628RR0001": {"name": "SARNIA MINOR ATHLETIC ASSOCIATION", "designationCode": "C", "categoryCode": "56", "address": "PO BOX 524 STN MAIN", "city": "SARNIA", "province": "ON", "country": "CA", "postalCode": "N7T7J4", "twitter": "None", "instagram": "None", "facebook": "None", "youtube": "None", "website": "None", "summary": "None", "logo": "None", "latitude": 42.97877700000005, "longitude": -82.40368399999993}, "107955031RR0001": {"name": "SARNIA MISSIONARY CHURCH", "designationCode": "C", "categoryCode": "39", "address": "707 TALFOURD ST", "city": "SARNIA", "province": "ON", "country": "CA", "postalCode": "N7T1S1", "twitter": "None", "instagram": "None", "facebook": "None", "youtube": "None", "website": "None", "summary": "None", "logo": "None", "latitude": 42.96632555868074, "longitude": -82.38650254910081}, "890848195RR0001": {"name": "SARNIA MUSLIM ASSOCIATION", "designationCode": "C", "categoryCode": "60", "address": "1609 LONDON LINE", "city": "SARNIA", "province": "ON", "country": "CA", "postalCode": "N7W1A9", "twitter": "None", "instagram": "None", "facebook": "None", "youtube": "None", "website": "None", "summary": "None", "logo": "None", "latitude": 42.983889496249084, "longitude": -82.33244069608747}, "119139517RR0001": {"name": "SARNIA NEIGHBOURHOOD WATCH ASSOCIATION", "designationCode": "C", "categoryCode": "59", "address": "555 NORTH CHRISTINA STREET", "city": "SARNIA", "province": "ON", "country": "CA", "postalCode": "N7T7X6", "twitter": "None", "instagram": "None", "facebook": "None", "youtube": "None", "website": "None", "summary": "None", "logo": "None", "latitude": 42.984643598678446, "longitude": -82.40049183100562}, "861395044RR0001": {"name": "SARNIA PROFESSIONAL FIREFIGHTER ASSOCIATION COMMUNITY BENEFIT FUND/REGISTERED CHARITIES DIVISION", "designationCode": "A", "categoryCode": "03", "address": "240 EAST ST. NORTH", "city": "SARNIA", "province": "ON", "country": "CA", "postalCode": "N7T6X7", "twitter": "None", "instagram": "None", "facebook": "None", "youtube": "None", "website": "None", "summary": "None", "logo": "None", "latitude": 42.976577824380996, "longitude": -82.38644055539231}, "107797383RR0097": {"name": "SARNIA SEVENTH-DAY ADVENTIST CHURCH", "designationCode": "C", "categoryCode": "41", "address": "BOX 131, STATION MAIN", "city": "SARNIA", "province": "ON", "country": "CA", "postalCode": "N7T7H8", "twitter": "None", "instagram": "None", "facebook": "None", "youtube": "None", "website": "None", "summary": "None", "logo": "None", "latitude": 42.97877700000005, "longitude": -82.40368399999993}, "889191391RR0001": {"name": "SARNIA SIKH SOCIETY", "designationCode": "C", "categoryCode": "62", "address": "794 SYCAMORE DRIVE", "city": "SARNIA", "province": "ON", "country": "CA", "postalCode": "N7T4L2", "twitter": "None", "instagram": "None", "facebook": "None", "youtube": "None", "website": "None", "summary": "None", "logo": "None", "latitude": 42.9702264676841, "longitude": -82.37736030391252}, "132057100RR0001": {"name": "SARNIA-LAMBTON \"REBOUND\" - A PROGRAM FOR YOUTH", "designationCode": "C", "categoryCode": "09", "address": "10 LORNE CRESCENT", "city": "SARNIA", "province": "ON", "country": "CA", "postalCode": "N7S1H8", "twitter": "None", "instagram": "None", "facebook": "None", "youtube": "None", "website": "None", "summary": "None", "logo": "None", "latitude": 42.968547732893654, "longitude": -82.37489512391184}, "886449685RR0001": {"name": "SARNIA-LAMBTON COMMUNITY CONCERNS FOR THE MEDICALLY FRAGILE", "designationCode": "C", "categoryCode": "19", "address": "560 EXMOUTH STREET            SUITE 102A", "city": "SARNIA", "province": "ON", "country": "CA", "postalCode": "N7T5P5", "twitter": "None", "instagram": "None", "facebook": "None", "youtube": "None", "website": "None", "summary": "None", "logo": "None"}, "132059098RR0001": {"name": "SARNIA-LAMBTON CRIME STOPPERS INC.", "designationCode": "C", "categoryCode": "59", "address": "PO BOX 130 STN MAIN", "city": "SARNIA", "province": "ON", "country": "CA", "postalCode": "N7T7H8", "twitter": "None", "instagram": "None", "facebook": "None", "youtube": "None", "website": "None", "summary": "None", "logo": "None", "latitude": 42.97877700000005, "longitude": -82.40368399999993}, "119139558RR0001": {"name": "SARON LUTHERAN CHURCH", "designationCode": "C", "categoryCode": "32", "address": "BOX 115", "city": "HAGEN", "province": "SK", "country": "CA", "postalCode": "S0J1B0", "twitter": "None", "instagram": "None", "facebook": "None", "youtube": "None", "website": "None", "summary": "None", "logo": "None", "latitude": 53.596300780645706, "longitude": -105.90515858710276}, "888387461RR0001": {"name": "SARON LUTHERAN CHURCH", "designationCode": "C", "categoryCode": "32", "address": "BOX 68", "city": "CLIVE", "province": "AB", "country": "CA", "postalCode": "T0C0Y0", "twitter": "None", "instagram": "None", "facebook": "None", "youtube": "None", "website": "None", "summary": "None", "logo": "None", "latitude": 52.46682000000004, "longitude": -113.45197999999999}, "838468361RR0001": {"name": "SASAMAT FOUNDATION", "designationCode": "B", "categoryCode": "03", "address": "1500 WEST GEORGIA ST.         BOX 62 SUITE 1250", "city": "VANCOUVER", "province": "BC", "country": "CA", "postalCode": "V6G2Z6", "twitter": "None", "instagram": "None", "facebook": "None", "youtube": "None", "website": "None", "summary": "None", "logo": "None", "latitude": 49.29013479542975, "longitude": -123.1300069287031}, "891620866RR0001": {"name": "SASAMAT VOLUNTEER FIREFIGHTERS ASSOCIATION", "designationCode": "C", "categoryCode": "59", "address": "402 - 130 BREW ST", "city": "PORT MOODY", "province": "BC", "country": "CA", "postalCode": "V3H0E3", "twitter": "None", "instagram": "None", "facebook": "None", "youtube": "None", "website": "None", "summary": "None", "logo": "None", "latitude": 49.280036142623445, "longitude": -122.82847834252046}, "891837049RR0001": {"name": "SASK MUSIC FESTIVAL ASSOCIATION - MELFORT, SASK ,", "designationCode": "C", "categoryCode": "22", "address": "BOX 3027", "city": "MELFORT", "province": "SK", "country": "CA", "postalCode": "S0E1A0", "twitter": "None", "instagram": "None", "facebook": "None", "youtube": "None", "website": "None", "summary": "None", "logo": "None", "latitude": 52.85637, "longitude": -104.63436225000001}, "107955221RR0001": {"name": "SASKATCHEWAN ABILITIES COUNCIL INC.", "designationCode": "C", "categoryCode": "11", "address": "2310 LOUISE AVENUE", "city": "SASKATOON", "province": "SK", "country": "CA", "postalCode": "S7J2C7", "twitter": "None", "instagram": "None", "facebook": "None", "youtube": "None", "website": "None", "summary": "None", "logo": "None", "latitude": 52.100573661348335, "longitude": -106.6273769498236}, "138023718RR0001": {"name": "SASKATCHEWAN ADVOCATES FOR LEARNING SOLUTIONS INC.", "designationCode": "C", "categoryCode": "09", "address": "222 21ST STREET WEST", "city": "PRINCE ALBERT", "province": "SK", "country": "CA", "postalCode": "S6V4H9", "twitter": "None", "instagram": "None", "facebook": "None", "youtube": "None", "website": "None", "summary": "None", "logo": "None", "latitude": 53.194063493219325, "longitude": -105.76100169317328}, "119139590RR0001": {"name": "SASKATCHEWAN AGRICULTURAL HALL OF FAME", "designationCode": "C", "categoryCode": "50", "address": "2610 LORNE AVE", "city": "SASKATOON", "province": "SK", "country": "CA", "postalCode": "S7J0S6", "twitter": "None", "instagram": "None", "facebook": "None", "youtube": "None", "website": "None", "summary": "None", "logo": "None", "latitude": 52.097675187601496, "longitude": -106.6704732006216}, "836027219RR0001": {"name": "SASKATCHEWAN ALLEY CAT ASSOCIATION", "designationCode": "C", "categoryCode": "54", "address": "BOX 621", "city": "ELROSE", "province": "SK", "country": "CA", "postalCode": "S0L0Z0", "twitter": "None", "instagram": "None", "facebook": "None", "youtube": "None", "website": "None", "summary": "None", "logo": "None", "latitude": 51.20151000000004, "longitude": -108.02729999999997}, "119139616RR0001": {"name": "SASKATCHEWAN ALS FOUNDATION INC.", "designationCode": "C", "categoryCode": "11", "address": "90C CAVENDISH STREET", "city": "REGINA", "province": "SK", "country": "CA", "postalCode": "S4N5G7", "twitter": "None", "instagram": "None", "facebook": "None", "youtube": "None", "website": "None", "summary": "None", "logo": "None", "latitude": 50.45386187527669, "longitude": -104.55793778658658}, "107955312RR0001": {"name": "SASKATCHEWAN ARCHAEOLOGICAL SOCIETY", "designationCode": "C", "categoryCode": "52", "address": "#1 1730 QUEBEC AVENUE", "city": "SASKATOON", "province": "SK", "country": "CA", "postalCode": "S7K1V9", "twitter": "None", "instagram": "None", "facebook": "None", "youtube": "None", "website": "None", "summary": "None", "logo": "None", "latitude": 52.152104774193795, "longitude": -106.66333186210717}, "892105982RR0001": {"name": "SASKATCHEWAN ASSOCIATION FOR COMMUNITY LIVING INC - HERBERT MORSE BRANCH", "designationCode": "C", "categoryCode": "11", "address": "PO BOX 369", "city": "HERBERT", "province": "SK", "country": "CA", "postalCode": "S0H2A0", "twitter": "None", "instagram": "None", "facebook": "None", "youtube": "None", "website": "None", "summary": "None", "logo": "None", "latitude": 50.42651921542417, "longitude": -107.22535903213169}, "107955403RR0001": {"name": "SASKATCHEWAN ASSOCIATION FOR COMMUNITY LIVING INC.", "designationCode": "C", "categoryCode": "11", "address": "3031 LOUISE ST", "city": "SASKATOON", "province": "SK", "country": "CA", "postalCode": "S7J3L1", "twitter": "None", "instagram": "None", "facebook": "None", "youtube": "None", "website": "None", "summary": "None", "logo": "None", "latitude": 52.10227800000001, "longitude": -106.60670573166334}, "119139707RR0001": {"name": "SASKATCHEWAN ASSOCIATION FOR COMMUNITY LIVING INC.- HUDSON BAY BRANCH", "designationCode": "C", "categoryCode": "11", "address": "BOX 1043", "city": "HUDSON BAY", "province": "SK", "country": "CA", "postalCode": "S0E0Y0", "twitter": "None", "instagram": "None", "facebook": "None", "youtube": "None", "website": "None", "summary": "None", "logo": "None", "latitude": 52.862685000000056, "longitude": -102.38924149999994}, "107955387RR0001": {"name": "SASKATCHEWAN ASSOCIATION FOR COMMUNITY LIVING INC.- HUMBOLDTAND DISTRICT BRANCH", "designationCode": "C", "categoryCode": "11", "address": "BOX 1062", "city": "HUMBOLDT", "province": "SK", "country": "CA", "postalCode": "S0K2A0", "twitter": "None", "instagram": "None", "facebook": "None", "youtube": "None", "website": "None", "summary": "None", "logo": "None", "latitude": 51.7871843348964, "longitude": -104.71638483007007}, "119139780RR0001": {"name": "SASKATCHEWAN ASSOCIATION FOR COMMUNITY LIVING INC.- SASKATCHEWAN VALLEY BRANCH", "designationCode": "C", "categoryCode": "11", "address": "BOX 594", "city": "HAGUE", "province": "SK", "country": "CA", "postalCode": "S0K1X0", "twitter": "None", "instagram": "None", "facebook": "None", "youtube": "None", "website": "None", "summary": "None", "logo": "None", "latitude": 52.50953000000004, "longitude": -106.41138999999998}, "815951595RR0001": {"name": "SASKATCHEWAN ASSOCIATION FOR COMMUNITY LIVING OUTLOOK BRANCH INC.", "designationCode": "C", "categoryCode": "11", "address": "PO BOX 1214", "city": "OUTLOOK", "province": "SK", "country": "CA", "postalCode": "S0L2N0", "twitter": "None", "instagram": "None", "facebook": "None", "youtube": "None", "website": "None", "summary": "None", "logo": "None", "latitude": 51.5306764246367, "longitude": -107.23731016398128}, "890885973RR0001": {"name": "SASKATCHEWAN ASSOCIATION FOR THE REHABILITATION OF THE BRAIN INJURERED", "designationCode": "C", "categoryCode": "11", "address": "UNIT 5 501 45 STREET WEST", "city": "SASKATOON", "province": "SK", "country": "CA", "postalCode": "S7L5Z9", "twitter": "None", "instagram": "None", "facebook": "None", "youtube": "None", "website": "None", "summary": "None", "logo": "None", "latitude": 52.163881538375406, "longitude": -106.67280149999999}, "107955775RR0001": {"name": "SASKATCHEWAN ASSOCIATION OF HEALTH ORGANIZATIONS", "designationCode": "C", "categoryCode": "19", "address": "700 - 2002 VICTORIA AVE", "city": "REGINA", "province": "SK", "country": "CA", "postalCode": "S4P0R7", "twitter": "None", "instagram": "None", "facebook": "None", "youtube": "None", "website": "None", "summary": "None", "logo": "None", "latitude": 50.44725351875454, "longitude": -104.6098125}, "107955460RR0001": {"name": "SASKATCHEWAN ASSOCIATION OF REHABILITATION CENTRES", "designationCode": "C", "categoryCode": "01", "address": "111 CARDINAL CRESCENT", "city": "SASKATOON", "province": "SK", "country": "CA", "postalCode": "S7L6H5", "twitter": "None", "instagram": "None", "facebook": "None", "youtube": "None", "website": "None", "summary": "None", "logo": "None", "latitude": 52.15379493652205, "longitude": -106.68518603009326}, "892643370RR0001": {"name": "SASKATCHEWAN ASSOCIATION OF SCIENCE FAIRS INC", "designationCode": "C", "categoryCode": "21", "address": "744 DALGLIESH DRIVE", "city": "REGINA", "province": "SK", "country": "CA", "postalCode": "S4R6G2", "twitter": "None", "instagram": "None", "facebook": "None", "youtube": "None", "website": "None", "summary": "None", "logo": "None", "latitude": 50.485789486005956, "longitude": -104.64492052553523}, "130863616RR0001": {"name": "SASKATCHEWAN AWARENESS OF POST POLIO SOCIETY INC", "designationCode": "C", "categoryCode": "09", "address": "2510 BLAIN AVENUE", "city": "SASKATOON", "province": "SK", "country": "CA", "postalCode": "S7J2B6", "twitter": "None", "instagram": "None", "facebook": "None", "youtube": "None", "website": "None", "summary": "None", "logo": "None", "latitude": 52.09797708964743, "longitude": -106.63266664726738}, "129147112RR0001": {"name": "SASKATCHEWAN BAND ASSOCIATION", "designationCode": "C", "categoryCode": "21", "address": "2205 VICTORIA AVE", "city": "REGINA", "province": "SK", "country": "CA", "postalCode": "S4P0S4", "twitter": "None", "instagram": "None", "facebook": "None", "youtube": "None", "website": "None", "summary": "None", "logo": "None", "latitude": 50.447076539529256, "longitude": -104.61279052553522}, "892676057RR0001": {"name": "SASKATCHEWAN BAPTIST ASSOCIATION OF NORTH AMERICAN BAPTIST CHURCHES,", "designationCode": "C", "categoryCode": "31", "address": "437 BROADWAY AVE E", "city": "REGINA", "province": "SK", "country": "CA", "postalCode": "S4N0Z8", "twitter": "None", "instagram": "None", "facebook": "None", "youtube": "None", "website": "None", "summary": "None", "logo": "None", "latitude": 50.43786104244344, "longitude": -104.57877313584177}, "119139905RR0001": {"name": "SASKATCHEWAN BASEBALL HALL OF FAME AND MUSEUM ASSOCIATION INC.", "designationCode": "C", "categoryCode": "50", "address": "BOX 1388", "city": "BATTLEFORD", "province": "SK", "country": "CA", "postalCode": "S0M0E0", "twitter": "None", "instagram": "None", "facebook": "None", "youtube": "None", "website": "None", "summary": "None", "logo": "None", "latitude": 52.736037700209145, "longitude": -108.26411792034625}, "135608875RR0001": {"name": "SASKATCHEWAN BLIND SPORTS ASSOCIATION", "designationCode": "C", "categoryCode": "56", "address": "510 CYNTHIA ST", "city": "SASKATOON", "province": "SK", "country": "CA", "postalCode": "S7L7K7", "twitter": "None", "instagram": "None", "facebook": "None", "youtube": "None", "website": "None", "summary": "None", "logo": "None", "latitude": 52.15972629672783, "longitude": -106.67143512796457}, "138687777RR0001": {"name": "SASKATCHEWAN BOOK AWARDS INC", "designationCode": "C", "categoryCode": "22", "address": "PO BOX 20025", "city": "REGINA", "province": "SK", "country": "CA", "postalCode": "S4P4J7", "twitter": "None", "instagram": "None", "facebook": "None", "youtube": "None", "website": "None", "summary": "None", "logo": "None", "latitude": 50.448246000000054, "longitude": -104.59517299999993}, "119139921RR0001": {"name": "SASKATCHEWAN CEREBRAL PALSY ASSOCIATION INC.", "designationCode": "C", "categoryCode": "11", "address": "2310 LOUISE AVENUE", "city": "SASKATOON", "province": "SK", "country": "CA", "postalCode": "S7J2C7", "twitter": "None", "instagram": "None", "facebook": "None", "youtube": "None", "website": "None", "summary": "None", "logo": "None", "latitude": 52.100573661348335, "longitude": -106.6273769498236}, "119139947RR0001": {"name": "SASKATCHEWAN CHAMBER OF COMMERCE FOUNDATION", "designationCode": "C", "categoryCode": "59", "address": "1630-1920 BROAD STREET", "city": "REGINA", "province": "SK", "country": "CA", "postalCode": "S4P3V2", "twitter": "None", "instagram": "None", "facebook": "None", "youtube": "None", "website": "None", "summary": "None", "logo": "None", "latitude": 50.4481777543713, "longitude": -104.60655415684667}, "128834694RR0001": {"name": "SASKATCHEWAN CHORAL FEDERATION INC.", "designationCode": "C", "categoryCode": "22", "address": "1415-B ALBERT STREET", "city": "REGINA", "province": "SK", "country": "CA", "postalCode": "S4R2R8", "twitter": "None", "instagram": "None", "facebook": "None", "youtube": "None", "website": "None", "summary": "None", "logo": "None", "latitude": 50.45634000000001, "longitude": -104.6179868759019}, "891366999RR0001": {"name": "SASKATCHEWAN CHRISTIAN ASHRAM", "designationCode": "C", "categoryCode": "47", "address": "BOX 406", "city": "LUMSDEN", "province": "SK", "country": "CA", "postalCode": "S0G3C0", "twitter": "None", "instagram": "None", "facebook": "None", "youtube": "None", "website": "None", "summary": "None", "logo": "None", "latitude": 50.64512000000008, "longitude": -104.86806999999999}, "129892659RR0069": {"name": "SASKATCHEWAN COMMUNITY OF CHRIST FB", "designationCode": "C", "categoryCode": "39", "address": "121 LOGAN CRES", "city": "REGINA", "province": "SK", "country": "CA", "postalCode": "S4S5P7", "twitter": "None", "instagram": "None", "facebook": "None", "youtube": "None", "website": "None", "summary": "None", "logo": "None", "latitude": 50.39978066833055, "longitude": -104.61322915970355}, "119139996RR0008": {"name": "SASKATCHEWAN CONFERENCE OF MENNONITE BRETHREN CHURCHES", "designationCode": "C", "categoryCode": "34", "address": "600 45TH ST W", "city": "SASKATOON", "province": "SK", "country": "CA", "postalCode": "S7L5W9", "twitter": "None", "instagram": "None", "facebook": "None", "youtube": "None", "website": "None", "summary": "None", "logo": "None", "latitude": 52.163915529863054, "longitude": -106.67473136081135}, "107955593RR0001": {"name": "SASKATCHEWAN CONFERENCE UNITED CHURCH OF CANADA", "designationCode": "C", "categoryCode": "44", "address": "418A MCDONALD ST", "city": "REGINA", "province": "SK", "country": "CA", "postalCode": "S4N6E1", "twitter": "None", "instagram": "None", "facebook": "None", "youtube": "None", "website": "None", "summary": "None", "logo": "None", "latitude": 50.472460205040996, "longitude": -104.5818942709584}, "887427839RR0001": {"name": "SASKATCHEWAN CONSERVATION LEARNING CENTRE INC.", "designationCode": "C", "categoryCode": "59", "address": "221 - 1061 CENTRAL AVE", "city": "PRINCE ALBERT", "province": "SK", "country": "CA", "postalCode": "S6V4V4", "twitter": "None", "instagram": "None", "facebook": "None", "youtube": "None", "website": "None", "summary": "None", "logo": "None", "latitude": 53.20343299132805, "longitude": -105.75437450207367}, "107955627RR0001": {"name": "SASKATCHEWAN COUNCIL FOR INTERNATIONAL CO-OPERATION", "designationCode": "C", "categoryCode": "09", "address": "2138 MCINTYRE STREET", "city": "REGINA", "province": "SK", "country": "CA", "postalCode": "S4P2R7", "twitter": "None", "instagram": "None", "facebook": "None", "youtube": "None", "website": "None", "summary": "None", "logo": "None", "latitude": 50.444802251457105, "longitude": -104.6166331823819}, "119140028RR0001": {"name": "SASKATCHEWAN CRIME STOPPERS INC.", "designationCode": "C", "categoryCode": "59", "address": "200 - 2208 SCARTH ST", "city": "REGINA", "province": "SK", "country": "CA", "postalCode": "S4P2J6", "twitter": "None", "instagram": "None", "facebook": "None", "youtube": "None", "website": "None", "summary": "None", "logo": "None", "latitude": 50.443596000000014, "longitude": -104.61089313131144}, "119140036RR0001": {"name": "SASKATCHEWAN CULTURAL EXCHANGE SOCIETY INC.", "designationCode": "C", "categoryCode": "22", "address": "2431 8TH AVENUE", "city": "REGINA", "province": "SK", "country": "CA", "postalCode": "S4R5J7", "twitter": "None", "instagram": "None", "facebook": "None", "youtube": "None", "website": "None", "summary": "None", "logo": "None", "latitude": 50.45672147013696, "longitude": -104.61555}, "108098575RR0001": {"name": "SASKATCHEWAN DEAF AND HARD OF HEARING SERVICES INC.", "designationCode": "C", "categoryCode": "11", "address": "#3-511 1ST AVE NORTH", "city": "SASKATOON", "province": "SK", "country": "CA", "postalCode": "S7K1X5", "twitter": "None", "instagram": "None", "facebook": "None", "youtube": "None", "website": "None", "summary": "None", "logo": "None", "latitude": 52.134449732297256, "longitude": -106.66291594945534}, "861417145RR0001": {"name": "SASKATCHEWAN DOWN SYNDROME SOCIETY INC.", "designationCode": "C", "categoryCode": "11", "address": "BOX 33002                     CATHEDRAL PO", "city": "REGINA", "province": "SK", "country": "CA", "postalCode": "S4T7X2", "twitter": "None", "instagram": "None", "facebook": "None", "youtube": "None", "website": "None", "summary": "None", "logo": "None", "latitude": 50.448246000000054, "longitude": -104.59517299999993}, "861304236RR0001": {"name": "SASKATCHEWAN DRAMA ASSOCIATION", "designationCode": "C", "categoryCode": "22", "address": "101-2222 ALBERT ST", "city": "REGINA", "province": "SK", "country": "CA", "postalCode": "S4P2V2", "twitter": "None", "instagram": "None", "facebook": "None", "youtube": "None", "website": "None", "summary": "None", "logo": "None", "latitude": 50.44363152392003, "longitude": -104.6181655737054}, "138619242RR0001": {"name": "SASKATCHEWAN ELKS FOUNDATION CORP", "designationCode": "C", "categoryCode": "63", "address": "508 12TH ST E", "city": "SASKATOON", "province": "SK", "country": "CA", "postalCode": "S7N0H2", "twitter": "None", "instagram": "None", "facebook": "None", "youtube": "None", "website": "None", "summary": "None", "logo": "None", "latitude": 52.11978248845881, "longitude": -106.6588112514571}, "119140077RR0001": {"name": "SASKATCHEWAN ELOCUTION AND DEBATE ASSOCIATION", "designationCode": "C", "categoryCode": "21", "address": "1860 LORNE ST", "city": "REGINA", "province": "SK", "country": "CA", "postalCode": "S4P2L7", "twitter": "None", "instagram": "None", "facebook": "None", "youtube": "None", "website": "None", "summary": "None", "logo": "None", "latitude": 50.44926675437128, "longitude": -104.61372309134951}, "107955692RR0001": {"name": "SASKATCHEWAN ENVIRONMENTAL SOCIETY INC.", "designationCode": "C", "categoryCode": "59", "address": "BOX 1372", "city": "SASKATOON", "province": "SK", "country": "CA", "postalCode": "S7K3N9", "twitter": "None", "instagram": "None", "facebook": "None", "youtube": "None", "website": "None", "summary": "None", "logo": "None", "latitude": 52.13049000000005, "longitude": -106.65926449999994}, "861644987RR0001": {"name": "SASKATCHEWAN EPILEPSY INC.", "designationCode": "C", "categoryCode": "11", "address": "BOX 33016", "city": "REGINA", "province": "SK", "country": "CA", "postalCode": "S4T7X2", "twitter": "None", "instagram": "None", "facebook": "None", "youtube": "None", "website": "None", "summary": "None", "logo": "None", "latitude": 50.448246000000054, "longitude": -104.59517299999993}, "135148393RR0001": {"name": "SASKATCHEWAN EXPRESS SOCIETY INC.", "designationCode": "C", "categoryCode": "22", "address": "2272 PASQUA ST", "city": "REGINA", "province": "SK", "country": "CA", "postalCode": "S4T4M4", "twitter": "None", "instagram": "None", "facebook": "None", "youtube": "None", "website": "None", "summary": "None", "logo": "None", "latitude": 50.44215583236195, "longitude": -104.64100561688473}, "888182847RR0001": {"name": "SASKATCHEWAN FELLOWSHIP OF CHRISTIAN COWBOYS, INC.", "designationCode": "C", "categoryCode": "47", "address": "PO BOX 70", "city": "CHRISTOPHER LAKE", "province": "SK", "country": "CA", "postalCode": "S0J0N0", "twitter": "None", "instagram": "None", "facebook": "None", "youtube": "None", "website": "None", "summary": "None", "logo": "None", "latitude": 53.533390000000054, "longitude": -105.80098999999996}, "894058668RR0001": {"name": "SASKATCHEWAN FIRST WORLD WAR MEMORIAL PROJECT INC.", "designationCode": "C", "categoryCode": "59", "address": "3312 VALLEY GREEN WAY", "city": "REGINA", "province": "SK", "country": "CA", "postalCode": "S4V1L3", "twitter": "None", "instagram": "None", "facebook": "None", "youtube": "None", "website": "None", "summary": "None", "logo": "None", "latitude": 50.42545200000001, "longitude": -104.52284839422376}, "129849543RR0001": {"name": "SASKATCHEWAN FORESTRY ASSOCIATION", "designationCode": "C", "categoryCode": "52", "address": "139-1061 CENTRAL AVE", "city": "PRINCE ALBERT", "province": "SK", "country": "CA", "postalCode": "S6V4V4", "twitter": "None", "instagram": "None", "facebook": "None", "youtube": "None", "website": "None", "summary": "None", "logo": "None", "latitude": 53.20343299132805, "longitude": -105.75437450207367}, "119140093RR0001": {"name": "SASKATCHEWAN FOSTER FAMILIES ASSOCIATION INC.", "designationCode": "C", "categoryCode": "09", "address": "233 4TH AVE S", "city": "SASKATOON", "province": "SK", "country": "CA", "postalCode": "S7K1N1", "twitter": "None", "instagram": "None", "facebook": "None", "youtube": "None", "website": "None", "summary": "None", "logo": "None", "latitude": 52.1252998842691, "longitude": -106.66181680339292}, "815554274RR0001": {"name": "SASKATCHEWAN FOUNDATION FOR THE ARTS", "designationCode": "A", "categoryCode": "53", "address": "86 WOOD CRESCENT", "city": "REGINA", "province": "SK", "country": "CA", "postalCode": "S4S6J7", "twitter": "None", "instagram": "None", "facebook": "None", "youtube": "None", "website": "None", "summary": "None", "logo": "None", "latitude": 50.40620605023373, "longitude": -104.6422279040046}, "895830180RR0001": {"name": "SASKATCHEWAN HEALTH AUTHORITY", "designationCode": "C", "categoryCode": "19", "address": "EXECUTIVE OFFICES             2180 23RD AVE", "city": "REGINA", "province": "SK", "country": "CA", "postalCode": "S4S0A5", "twitter": "None", "instagram": "None", "facebook": "None", "youtube": "None", "website": "None", "summary": "None", "logo": "None", "latitude": 50.42356165155082, "longitude": -104.61143079061694}, "119140143RR0001": {"name": "SASKATCHEWAN HEALTH CARE AUXILIARIES ASSOCIATION", "designationCode": "C", "categoryCode": "19", "address": "P.O. BOX 723", "city": "HUDSON BAY", "province": "SK", "country": "CA", "postalCode": "S0E0Y0", "twitter": "None", "instagram": "None", "facebook": "None", "youtube": "None", "website": "None", "summary": "None", "logo": "None", "latitude": 52.862685000000056, "longitude": -102.38924149999994}, "119140150RR0001": {"name": "SASKATCHEWAN HEALTH RESEARCH FOUNDATION", "designationCode": "C", "categoryCode": "19", "address": "324 - 111 RESEARCH DR", "city": "SASKATOON", "province": "SK", "country": "CA", "postalCode": "S7N3R2", "twitter": "None", "instagram": "None", "facebook": "None", "youtube": "None", "website": "None", "summary": "None", "logo": "None", "latitude": 52.142157226749895, "longitude": -106.62861205841126}, "868342361RR0001": {"name": "SASKATCHEWAN HEART CENTRE INC.", "designationCode": "C", "categoryCode": "11", "address": "2306 ARLINGTON AVENUE", "city": "SASKATOON", "province": "SK", "country": "CA", "postalCode": "S7J3L3", "twitter": "None", "instagram": "None", "facebook": "None", "youtube": "None", "website": "None", "summary": "None", "logo": "None", "latitude": 52.10226925792145, "longitude": -106.61079677376433}, "119140176RR0001": {"name": "SASKATCHEWAN HISTORY & FOLKLORE SOCIETY INC.", "designationCode": "C", "categoryCode": "50", "address": "1860 LORNE STREET", "city": "REGINA", "province": "SK", "country": "CA", "postalCode": "S4P2L7", "twitter": "None", "instagram": "None", "facebook": "None", "youtube": "None", "website": "None", "summary": "None", "logo": "None", "latitude": 50.44926675437128, "longitude": -104.61372309134951}, "890641996RR0001": {"name": "SASKATCHEWAN HORTICULTURAL ASSOCIATION INC.", "designationCode": "C", "categoryCode": "56", "address": "PO BOX 1598 STN MAIN", "city": "WEYBURN", "province": "SK", "country": "CA", "postalCode": "S4H0T1", "twitter": "None", "instagram": "None", "facebook": "None", "youtube": "None", "website": "None", "summary": "None", "logo": "None", "latitude": 49.66802700000005, "longitude": -103.85818999999994}, "131526238RR0001": {"name": "SASKATCHEWAN HOSPICE PALLIATIVE CARE ASSOCIATION INC.", "designationCode": "C", "categoryCode": "11", "address": "BOX 37053 STN LANDMARK", "city": "REGINA", "province": "SK", "country": "CA", "postalCode": "S4S7K3", "twitter": "None", "instagram": "None", "facebook": "None", "youtube": "None", "website": "None", "summary": "None", "logo": "None", "latitude": 50.448246000000054, "longitude": -104.59517299999993}, "107955924RR0001": {"name": "SASKATCHEWAN INDIAN INSTITUTE OF TECHNOLOGIES", "designationCode": "C", "categoryCode": "20", "address": "118 - 335 PACKHAM AVE", "city": "SASKATOON", "province": "SK", "country": "CA", "postalCode": "S7N4S1", "twitter": "None", "instagram": "None", "facebook": "None", "youtube": "None", "website": "None", "summary": "None", "logo": "None", "latitude": 52.129930779329605, "longitude": -106.58791846381855}, "125870626RR0001": {"name": "SASKATCHEWAN INSTITUTE ON COMMUNITY LIVING INC.", "designationCode": "A", "categoryCode": "13", "address": "#108-103RD STREET EAST", "city": "SASKATOON", "province": "SK", "country": "CA", "postalCode": "S7N1Y7", "twitter": "None", "instagram": "None", "facebook": "None", "youtube": "None", "website": "None", "summary": "None", "logo": "None", "latitude": 52.13006547157924, "longitude": -106.59798016763806}, "119141075RR0001": {"name": "SASKATCHEWAN INTERCULTURAL ASSOCIATION INC.", "designationCode": "C", "categoryCode": "22", "address": "601B 1ST AVE N", "city": "SASKATOON", "province": "SK", "country": "CA", "postalCode": "S7K1X7", "twitter": "None", "instagram": "None", "facebook": "None", "youtube": "None", "website": "None", "summary": "None", "logo": "None", "latitude": 52.13674773816036, "longitude": -106.66185981832638}, "138009394RR0001": {"name": "SASKATCHEWAN JAZZ FESTIVAL INC", "designationCode": "C", "categoryCode": "22", "address": "701-601 SPADINA CRES E", "city": "SASKATOON", "province": "SK", "country": "CA", "postalCode": "S7K3G8", "twitter": "None", "instagram": "None", "facebook": "None", "youtube": "None", "website": "None", "summary": "None", "logo": "None", "latitude": 52.12655161166288, "longitude": -106.65889940264921}, "134432327RR0001": {"name": "SASKATCHEWAN K OF C CHARITABLE FOUNDATION", "designationCode": "C", "categoryCode": "63", "address": "PO BOX 61 STN MAIN", "city": "MOOSE JAW", "province": "SK", "country": "CA", "postalCode": "S6H4N7", "twitter": "None", "instagram": "None", "facebook": "None", "youtube": "None", "website": "None", "summary": "None", "logo": "None", "latitude": 50.37724922856035, "longitude": -105.53464629643145}, "130873623RR0001": {"name": "SASKATCHEWAN LIBRARY ASSOCIATION", "designationCode": "C", "categoryCode": "50", "address": "2010 - 7TH AVENUE             #15", "city": "REGINA", "province": "SK", "country": "CA", "postalCode": "S4R1C2", "twitter": "None", "instagram": "None", "facebook": "None", "youtube": "None", "website": "None", "summary": "None", "logo": "None", "latitude": 50.458295460470744, "longitude": -104.60978044463039}, "865844369RR0001": {"name": "SASKATCHEWAN LIONS FOUNDATION INC.", "designationCode": "A", "categoryCode": "13", "address": "PO BOX 1568", "city": "UNITY", "province": "SK", "country": "CA", "postalCode": "S0K4L0", "twitter": "None", "instagram": "None", "facebook": "None", "youtube": "None", "website": "None", "summary": "None", "logo": "None", "latitude": 52.437110000000075, "longitude": -109.14557999999994}, "107956138RR0001": {"name": "SASKATCHEWAN MUSIC EDUCATORS ASSOCIATION", "designationCode": "C", "categoryCode": "29", "address": "510-4TH AVE, BOX 632", "city": "CUDWORTH", "province": "SK", "country": "CA", "postalCode": "S0K1B0", "twitter": "None", "instagram": "None", "facebook": "None", "youtube": "None", "website": "None", "summary": "None", "logo": "None", "latitude": 52.488153752030854, "longitude": -105.73617692446227}, "119140267RR0001": {"name": "SASKATCHEWAN MUSIC FESTIVAL ASSOCIATION INC.", "designationCode": "C", "categoryCode": "22", "address": "PO BOX 37005                  RPO LANDMARK", "city": "REGINA", "province": "SK", "country": "CA", "postalCode": "S4S7K3", "twitter": "None", "instagram": "None", "facebook": "None", "youtube": "None", "website": "None", "summary": "None", "logo": "None", "latitude": 50.448246000000054, "longitude": -104.59517299999993}, "119140259RR0001": {"name": "SASKATCHEWAN MUSIC FESTIVAL ASSOCIATION REDVERS BRANCH", "designationCode": "C", "categoryCode": "22", "address": "BOX 116", "city": "REDVERS", "province": "SK", "country": "CA", "postalCode": "S0C2H0", "twitter": "None", "instagram": "None", "facebook": "None", "youtube": "None", "website": "None", "summary": "None", "logo": "None", "latitude": 49.573392000000055, "longitude": -101.69623249999994}, "119140275RR0001": {"name": "SASKATCHEWAN MUTUAL EMPLOYEES' CHARITABLE FUND", "designationCode": "B", "categoryCode": "75", "address": "279-3RD AVE NORTH", "city": "SASKATOON", "province": "SK", "country": "CA", "postalCode": "S7K2H8", "twitter": "None", "instagram": "None", "facebook": "None", "youtube": "None", "website": "None", "summary": "None", "logo": "None", "latitude": 52.13129307744241, "longitude": -106.66081858857956}, "119140283RR0001": {"name": "SASKATCHEWAN NATURAL HISTORY SOCIETY", "designationCode": "C", "categoryCode": "52", "address": "#206 - 1860 LORNE ST.", "city": "REGINA", "province": "SK", "country": "CA", "postalCode": "S4P2L7", "twitter": "None", "instagram": "None", "facebook": "None", "youtube": "None", "website": "None", "summary": "None", "logo": "None", "latitude": 50.44926675437128, "longitude": -104.61372309134951}, "122094576RR0001": {"name": "SASKATCHEWAN NURSES FOUNDATION", "designationCode": "C", "categoryCode": "21", "address": "240 ALBERT STREET             BOX 27082", "city": "REGINA", "province": "SK", "country": "CA", "postalCode": "S4R8R8", "twitter": "None", "instagram": "None", "facebook": "None", "youtube": "None", "website": "None", "summary": "None", "logo": "None", "latitude": 50.47484964364463, "longitude": -104.61827127349045}, "850595471RR0001": {"name": "SASKATCHEWAN OBLATE TRUST FUND", "designationCode": "B", "categoryCode": "03", "address": "96 EMPRESS AVE", "city": "OTTAWA", "province": "ON", "country": "CA", "postalCode": "K1R7G3", "twitter": "None", "instagram": "None", "facebook": "None", "youtube": "None", "website": "None", "summary": "None", "logo": "None", "latitude": 45.411189077702204, "longitude": -75.70929188902963}, "107956179RR0001": {"name": "SASKATCHEWAN ORGANIZATION FOR HERITAGE LANGUAGES", "designationCode": "C", "categoryCode": "21", "address": "2440 BROAD ST", "city": "REGINA", "province": "SK", "country": "CA", "postalCode": "S4P0A5", "twitter": "None", "instagram": "None", "facebook": "None", "youtube": "None", "website": "None", "summary": "None", "logo": "None", "latitude": 50.439087, "longitude": -104.60657660808391}, "847098142RR0001": {"name": "SASKATCHEWAN PARKS AND RECREATION FOUNDATION INC.", "designationCode": "C", "categoryCode": "56", "address": "100  1445 PARKS STREET", "city": "REGINA", "province": "SK", "country": "CA", "postalCode": "S4N4C5", "twitter": "None", "instagram": "None", "facebook": "None", "youtube": "None", "website": "None", "summary": "None", "logo": "None", "latitude": 50.455997999999994, "longitude": -104.57213786868854}, "880326095RR0001": {"name": "SASKATCHEWAN PLAYWRIGHTS CENTRE INCORPORATED", "designationCode": "C", "categoryCode": "22", "address": "700 601 SPADINA CRES E", "city": "SASKATOON", "province": "SK", "country": "CA", "postalCode": "S7K3G8", "twitter": "None", "instagram": "None", "facebook": "None", "youtube": "None", "website": "None", "summary": "None", "logo": "None", "latitude": 52.12655161166288, "longitude": -106.65889940264921}, "107955973RR0001": {"name": "SASKATCHEWAN PREVENTION INSTITUTE", "designationCode": "C", "categoryCode": "11", "address": "1319 COLONY STREET", "city": "SASKATOON", "province": "SK", "country": "CA", "postalCode": "S7N2Z1", "twitter": "None", "instagram": "None", "facebook": "None", "youtube": "None", "website": "None", "summary": "None", "logo": "None", "latitude": 52.12390802307942, "longitude": -106.63837798539873}, "885750638RR0001": {"name": "SASKATCHEWAN PRO-LIFE ASSOCIATION EDUCATIONAL TRUST FOUNDATION", "designationCode": "B", "categoryCode": "25", "address": "P.O. BOX 27093                AVONHURST RPO", "city": "REGINA", "province": "SK", "country": "CA", "postalCode": "S4R8R8", "twitter": "None", "instagram": "None", "facebook": "None", "youtube": "None", "website": "None", "summary": "None", "logo": "None", "latitude": 50.47141563891395, "longitude": -104.62550165658398}, "119140325RR0001": {"name": "SASKATCHEWAN PROFESSIONAL FIRE FIGHTERS BURN FUND", "designationCode": "C", "categoryCode": "15", "address": "62 MILNE BAY", "city": "YORKTON", "province": "SK", "country": "CA", "postalCode": "S3N3Z8", "twitter": "None", "instagram": "None", "facebook": "None", "youtube": "None", "website": "None", "summary": "None", "logo": "None", "latitude": 51.21892141993188, "longitude": -102.42958568082403}, "125593657RR0151": {"name": "SASKATCHEWAN PROVINCIAL COMMITTEE, AIR CADET LEAGUE OF CANADA", "designationCode": "C", "categoryCode": "29", "address": "2205 VICTORIA AVE", "city": "REGINA", "province": "SK", "country": "CA", "postalCode": "S4P0S4", "twitter": "None", "instagram": "None", "facebook": "None", "youtube": "None", "website": "None", "summary": "None", "logo": "None", "latitude": 50.447076539529256, "longitude": -104.61279052553522}, "130239536RR0001": {"name": "SASKATCHEWAN RETT SYNDROME ASSOCIATION", "designationCode": "C", "categoryCode": "11", "address": "6722 GILLMORE DR", "city": "REGINA", "province": "SK", "country": "CA", "postalCode": "S4X3Y9", "twitter": "None", "instagram": "None", "facebook": "None", "youtube": "None", "website": "None", "summary": "None", "logo": "None", "latitude": 50.50205646768411, "longitude": -104.67713216472387}, "119140366RR0001": {"name": "SASKATCHEWAN RIVER LUTHERAN CHURCH", "designationCode": "C", "categoryCode": "32", "address": "P.O. BOX 1307", "city": "OUTLOOK", "province": "SK", "country": "CA", "postalCode": "S0L2N0", "twitter": "None", "instagram": "None", "facebook": "None", "youtube": "None", "website": "None", "summary": "None", "logo": "None", "latitude": 51.5306764246367, "longitude": -107.23731016398128}, "119140374RR0001": {"name": "SASKATCHEWAN RIVER VALLEY MUSEUM INC.", "designationCode": "C", "categoryCode": "50", "address": "PO BOX 630", "city": "HAGUE", "province": "SK", "country": "CA", "postalCode": "S0K1X0", "twitter": "None", "instagram": "None", "facebook": "None", "youtube": "None", "website": "None", "summary": "None", "logo": "None", "latitude": 52.50953000000004, "longitude": -106.41138999999998}, "119140382RR0001": {"name": "SASKATCHEWAN SAFETY COUNCIL", "designationCode": "C", "categoryCode": "59", "address": "445 HOFFER DRIVE", "city": "REGINA", "province": "SK", "country": "CA", "postalCode": "S4N6E2", "twitter": "None", "instagram": "None", "facebook": "None", "youtube": "None", "website": "None", "summary": "None", "logo": "None", "latitude": 50.473151748542904, "longitude": -104.58378079929624}, "107956310RR0001": {"name": "SASKATCHEWAN SCIENCE CENTRE INC.", "designationCode": "C", "categoryCode": "21", "address": "2903 POWERHOUSE DRIVE", "city": "REGINA", "province": "SK", "country": "CA", "postalCode": "S4N0A1", "twitter": "None", "instagram": "None", "facebook": "None", "youtube": "None", "website": "None", "summary": "None", "logo": "None", "latitude": 50.432731426866965, "longitude": -104.59520204097541}, "891063745RR0001": {"name": "SASKATCHEWAN SCOUTING FOUNDATION INC.", "designationCode": "A", "categoryCode": "23", "address": "1071 AUTUMNWOOD DR", "city": "WINNIPEG", "province": "MB", "country": "CA", "postalCode": "R2J1C6", "twitter": "None", "instagram": "None", "facebook": "None", "youtube": "None", "website": "None", "summary": "None", "logo": "None", "latitude": 49.862142095522024, "longitude": -97.0782054836305}, "120562194RR0001": {"name": "SASKATCHEWAN SENIOR FITNESS ASSOCIATION INC", "designationCode": "C", "categoryCode": "56", "address": "22 HOOPER BAY", "city": "REGINA", "province": "SK", "country": "CA", "postalCode": "S4N4V9", "twitter": "None", "instagram": "None", "facebook": "None", "youtube": "None", "website": "None", "summary": "None", "logo": "None", "latitude": 50.45259352596791, "longitude": -104.54173102553523}, "119140424RR0001": {"name": "SASKATCHEWAN SENIORS ASSOCIATION KINDERSLEY BRANCH # 30 INCORPORATED", "designationCode": "C", "categoryCode": "09", "address": "PO BOX 791", "city": "KINDERSLEY", "province": "SK", "country": "CA", "postalCode": "S0L1S0", "twitter": "None", "instagram": "None", "facebook": "None", "youtube": "None", "website": "None", "summary": "None", "logo": "None", "latitude": 51.46791900000005, "longitude": -109.15522999999993}, "897431169RR0001": {"name": "SASKATCHEWAN SENIORS MECHANISM CHARITABLE TRUST INC.", "designationCode": "C", "categoryCode": "09", "address": "112-2001 CORNWALL ST", "city": "REGINA", "province": "SK", "country": "CA", "postalCode": "S4P3X9", "twitter": "None", "instagram": "None", "facebook": "None", "youtube": "None", "website": "None", "summary": "None", "logo": "None", "latitude": 50.44703851304073, "longitude": -104.61218644999735}, "119140440RR0001": {"name": "SASKATCHEWAN SOCIETY FOR THE PREVENTION OF CRUELTY TO ANIMALS", "designationCode": "C", "categoryCode": "54", "address": "PO BOX 37 STN MAIN", "city": "SASKATOON", "province": "SK", "country": "CA", "postalCode": "S7K3K1", "twitter": "None", "instagram": "None", "facebook": "None", "youtube": "None", "website": "None", "summary": "None", "logo": "None", "latitude": 52.13049000000005, "longitude": -106.65926449999994}}