{"118849470RR0021": {"name": "ST. PETER'S PARISH", "designationCode": "C", "categoryCode": "38", "address": "330 ROYAL AVE", "city": "NEW WESTMINSTER", "province": "BC", "country": "CA", "postalCode": "V3L1H8", "twitter": "None", "instagram": "None", "facebook": "None", "youtube": "None", "website": "None", "summary": "None", "logo": "None", "latitude": 49.20719808823379, "longitude": -122.90808745389256}, "119109817RR0095": {"name": "ST. PETER'S PARISH", "designationCode": "C", "categoryCode": "38", "address": "P.O. BOX 81", "city": "ZURICH", "province": "ON", "country": "CA", "postalCode": "N0M2T0", "twitter": "None", "instagram": "None", "facebook": "None", "youtube": "None", "website": "None", "summary": "None", "logo": "None", "latitude": 37.181580000000054, "longitude": -118.26139999999998}, "119110450RR0114": {"name": "ST. PETER'S PARISH", "designationCode": "C", "categoryCode": "38", "address": "PO BOX  513", "city": "MARKDALE", "province": "ON", "country": "CA", "postalCode": "N0C1H0", "twitter": "None", "instagram": "None", "facebook": "None", "youtube": "None", "website": "None", "summary": "None", "logo": "None", "latitude": 44.31914000000006, "longitude": -80.64888999999994}, "119122786RR0004": {"name": "ST. PETER'S PARISH", "designationCode": "C", "categoryCode": "39", "address": "6500 SOUTHRIDGE AVE", "city": "PRINCE GEORGE", "province": "BC", "country": "CA", "postalCode": "V2N5P9", "twitter": "None", "instagram": "None", "facebook": "None", "youtube": "None", "website": "None", "summary": "None", "logo": "None", "latitude": 53.86420563941114, "longitude": -122.78374828519728}, "889487179RR0001": {"name": "ST. PETER'S PARISH LUMSDEN SASKATCHEWAN", "designationCode": "C", "categoryCode": "38", "address": "P.O. BOX 746", "city": "LUMSDEN", "province": "SK", "country": "CA", "postalCode": "S0G3C0", "twitter": "None", "instagram": "None", "facebook": "None", "youtube": "None", "website": "None", "summary": "None", "logo": "None", "latitude": 50.64512000000008, "longitude": -104.86806999999999}, "119109817RR0110": {"name": "ST. PETER'S PARISH TILBURY", "designationCode": "C", "categoryCode": "38", "address": "5425 TECUMSEH LINE            BOX 7", "city": "TILBURY", "province": "ON", "country": "CA", "postalCode": "N0P2L0", "twitter": "None", "instagram": "None", "facebook": "None", "youtube": "None", "website": "None", "summary": "None", "logo": "None", "latitude": 42.339349277829044, "longitude": -82.36213752582368}, "106880107RR0073": {"name": "ST. PETER'S PARISH, INGONISH BEACH", "designationCode": "C", "categoryCode": "38", "address": "P.O. BOX 21", "city": "INGONISH BEACH", "province": "NS", "country": "CA", "postalCode": "B0C1L0", "twitter": "None", "instagram": "None", "facebook": "None", "youtube": "None", "website": "None", "summary": "None", "logo": "None", "latitude": 46.647260000000074, "longitude": -60.391719999999964}, "106880107RR0086": {"name": "ST. PETER'S PARISH, MONASTERY", "designationCode": "C", "categoryCode": "38", "address": "RR1", "city": "MONASTERY TRACADIE", "province": "NS", "country": "CA", "postalCode": "B0H1W0", "twitter": "None", "instagram": "None", "facebook": "None", "youtube": "None", "website": "None", "summary": "None", "logo": "None", "latitude": 45.60697500000006, "longitude": -61.61470999999993}, "106880107RR0074": {"name": "ST. PETER'S PARISH, ST. PETERS", "designationCode": "C", "categoryCode": "38", "address": "P.O.130", "city": "ST. PETERS", "province": "NS", "country": "CA", "postalCode": "B0E3B0", "twitter": "None", "instagram": "None", "facebook": "None", "youtube": "None", "website": "None", "summary": "None", "logo": "None", "latitude": 45.691080000000056, "longitude": -60.747042499999935}, "108039272RR0001": {"name": "ST. PETER'S PRESBYTERIAN CHURCH", "designationCode": "C", "categoryCode": "37", "address": "BOX 443                       MADOC POST OFFICE", "city": "MADOC", "province": "ON", "country": "CA", "postalCode": "K0K2K0", "twitter": "None", "instagram": "None", "facebook": "None", "youtube": "None", "website": "None", "summary": "None", "logo": "None", "latitude": 44.506470000000036, "longitude": -77.47138999999999}, "818996910RR0001": {"name": "ST. PETER'S ROMAN CATHOLIC PARISH (BORDEN-CARLETON) INC.", "designationCode": "C", "categoryCode": "38", "address": "PO BOX 128", "city": "KINKORA", "province": "PE", "country": "CA", "postalCode": "C0B1N0", "twitter": "None", "instagram": "None", "facebook": "None", "youtube": "None", "website": "None", "summary": "None", "logo": "None", "latitude": 46.32277000000005, "longitude": -63.60273999999998}, "817128713RR0001": {"name": "ST. PETER'S ROMAN CATHOLIC PARISH (ST. PETER'S BAY) INC.", "designationCode": "C", "categoryCode": "38", "address": "PO BOX 51", "city": "ST-PETERS BAY", "province": "PE", "country": "CA", "postalCode": "C0A2A0", "twitter": "None", "instagram": "None", "facebook": "None", "youtube": "None", "website": "None", "summary": "None", "logo": "None", "latitude": 46.387158000000056, "longitude": -62.51069599999994}, "888179702RR0001": {"name": "ST. PETER'S SEMINARY FOUNDATION", "designationCode": "A", "categoryCode": "03", "address": "1040 WATERLOO ST. NORTH", "city": "LONDON", "province": "ON", "country": "CA", "postalCode": "N6A3Y1", "twitter": "None", "instagram": "None", "facebook": "None", "youtube": "None", "website": "None", "summary": "None", "logo": "None", "latitude": 43.010288943392744, "longitude": -81.25502440431382}, "848810941RR0001": {"name": "ST. PETER'S SYRIAC ORTHODOX CHURCH OF CANADA", "designationCode": "C", "categoryCode": "39", "address": "2316 CLIFF ROAD", "city": "MISSISSAUGA", "province": "ON", "country": "CA", "postalCode": "L5A2N9", "twitter": "None", "instagram": "None", "facebook": "None", "youtube": "None", "website": "None", "summary": "None", "logo": "None", "latitude": 43.58164598583309, "longitude": -79.59999430601864}, "106713753RR0018": {"name": "ST. PETERS ANGLICAN CHURCH, MONTE CREEK, B.C.", "designationCode": "C", "categoryCode": "30", "address": "11-1555 SUMMIT DRIVE", "city": "KAMLOOPS", "province": "BC", "country": "CA", "postalCode": "V2E1E9", "twitter": "None", "instagram": "None", "facebook": "None", "youtube": "None", "website": "None", "summary": "None", "logo": "None", "latitude": 50.65908483265039, "longitude": -120.3395428988114}, "107585085RR0030": {"name": "ST. PETERS PARISH, MISTATIM, SK", "designationCode": "C", "categoryCode": "38", "address": "BOX 111", "city": "MISTATIM", "province": "SK", "country": "CA", "postalCode": "S0E1B0", "twitter": "None", "instagram": "None", "facebook": "None", "youtube": "None", "website": "None", "summary": "None", "logo": "None", "latitude": 52.86672000000004, "longitude": -103.36765999999994}, "119110443RR0008": {"name": "ST. PHILIP NERI CHURCH", "designationCode": "C", "categoryCode": "38", "address": "280 KING STREET", "city": "TOLEDO", "province": "ON", "country": "CA", "postalCode": "K0E1Y0", "twitter": "None", "instagram": "None", "facebook": "None", "youtube": "None", "website": "None", "summary": "None", "logo": "None", "latitude": 44.70866428838927, "longitude": -75.51573927396255}, "119109833RR0051": {"name": "ST. PHILIP NERI MISSION", "designationCode": "C", "categoryCode": "38", "address": "PO BOX 325", "city": "MUSQUODOBOIT HARBOUR", "province": "NS", "country": "CA", "postalCode": "B0J2L0", "twitter": "None", "instagram": "None", "facebook": "None", "youtube": "None", "website": "None", "summary": "None", "logo": "None", "latitude": 44.786579926712626, "longitude": -63.14877998110121}, "107307191RR0011": {"name": "ST. PHILIP NERI PARISH", "designationCode": "C", "categoryCode": "38", "address": "1902 MUNROE AVE.", "city": "SASKATOON", "province": "SK", "country": "CA", "postalCode": "S7J1R8", "twitter": "None", "instagram": "None", "facebook": "None", "youtube": "None", "website": "None", "summary": "None", "logo": "None", "latitude": 52.10689441326679, "longitude": -106.64120619501962}, "119109817RR0020": {"name": "ST. PHILIP PARISH", "designationCode": "C", "categoryCode": "38", "address": "415 KING ST", "city": "PETROLIA", "province": "ON", "country": "CA", "postalCode": "N0N1R0", "twitter": "None", "instagram": "None", "facebook": "None", "youtube": "None", "website": "None", "summary": "None", "logo": "None", "latitude": 42.881229670552244, "longitude": -82.14946848268774}, "108039439RR0002": {"name": "ST. PHILIP'S ANGLICAN CHURCH", "designationCode": "C", "categoryCode": "30", "address": "9843 - 105 STREET", "city": "WESTLOCK", "province": "AB", "country": "CA", "postalCode": "T7P1S8", "twitter": "None", "instagram": "None", "facebook": "None", "youtube": "None", "website": "None", "summary": "None", "logo": "None", "latitude": 54.15301214458434, "longitude": -113.86328318968218}, "118787142RR0008": {"name": "ST. PHILIP'S BY-THE-SEA ANGLICAN CHURCH", "designationCode": "C", "categoryCode": "30", "address": "7113 LANTZVILLE ROAD", "city": "LANTZVILLE", "province": "BC", "country": "CA", "postalCode": "V0R2H0", "twitter": "None", "instagram": "None", "facebook": "None", "youtube": "None", "website": "None", "summary": "None", "logo": "None", "latitude": 49.246749627240206, "longitude": -124.07261085520197}, "118787142RR0024": {"name": "ST. PHILIP'S CHURCH", "designationCode": "C", "categoryCode": "30", "address": "2928 EASTDOWNE RD", "city": "VICTORIA", "province": "BC", "country": "CA", "postalCode": "V8R5R8", "twitter": "None", "instagram": "None", "facebook": "None", "youtube": "None", "website": "None", "summary": "None", "logo": "None", "latitude": 48.44193233971952, "longitude": -123.314481008627}, "108039520RR0001": {"name": "ST. PHILIP'S EVANGELICAL LUTHERAN CHURCH", "designationCode": "C", "categoryCode": "32", "address": "61 WEST DEANE PARK DR", "city": "ETOBICOKE", "province": "ON", "country": "CA", "postalCode": "M9B2S1", "twitter": "None", "instagram": "None", "facebook": "None", "youtube": "None", "website": "None", "summary": "None", "logo": "None", "latitude": 43.658374674966986, "longitude": -79.56398569833785}, "820190742RR0001": {"name": "ST. PHILIP'S LUTHERAN CHURCH", "designationCode": "C", "categoryCode": "32", "address": "236 WOODHAVEN ROAD", "city": "KITCHENER", "province": "ON", "country": "CA", "postalCode": "N2C1V5", "twitter": "None", "instagram": "None", "facebook": "None", "youtube": "None", "website": "None", "summary": "None", "logo": "None", "latitude": 43.42405911466303, "longitude": -80.45475422078597}, "119110450RR0118": {"name": "ST. PHILIPPE PARISH", "designationCode": "C", "categoryCode": "38", "address": "899 FRANCIS ROAD", "city": "BURLINGTON", "province": "ON", "country": "CA", "postalCode": "L7T3Y3", "twitter": "None", "instagram": "None", "facebook": "None", "youtube": "None", "website": "None", "summary": "None", "logo": "None", "latitude": 43.322444179611935, "longitude": -79.82535489309859}, "118988658RR0001": {"name": "ST. PHILIPPHE MINH PARISH", "designationCode": "C", "categoryCode": "38", "address": "615 LAFLECHE ST", "city": "WINNIPEG", "province": "MB", "country": "CA", "postalCode": "R2J0C9", "twitter": "None", "instagram": "None", "facebook": "None", "youtube": "None", "website": "None", "summary": "None", "logo": "None", "latitude": 49.89423942685678, "longitude": -97.1069763365742}, "118787142RR0003": {"name": "ST. PHILIPS ANGLICAN CHURCH, Cedar", "designationCode": "C", "categoryCode": "30", "address": "1797 CEDAR ROAD", "city": "NANAIMO", "province": "BC", "country": "CA", "postalCode": "V9X1L6", "twitter": "None", "instagram": "None", "facebook": "None", "youtube": "None", "website": "None", "summary": "None", "logo": "None", "latitude": 49.108876803382, "longitude": -123.8653236285018}, "119110443RR0023": {"name": "ST. PHILOMENAS CHURCH", "designationCode": "C", "categoryCode": "38", "address": "270 STONE STREET S.", "city": "GANANOQUE", "province": "ON", "country": "CA", "postalCode": "K7G2A1", "twitter": "None", "instagram": "None", "facebook": "None", "youtube": "None", "website": "None", "summary": "None", "logo": "None", "latitude": 44.32773441072022, "longitude": -76.16032586705923}, "119110385RR0004": {"name": "ST. PIUS V PARISH", "designationCode": "C", "categoryCode": "38", "address": "PO BOX 310", "city": "COBDEN", "province": "ON", "country": "CA", "postalCode": "K0J1K0", "twitter": "None", "instagram": "None", "facebook": "None", "youtube": "None", "website": "None", "summary": "None", "logo": "None", "latitude": 45.58931694899529, "longitude": -76.94864445565497}, "107876476RR0020": {"name": "ST. PIUS X CHURCH", "designationCode": "C", "categoryCode": "38", "address": "P.O. BOX 910                  78 BALSAM ST", "city": "COPPER CLIFF", "province": "ON", "country": "CA", "postalCode": "P0M1N0", "twitter": "None", "instagram": "None", "facebook": "None", "youtube": "None", "website": "None", "summary": "None", "logo": "None", "latitude": 46.469887773289116, "longitude": -81.06394731559944}, "107909939RR0063": {"name": "ST. PIUS X CHURCH", "designationCode": "C", "categoryCode": "38", "address": "2424-24 AVENUE N.W.", "city": "CALGARY", "province": "AB", "country": "CA", "postalCode": "T2M2A2", "twitter": "None", "instagram": "None", "facebook": "None", "youtube": "None", "website": "None", "summary": "None", "logo": "None", "latitude": 51.074271511541184, "longitude": -114.11626113918865}, "107020331RR0006": {"name": "ST. PIUS X PARISH", "designationCode": "C", "categoryCode": "38", "address": "316 SOMERSET STREET", "city": "SAINT JOHN", "province": "NB", "country": "CA", "postalCode": "E2K2Y4", "twitter": "None", "instagram": "None", "facebook": "None", "youtube": "None", "website": "None", "summary": "None", "logo": "None", "latitude": 45.285546425212004, "longitude": -66.07583230001738}, "107910176RR0041": {"name": "ST. PIUS X PARISH", "designationCode": "C", "categoryCode": "38", "address": "PO BOX 1363", "city": "ST JOHN'S", "province": "NL", "country": "CA", "postalCode": "A1C5N5", "twitter": "None", "instagram": "None", "facebook": "None", "youtube": "None", "website": "None", "summary": "None", "logo": "None", "latitude": 47.56082100000006, "longitude": -52.71219349999993}, "108094392RR0021": {"name": "ST. PIUS X PARISH", "designationCode": "C", "categoryCode": "38", "address": "1077 FULLER AVENUE", "city": "KELOWNA", "province": "BC", "country": "CA", "postalCode": "V1Y6X6", "twitter": "None", "instagram": "None", "facebook": "None", "youtube": "None", "website": "None", "summary": "None", "logo": "None", "latitude": 49.89022446047074, "longitude": -119.47761063918864}, "118849470RR0065": {"name": "ST. PIUS X PARISH", "designationCode": "C", "categoryCode": "38", "address": "1150 MT SEYMOUR RD", "city": "NORTH VANCOUVER", "province": "BC", "country": "CA", "postalCode": "V7G2M1", "twitter": "None", "instagram": "None", "facebook": "None", "youtube": "None", "website": "None", "summary": "None", "logo": "None", "latitude": 49.31747952844941, "longitude": -122.96894089774446}, "119110450RR0126": {"name": "ST. PIUS X PARISH", "designationCode": "C", "categoryCode": "38", "address": "9 WAVERLY DRIVE", "city": "BRANTFORD", "province": "ON", "country": "CA", "postalCode": "N3R2K2", "twitter": "None", "instagram": "None", "facebook": "None", "youtube": "None", "website": "None", "summary": "None", "logo": "None", "latitude": 43.16402037665171, "longitude": -80.27136586678397}, "818667917RR0001": {"name": "ST. PIUS X ROMAN CATHOLIC PARISH INC.", "designationCode": "C", "categoryCode": "38", "address": "106 ST PETERS RD", "city": "PARKDALE", "province": "PE", "country": "CA", "postalCode": "C1A5P2", "twitter": "None", "instagram": "None", "facebook": "None", "youtube": "None", "website": "None", "summary": "None", "logo": "None", "latitude": 46.25352002109182, "longitude": -63.12099467594794}, "837838549RR0001": {"name": "ST. RAPHAEL NIKOLAOS & IRENE GREEK EASTERN ORTHODOX CHURCH", "designationCode": "C", "categoryCode": "39", "address": "230 GLEBEMOUNT AVE", "city": "EAST YORK", "province": "ON", "country": "CA", "postalCode": "M4C3T4", "twitter": "None", "instagram": "None", "facebook": "None", "youtube": "None", "website": "None", "summary": "None", "logo": "None", "latitude": 43.69285001664842, "longitude": -79.32127276660496}, "863280517RR0001": {"name": "ST. RAPHAEL WELLNESS CENTRE FOUNDATION INC.", "designationCode": "A", "categoryCode": "03", "address": "225 VAUGHAN ST 2 FLOOR", "city": "WINNIPEG", "province": "MB", "country": "CA", "postalCode": "R3C1T7", "twitter": "None", "instagram": "None", "facebook": "None", "youtube": "None", "website": "None", "summary": "None", "logo": "None", "latitude": 49.8898819483813, "longitude": -97.14869966691691}, "899911531RR0001": {"name": "ST. RAPHAEL WELLNESS CENTRE INC.", "designationCode": "C", "categoryCode": "49", "address": "2-225 VAUGHAN ST", "city": "WINNIPEG", "province": "MB", "country": "CA", "postalCode": "R3C1T7", "twitter": "None", "instagram": "None", "facebook": "None", "youtube": "None", "website": "None", "summary": "None", "logo": "None", "latitude": 49.889664030559366, "longitude": -97.14862031814134}, "107020331RR0023": {"name": "ST. RAPHAEL'S PARISH", "designationCode": "C", "categoryCode": "38", "address": "107 MAIN STREET", "city": "BLACKVILLE", "province": "NB", "country": "CA", "postalCode": "E9B1N7", "twitter": "None", "instagram": "None", "facebook": "None", "youtube": "None", "website": "None", "summary": "None", "logo": "None", "latitude": 46.73158954051725, "longitude": -65.83015582437054}, "119110450RR0119": {"name": "ST. RAPHAEL'S PARISH", "designationCode": "C", "categoryCode": "38", "address": "4072 NEW STREET", "city": "BURLINGTON", "province": "ON", "country": "CA", "postalCode": "L7L1S9", "twitter": "None", "instagram": "None", "facebook": "None", "youtube": "None", "website": "None", "summary": "None", "logo": "None", "latitude": 43.35508094139909, "longitude": -79.76699296981982}, "119122778RR0011": {"name": "ST. RAPHAEL'S PARISH", "designationCode": "C", "categoryCode": "38", "address": "ST. RAPHAELS                  19998 COUNTY ROAD 18, RR 2", "city": "WILLIAMSTOWN", "province": "ON", "country": "CA", "postalCode": "K0C2J0", "twitter": "None", "instagram": "None", "facebook": "None", "youtube": "None", "website": "None", "summary": "None", "logo": "None", "latitude": 45.15384300000005, "longitude": -74.64727699999993}, "107585085RR0027": {"name": "ST. RITA PARISH, MEDSTEAD, SK", "designationCode": "C", "categoryCode": "38", "address": "BOX 901", "city": "SPIRITWOOD", "province": "SK", "country": "CA", "postalCode": "S0J2M0", "twitter": "None", "instagram": "None", "facebook": "None", "youtube": "None", "website": "None", "summary": "None", "logo": "None", "latitude": 53.366550000000075, "longitude": -107.51787999999999}, "107909939RR0070": {"name": "ST. RITA'S CHURCH", "designationCode": "C", "categoryCode": "38", "address": "406 SERVICEBERRY TRAIL", "city": "ROCKYFORD", "province": "AB", "country": "CA", "postalCode": "T0J2R0", "twitter": "None", "instagram": "None", "facebook": "None", "youtube": "None", "website": "None", "summary": "None", "logo": "None", "latitude": 51.23535638044939, "longitude": -113.14455402163307}, "108094392RR0008": {"name": "ST. RITA'S PARISH", "designationCode": "C", "categoryCode": "38", "address": "513 7 AVENUE", "city": "CASTLEGAR", "province": "BC", "country": "CA", "postalCode": "V1N1R3", "twitter": "None", "instagram": "None", "facebook": "None", "youtube": "None", "website": "None", "summary": "None", "logo": "None", "latitude": 49.32412394831687, "longitude": -117.65948462676323}, "108094392RR0014": {"name": "ST. RITA'S PARISH", "designationCode": "C", "categoryCode": "38", "address": "40 EASTVIEW ST, BOX 40", "city": "FRUITVALE", "province": "BC", "country": "CA", "postalCode": "V0G1L0", "twitter": "None", "instagram": "None", "facebook": "None", "youtube": "None", "website": "None", "summary": "None", "logo": "None", "latitude": 49.11618662500598, "longitude": -117.54407175656733}, "119109833RR0003": {"name": "ST. ROSE OF LIMA CHURCH", "designationCode": "C", "categoryCode": "38", "address": "9 JAMIESON DR", "city": "FALL RIVER", "province": "NS", "country": "CA", "postalCode": "B2T1E5", "twitter": "None", "instagram": "None", "facebook": "None", "youtube": "None", "website": "None", "summary": "None", "logo": "None", "latitude": 44.814867231230664, "longitude": -63.617718557995346}, "107020331RR0037": {"name": "ST. ROSE PARISH", "designationCode": "C", "categoryCode": "38", "address": "541 MILFORD ROAD", "city": "SAINT JOHN", "province": "NB", "country": "CA", "postalCode": "E2M4R5", "twitter": "None", "instagram": "None", "facebook": "None", "youtube": "None", "website": "None", "summary": "None", "logo": "None", "latitude": 45.262014160972974, "longitude": -66.10541226198868}, "848902763RR0001": {"name": "ST. SAMUEL THE CONFESSOR COPTIC ORTHODOX CHURCH", "designationCode": "C", "categoryCode": "39", "address": "303 - 7321 VICTORIA PARK AVE", "city": "MARKHAM", "province": "ON", "country": "CA", "postalCode": "L3R2Z8", "twitter": "None", "instagram": "None", "facebook": "None", "youtube": "None", "website": "None", "summary": "None", "logo": "None", "latitude": 43.820313766056714, "longitude": -79.34397600187593}, "107020331RR0010": {"name": "ST. SAMUEL'S PARISH", "designationCode": "C", "categoryCode": "38", "address": "33 ST. SAMUEL ST.", "city": "MIRAMICHI", "province": "NB", "country": "CA", "postalCode": "E1V5T7", "twitter": "None", "instagram": "None", "facebook": "None", "youtube": "None", "website": "None", "summary": "None", "logo": "None", "latitude": 47.02354698721727, "longitude": -65.51050965392594}, "108041518RR0001": {"name": "ST. SAVA SERBIAN EASTERN ORTHODOX CHURCH", "designationCode": "C", "categoryCode": "39", "address": "5567 WONDERLAND RD SOUTH", "city": "LONDON", "province": "ON", "country": "CA", "postalCode": "N6P1N8", "twitter": "None", "instagram": "None", "facebook": "None", "youtube": "None", "website": "None", "summary": "None", "logo": "None", "latitude": 42.88229885954194, "longitude": -81.26167420713773}, "107968042RR0001": {"name": "ST. SAVA SERBIAN EASTERN ORTHODOX CHURCH-SCHOOL CONGREGATION AND COMMUNITY OF B.C.", "designationCode": "C", "categoryCode": "39", "address": "505 E 63RD AVE", "city": "VANCOUVER", "province": "BC", "country": "CA", "postalCode": "V5X2K3", "twitter": "None", "instagram": "None", "facebook": "None", "youtube": "None", "website": "None", "summary": "None", "logo": "None", "latitude": 49.21323643493552, "longitude": -123.09403735775292}, "119200939RR0001": {"name": "ST. SAVIOUR CHURCH", "designationCode": "C", "categoryCode": "38", "address": "1095 - 3I\u00c8 RUE", "city": "VAL D'OR", "province": "QC", "country": "CA", "postalCode": "J9P4A9", "twitter": "None", "instagram": "None", "facebook": "None", "youtube": "None", "website": "None", "summary": "None", "logo": "None", "latitude": 48.10379100000006, "longitude": -77.79715999999993}, "108099771RR0113": {"name": "ST. SAVIOUR QUEENSTON THE BROCK MEMORIAL CHURCH", "designationCode": "C", "categoryCode": "30", "address": "BOX 1", "city": "QUEENSTON", "province": "ON", "country": "CA", "postalCode": "L0S1L0", "twitter": "None", "instagram": "None", "facebook": "None", "youtube": "None", "website": "None", "summary": "None", "logo": "None", "latitude": 43.16473931428416, "longitude": -79.14752240703967}, "119200954RR0002": {"name": "ST. SAVIOUR'S ANGLICAN CHURCH", "designationCode": "C", "categoryCode": "30", "address": "5212-51 AVE.", "city": "VERMILION", "province": "AB", "country": "CA", "postalCode": "T9X1V1", "twitter": "None", "instagram": "None", "facebook": "None", "youtube": "None", "website": "None", "summary": "None", "logo": "None", "latitude": 53.354886504327844, "longitude": -110.86012358381903}, "119201002RR0002": {"name": "ST. SAVIOUR'S CHURCH", "designationCode": "C", "categoryCode": "30", "address": "PO BOX 257", "city": "BLIND RIVER", "province": "ON", "country": "CA", "postalCode": "P0R1B0", "twitter": "None", "instagram": "None", "facebook": "None", "youtube": "None", "website": "None", "summary": "None", "logo": "None", "latitude": 46.18674000000004, "longitude": -82.95378999999997}, "108041567RR0002": {"name": "ST. SAVIOURS ANGLICAN CHURCH", "designationCode": "C", "categoryCode": "30", "address": "690 MUNROE AVE", "city": "WINNIPEG", "province": "MB", "country": "CA", "postalCode": "R2K1J2", "twitter": "None", "instagram": "None", "facebook": "None", "youtube": "None", "website": "None", "summary": "None", "logo": "None", "latitude": 49.913279100727266, "longitude": -97.08464030878861}, "869711119RR0001": {"name": "ST. SERAPHIM OF SAROV ORTHODOX PARISH OF TORONTO", "designationCode": "C", "categoryCode": "39", "address": "1160 LAURAND STREET", "city": "INNISFIL", "province": "ON", "country": "CA", "postalCode": "L9S4Z7", "twitter": "None", "instagram": "None", "facebook": "None", "youtube": "None", "website": "None", "summary": "None", "logo": "None", "latitude": 44.306863248427334, "longitude": -79.55849479153461}, "867589566RR0001": {"name": "ST. SIMEON'S CHURCH", "designationCode": "C", "categoryCode": "30", "address": "715 RUE MEIKLE", "city": "LACHUTE", "province": "QC", "country": "CA", "postalCode": "J8H1V4", "twitter": "None", "instagram": "None", "facebook": "None", "youtube": "None", "website": "None", "summary": "None", "logo": "None", "latitude": 45.659471300046036, "longitude": -74.32472453733621}, "119109817RR0086": {"name": "ST. SIMON & ST. JUDE", "designationCode": "C", "categoryCode": "38", "address": "PO BOX 130", "city": "BELLE RIVER", "province": "ON", "country": "CA", "postalCode": "N0R1A0", "twitter": "None", "instagram": "None", "facebook": "None", "youtube": "None", "website": "None", "summary": "None", "logo": "None", "latitude": 42.28923300000005, "longitude": -82.71911149999994}, "812265403RR0001": {"name": "ST. SIMON AND ST. JUDE ROMAN CATHOLIC PARISH INC.", "designationCode": "C", "categoryCode": "38", "address": "PO BOX 58", "city": "TIGNISH", "province": "PE", "country": "CA", "postalCode": "C0B2B0", "twitter": "None", "instagram": "None", "facebook": "None", "youtube": "None", "website": "None", "summary": "None", "logo": "None", "latitude": 46.95133000000004, "longitude": -64.03332999999998}, "119201192RR0002": {"name": "ST. SIMON'S & ST. BARTHOLOMEW'S ANGLICAN CHURCH", "designationCode": "C", "categoryCode": "30", "address": "3544 DU SOUVENIR ROAD", "city": "CHOMEDEY", "province": "QC", "country": "CA", "postalCode": "H7V1X2", "twitter": "None", "instagram": "None", "facebook": "None", "youtube": "None", "website": "None", "summary": "None", "logo": "None", "latitude": 45.55093173270256, "longitude": -73.74870471550587}, "108099771RR0087": {"name": "ST. SIMON'S ANGLICAN CHURCH", "designationCode": "C", "categoryCode": "30", "address": "1450 LITCHFIELD RD", "city": "OAKVILLE", "province": "ON", "country": "CA", "postalCode": "L6H5P4", "twitter": "None", "instagram": "None", "facebook": "None", "youtube": "None", "website": "None", "summary": "None", "logo": "None", "latitude": 43.47434311844356, "longitude": -79.69853959051278}, "108041690RR0001": {"name": "ST. SIMON'S CHURCH", "designationCode": "C", "categoryCode": "30", "address": "BOX 490", "city": "LYNN LAKE", "province": "MB", "country": "CA", "postalCode": "R0B0W0", "twitter": "None", "instagram": "None", "facebook": "None", "youtube": "None", "website": "None", "summary": "None", "logo": "None", "latitude": 56.85254000000003, "longitude": -101.04571999999996}, "107585085RR0003": {"name": "ST. SOLANGE ROMAN CATHOLIC CHURCH", "designationCode": "C", "categoryCode": "38", "address": "PO BOX 37", "city": "HAFFORD", "province": "SK", "country": "CA", "postalCode": "S0J1A0", "twitter": "None", "instagram": "None", "facebook": "None", "youtube": "None", "website": "None", "summary": "None", "logo": "None", "latitude": 52.71682000000004, "longitude": -107.35123999999996}, "898292008RR0001": {"name": "ST. SOPHIA UKRAINIAN CATHOLIC PARISH", "designationCode": "C", "categoryCode": "38", "address": "93 MALVERN DRIVE", "city": "SHERWOOD PARK", "province": "AB", "country": "CA", "postalCode": "T8A3S6", "twitter": "None", "instagram": "None", "facebook": "None", "youtube": "None", "website": "None", "summary": "None", "logo": "None", "latitude": 53.539628218420056, "longitude": -113.30856116100162}, "108041724RR0001": {"name": "ST. SOPHIA UKRAINIAN ORTHODOX CHURCH", "designationCode": "C", "categoryCode": "39", "address": "154 KING ST NORTH", "city": "WATERLOO", "province": "ON", "country": "CA", "postalCode": "N2J2Y2", "twitter": "None", "instagram": "None", "facebook": "None", "youtube": "None", "website": "None", "summary": "None", "logo": "None", "latitude": 43.471559755208, "longitude": -80.52396368356533}, "119110450RR0036": {"name": "ST. STANISLAUS PARISH", "designationCode": "C", "categoryCode": "38", "address": "8 ST ANN ST", "city": "HAMILTON", "province": "ON", "country": "CA", "postalCode": "L8L6P8", "twitter": "None", "instagram": "None", "facebook": "None", "youtube": "None", "website": "None", "summary": "None", "logo": "None", "latitude": 43.25551217845811, "longitude": -79.83527970647482}, "107876476RR0013": {"name": "ST. STANISLAUS' CHURCH", "designationCode": "C", "categoryCode": "38", "address": "P.O. BOX 910                  78 BALSAM ST.", "city": "COPPER CLIFF", "province": "ON", "country": "CA", "postalCode": "P0M1N0", "twitter": "None", "instagram": "None", "facebook": "None", "youtube": "None", "website": "None", "summary": "None", "logo": "None", "latitude": 46.469887773289116, "longitude": -81.06394731559944}, "108084658RR0009": {"name": "ST. STEPHEN CHURCH MICKSBURG PARISH OF STAFFORD", "designationCode": "C", "categoryCode": "30", "address": "2204 MICKSBURG RD", "city": "COBDEN", "province": "ON", "country": "CA", "postalCode": "K0J1K0", "twitter": "None", "instagram": "None", "facebook": "None", "youtube": "None", "website": "None", "summary": "None", "logo": "None", "latitude": 45.65891376132486, "longitude": -77.03156018148786}, "119109817RR0122": {"name": "ST. STEPHEN OF HUNGARY HUNGARIAN CATHOLIC COMMUNITY", "designationCode": "C", "categoryCode": "38", "address": "377 OAKLAND AVE", "city": "LONDON", "province": "ON", "country": "CA", "postalCode": "N5W5R4", "twitter": "None", "instagram": "None", "facebook": "None", "youtube": "None", "website": "None", "summary": "None", "logo": "None", "latitude": 42.99526959310985, "longitude": -81.20623068653686}, "108042334RR0001": {"name": "ST. STEPHEN PROTOMARTYR UKRAINIAN CATHOLIC CHURCH", "designationCode": "C", "categoryCode": "38", "address": "4903-45TH STREET S.W.", "city": "CALGARY", "province": "AB", "country": "CA", "postalCode": "T3E3W5", "twitter": "None", "instagram": "None", "facebook": "None", "youtube": "None", "website": "None", "summary": "None", "logo": "None", "latitude": 51.011225077990645, "longitude": -114.15284615918395}, "108042383RR0001": {"name": "ST. STEPHEN UNITED CHURCH", "designationCode": "C", "categoryCode": "44", "address": "2258 PARKWAY DR", "city": "BURLINGTON", "province": "ON", "country": "CA", "postalCode": "L7P1T1", "twitter": "None", "instagram": "None", "facebook": "None", "youtube": "None", "website": "None", "summary": "None", "logo": "None", "latitude": 43.355809301662156, "longitude": -79.82461476057503}, "108042003RR0002": {"name": "ST. STEPHEN'S ANGLICAN CHURCH", "designationCode": "C", "categoryCode": "30", "address": "220 HELMSDALE AVE", "city": "WINNIPEG", "province": "MB", "country": "CA", "postalCode": "R2K0V9", "twitter": "None", "instagram": "None", "facebook": "None", "youtube": "None", "website": "None", "summary": "None", "logo": "None", "latitude": 49.92805110794061, "longitude": -97.10218118792183}, "108084658RR0090": {"name": "ST. STEPHEN'S ANGLICAN CHURCH", "designationCode": "C", "categoryCode": "30", "address": "930 WATSON ST", "city": "OTTAWA", "province": "ON", "country": "CA", "postalCode": "K2B6B9", "twitter": "None", "instagram": "None", "facebook": "None", "youtube": "None", "website": "None", "summary": "None", "logo": "None", "latitude": 45.354599162906204, "longitude": -75.79394150366399}, "106712805RR0001": {"name": "ST. STEPHEN'S ANGLICAN CHURCH, MERRILL", "designationCode": "C", "categoryCode": "30", "address": "BOX 101 RR3 LCD MAIN", "city": "SASKATOON", "province": "SK", "country": "CA", "postalCode": "S7K3J6", "twitter": "None", "instagram": "None", "facebook": "None", "youtube": "None", "website": "None", "summary": "None", "logo": "None", "latitude": 52.11669599999999, "longitude": -106.65016382680628}, "108042011RR0001": {"name": "ST. STEPHEN'S CHURCH", "designationCode": "C", "categoryCode": "30", "address": "10 GROSVENOR CRESCENT", "city": "SASKATOON", "province": "SK", "country": "CA", "postalCode": "S7J2S2", "twitter": "None", "instagram": "None", "facebook": "None", "youtube": "None", "website": "None", "summary": "None", "logo": "None", "latitude": 52.10689541909517, "longitude": -106.62611620223298}, "108099771RR0009": {"name": "ST. STEPHEN'S CHURCH", "designationCode": "C", "categoryCode": "30", "address": "14946 STEELES AVE.", "city": "HORNBY", "province": "ON", "country": "CA", "postalCode": "L0P1E0", "twitter": "None", "instagram": "None", "facebook": "None", "youtube": "None", "website": "None", "summary": "None", "logo": "None", "latitude": 43.58597382209016, "longitude": -79.82184251151253}, "119109791RR0037": {"name": "ST. STEPHEN'S CHURCH", "designationCode": "C", "categoryCode": "38", "address": "P.O. BOX 10", "city": "CAYUGA", "province": "ON", "country": "CA", "postalCode": "N0A1E0", "twitter": "None", "instagram": "None", "facebook": "None", "youtube": "None", "website": "None", "summary": "None", "logo": "None", "latitude": 43.05211602453395, "longitude": -80.02801470351909}, "869979849RR0001": {"name": "ST. STEPHEN'S CHURCH", "designationCode": "C", "categoryCode": "30", "address": "1 WEREDALE PARK", "city": "WESTMOUNT", "province": "QC", "country": "CA", "postalCode": "H3Z1Y5", "twitter": "None", "instagram": "None", "facebook": "None", "youtube": "None", "website": "None", "summary": "None", "logo": "None", "latitude": 45.48760555121468, "longitude": -73.58338994489019}, "108084658RR0043": {"name": "ST. STEPHEN'S CHURCH (KAZABAZUA)", "designationCode": "C", "categoryCode": "30", "address": "3 ST. PIERRE", "city": "KAZABAZUA", "province": "QC", "country": "CA", "postalCode": "J0X1X0", "twitter": "None", "instagram": "None", "facebook": "None", "youtube": "None", "website": "None", "summary": "None", "logo": "None", "latitude": 45.9519291931733, "longitude": -76.01536305652346}, "108042417RR0001": {"name": "ST. STEPHEN'S COLLEGE", "designationCode": "C", "categoryCode": "20", "address": "8810 112 ST NW", "city": "EDMONTON", "province": "AB", "country": "CA", "postalCode": "T6G2J6", "twitter": "None", "instagram": "None", "facebook": "None", "youtube": "None", "website": "None", "summary": "None", "logo": "None", "latitude": 53.52445631066071, "longitude": -113.52081121680854}, "119201960RR0001": {"name": "ST. STEPHEN'S COMMUNITY HOUSE", "designationCode": "C", "categoryCode": "09", "address": "91 BELLEVUE AVE", "city": "TORONTO", "province": "ON", "country": "CA", "postalCode": "M5T2N8", "twitter": "None", "instagram": "None", "facebook": "None", "youtube": "None", "website": "None", "summary": "None", "logo": "None", "latitude": 43.65619766778231, "longitude": -79.40408674199338}, "108042151RR0001": {"name": "ST. STEPHEN'S LUTHERAN CHURCH", "designationCode": "C", "categoryCode": "32", "address": "248 HIGHLAND ROAD EAST", "city": "KITCHENER", "province": "ON", "country": "CA", "postalCode": "N2M3W2", "twitter": "None", "instagram": "None", "facebook": "None", "youtube": "None", "website": "None", "summary": "None", "logo": "None", "latitude": 43.43674372107444, "longitude": -80.4914162258932}, "108042177RR0001": {"name": "ST. STEPHEN'S ON THE HILL UNITED CHURCH", "designationCode": "C", "categoryCode": "44", "address": "1248 LAUZON AVE", "city": "SUDBURY", "province": "ON", "country": "CA", "postalCode": "P3A3E1", "twitter": "None", "instagram": "None", "facebook": "None", "youtube": "None", "website": "None", "summary": "None", "logo": "None", "latitude": 46.52397630374636, "longitude": -80.95759709399867}, "107020331RR0057": {"name": "ST. STEPHEN'S PARISH", "designationCode": "C", "categoryCode": "38", "address": "407 MILLTOWN BLVD", "city": "ST-STEPHEN", "province": "NB", "country": "CA", "postalCode": "E3L1J5", "twitter": "None", "instagram": "None", "facebook": "None", "youtube": "None", "website": "None", "summary": "None", "logo": "None", "latitude": 45.17767345048743, "longitude": -67.29519758598248}, "107910192RR0007": {"name": "ST. STEPHEN'S PARISH", "designationCode": "C", "categoryCode": "38", "address": "78 WEST STREET", "city": "STEPHENVILLE", "province": "NL", "country": "CA", "postalCode": "A2N1E4", "twitter": "None", "instagram": "None", "facebook": "None", "youtube": "None", "website": "None", "summary": "None", "logo": "None", "latitude": 48.54540658752172, "longitude": -58.587000101423605}, "118849470RR0066": {"name": "ST. STEPHEN'S PARISH", "designationCode": "C", "categoryCode": "38", "address": "1360 E 24TH ST", "city": "NORTH VANCOUVER", "province": "BC", "country": "CA", "postalCode": "V7J1R5", "twitter": "None", "instagram": "None", "facebook": "None", "youtube": "None", "website": "None", "summary": "None", "logo": "None", "latitude": 49.330455442148875, "longitude": -123.03705146863639}, "108042276RR0001": {"name": "ST. STEPHEN'S PRESBYTERIAN CHURCH", "designationCode": "C", "categoryCode": "37", "address": "3194 WESTON ROAD", "city": "WESTON", "province": "ON", "country": "CA", "postalCode": "M9M2T6", "twitter": "None", "instagram": "None", "facebook": "None", "youtube": "None", "website": "None", "summary": "None", "logo": "None", "latitude": 43.73759463252357, "longitude": -79.53911769654883}, "108042284RR0001": {"name": "ST. STEPHEN'S PRESBYTERIAN CHURCH", "designationCode": "C", "categoryCode": "37", "address": "BOX 255", "city": "CRESTON", "province": "BC", "country": "CA", "postalCode": "V0B1G0", "twitter": "None", "instagram": "None", "facebook": "None", "youtube": "None", "website": "None", "summary": "None", "logo": "None", "latitude": 49.738704000000055, "longitude": -115.87167349999993}, "742914096RR0001": {"name": "ST. STEPHEN'S PRESBYTERIAN CHURCH", "designationCode": "C", "categoryCode": "37", "address": "P. O. BOX 45", "city": "ST. STEPHEN", "province": "NB", "country": "CA", "postalCode": "E3L2W9", "twitter": "None", "instagram": "None", "facebook": "None", "youtube": "None", "website": "None", "summary": "None", "logo": "None", "latitude": 45.19456800000006, "longitude": -67.27532299999993}, "108042300RR0001": {"name": "ST. STEPHEN'S ROMAN CATHOLIC CHURCH", "designationCode": "A", "categoryCode": "38", "address": "BOX 759", "city": "KAMSACK", "province": "SK", "country": "CA", "postalCode": "S0A1S0", "twitter": "None", "instagram": "None", "facebook": "None", "youtube": "None", "website": "None", "summary": "None", "logo": "None", "latitude": 51.63817289172365, "longitude": -101.65758543154911}, "119044154RR0001": {"name": "ST. STEPHEN'S UNITED CHURCH", "designationCode": "C", "categoryCode": "44", "address": "225 BASS RIVER PT RD", "city": "BASS RIVER", "province": "NB", "country": "CA", "postalCode": "E4T1H9", "twitter": "None", "instagram": "None", "facebook": "None", "youtube": "None", "website": "None", "summary": "None", "logo": "None", "latitude": 46.55026326066102, "longitude": -65.09426898860303}, "894980713RR0001": {"name": "ST. STEPHEN'S UNITED CHURCH", "designationCode": "C", "categoryCode": "44", "address": "136 CHARLOTTE STREET", "city": "CHELMSFORD", "province": "ON", "country": "CA", "postalCode": "P0M1L0", "twitter": "None", "instagram": "None", "facebook": "None", "youtube": "None", "website": "None", "summary": "None", "logo": "None", "latitude": 46.5789724565756, "longitude": -81.18960246277935}, "108099771RR0069": {"name": "ST. STEPHEN'S-ON-THE-MOUNT", "designationCode": "C", "categoryCode": "30", "address": "625 CONCESSION STREET", "city": "HAMILTON", "province": "ON", "country": "CA", "postalCode": "L8V1B7", "twitter": "None", "instagram": "None", "facebook": "None", "youtube": "None", "website": "None", "summary": "None", "logo": "None", "latitude": 43.24033066447985, "longitude": -79.84904572586693}, "119110450RR0035": {"name": "ST. STEPHENS ROMAN CATHOLIC CHURCH", "designationCode": "C", "categoryCode": "38", "address": "130 BARTON ST. EAST", "city": "HAMILTON", "province": "ON", "country": "CA", "postalCode": "L8L2W4", "twitter": "None", "instagram": "None", "facebook": "None", "youtube": "None", "website": "None", "summary": "None", "logo": "None", "latitude": 43.262678893127244, "longitude": -79.86021043242536}, "860266576RR0001": {"name": "ST. STEPHENS UNITED CHURCH", "designationCode": "C", "categoryCode": "44", "address": "1616 GOLF CLUB DRIVE", "city": "DELTA", "province": "BC", "country": "CA", "postalCode": "V4M4E6", "twitter": "None", "instagram": "None", "facebook": "None", "youtube": "None", "website": "None", "summary": "None", "logo": "None", "latitude": 49.03261183236194, "longitude": -123.07901161876065}, "107910176RR0015": {"name": "ST. TERESA'S PARISH", "designationCode": "C", "categoryCode": "38", "address": "PO BOX 1363", "city": "ST JOHN'S", "province": "NL", "country": "CA", "postalCode": "A1C5N5", "twitter": "None", "instagram": "None", "facebook": "None", "youtube": "None", "website": "None", "summary": "None", "logo": "None", "latitude": 47.56082100000006, "longitude": -52.71219349999993}}