{"129630786RR0001": {"name": "NAISSANCE-RENAISSANCE DES HAUTES-LAURENTIDES", "designationCode": "C", "categoryCode": "09", "address": "2797 CH ADOLPHE-CHAPLEAU", "city": "MONT-LAURIER", "province": "QC", "country": "CA", "postalCode": "J9L2N7", "twitter": "None", "instagram": "None", "facebook": "None", "youtube": "None", "website": "None", "summary": "None", "logo": "None", "latitude": 46.54821597945643, "longitude": -75.49925352625637}, "141016477RR0001": {"name": "NAISSANCE-RENAISSANCE OUTAOUAIS", "designationCode": "C", "categoryCode": "09", "address": "115 BOUL SACRE-COEUR #5", "city": "GATINEAU", "province": "QC", "country": "CA", "postalCode": "J8X1C5", "twitter": "None", "instagram": "None", "facebook": "None", "youtube": "None", "website": "None", "summary": "None", "logo": "None", "latitude": 45.43728742829908, "longitude": -75.71438591341101}, "108028671RR0001": {"name": "NAK'AL BUN EDUCATION SOCIETY", "designationCode": "C", "categoryCode": "20", "address": "PO BOX 1390", "city": "FORT ST JAMES", "province": "BC", "country": "CA", "postalCode": "V0J1P0", "twitter": "None", "instagram": "None", "facebook": "None", "youtube": "None", "website": "None", "summary": "None", "logo": "None", "latitude": 54.44540000000006, "longitude": -124.25099999999998}, "133955039RR0001": {"name": "NAKAI THEATRE ENSEMBLE", "designationCode": "C", "categoryCode": "22", "address": "#5 WHITEPASS STATION          1109 FRONT STREET", "city": "WHITEHORSE", "province": "YT", "country": "CA", "postalCode": "Y1A5G4", "twitter": "None", "instagram": "None", "facebook": "None", "youtube": "None", "website": "None", "summary": "None", "logo": "None", "latitude": 60.71952510782558, "longitude": -135.0497867237076}, "129434072RR0001": {"name": "NAKILE HOUSING CORPORATION", "designationCode": "C", "categoryCode": "01", "address": "RR1", "city": "GLENWOOD", "province": "NS", "country": "CA", "postalCode": "B0W1W0", "twitter": "None", "instagram": "None", "facebook": "None", "youtube": "None", "website": "None", "summary": "None", "logo": "None", "latitude": 43.793220000000076, "longitude": -65.87775999999997}, "890611221RR0001": {"name": "NAKUSP & DISTRICT MUSEUM SOCIETY", "designationCode": "C", "categoryCode": "50", "address": "P O BOX 584", "city": "NAKUSP", "province": "BC", "country": "CA", "postalCode": "V0G1R0", "twitter": "None", "instagram": "None", "facebook": "None", "youtube": "None", "website": "None", "summary": "None", "logo": "None", "latitude": 50.23888800000006, "longitude": -117.80203399999994}, "859435281RR0001": {"name": "NAKUSP AND AREA COMMUNITY FOUNDATION", "designationCode": "A", "categoryCode": "03", "address": "#1 94 1ST AVENUE, P.O. BOX 15", "city": "NAKUSP", "province": "BC", "country": "CA", "postalCode": "V0G1R0", "twitter": "None", "instagram": "None", "facebook": "None", "youtube": "None", "website": "None", "summary": "None", "logo": "None", "latitude": 49.61807932075858, "longitude": -116.95896006383052}, "119288918RR0391": {"name": "NAKUSP CONGREGATION OF JEHOVAH'S WITNESSES", "designationCode": "C", "categoryCode": "61", "address": "787 CRESCENT BAY RD", "city": "NAKUSP", "province": "BC", "country": "CA", "postalCode": "V0G1R1", "twitter": "None", "instagram": "None", "facebook": "None", "youtube": "None", "website": "None", "summary": "None", "logo": "None", "latitude": 50.21254054284748, "longitude": -117.7643925}, "868877093RR0001": {"name": "NAKUSP HOSPICE SOCIETY", "designationCode": "C", "categoryCode": "01", "address": "BOX 87", "city": "NAKUSP", "province": "BC", "country": "CA", "postalCode": "V0G1R0", "twitter": "None", "instagram": "None", "facebook": "None", "youtube": "None", "website": "None", "summary": "None", "logo": "None", "latitude": 50.23888800000006, "longitude": -117.80203399999994}, "119050441RR0001": {"name": "NAKUSP PUBLIC LIBRARY ASSOCIATION", "designationCode": "C", "categoryCode": "50", "address": "BOX 297", "city": "NAKUSP", "province": "BC", "country": "CA", "postalCode": "V0G1R0", "twitter": "None", "instagram": "None", "facebook": "None", "youtube": "None", "website": "None", "summary": "None", "logo": "None", "latitude": 50.23888800000006, "longitude": -117.80203399999994}, "119050458RR0001": {"name": "NAKUSP SECONDARY SCHOOL SCHOLARSHIP SOCIETY", "designationCode": "C", "categoryCode": "21", "address": "463 SHAKESPEARE RD", "city": "NAKUSP", "province": "BC", "country": "CA", "postalCode": "V0G1R1", "twitter": "None", "instagram": "None", "facebook": "None", "youtube": "None", "website": "None", "summary": "None", "logo": "None", "latitude": 50.24347661676978, "longitude": -117.79026557825411}, "118818491RR0057": {"name": "NAKUSP SEVENTH-DAY ADVENTIST CHURCH", "designationCode": "C", "categoryCode": "41", "address": "PO 1000", "city": "ABBOTSFORD", "province": "BC", "country": "CA", "postalCode": "V2S4P5", "twitter": "None", "instagram": "None", "facebook": "None", "youtube": "None", "website": "None", "summary": "None", "logo": "None", "latitude": 49.03851300000005, "longitude": -122.29441549999993}, "889021978RR0001": {"name": "NAKWAYE KU CHILD CARE SOCIETY", "designationCode": "C", "categoryCode": "01", "address": "PO BOX 2799 STATION MAIN", "city": "WHITEHORSE", "province": "YT", "country": "CA", "postalCode": "Y1A5K4", "twitter": "None", "instagram": "None", "facebook": "None", "youtube": "None", "website": "None", "summary": "None", "logo": "None", "latitude": 60.71897187917898, "longitude": -135.05620969857728}, "865002976RR0001": {"name": "NALANDA COLLEGE OF BUDDHIST STUDIES", "designationCode": "C", "categoryCode": "20", "address": "22 GOLDENE WAY", "city": "TORONTO", "province": "ON", "country": "CA", "postalCode": "M1C5H3", "twitter": "None", "instagram": "None", "facebook": "None", "youtube": "None", "website": "None", "summary": "None", "logo": "None", "latitude": 43.79711442991519, "longitude": -79.17040279643936}, "119050466RR0001": {"name": "NALANDA FOUNDATION", "designationCode": "C", "categoryCode": "20", "address": "601 - 5121 SACKVILLE ST", "city": "HALIFAX", "province": "NS", "country": "CA", "postalCode": "B3J1K1", "twitter": "None", "instagram": "None", "facebook": "None", "youtube": "None", "website": "None", "summary": "None", "logo": "None", "latitude": 44.64683105190717, "longitude": -63.57139841701768}, "886472679RR0001": {"name": "NALANDABODHI FOUNDATION", "designationCode": "C", "categoryCode": "35", "address": "P.O. BOX 2355", "city": "VANCOUVER", "province": "BC", "country": "CA", "postalCode": "V6B3W5", "twitter": "None", "instagram": "None", "facebook": "None", "youtube": "None", "website": "None", "summary": "None", "logo": "None", "latitude": 49.28024400000005, "longitude": -123.11294749999993}, "886147859RR0001": {"name": "NAMAO SENIOR CITIZEN MUSEUM AND ARCHIVE SOCIETY", "designationCode": "C", "categoryCode": "50", "address": "8-24400 HWY 37", "city": "STURGEON COUNTY", "province": "AB", "country": "CA", "postalCode": "T8T0E9", "twitter": "None", "instagram": "None", "facebook": "None", "youtube": "None", "website": "None", "summary": "None", "logo": "None"}, "891081846RR0001": {"name": "NAMAO UNITED CHURCH,", "designationCode": "C", "categoryCode": "44", "address": "12 - 24400 HWY 37", "city": "STURGEON COUNTY", "province": "AB", "country": "CA", "postalCode": "T8T0E9", "twitter": "None", "instagram": "None", "facebook": "None", "youtube": "None", "website": "None", "summary": "None", "logo": "None", "latitude": 53.71623649948066, "longitude": -113.49215350051934}, "134805175RR0001": {"name": "NAMASTE TRANSITION TO COMMUNITY SOCIETY", "designationCode": "C", "categoryCode": "09", "address": "3895 HOLLAND AVE", "city": "VICTORIA", "province": "BC", "country": "CA", "postalCode": "V8Z5K2", "twitter": "None", "instagram": "None", "facebook": "None", "youtube": "None", "website": "None", "summary": "None", "logo": "None", "latitude": 48.47004213334191, "longitude": -123.42246560962525}, "806970935RR0001": {"name": "NAMB Canada", "designationCode": "C", "categoryCode": "31", "address": "408 NORTH SERVICE RD EAST     UNIT 3", "city": "OAKVILLE", "province": "ON", "country": "CA", "postalCode": "L6H5R2", "twitter": "None", "instagram": "None", "facebook": "None", "youtube": "None", "website": "None", "summary": "None", "logo": "None", "latitude": 43.46465680013296, "longitude": -79.68253246214418}, "119050508RR0001": {"name": "NAMDHARI SANGAT CANADA (SOCIETY) ONT.", "designationCode": "C", "categoryCode": "62", "address": "15 BUCKSBURN ROAD", "city": "ETOBICOKE", "province": "ON", "country": "CA", "postalCode": "M9V3V2", "twitter": "None", "instagram": "None", "facebook": "None", "youtube": "None", "website": "None", "summary": "None", "logo": "None", "latitude": 43.74908667750582, "longitude": -79.60107372825914}, "886649276RR0001": {"name": "NAMDHARI SANGAT CANADA SOCIETY (B C )", "designationCode": "C", "categoryCode": "62", "address": "UNIT 18, 12318-84 AVE", "city": "SURREY", "province": "BC", "country": "CA", "postalCode": "V3W0N2", "twitter": "None", "instagram": "None", "facebook": "None", "youtube": "None", "website": "None", "summary": "None", "logo": "None", "latitude": 49.15575651788919, "longitude": -122.88151311226844}, "883817413RR0001": {"name": "NAMDHARI SANGEET SOCIETY", "designationCode": "C", "categoryCode": "22", "address": "36 PECAN DRIVE", "city": "BRAMPTON", "province": "ON", "country": "CA", "postalCode": "L7A3P8", "twitter": "None", "instagram": "None", "facebook": "None", "youtube": "None", "website": "None", "summary": "None", "logo": "None", "latitude": 43.77302395475795, "longitude": -79.71397647726339}, "849019542RR0001": {"name": "NAMGYAL FOUNDATION", "designationCode": "A", "categoryCode": "43", "address": "47 THORNCLIFFE PARK DRIVE     SUITE 606", "city": "TORONTO", "province": "ON", "country": "CA", "postalCode": "M4H1J5", "twitter": "None", "instagram": "None", "facebook": "None", "youtube": "None", "website": "None", "summary": "None", "logo": "None", "latitude": 43.70179031380986, "longitude": -79.3433425807033}, "891225211RR0001": {"name": "NAMO BUDDHA FOUNDATION", "designationCode": "C", "categoryCode": "35", "address": "1500 WEST GEORGIA STREET      SUITE 1250, BOX 62", "city": "VANCOUVER", "province": "BC", "country": "CA", "postalCode": "V6G2Z6", "twitter": "None", "instagram": "None", "facebook": "None", "youtube": "None", "website": "None", "summary": "None", "logo": "None", "latitude": 49.2900638104334, "longitude": -123.12989899362336}, "119050524RR0001": {"name": "NAMPA GOSPEL FELLOWSHIP", "designationCode": "C", "categoryCode": "31", "address": "BOX 232", "city": "NAMPA", "province": "AB", "country": "CA", "postalCode": "T0H2R0", "twitter": "None", "instagram": "None", "facebook": "None", "youtube": "None", "website": "None", "summary": "None", "logo": "None", "latitude": 56.03880000000004, "longitude": -117.13430999999997}, "786257485RR0001": {"name": "NAN Charitable Trust", "designationCode": "C", "categoryCode": "09", "address": "200 - 100 BACK STREET RD", "city": "FORT WILLIAM FIRST NATION", "province": "ON", "country": "CA", "postalCode": "P7J1L2", "twitter": "None", "instagram": "None", "facebook": "None", "youtube": "None", "website": "None", "summary": "None", "logo": "None", "latitude": 48.356814502276016, "longitude": -89.26940624947966}, "892079641RR0001": {"name": "NANA FOUNDATION", "designationCode": "B", "categoryCode": "54", "address": "4601 LEYNS RD", "city": "VICTORIA", "province": "BC", "country": "CA", "postalCode": "V8N3A1", "twitter": "None", "instagram": "None", "facebook": "None", "youtube": "None", "website": "None", "summary": "None", "logo": "None", "latitude": 48.492398501557865, "longitude": -123.30651122595147}, "119050557RR0001": {"name": "NANABIJOU CHILDCARE CENTRE", "designationCode": "C", "categoryCode": "20", "address": "855 OLIVER RD", "city": "THUNDER BAY", "province": "ON", "country": "CA", "postalCode": "P7B5E1", "twitter": "None", "instagram": "None", "facebook": "None", "youtube": "None", "website": "None", "summary": "None", "logo": "None", "latitude": 48.42423913344207, "longitude": -89.25900921954516}, "893193771RR0001": {"name": "NANAIMO & AREA LAND TRUST SOCIETY", "designationCode": "C", "categoryCode": "52", "address": "8 - 140 WALLACE ST.", "city": "NANAIMO", "province": "BC", "country": "CA", "postalCode": "V9R5B1", "twitter": "None", "instagram": "None", "facebook": "None", "youtube": "None", "website": "None", "summary": "None", "logo": "None", "latitude": 49.16787232944776, "longitude": -123.94165243352188}, "140746124RR0001": {"name": "NANAIMO & DISTRICT CRIME STOPPERS ASSOCIATION", "designationCode": "C", "categoryCode": "59", "address": "BOX 4613", "city": "NANAIMO", "province": "BC", "country": "CA", "postalCode": "V9R5E8", "twitter": "None", "instagram": "None", "facebook": "None", "youtube": "None", "website": "None", "summary": "None", "logo": "None", "latitude": 49.16758200000005, "longitude": -123.93848599999993}, "119050672RR0001": {"name": "NANAIMO & DISTRICT HOSPITAL FOUNDATION", "designationCode": "A", "categoryCode": "11", "address": "1200 DUFFERIN CRES", "city": "NANAIMO", "province": "BC", "country": "CA", "postalCode": "V9S2B7", "twitter": "None", "instagram": "None", "facebook": "None", "youtube": "None", "website": "None", "summary": "None", "logo": "None", "latitude": 49.18362165140537, "longitude": -123.96978926927466}, "837678127RR0001": {"name": "NANAIMO ADDICTION FOUNDATION", "designationCode": "A", "categoryCode": "57", "address": "200 - 1585 BOWEN RD", "city": "NANAIMO", "province": "BC", "country": "CA", "postalCode": "V9S1G4", "twitter": "None", "instagram": "None", "facebook": "None", "youtube": "None", "website": "None", "summary": "None", "logo": "None", "latitude": 49.17757252337179, "longitude": -123.97183283250617}, "132032293RR0001": {"name": "NANAIMO AFFORDABLE HOUSING SOCIETY", "designationCode": "C", "categoryCode": "09", "address": "350 PRIDEAUX STREET", "city": "NANAIMO", "province": "BC", "country": "CA", "postalCode": "V9R6Z1", "twitter": "None", "instagram": "None", "facebook": "None", "youtube": "None", "website": "None", "summary": "None", "logo": "None", "latitude": 49.1644001253583, "longitude": -123.94369892026506}, "119243616RR0001": {"name": "NANAIMO ART GALLERY SOCIETY", "designationCode": "C", "categoryCode": "22", "address": "150 COMMERCIAL ST", "city": "NANAIMO", "province": "BC", "country": "CA", "postalCode": "V9R5G6", "twitter": "None", "instagram": "None", "facebook": "None", "youtube": "None", "website": "None", "summary": "None", "logo": "None", "latitude": 49.16615209325409, "longitude": -123.93682140354326}, "107758849RR0001": {"name": "NANAIMO ASSOCIATION FOR COMMUNITY LIVING", "designationCode": "C", "categoryCode": "11", "address": "201 96 CAVAN STREET", "city": "NANAIMO", "province": "BC", "country": "CA", "postalCode": "V9R2V1", "twitter": "None", "instagram": "None", "facebook": "None", "youtube": "None", "website": "None", "summary": "None", "logo": "None", "latitude": 49.16252738562405, "longitude": -123.93474815132711}, "136781408RR0001": {"name": "NANAIMO AUXILIARY TO NANAIMO REGIONAL GENERAL HOSPITAL", "designationCode": "C", "categoryCode": "19", "address": "1200 DUFFERIN CRES", "city": "NANAIMO", "province": "BC", "country": "CA", "postalCode": "V9S2B7", "twitter": "None", "instagram": "None", "facebook": "None", "youtube": "None", "website": "None", "summary": "None", "logo": "None", "latitude": 49.18362165140537, "longitude": -123.96978926927466}, "890104060RR0001": {"name": "NANAIMO BRAIN INJURY SOCIETY", "designationCode": "C", "categoryCode": "09", "address": "285 PRIDEAUX ST", "city": "NANAIMO", "province": "BC", "country": "CA", "postalCode": "V9R2N2", "twitter": "None", "instagram": "None", "facebook": "None", "youtube": "None", "website": "None", "summary": "None", "logo": "None", "latitude": 49.16520084582465, "longitude": -123.94436978896013}, "855432340RR0001": {"name": "NANAIMO CHAMBER ORCHESTRA", "designationCode": "C", "categoryCode": "22", "address": "2020 WARING RD", "city": "NANAIMO", "province": "BC", "country": "CA", "postalCode": "V9X1V1", "twitter": "None", "instagram": "None", "facebook": "None", "youtube": "None", "website": "None", "summary": "None", "logo": "None", "latitude": 49.099719691376464, "longitude": -123.88071311832705}, "119050755RR0001": {"name": "NANAIMO CHILD DEVELOPMENT CENTRE SOCIETY", "designationCode": "C", "categoryCode": "11", "address": "1135 NELSON ST", "city": "NANAIMO", "province": "BC", "country": "CA", "postalCode": "V9S2K4", "twitter": "None", "instagram": "None", "facebook": "None", "youtube": "None", "website": "None", "summary": "None", "logo": "None", "latitude": 49.18703659844846, "longitude": -123.96456386887189}, "130565963RR0016": {"name": "NANAIMO CHINESE ALLIANCE CHURCH", "designationCode": "C", "categoryCode": "39", "address": "1609 MEREDITH ROAD", "city": "NANAIMO", "province": "BC", "country": "CA", "postalCode": "V9S5J2", "twitter": "None", "instagram": "None", "facebook": "None", "youtube": "None", "website": "None", "summary": "None", "logo": "None", "latitude": 49.188219480091604, "longitude": -123.97359052553523}, "107758898RR0001": {"name": "NANAIMO CHRISTIAN SCHOOL (1988) SOCIETY", "designationCode": "C", "categoryCode": "20", "address": "198 HOLLAND RD", "city": "NANAIMO", "province": "BC", "country": "CA", "postalCode": "V9R6W2", "twitter": "None", "instagram": "None", "facebook": "None", "youtube": "None", "website": "None", "summary": "None", "logo": "None"}, "856728076RR0002": {"name": "NANAIMO CHURCH OF CHRIST", "designationCode": "C", "categoryCode": "39", "address": "1720 MEREDITH RD", "city": "NANAIMO", "province": "BC", "country": "CA", "postalCode": "V9S2M4", "twitter": "None", "instagram": "None", "facebook": "None", "youtube": "None", "website": "None", "summary": "None", "logo": "None", "latitude": 49.18833961066358, "longitude": -123.97812147890056}, "107758914RR0001": {"name": "NANAIMO CITIZEN ADVOCACY ASSOCIATION", "designationCode": "C", "categoryCode": "59", "address": "114-285 PRIDEAUX ST", "city": "NANAIMO", "province": "BC", "country": "CA", "postalCode": "V9R2N2", "twitter": "None", "instagram": "None", "facebook": "None", "youtube": "None", "website": "None", "summary": "None", "logo": "None", "latitude": 49.16520084582465, "longitude": -123.94436978896013}, "889098174RR0001": {"name": "NANAIMO COMMUNITY FOUNDATION", "designationCode": "A", "categoryCode": "53", "address": "205 - 75 FRONT ST", "city": "NANAIMO", "province": "BC", "country": "CA", "postalCode": "V9R5H9", "twitter": "None", "instagram": "None", "facebook": "None", "youtube": "None", "website": "None", "summary": "None", "logo": "None", "latitude": 49.168239538981005, "longitude": -123.93671969530807}, "887166833RR0001": {"name": "NANAIMO COMMUNITY GARDENS SOCIETY", "designationCode": "C", "categoryCode": "56", "address": "271 PINE STREET", "city": "NANAIMO", "province": "BC", "country": "CA", "postalCode": "V9R2B7", "twitter": "None", "instagram": "None", "facebook": "None", "youtube": "None", "website": "None", "summary": "None", "logo": "None", "latitude": 49.16387540798665, "longitude": -123.95034040388904}, "133194043RR0001": {"name": "NANAIMO COMMUNITY HOSPICE SOCIETY", "designationCode": "C", "categoryCode": "09", "address": "1080 ST. GEORGE CRES", "city": "NANAIMO", "province": "BC", "country": "CA", "postalCode": "V9S1X1", "twitter": "None", "instagram": "None", "facebook": "None", "youtube": "None", "website": "None", "summary": "None", "logo": "None", "latitude": 49.18116963053184, "longitude": -123.96426295609693}, "892696980RR0001": {"name": "NANAIMO COMMUNITY KITCHENS SOCIETY", "designationCode": "C", "categoryCode": "59", "address": "271 PINE ST", "city": "NANAIMO", "province": "BC", "country": "CA", "postalCode": "V9R2B7", "twitter": "None", "instagram": "None", "facebook": "None", "youtube": "None", "website": "None", "summary": "None", "logo": "None", "latitude": 49.16387540798665, "longitude": -123.95034040388904}, "872750914RR0001": {"name": "NANAIMO CONCERT BAND SOCIETY", "designationCode": "C", "categoryCode": "22", "address": "P.O. BOX 794", "city": "NANAIMO", "province": "BC", "country": "CA", "postalCode": "V9R5M2", "twitter": "None", "instagram": "None", "facebook": "None", "youtube": "None", "website": "None", "summary": "None", "logo": "None", "latitude": 49.164243000000056, "longitude": -123.93616399999993}, "106997091RR0001": {"name": "NANAIMO CONSERVATORY OF MUSIC", "designationCode": "C", "categoryCode": "22", "address": "375 SELBY STREET", "city": "NANAIMO", "province": "BC", "country": "CA", "postalCode": "V9R2R4", "twitter": "None", "instagram": "None", "facebook": "None", "youtube": "None", "website": "None", "summary": "None", "logo": "None", "latitude": 49.16348926946185, "longitude": -123.94127559931268}, "132974957RR0001": {"name": "NANAIMO DISTRICT SENIOR CITIZENS HOUSING DEVELOPMENT SOCIETY", "designationCode": "C", "categoryCode": "01", "address": "1221 KIWANIS CRES", "city": "NANAIMO", "province": "BC", "country": "CA", "postalCode": "V9S5Y1", "twitter": "None", "instagram": "None", "facebook": "None", "youtube": "None", "website": "None", "summary": "None", "logo": "None", "latitude": 49.186092198684555, "longitude": -123.96836548098564}, "888246311RR0001": {"name": "NANAIMO DRAGON BOAT SOCIETY", "designationCode": "C", "categoryCode": "11", "address": "P. O. BOX 580", "city": "PARKSVILLE", "province": "BC", "country": "CA", "postalCode": "V9P2G6", "twitter": "None", "instagram": "None", "facebook": "None", "youtube": "None", "website": "None", "summary": "None", "logo": "None", "latitude": 49.31968200000006, "longitude": -124.31365099999994}, "107759003RR0001": {"name": "NANAIMO ECUMENICAL CENTRE SOCIETY", "designationCode": "C", "categoryCode": "49", "address": "6234 SPARTAN RD", "city": "NANAIMO", "province": "BC", "country": "CA", "postalCode": "V9T2N9", "twitter": "None", "instagram": "None", "facebook": "None", "youtube": "None", "website": "None", "summary": "None", "logo": "None", "latitude": 49.228402614371454, "longitude": -124.0413259090018}, "132004995RR0001": {"name": "NANAIMO F O S NON-PROFIT HOUSING", "designationCode": "C", "categoryCode": "01", "address": "#403-1191 SEAFIELD CRESCENT", "city": "NANAIMO", "province": "BC", "country": "CA", "postalCode": "V9S4S1", "twitter": "None", "instagram": "None", "facebook": "None", "youtube": "None", "website": "None", "summary": "None", "logo": "None", "latitude": 49.18298897942779, "longitude": -123.96904301575346}, "885424192RR0001": {"name": "NANAIMO FAMILY HISTORY SOCIETY", "designationCode": "C", "categoryCode": "21", "address": "BOX 1027", "city": "NANAIMO", "province": "BC", "country": "CA", "postalCode": "V9R5Z2", "twitter": "None", "instagram": "None", "facebook": "None", "youtube": "None", "website": "None", "summary": "None", "logo": "None", "latitude": 49.164243000000056, "longitude": -123.93616399999993}, "107759011RR0001": {"name": "NANAIMO FAMILY LIFE ASSOCIATION", "designationCode": "C", "categoryCode": "09", "address": "1070 TOWNSITE RD", "city": "NANAIMO", "province": "BC", "country": "CA", "postalCode": "V9S1M6", "twitter": "None", "instagram": "None", "facebook": "None", "youtube": "None", "website": "None", "summary": "None", "logo": "None", "latitude": 49.17922402247682, "longitude": -123.96592554302038}, "804471340RR0001": {"name": "NANAIMO FASD SOCIETY", "designationCode": "C", "categoryCode": "11", "address": "5438 COLINWOOD DR.", "city": "NANAIMO", "province": "BC", "country": "CA", "postalCode": "V9T6G2", "twitter": "None", "instagram": "None", "facebook": "None", "youtube": "None", "website": "None", "summary": "None", "logo": "None", "latitude": 49.214727410402375, "longitude": -124.04659034749206}, "898375209RR0001": {"name": "NANAIMO FIRST KOREAN CHURCH", "designationCode": "C", "categoryCode": "39", "address": "6553 PORTSMOUTH ROAD", "city": "NANAIMO", "province": "BC", "country": "CA", "postalCode": "V9V1A3", "twitter": "None", "instagram": "None", "facebook": "None", "youtube": "None", "website": "None", "summary": "None", "logo": "None", "latitude": 49.239636922100274, "longitude": -124.0464117974402}, "887234524RR0001": {"name": "NANAIMO FOODSHARE SOCIETY", "designationCode": "C", "categoryCode": "09", "address": "271 PINE STREET", "city": "NANAIMO", "province": "BC", "country": "CA", "postalCode": "V9R2B7", "twitter": "None", "instagram": "None", "facebook": "None", "youtube": "None", "website": "None", "summary": "None", "logo": "None", "latitude": 49.16387540798665, "longitude": -123.95034040388904}, "881768626RR0001": {"name": "NANAIMO HARBOUR WATCH SOCIETY", "designationCode": "C", "categoryCode": "59", "address": "4836 NEY DRIE", "city": "NANAIMO", "province": "BC", "country": "CA", "postalCode": "V9V1W5", "twitter": "None", "instagram": "None", "facebook": "None", "youtube": "None", "website": "None", "summary": "None", "logo": "None", "latitude": 49.234575394396664, "longitude": -123.97804870552254}, "844066563RR0001": {"name": "NANAIMO HINDU CULTURAL SOCIETY", "designationCode": "C", "categoryCode": "48", "address": "6209, SCOLLOS PLACE", "city": "NANAIMO", "province": "BC", "country": "CA", "postalCode": "V9V1K9", "twitter": "None", "instagram": "None", "facebook": "None", "youtube": "None", "website": "None", "summary": "None", "logo": "None", "latitude": 49.24217651009891, "longitude": -124.03525330252754}, "886591122RR0001": {"name": "NANAIMO KOREAN PRESBYTERIAN CHURCH", "designationCode": "C", "categoryCode": "37", "address": "4235 DEPARTURE BAY ROAD", "city": "NANAIMO", "province": "BC", "country": "CA", "postalCode": "V9T1C9", "twitter": "None", "instagram": "None", "facebook": "None", "youtube": "None", "website": "None", "summary": "None", "logo": "None", "latitude": 49.20690747995643, "longitude": -124.00163368833881}, "893608679RR0001": {"name": "NANAIMO LIGHTHOUSE MINISTRIES", "designationCode": "C", "categoryCode": "47", "address": "330-3035 ROSS ROAD", "city": "NANAIMO", "province": "BC", "country": "CA", "postalCode": "V9T5S8", "twitter": "None", "instagram": "None", "facebook": "None", "youtube": "None", "website": "None", "summary": "None", "logo": "None", "latitude": 49.20764563364873, "longitude": -124.00596451047333}, "134142983RR0001": {"name": "NANAIMO LIONS HOUSING SOCIETY", "designationCode": "C", "categoryCode": "01", "address": "26-1612 BOWEN RD", "city": "NANAIMO", "province": "BC", "country": "CA", "postalCode": "V9S1G6", "twitter": "None", "instagram": "None", "facebook": "None", "youtube": "None", "website": "None", "summary": "None", "logo": "None", "latitude": 49.17876836670339, "longitude": -123.97434853334636}, "128233418RR0001": {"name": "NANAIMO LITERACY ASSOCIATION", "designationCode": "C", "categoryCode": "21", "address": "19 COMMERCIAL ST", "city": "NANAIMO", "province": "BC", "country": "CA", "postalCode": "V9R5G3", "twitter": "None", "instagram": "None", "facebook": "None", "youtube": "None", "website": "None", "summary": "None", "logo": "None", "latitude": 49.16471090951587, "longitude": -123.93677218711377}, "869013334RR0001": {"name": "NANAIMO MARINE RESCUE SOCIETY", "designationCode": "C", "categoryCode": "59", "address": "P.O. BOX 146                  STATION A", "city": "NANAIMO", "province": "BC", "country": "CA", "postalCode": "V9R5K9", "twitter": "None", "instagram": "None", "facebook": "None", "youtube": "None", "website": "None", "summary": "None", "logo": "None", "latitude": 49.164243000000056, "longitude": -123.93616399999993}, "899515431RR0001": {"name": "NANAIMO MEALS ON WHEELS SOCIETY", "designationCode": "C", "categoryCode": "09", "address": "1233 KIWANIS CRESCENT", "city": "NANAIMO", "province": "BC", "country": "CA", "postalCode": "V9S5Y1", "twitter": "None", "instagram": "None", "facebook": "None", "youtube": "None", "website": "None", "summary": "None", "logo": "None", "latitude": 49.18609213650561, "longitude": -123.96836607490263}, "876952110RR0001": {"name": "NANAIMO MEN'S RESOURCE CENTRE", "designationCode": "C", "categoryCode": "59", "address": "PO BOX 2023 STATION A", "city": "NANAIMO", "province": "BC", "country": "CA", "postalCode": "V9R6X5", "twitter": "None", "instagram": "None", "facebook": "None", "youtube": "None", "website": "None", "summary": "None", "logo": "None", "latitude": 49.164243000000056, "longitude": -123.93616399999993}, "107759094RR0001": {"name": "NANAIMO NATIVE VICTORY CHAPEL", "designationCode": "C", "categoryCode": "36", "address": "471 IRWIN STREET", "city": "NANAIMO", "province": "BC", "country": "CA", "postalCode": "V9R4X9", "twitter": "None", "instagram": "None", "facebook": "None", "youtube": "None", "website": "None", "summary": "None", "logo": "None", "latitude": 49.153979904784066, "longitude": -123.93104730878495}, "131464661RR0001": {"name": "NANAIMO PARENT PARTICIPATION PRESCHOOL ASSOCIATION", "designationCode": "C", "categoryCode": "01", "address": "6-4800 NORTH ISLAND HWY", "city": "NANAIMO", "province": "BC", "country": "CA", "postalCode": "V9T1W6", "twitter": "None", "instagram": "None", "facebook": "None", "youtube": "None", "website": "None", "summary": "None", "logo": "None", "latitude": 49.207677452080866, "longitude": -124.01908726157238}, "135967792RR0001": {"name": "NANAIMO RECYCLING EXCHANGE SOCIETY", "designationCode": "C", "categoryCode": "59", "address": "55 MUSEUM WAY", "city": "NANAIMO", "province": "BC", "country": "CA", "postalCode": "V9R0B5", "twitter": "None", "instagram": "None", "facebook": "None", "youtube": "None", "website": "None", "summary": "None", "logo": "None", "latitude": 49.16534932780163, "longitude": -123.9354670724426}, "130303936RR0001": {"name": "NANAIMO REGION JOHN HOWARD SOCIETY", "designationCode": "C", "categoryCode": "59", "address": "#200-1585 BOWEN ROAD", "city": "NANAIMO", "province": "BC", "country": "CA", "postalCode": "V9S1G4", "twitter": "None", "instagram": "None", "facebook": "None", "youtube": "None", "website": "None", "summary": "None", "logo": "None", "latitude": 49.17757252337179, "longitude": -123.97183283250617}, "889840997RR0001": {"name": "NANAIMO SEARCH AND RESCUE SOCIETY", "designationCode": "C", "categoryCode": "59", "address": "195B FOURTH ST", "city": "NANAIMO", "province": "BC", "country": "CA", "postalCode": "V9R1T1", "twitter": "None", "instagram": "None", "facebook": "None", "youtube": "None", "website": "None", "summary": "None", "logo": "None", "latitude": 49.15885765265014, "longitude": -123.94941571161746}, "118818491RR0084": {"name": "NANAIMO SEVENTH-DAY ADVENTIST CHURCH", "designationCode": "C", "categoryCode": "41", "address": "PO 1000", "city": "ABBOTSFORD", "province": "BC", "country": "CA", "postalCode": "V2S4P5", "twitter": "None", "instagram": "None", "facebook": "None", "youtube": "None", "website": "None", "summary": "None", "logo": "None", "latitude": 49.03851300000005, "longitude": -122.29441549999993}, "119050839RR0001": {"name": "NANAIMO THEATRE GROUP", "designationCode": "C", "categoryCode": "22", "address": "PO BOX 796 STN MAIN", "city": "NANAIMO", "province": "BC", "country": "CA", "postalCode": "V9R5M2", "twitter": "None", "instagram": "None", "facebook": "None", "youtube": "None", "website": "None", "summary": "None", "logo": "None", "latitude": 49.164243000000056, "longitude": -123.93616399999993}, "130520562RR0001": {"name": "NANAIMO TRAVELLERS LODGE SOCIETY", "designationCode": "C", "categoryCode": "01", "address": "1917 NORTHFIELD RD", "city": "NANAIMO", "province": "BC", "country": "CA", "postalCode": "V9S3B6", "twitter": "None", "instagram": "None", "facebook": "None", "youtube": "None", "website": "None", "summary": "None", "logo": "None", "latitude": 49.191890886717665, "longitude": -123.9831138309664}, "119050862RR0001": {"name": "NANAIMO VOLUNTEER AND INFORMATION CENTRE SOCIETY", "designationCode": "C", "categoryCode": "59", "address": "E - 3148 BARONS RD", "city": "NANAIMO", "province": "BC", "country": "CA", "postalCode": "V9T4B5", "twitter": "None", "instagram": "None", "facebook": "None", "youtube": "None", "website": "None", "summary": "None", "logo": "None", "latitude": 49.20820732756349, "longitude": -124.00184615082203}, "119050870RR0001": {"name": "NANAIMO YOUTH SERVICES ASSOCIATION", "designationCode": "C", "categoryCode": "01", "address": "290 BASTION STREET", "city": "NANAIMO", "province": "BC", "country": "CA", "postalCode": "V9R3A4", "twitter": "None", "instagram": "None", "facebook": "None", "youtube": "None", "website": "None", "summary": "None", "logo": "None", "latitude": 49.166026485711875, "longitude": -123.93954695088689}, "890714769RR0001": {"name": "NANAIMO 7-10 CLUB SOCIETY", "designationCode": "C", "categoryCode": "09", "address": "305-285 PRIDEAUX ST", "city": "NANAIMO", "province": "BC", "country": "CA", "postalCode": "V9R2N2", "twitter": "None", "instagram": "None", "facebook": "None", "youtube": "None", "website": "None", "summary": "None", "logo": "None", "latitude": 49.16520084582465, "longitude": -123.94436978896013}, "119052801RR0001": {"name": "NANAIMO-LADYSMITH SCHOOLS FOUNDATION", "designationCode": "C", "categoryCode": "21", "address": "550 SEVENTH ST", "city": "NANAIMO", "province": "BC", "country": "CA", "postalCode": "V9R3Z2", "twitter": "None", "instagram": "None", "facebook": "None", "youtube": "None", "website": "None", "summary": "None", "logo": "None", "latitude": 49.14763026194073, "longitude": -123.95121474561068}, "119050904RR0001": {"name": "NANAKSAR GURDWARA - GURSIKH TEMPLE", "designationCode": "C", "categoryCode": "62", "address": "18691 WESTMINSTER HIGHWAY", "city": "RICHMOND", "province": "BC", "country": "CA", "postalCode": "V6V1B1", "twitter": "None", "instagram": "None", "facebook": "None", "youtube": "None", "website": "None", "summary": "None", "logo": "None", "latitude": 49.16998244886859, "longitude": -123.01643096763249}, "119050912RR0001": {"name": "NANAKSAR SATSANG SABHA INC.", "designationCode": "C", "categoryCode": "62", "address": "255 ST. DAVID ROAD", "city": "WINNIPEG", "province": "MB", "country": "CA", "postalCode": "R2M3J9", "twitter": "None", "instagram": "None", "facebook": "None", "youtube": "None", "website": "None", "summary": "None", "logo": "None", "latitude": 49.84420356370816, "longitude": -97.10440403035399}, "133071001RR0001": {"name": "NANAKSAR SATSANG SABHA OF ONTARIO", "designationCode": "C", "categoryCode": "62", "address": "64 TIMBERLANE DR.", "city": "BRAMPTON", "province": "ON", "country": "CA", "postalCode": "L6Y4V7", "twitter": "None", "instagram": "None", "facebook": "None", "youtube": "None", "website": "None", "summary": "None", "logo": "None", "latitude": 43.648513208985, "longitude": -79.73150597590707}, "874199227RR0001": {"name": "NANCY CAMPBELL SCHOLARSHIP FOUNDATION", "designationCode": "C", "categoryCode": "21", "address": "45 WATERLOO ST. SOUTH", "city": "STRATFORD", "province": "ON", "country": "CA", "postalCode": "N5A4A8", "twitter": "None", "instagram": "None", "facebook": "None", "youtube": "None", "website": "None", "summary": "None", "logo": "None", "latitude": 43.37196665557727, "longitude": -80.97973223310657}, "119050938RR0001": {"name": "NANCY-GRIFFON FUND", "designationCode": "B", "categoryCode": "50", "address": "53 BROOKWOOD DRIVE", "city": "BARRIE", "province": "ON", "country": "CA", "postalCode": "L4N0Z1", "twitter": "None", "instagram": "None", "facebook": "None", "youtube": "None", "website": "None", "summary": "None", "logo": "None", "latitude": 44.33994894809284, "longitude": -79.69956575062038}, "119051217RR0001": {"name": "NANCY'S VERY OWN FOUNDATION", "designationCode": "B", "categoryCode": "23", "address": "10 CLUNY DRIVE", "city": "TORONTO", "province": "ON", "country": "CA", "postalCode": "M4W2P7", "twitter": "None", "instagram": "None", "facebook": "None", "youtube": "None", "website": "None", "summary": "None", "logo": "None", "latitude": 43.67601825644875, "longitude": -79.3856431557215}, "824863690RR0001": {"name": "NANNY ANGEL NETWORK INC.", "designationCode": "C", "categoryCode": "01", "address": "1000 SHEPPARD AVENUE WEST     SUITE 100", "city": "TORONTO", "province": "ON", "country": "CA", "postalCode": "M3H2T6", "twitter": "None", "instagram": "None", "facebook": "None", "youtube": "None", "website": "None", "summary": "None", "logo": "None", "latitude": 43.75104317626506, "longitude": -79.45977908993586}, "834070963RR0001": {"name": "NANOOM CHRISTIAN SUPPORT SERVICES", "designationCode": "C", "categoryCode": "09", "address": "314 - 200 FINCH AVENUE WEST", "city": "NORTH YORK", "province": "ON", "country": "CA", "postalCode": "M2R3W4", "twitter": "None", "instagram": "None", "facebook": "None", "youtube": "None", "website": "None", "summary": "None", "logo": "None", "latitude": 43.77606300000001, "longitude": -79.4322}, "132305749RR0001": {"name": "NANOOSE BAY ACTIVITIES & RECREATION SOCIETY", "designationCode": "C", "categoryCode": "56", "address": "2925 NORTHWEST BAY ROAD", "city": "NANOOSE BAY", "province": "BC", "country": "CA", "postalCode": "V9P9J9", "twitter": "None", "instagram": "None", "facebook": "None", "youtube": "None", "website": "None", "summary": "None", "logo": "None", "latitude": 49.271186554675005, "longitude": -124.19257359186483}, "864472543RR0001": {"name": "NANOOSE BAY CATSPAN", "designationCode": "C", "categoryCode": "54", "address": "PO BOX 64 STN MAIN", "city": "NANOOSE BAY", "province": "BC", "country": "CA", "postalCode": "V9P9J9", "twitter": "None", "instagram": "None", "facebook": "None", "youtube": "None", "website": "None", "summary": "None", "logo": "None", "latitude": 49.28721900000005, "longitude": -124.14082399999992}, "890327844RR0001": {"name": "NANOOSE BAY PENTECOSTAL CAMP,", "designationCode": "C", "categoryCode": "56", "address": "1228 LANDS END RD", "city": "SIDNEY", "province": "BC", "country": "CA", "postalCode": "V8L5K2", "twitter": "None", "instagram": "None", "facebook": "None", "youtube": "None", "website": "None", "summary": "None", "logo": "None", "latitude": 48.69696152129338, "longitude": -123.44826123388505}, "107759730RR0001": {"name": "NANOOSE EVANGELICAL FREE CHURCH", "designationCode": "C", "categoryCode": "39", "address": "2462 NANOOSE ROAD", "city": "NANOOSE BAY", "province": "BC", "country": "CA", "postalCode": "V9P9E6", "twitter": "None", "instagram": "None", "facebook": "None", "youtube": "None", "website": "None", "summary": "None", "logo": "None", "latitude": 49.275325753108945, "longitude": -124.19368492953689}, "861126464RR0001": {"name": "NANOOSE STREAMKEEPERS SOCIETY", "designationCode": "C", "categoryCode": "54", "address": "2160 SPURS PL", "city": "NANOOSE BAY", "province": "BC", "country": "CA", "postalCode": "V9P9C2", "twitter": "None", "instagram": "None", "facebook": "None", "youtube": "None", "website": "None", "summary": "None", "logo": "None", "latitude": 49.28523485423394, "longitude": -124.20855148595338}, "119051019RR0001": {"name": "NANTICOKE PASTORAL CHARGE", "designationCode": "C", "categoryCode": "44", "address": "RR 2 NANTICOKE", "city": "NANTICOKE", "province": "ON", "country": "CA", "postalCode": "N0A1L0", "twitter": "None", "instagram": "None", "facebook": "None", "youtube": "None", "website": "None", "summary": "None", "logo": "None", "latitude": 42.82444068539016, "longitude": -80.06836942836885}, "874135700RR0001": {"name": "NANTON & DISTRICT ANIMAL PROTECTION SOCIETY", "designationCode": "C", "categoryCode": "54", "address": "BOX 1377", "city": "NANTON", "province": "AB", "country": "CA", "postalCode": "T0L1R0", "twitter": "None", "instagram": "None", "facebook": "None", "youtube": "None", "website": "None", "summary": "None", "logo": "None", "latitude": 50.448604499999995, "longitude": -113.84751825000001}, "119051035RR0001": {"name": "NANTON & DISTRICT HANDIVAN SOCIETY", "designationCode": "C", "categoryCode": "09", "address": "P.O. BOX 233", "city": "NANTON", "province": "AB", "country": "CA", "postalCode": "T0L1R0", "twitter": "None", "instagram": "None", "facebook": "None", "youtube": "None", "website": "None", "summary": "None", "logo": "None", "latitude": 50.448604499999995, "longitude": -113.84751825000001}, "119051027RR0001": {"name": "NANTON CHURCH OF CHRIST", "designationCode": "C", "categoryCode": "39", "address": "BOX 626", "city": "NANTON", "province": "AB", "country": "CA", "postalCode": "T0L1R0", "twitter": "None", "instagram": "None", "facebook": "None", "youtube": "None", "website": "None", "summary": "None", "logo": "None", "latitude": 50.448604499999995, "longitude": -113.84751825000001}, "876063074RR0001": {"name": "NANTON COMMUNITY EMERGENCY FUND SOCIETY", "designationCode": "C", "categoryCode": "02", "address": "PO BOX 1182", "city": "NANTON", "province": "AB", "country": "CA", "postalCode": "T0L1R0", "twitter": "None", "instagram": "None", "facebook": "None", "youtube": "None", "website": "None", "summary": "None", "logo": "None", "latitude": 50.448604499999995, "longitude": -113.84751825000001}, "107759862RR0001": {"name": "NANTON LANCASTER SOCIETY", "designationCode": "C", "categoryCode": "59", "address": "BOX 1051", "city": "NANTON", "province": "AB", "country": "CA", "postalCode": "T0L1R0", "twitter": "None", "instagram": "None", "facebook": "None", "youtube": "None", "website": "None", "summary": "None", "logo": "None", "latitude": 50.448604499999995, "longitude": -113.84751825000001}, "890756943RR0001": {"name": "NANTON MINISTERIAL ASSOCIATION", "designationCode": "C", "categoryCode": "49", "address": "PO BOX 12", "city": "NANTON", "province": "AB", "country": "CA", "postalCode": "T0L1R0", "twitter": "None", "instagram": "None", "facebook": "None", "youtube": "None", "website": "None", "summary": "None", "logo": "None", "latitude": 50.448604499999995, "longitude": -113.84751825000001}}