{"887575439RR0001": {"name": "LES SOINS PALLIATIFS A DOMICILE DE BEDFORD ET LA REGION (SPDBR)", "designationCode": "C", "categoryCode": "11", "address": "CASE POSTALE 608", "city": "BEDFORD", "province": "QC", "country": "CA", "postalCode": "J0J1A0", "twitter": "None", "instagram": "None", "facebook": "None", "youtube": "None", "website": "None", "summary": "None", "logo": "None", "latitude": 45.06676162231261, "longitude": -72.96488738076664}, "107622250RR0001": {"name": "LES SOINS PALLIATIFS LA ROSE DES VENTS DE L'ESTRIE", "designationCode": "C", "categoryCode": "11", "address": "234 RUE DUFFERIN              BUREAU 420", "city": "SHERBROOKE", "province": "QC", "country": "CA", "postalCode": "J1H4M2", "twitter": "None", "instagram": "None", "facebook": "None", "youtube": "None", "website": "None", "summary": "None", "logo": "None", "latitude": 45.40504447544573, "longitude": -71.89410586078269}, "132523861RR0001": {"name": "LES SOUPAPES DE LA BONNE HUMEUR INC", "designationCode": "C", "categoryCode": "09", "address": "2981 RUE AGNES", "city": "LAC-MEGANTIC", "province": "QC", "country": "CA", "postalCode": "G6B1K8", "twitter": "None", "instagram": "None", "facebook": "None", "youtube": "None", "website": "None", "summary": "None", "logo": "None", "latitude": 45.565928635553306, "longitude": -70.88749226611496}, "889401055RR0001": {"name": "LES STENTORS, CORPS DE CLAIRONS ET TAMBOURS INC.", "designationCode": "C", "categoryCode": "22", "address": "C.P. 6363, SUCC ROCK FOREST", "city": "SHERBROOKE", "province": "QC", "country": "CA", "postalCode": "J1N3C9", "twitter": "None", "instagram": "None", "facebook": "None", "youtube": "None", "website": "None", "summary": "None", "logo": "None", "latitude": 45.34762200000006, "longitude": -71.99435599999994}, "888974771RR0001": {"name": "LES T\u00c9MOINS DE LA FOI APOSTOLIQUE B\u00c9THANIE DE NOTRE SEIGNEUR J\u00c9SUS-CHRIST / LIVING WITNESS OF BETHANY APOSTOLIC FAITH OF OUR LORD JESUS CHRIST", "designationCode": "C", "categoryCode": "39", "address": "10364 BOUL. GOUIN O", "city": "ROXBORO", "province": "QC", "country": "CA", "postalCode": "H8Y1S3", "twitter": "None", "instagram": "None", "facebook": "None", "youtube": "None", "website": "None", "summary": "None", "logo": "None", "latitude": 45.50918148707384, "longitude": -73.80132435027976}, "141271130RR0001": {"name": "LES TABLIERS EN FOLIE", "designationCode": "C", "categoryCode": "09", "address": "421, RUE PRINCIPALE NORD", "city": "RICHMOND", "province": "QC", "country": "CA", "postalCode": "J0B2H0", "twitter": "None", "instagram": "None", "facebook": "None", "youtube": "None", "website": "None", "summary": "None", "logo": "None", "latitude": 45.66200351817765, "longitude": -72.14349656968076}, "863201422RR0001": {"name": "LES TOITS D'EMILE", "designationCode": "C", "categoryCode": "09", "address": "200-255 BOUL D'ANJOU", "city": "CH\u00c2TEAUGUAY", "province": "QC", "country": "CA", "postalCode": "J6J2R4", "twitter": "None", "instagram": "None", "facebook": "None", "youtube": "None", "website": "None", "summary": "None", "logo": "None", "latitude": 45.359292391655366, "longitude": -73.72230900415494}, "107622532RR0001": {"name": "LES TOURNESOLS BILINGUAL PLAYSCHOOL", "designationCode": "C", "categoryCode": "20", "address": "PO BOX 101", "city": "ST ALBERT", "province": "AB", "country": "CA", "postalCode": "T8N1N1", "twitter": "None", "instagram": "None", "facebook": "None", "youtube": "None", "website": "None", "summary": "None", "logo": "None", "latitude": 53.633832000000055, "longitude": -113.62747399999994}, "103302642RR0001": {"name": "LES TOURNESOLS DE ST-VITAL INC.", "designationCode": "C", "categoryCode": "01", "address": "425, CHEM JOHN FORSYTH", "city": "WINNIPEG", "province": "MB", "country": "CA", "postalCode": "R2N2N8", "twitter": "None", "instagram": "None", "facebook": "None", "youtube": "None", "website": "None", "summary": "None", "logo": "None", "latitude": 49.80911646759812, "longitude": -97.09160133922951}, "889106373RR0001": {"name": "LES TROIS R DE RIVIERE-BLEUE INC", "designationCode": "C", "categoryCode": "09", "address": "29, DE LA VILLA", "city": "RIVIERE BLEUE", "province": "QC", "country": "CA", "postalCode": "G0L2B0", "twitter": "None", "instagram": "None", "facebook": "None", "youtube": "None", "website": "None", "summary": "None", "logo": "None", "latitude": 47.431666918662486, "longitude": -69.04046634595194}, "876101361RR0001": {"name": "LES VARIETES DENYS LAVERGNE", "designationCode": "C", "categoryCode": "22", "address": "2196 RUE DESMARTEAU", "city": "MONTREAL", "province": "QC", "country": "CA", "postalCode": "H1L4M8", "twitter": "None", "instagram": "None", "facebook": "None", "youtube": "None", "website": "None", "summary": "None", "logo": "None", "latitude": 45.60386608630053, "longitude": -73.51398960159263}, "870633088RR0001": {"name": "LES VERTS BOIS\u00c9S DU FJORD", "designationCode": "C", "categoryCode": "52", "address": "304-129 JACQUES-CARTIER EST", "city": "CHICOUTIMI", "province": "QC", "country": "CA", "postalCode": "G7H1Y4", "twitter": "None", "instagram": "None", "facebook": "None", "youtube": "None", "website": "None", "summary": "None", "logo": "None", "latitude": 48.42653148268775, "longitude": -71.06470247155058}, "119018109RR0001": {"name": "LES VILLAGES ETUDIANTS INC.", "designationCode": "C", "categoryCode": "56", "address": "858 RUE LAVIOLETTE", "city": "TROIS RIVIERES", "province": "QC", "country": "CA", "postalCode": "G9A5S3", "twitter": "None", "instagram": "None", "facebook": "None", "youtube": "None", "website": "None", "summary": "None", "logo": "None", "latitude": 46.34869787846938, "longitude": -72.54542115869394}, "103309431RR0001": {"name": "LES VIOLONS DU ROY", "designationCode": "C", "categoryCode": "22", "address": "995 PLACE D'YOUVILLE          BUREAU 505", "city": "QUEBEC", "province": "QC", "country": "CA", "postalCode": "G1R3P1", "twitter": "None", "instagram": "None", "facebook": "None", "youtube": "None", "website": "None", "summary": "None", "logo": "None", "latitude": 46.81223606050551, "longitude": -71.21349540091752}, "876187337RR0001": {"name": "LES VOIX D'ELLES", "designationCode": "C", "categoryCode": "22", "address": "469 DE CLUNY", "city": "LAVAL", "province": "QC", "country": "CA", "postalCode": "H7N5K4", "twitter": "None", "instagram": "None", "facebook": "None", "youtube": "None", "website": "None", "summary": "None", "logo": "None", "latitude": 45.56227744047545, "longitude": -73.70289951483075}, "855799649RR0001": {"name": "LES VOIX HUMAINES", "designationCode": "C", "categoryCode": "22", "address": "1097 RUE SAINT-ALEXANDRE      BUREAU 408", "city": "MONTR\u00c9AL", "province": "QC", "country": "CA", "postalCode": "H2Z1P8", "twitter": "None", "instagram": "None", "facebook": "None", "youtube": "None", "website": "None", "summary": "None", "logo": "None", "latitude": 45.50391503886542, "longitude": -73.56465837217965}, "103309753RR0001": {"name": "LES VOLONTAIRES DE ST-AUGUSTIN DALMAS", "designationCode": "C", "categoryCode": "09", "address": "701 PRINCIPALE", "city": "ST-AUGUSTIN", "province": "QC", "country": "CA", "postalCode": "G0W1K0", "twitter": "None", "instagram": "None", "facebook": "None", "youtube": "None", "website": "None", "summary": "None", "logo": "None", "latitude": 48.80486663445678, "longitude": -71.94383695060299}, "817928070RR0001": {"name": "LESEA GLOBAL FEED THE HUNGRY", "designationCode": "C", "categoryCode": "09", "address": "9-45905 YALE ROAD SUITE 362", "city": "CHILLIWACK", "province": "BC", "country": "CA", "postalCode": "V2P8E6", "twitter": "None", "instagram": "None", "facebook": "None", "youtube": "None", "website": "None", "summary": "None", "logo": "None", "latitude": 49.16664239356977, "longitude": -121.95868742833854}, "869370700RR0001": {"name": "LESLIE & IRENE DUBE FOUNDATION INC.", "designationCode": "B", "categoryCode": "03", "address": "1171 - 8TH STREET EAST", "city": "SASKATOON", "province": "SK", "country": "CA", "postalCode": "S7H0S3", "twitter": "None", "instagram": "None", "facebook": "None", "youtube": "None", "website": "None", "summary": "None", "logo": "None", "latitude": 52.11490800434586, "longitude": -106.64224585900537}, "119016103RR0001": {"name": "LESLIEVILLE COMMUNITY HALL SOCIETY", "designationCode": "C", "categoryCode": "56", "address": "LESLIEVILLE COMMUNITY CENTRE  BOX 34", "city": "LESLIEVILLE", "province": "AB", "country": "CA", "postalCode": "T0M1H0", "twitter": "None", "instagram": "None", "facebook": "None", "youtube": "None", "website": "None", "summary": "None", "logo": "None", "latitude": 52.38412800000006, "longitude": -114.60143149999993}, "834356818RR0001": {"name": "LESLOIS SHAW FOUNDATION", "designationCode": "B", "categoryCode": "03", "address": "3109 BLOOR ST. WEST", "city": "TORONTO", "province": "ON", "country": "CA", "postalCode": "M8X1E2", "twitter": "None", "instagram": "None", "facebook": "None", "youtube": "None", "website": "None", "summary": "None", "logo": "None", "latitude": 43.64619883816165, "longitude": -79.51653696834794}, "119018042RR0001": {"name": "LESTER B. PEARSON COLLEGE OF THE PACIFIC AND UNITED WORLD COLLEGES (CANADA) INC. - COLLEGE DU PACIFIQUE LESTER B. PEARSON ET COLLEGES DU MONDE UNI (CANADA) INC.", "designationCode": "C", "categoryCode": "20", "address": "650 PEARSON COLLEGE DRIVE", "city": "VICTORIA", "province": "BC", "country": "CA", "postalCode": "V9C4H7", "twitter": "None", "instagram": "None", "facebook": "None", "youtube": "None", "website": "None", "summary": "None", "logo": "None", "latitude": 48.348342899821, "longitude": -123.56199204890606}, "119018059RR0001": {"name": "LESTER B. PEARSON PEACE PARK INC.", "designationCode": "C", "categoryCode": "56", "address": "RR 3", "city": "TWEED", "province": "ON", "country": "CA", "postalCode": "K0K3J0", "twitter": "None", "instagram": "None", "facebook": "None", "youtube": "None", "website": "None", "summary": "None", "logo": "None", "latitude": 44.51884534534283, "longitude": -77.11593882304619}, "119018067RR0001": {"name": "LESTOCK ROMAN CATHOLIC PARISH", "designationCode": "C", "categoryCode": "38", "address": "PO BOX 35", "city": "LESTOCK", "province": "SK", "country": "CA", "postalCode": "S0A2G0", "twitter": "None", "instagram": "None", "facebook": "None", "youtube": "None", "website": "None", "summary": "None", "logo": "None", "latitude": 51.31678000000005, "longitude": -103.98436999999996}, "869661033RR0001": {"name": "LET ABILITIES WORK PARTNERSHIP SOCIETY", "designationCode": "C", "categoryCode": "09", "address": "535 EAST RIVER RD", "city": "NEW GLASGOW", "province": "NS", "country": "CA", "postalCode": "B2H3R5", "twitter": "None", "instagram": "None", "facebook": "None", "youtube": "None", "website": "None", "summary": "None", "logo": "None", "latitude": 45.57963623091355, "longitude": -62.6432031288013}, "859392367RR0001": {"name": "LET'S START TALKING CANADA-PARLONS ENSEMBLE CANADA", "designationCode": "C", "categoryCode": "20", "address": "1825 ROTHWELL ST", "city": "REGINA", "province": "SK", "country": "CA", "postalCode": "S4N2C3", "twitter": "None", "instagram": "None", "facebook": "None", "youtube": "None", "website": "None", "summary": "None", "logo": "None", "latitude": 50.44996741326679, "longitude": -104.57071833868126}, "885400846RR0001": {"name": "LET'S TALK SCIENCE/PARLONS SCIENCE", "designationCode": "C", "categoryCode": "23", "address": "12 - 1510 WOODCOCK ST", "city": "LONDON", "province": "ON", "country": "CA", "postalCode": "N6H5S1", "twitter": "None", "instagram": "None", "facebook": "None", "youtube": "None", "website": "None", "summary": "None", "logo": "None", "latitude": 43.0059070523981, "longitude": -81.33932561945313}, "107995201RR0001": {"name": "LETHBRIDGE & COMMUNITY ADDICTIONS TREATMENT SOCIETY", "designationCode": "C", "categoryCode": "57", "address": "PO BOX 1418", "city": "LETHBRIDGE", "province": "AB", "country": "CA", "postalCode": "T1J4K2", "twitter": "None", "instagram": "None", "facebook": "None", "youtube": "None", "website": "None", "summary": "None", "logo": "None", "latitude": 49.69383000000006, "longitude": -112.83373249999994}, "119018307RR0001": {"name": "LETHBRIDGE & DISTRICT PRO-LIFE ASSOCIATION", "designationCode": "C", "categoryCode": "09", "address": "1801 9 AVE NORTH", "city": "LETHBRIDGE", "province": "AB", "country": "CA", "postalCode": "T1H1H8", "twitter": "None", "instagram": "None", "facebook": "None", "youtube": "None", "website": "None", "summary": "None", "logo": "None", "latitude": 49.71284769665488, "longitude": -112.8168910346774}, "107623183RR0001": {"name": "LETHBRIDGE \"PEOPLE OF PRAISE\" SOCIETY", "designationCode": "C", "categoryCode": "47", "address": "905-20 AVE", "city": "COALDALE", "province": "AB", "country": "CA", "postalCode": "T1M1B3", "twitter": "None", "instagram": "None", "facebook": "None", "youtube": "None", "website": "None", "summary": "None", "logo": "None", "latitude": 49.727562496249085, "longitude": -112.60158274854291}, "119018190RR0001": {"name": "LETHBRIDGE AND DISTRICT BIRTHRIGHT SOCIETY", "designationCode": "C", "categoryCode": "09", "address": "ROOM 503 740 4 AVENUE SOUTH", "city": "LETHBRIDGE", "province": "AB", "country": "CA", "postalCode": "T1J0N9", "twitter": "None", "instagram": "None", "facebook": "None", "youtube": "None", "website": "None", "summary": "None", "logo": "None", "latitude": 49.69438321218233, "longitude": -112.83632879413861}, "119018208RR0001": {"name": "LETHBRIDGE AND DISTRICT HORTICULTURAL SOCIETY", "designationCode": "A", "categoryCode": "50", "address": "BOX 11", "city": "LETHBRIDGE", "province": "AB", "country": "CA", "postalCode": "T1J3Y3", "twitter": "None", "instagram": "None", "facebook": "None", "youtube": "None", "website": "None", "summary": "None", "logo": "None", "latitude": 49.69383000000006, "longitude": -112.83373249999994}, "130816960RR0001": {"name": "LETHBRIDGE AND DISTRICT HUMANE SOCIETY", "designationCode": "C", "categoryCode": "54", "address": "2920 16 AVE N", "city": "LETHBRIDGE", "province": "AB", "country": "CA", "postalCode": "T1H5E9", "twitter": "None", "instagram": "None", "facebook": "None", "youtube": "None", "website": "None", "summary": "None", "logo": "None", "latitude": 49.72062049177703, "longitude": -112.79726027699232}, "866359771RR0001": {"name": "LETHBRIDGE AREA SEARCH AND RESCUE ASSOCIATION", "designationCode": "C", "categoryCode": "59", "address": "PO BOX 30015 RPO PARK PLACE", "city": "LETHBRIDGE", "province": "AB", "country": "CA", "postalCode": "T1J4X3", "twitter": "None", "instagram": "None", "facebook": "None", "youtube": "None", "website": "None", "summary": "None", "logo": "None", "latitude": 49.69383000000006, "longitude": -112.83373249999994}, "130901762RR0001": {"name": "LETHBRIDGE ASTRONOMY SOCIETY", "designationCode": "C", "categoryCode": "21", "address": "PO BOX 1104", "city": "LETHBRIDGE", "province": "AB", "country": "CA", "postalCode": "T1J4A2", "twitter": "None", "instagram": "None", "facebook": "None", "youtube": "None", "website": "None", "summary": "None", "logo": "None", "latitude": 49.69383000000006, "longitude": -112.83373249999994}, "107622961RR0001": {"name": "LETHBRIDGE CHINESE ALLIANCE CHURCH", "designationCode": "C", "categoryCode": "39", "address": "1501-6 AVE S", "city": "LETHBRIDGE", "province": "AB", "country": "CA", "postalCode": "T1J1A9", "twitter": "None", "instagram": "None", "facebook": "None", "youtube": "None", "website": "None", "summary": "None", "logo": "None", "latitude": 49.6916674565756, "longitude": -112.82027383236193}, "118853480RR0001": {"name": "LETHBRIDGE CHRISTIAN SCHOOL SOCIETY", "designationCode": "C", "categoryCode": "20", "address": "3 ST JAMES BLVD N", "city": "LETHBRIDGE", "province": "AB", "country": "CA", "postalCode": "T1H6K6", "twitter": "None", "instagram": "None", "facebook": "None", "youtube": "None", "website": "None", "summary": "None", "logo": "None", "latitude": 49.723694612268446, "longitude": -112.83060296970332}, "107622979RR0001": {"name": "LETHBRIDGE CHRISTIAN TABERNACLE", "designationCode": "C", "categoryCode": "39", "address": "1805 9 AVE N", "city": "LETHBRIDGE", "province": "AB", "country": "CA", "postalCode": "T1H1H8", "twitter": "None", "instagram": "None", "facebook": "None", "youtube": "None", "website": "None", "summary": "None", "logo": "None", "latitude": 49.71278946047074, "longitude": -112.81670983236194}, "107622987RR0001": {"name": "LETHBRIDGE COLLEGE", "designationCode": "C", "categoryCode": "20", "address": "3000 COLLEGE DR SOUTH", "city": "LETHBRIDGE", "province": "AB", "country": "CA", "postalCode": "T1K1L6", "twitter": "None", "instagram": "None", "facebook": "None", "youtube": "None", "website": "None", "summary": "None", "logo": "None", "latitude": 49.66566684306094, "longitude": -112.8088559994582}, "119018265RR0001": {"name": "LETHBRIDGE COLLEGE FOUNDATION", "designationCode": "A", "categoryCode": "23", "address": "3000 COLLEGE DR S", "city": "LETHBRIDGE", "province": "AB", "country": "CA", "postalCode": "T1K1L6", "twitter": "None", "instagram": "None", "facebook": "None", "youtube": "None", "website": "None", "summary": "None", "logo": "None", "latitude": 49.66566684306094, "longitude": -112.8088559994582}, "122702285RR0001": {"name": "LETHBRIDGE COLLEGE STUDENTS' ASSOCIATION", "designationCode": "C", "categoryCode": "21", "address": "3000 COLLEGE DR S", "city": "LETHBRIDGE", "province": "AB", "country": "CA", "postalCode": "T1K1L6", "twitter": "None", "instagram": "None", "facebook": "None", "youtube": "None", "website": "None", "summary": "None", "logo": "None", "latitude": 49.66566684306094, "longitude": -112.8088559994582}, "119018299RR0001": {"name": "LETHBRIDGE CRIME STOPPERS ASSOCIATION", "designationCode": "C", "categoryCode": "59", "address": "BOX 663", "city": "LETHBRIDGE", "province": "AB", "country": "CA", "postalCode": "T1J3Z6", "twitter": "None", "instagram": "None", "facebook": "None", "youtube": "None", "website": "None", "summary": "None", "logo": "None", "latitude": 49.69383000000006, "longitude": -112.83373249999994}, "894367762RR0001": {"name": "LETHBRIDGE DETACHMENT VICTIM ASSISTANCE SOCIETY", "designationCode": "C", "categoryCode": "59", "address": "BOX 1358", "city": "LETHBRIDGE", "province": "AB", "country": "CA", "postalCode": "T1J4K1", "twitter": "None", "instagram": "None", "facebook": "None", "youtube": "None", "website": "None", "summary": "None", "logo": "None", "latitude": 49.69383000000006, "longitude": -112.83373249999994}, "107623043RR0001": {"name": "LETHBRIDGE FAMILY SERVICES", "designationCode": "C", "categoryCode": "09", "address": "1107 2 AVENUE A NORTH", "city": "LETHBRIDGE", "province": "AB", "country": "CA", "postalCode": "T1H0E6", "twitter": "None", "instagram": "None", "facebook": "None", "youtube": "None", "website": "None", "summary": "None", "logo": "None", "latitude": 49.700196000000005, "longitude": -112.80162455369255}, "107623068RR0001": {"name": "LETHBRIDGE FIRST BAPTIST CHURCH", "designationCode": "C", "categoryCode": "31", "address": "1614 FIFTH AVENUE SOUTH", "city": "LETHBRIDGE", "province": "AB", "country": "CA", "postalCode": "T1J0W3", "twitter": "None", "instagram": "None", "facebook": "None", "youtube": "None", "website": "None", "summary": "None", "logo": "None", "latitude": 49.69335605691579, "longitude": -112.81906329026769}, "119105146RR0001": {"name": "LETHBRIDGE FOOD BANK SOCIETY", "designationCode": "C", "categoryCode": "09", "address": "1016 2ND AVENUE SOUTH", "city": "LETHBRIDGE", "province": "AB", "country": "CA", "postalCode": "T1J0C9", "twitter": "None", "instagram": "None", "facebook": "None", "youtube": "None", "website": "None", "summary": "None", "logo": "None", "latitude": 49.69707835218093, "longitude": -112.83242236062064}, "119018182RR0001": {"name": "LETHBRIDGE GALT PARK CONGREGATION OF JEHOVAH'S WITNESSES", "designationCode": "C", "categoryCode": "61", "address": "1510 STAFFORD DRIVE N", "city": "LETHBRIDGE", "province": "AB", "country": "CA", "postalCode": "T1H2C5", "twitter": "None", "instagram": "None", "facebook": "None", "youtube": "None", "website": "None", "summary": "None", "logo": "None", "latitude": 49.71847630994775, "longitude": -112.83266128099048}, "892662248RR0001": {"name": "LETHBRIDGE GARDEN PROJECT SOCIETY", "designationCode": "C", "categoryCode": "59", "address": "102 HONEYSUCKLE RD N", "city": "LETHBRIDGE", "province": "AB", "country": "CA", "postalCode": "T1H4J9", "twitter": "None", "instagram": "None", "facebook": "None", "youtube": "None", "website": "None", "summary": "None", "logo": "None", "latitude": 49.721445546742615, "longitude": -112.80235471772755}, "138399035RR0001": {"name": "LETHBRIDGE HABITAT FOR HUMANITY SOCIETY", "designationCode": "C", "categoryCode": "09", "address": "20 ROCKY MTN BLVD W", "city": "LETHBRIDGE", "province": "AB", "country": "CA", "postalCode": "T1K8E1", "twitter": "None", "instagram": "None", "facebook": "None", "youtube": "None", "website": "None", "summary": "None", "logo": "None", "latitude": 49.65920150620376, "longitude": -112.87142019885744}, "119018364RR0001": {"name": "LETHBRIDGE HEBREW CONGREGATION", "designationCode": "C", "categoryCode": "42", "address": "BOX 26", "city": "LETHBRIDGE", "province": "AB", "country": "CA", "postalCode": "T1J0H5", "twitter": "None", "instagram": "None", "facebook": "None", "youtube": "None", "website": "None", "summary": "None", "logo": "None", "latitude": 49.69581000000005, "longitude": -112.83838999999993}, "127799039RR0001": {"name": "LETHBRIDGE HIV CONNECTION SOCIETY", "designationCode": "C", "categoryCode": "09", "address": "1206-6 AVE S", "city": "LETHBRIDGE", "province": "AB", "country": "CA", "postalCode": "T1J1A4", "twitter": "None", "instagram": "None", "facebook": "None", "youtube": "None", "website": "None", "summary": "None", "logo": "None", "latitude": 49.69138577773355, "longitude": -112.82685365623662}, "107623092RR0001": {"name": "LETHBRIDGE JOHN HOWARD SOCIETY", "designationCode": "C", "categoryCode": "59", "address": "PO BOX 1568", "city": "LETHBRIDGE", "province": "AB", "country": "CA", "postalCode": "T1J4K3", "twitter": "None", "instagram": "None", "facebook": "None", "youtube": "None", "website": "None", "summary": "None", "logo": "None", "latitude": 49.69383000000006, "longitude": -112.83373249999994}, "893442442RR0001": {"name": "LETHBRIDGE KINSMEN CHARITIES FOUNDATION", "designationCode": "A", "categoryCode": "63", "address": "102 - ALGONQUIN ROAD W.", "city": "LETHBRIDGE", "province": "AB", "country": "CA", "postalCode": "T1K5H3", "twitter": "None", "instagram": "None", "facebook": "None", "youtube": "None", "website": "None", "summary": "None", "logo": "None", "latitude": 49.68197010990251, "longitude": -112.88249371651547}, "853210961RR0001": {"name": "LETHBRIDGE LAESTADIAN LUTHERAN CHURCH", "designationCode": "B", "categoryCode": "32", "address": "PO BOX 53", "city": "LETHBRIDGE", "province": "AB", "country": "CA", "postalCode": "T1J3X3", "twitter": "None", "instagram": "None", "facebook": "None", "youtube": "None", "website": "None", "summary": "None", "logo": "None", "latitude": 49.69554000000005, "longitude": -112.79652649999994}, "119018398RR0001": {"name": "LETHBRIDGE MENNONITE CHURCH", "designationCode": "C", "categoryCode": "34", "address": "4303 3RD AVE SOUTH", "city": "LETHBRIDGE", "province": "AB", "country": "CA", "postalCode": "T1J4B3", "twitter": "None", "instagram": "None", "facebook": "None", "youtube": "None", "website": "None", "summary": "None", "logo": "None", "latitude": 49.696416, "longitude": -112.80379499878038}, "882009186RR0001": {"name": "LETHBRIDGE MONTESORI SOCIETY", "designationCode": "C", "categoryCode": "20", "address": "915 6 ST S", "city": "LETHBRIDGE", "province": "AB", "country": "CA", "postalCode": "T1J2E9", "twitter": "None", "instagram": "None", "facebook": "None", "youtube": "None", "website": "None", "summary": "None", "logo": "None", "latitude": 49.68549415041274, "longitude": -112.83736131230931}, "895074847RR0001": {"name": "LETHBRIDGE MUSLIM ASSOCIATION", "designationCode": "C", "categoryCode": "60", "address": "501-13ST SOUTH", "city": "LETHBRIDGE", "province": "AB", "country": "CA", "postalCode": "T1J2W1", "twitter": "None", "instagram": "None", "facebook": "None", "youtube": "None", "website": "None", "summary": "None", "logo": "None", "latitude": 49.693284000000006, "longitude": -112.82409151038736}, "871865721RR0001": {"name": "LETHBRIDGE PEOPLE FOR ANIMAL WELFARE (PAW) SOCIETY", "designationCode": "C", "categoryCode": "54", "address": "84 COACHWOOD PT W", "city": "LETHBRIDGE", "province": "AB", "country": "CA", "postalCode": "T1K6A9", "twitter": "None", "instagram": "None", "facebook": "None", "youtube": "None", "website": "None", "summary": "None", "logo": "None", "latitude": 49.689033358329866, "longitude": -112.87820789523337}, "107623340RR0001": {"name": "LETHBRIDGE SCHOOL DISTRICT NO. 51", "designationCode": "C", "categoryCode": "20", "address": "433 15 STREET SOUTH", "city": "LETHBRIDGE", "province": "AB", "country": "CA", "postalCode": "T1J2Z4", "twitter": "None", "instagram": "None", "facebook": "None", "youtube": "None", "website": "None", "summary": "None", "logo": "None", "latitude": 49.694470926942394, "longitude": -112.8208708303941}, "119018463RR0001": {"name": "LETHBRIDGE SEVENT-DAY ADVENTIST CHURCH", "designationCode": "C", "categoryCode": "41", "address": "5820B HIGHWAY 2A", "city": "LACOMBE", "province": "AB", "country": "CA", "postalCode": "T4L2G5", "twitter": "None", "instagram": "None", "facebook": "None", "youtube": "None", "website": "None", "summary": "None", "logo": "None", "latitude": 52.47410023489603, "longitude": -113.71689689961228}, "119018505RR0001": {"name": "LETHBRIDGE SYMPHONY ASSOCIATION", "designationCode": "C", "categoryCode": "22", "address": "PO BOX 1101 STN MAIN", "city": "LETHBRIDGE", "province": "AB", "country": "CA", "postalCode": "T1J4A2", "twitter": "None", "instagram": "None", "facebook": "None", "youtube": "None", "website": "None", "summary": "None", "logo": "None", "latitude": 49.69383000000006, "longitude": -112.83373249999994}, "899342893RR0001": {"name": "LETHBRIDGE YOUTH FOUNDATION", "designationCode": "C", "categoryCode": "20", "address": "435 5 ST S", "city": "LETHBRIDGE", "province": "AB", "country": "CA", "postalCode": "T1J2B6", "twitter": "None", "instagram": "None", "facebook": "None", "youtube": "None", "website": "None", "summary": "None", "logo": "None", "latitude": 49.69308921648681, "longitude": -112.8399890205149}, "119018331RR0001": {"name": "LETHBRIDGE, FIRST UNITED CHURCH", "designationCode": "C", "categoryCode": "44", "address": "PO BOX 1453", "city": "LETHBRIDGE", "province": "AB", "country": "CA", "postalCode": "T1J4A2", "twitter": "None", "instagram": "None", "facebook": "None", "youtube": "None", "website": "None", "summary": "None", "logo": "None", "latitude": 49.69383000000006, "longitude": -112.83373249999994}, "107996605RR0001": {"name": "LETHBRIDGE, SOUTHMINSTER UNITED CHURCH", "designationCode": "C", "categoryCode": "44", "address": "3425-2 AVENUE SOUTH", "city": "LETHBRIDGE", "province": "AB", "country": "CA", "postalCode": "T1J4V1", "twitter": "None", "instagram": "None", "facebook": "None", "youtube": "None", "website": "None", "summary": "None", "logo": "None", "latitude": 49.696839530439966, "longitude": -112.78914308381903}, "118959253RR0001": {"name": "LETTERBREEN PASTORAL CHARGE", "designationCode": "C", "categoryCode": "44", "address": "082885 LETTERBREEN RD         RR# 4", "city": "MOUNT FOREST", "province": "ON", "country": "CA", "postalCode": "N0G2L0", "twitter": "None", "instagram": "None", "facebook": "None", "youtube": "None", "website": "None", "summary": "None", "logo": "None", "latitude": 44.016711763619504, "longitude": -80.79566843285049}, "132142779RR0001": {"name": "LETTRES EN MAIN", "designationCode": "C", "categoryCode": "20", "address": "5483 12IEME AVENUE", "city": "MONTREAL", "province": "QC", "country": "CA", "postalCode": "H1X2Z8", "twitter": "None", "instagram": "None", "facebook": "None", "youtube": "None", "website": "None", "summary": "None", "logo": "None", "latitude": 45.5521248953776, "longitude": -73.57452397501302}, "119018703RR0001": {"name": "LEUCAN INC.", "designationCode": "C", "categoryCode": "11", "address": "300 - 550 AV BEAUMONT", "city": "MONTREAL", "province": "QC", "country": "CA", "postalCode": "H3N1V1", "twitter": "None", "instagram": "None", "facebook": "None", "youtube": "None", "website": "None", "summary": "None", "logo": "None", "latitude": 45.52730730861573, "longitude": -73.6195984028221}, "119018810RR0001": {"name": "LEVON-PEROUZ BABAYAN FOUNDATION", "designationCode": "B", "categoryCode": "03", "address": "245 THE DONWAY WEST, APT 206", "city": "NORTH YORK", "province": "ON", "country": "CA", "postalCode": "M3B3M2", "twitter": "None", "instagram": "None", "facebook": "None", "youtube": "None", "website": "None", "summary": "None", "logo": "None", "latitude": 43.739415913382345, "longitude": -79.3465516012182}, "829915768RR0001": {"name": "LEVY FAMILY FOUNDATION", "designationCode": "B", "categoryCode": "05", "address": "227 FLAMINGO ROAD", "city": "THORNHILL", "province": "ON", "country": "CA", "postalCode": "L4J8K6", "twitter": "None", "instagram": "None", "facebook": "None", "youtube": "None", "website": "None", "summary": "None", "logo": "None", "latitude": 43.82387736969817, "longitude": -79.44579798095698}, "854385804RR0001": {"name": "LEWIS MOUNTAIN CEMETERY LTD.", "designationCode": "C", "categoryCode": "59", "address": "765 SCOTT RD", "city": "LEWIS MOUNTAIN", "province": "NB", "country": "CA", "postalCode": "E4J3B7", "twitter": "None", "instagram": "None", "facebook": "None", "youtube": "None", "website": "None", "summary": "None", "logo": "None", "latitude": 46.03939895799545, "longitude": -65.15062221570588}, "890675788RR0001": {"name": "LEWIS MOUNTAIN UNITED BAPTIST CHURCH", "designationCode": "C", "categoryCode": "31", "address": "5915 ROUTE 880", "city": "LEWIS MOUNTAIN", "province": "NB", "country": "CA", "postalCode": "E4J3A5", "twitter": "None", "instagram": "None", "facebook": "None", "youtube": "None", "website": "None", "summary": "None", "logo": "None", "latitude": 46.04322968928154, "longitude": -65.1674607551072}, "891805657RR0001": {"name": "LEWISPORTE BAPTIST CHURCH", "designationCode": "C", "categoryCode": "31", "address": "BOX 1109", "city": "LEWISPORTE", "province": "NL", "country": "CA", "postalCode": "A0G3A0", "twitter": "None", "instagram": "None", "facebook": "None", "youtube": "None", "website": "None", "summary": "None", "logo": "None", "latitude": 49.24179000000004, "longitude": -55.05992999999995}, "132704800RR0001": {"name": "LEWISPORTE PASTORAL CHARGE,", "designationCode": "C", "categoryCode": "44", "address": "P.O. BOX 67", "city": "LEWISPORTE", "province": "NL", "country": "CA", "postalCode": "A0G3A0", "twitter": "None", "instagram": "None", "facebook": "None", "youtube": "None", "website": "None", "summary": "None", "logo": "None", "latitude": 49.24179000000004, "longitude": -55.05992999999995}, "131849382RR0001": {"name": "LEWISVILLE BAPTIST CHURCH", "designationCode": "C", "categoryCode": "39", "address": "109 PLEASANT ST", "city": "MONCTON", "province": "NB", "country": "CA", "postalCode": "E1A2V3", "twitter": "None", "instagram": "None", "facebook": "None", "youtube": "None", "website": "None", "summary": "None", "logo": "None", "latitude": 46.10508328172417, "longitude": -64.76655442798196}, "885450205RR0001": {"name": "LI - THE LEADERSHIP INSTITUTE", "designationCode": "C", "categoryCode": "20", "address": "P.O. BOX 127", "city": "MANSONS LANDING", "province": "BC", "country": "CA", "postalCode": "V0P1K0", "twitter": "None", "instagram": "None", "facebook": "None", "youtube": "None", "website": "None", "summary": "None", "logo": "None", "latitude": 50.036434079347345, "longitude": -124.97587983491626}, "857269971RR0001": {"name": "LI KA SHING (CANADA) FOUNDATION", "designationCode": "B", "categoryCode": "03", "address": "5300 COMMERCE COURT WEST      199 BAY STREET", "city": "TORONTO", "province": "ON", "country": "CA", "postalCode": "M5L1B9", "twitter": "None", "instagram": "None", "facebook": "None", "youtube": "None", "website": "None", "summary": "None", "logo": "None", "latitude": 43.64868300000006, "longitude": -79.38544399999994}, "123821639RR0001": {"name": "LIAISON JUSTICE", "designationCode": "C", "categoryCode": "59", "address": "850  4EME AVENUE", "city": "VAL D'OR", "province": "QC", "country": "CA", "postalCode": "J9P1J5", "twitter": "None", "instagram": "None", "facebook": "None", "youtube": "None", "website": "None", "summary": "None", "logo": "None", "latitude": 48.103773662242375, "longitude": -77.78797336842874}, "125986406RR0001": {"name": "LIAISON OF INDEPENDENT FILMMAKERS OF TORONTO", "designationCode": "C", "categoryCode": "22", "address": "1137 DUPONT ST.", "city": "TORONTO", "province": "ON", "country": "CA", "postalCode": "M6H2A3", "twitter": "None", "instagram": "None", "facebook": "None", "youtube": "None", "website": "None", "summary": "None", "logo": "None", "latitude": 43.66858787148717, "longitude": -79.4379170276127}, "103321873RR0001": {"name": "LIAISON 12-18 INC.", "designationCode": "C", "categoryCode": "09", "address": "31 AVENUE THORNE              CP 124", "city": "TEMISCAMING", "province": "QC", "country": "CA", "postalCode": "J0Z3R0", "twitter": "None", "instagram": "None", "facebook": "None", "youtube": "None", "website": "None", "summary": "None", "logo": "None", "latitude": 46.718696775751575, "longitude": -79.09965190839068}, "871551016RR0001": {"name": "LIAN YIN BUDDHA CHARITABLE FOUNDATION", "designationCode": "C", "categoryCode": "35", "address": "135 18 AVE NE", "city": "CALGARY", "province": "AB", "country": "CA", "postalCode": "T2E1N1", "twitter": "None", "instagram": "None", "facebook": "None", "youtube": "None", "website": "None", "summary": "None", "logo": "None", "latitude": 51.068770513994025, "longitude": -114.06043333236194}, "860057538RR0001": {"name": "LIANE & DANNY TARAN FOUNDATION / LA FONDATION LIANE & DANNY TARAN", "designationCode": "B", "categoryCode": "23", "address": "361 KENASTON AVENUE", "city": "TOWN OF MONT ROYAL", "province": "QC", "country": "CA", "postalCode": "H3R1M7", "twitter": "None", "instagram": "None", "facebook": "None", "youtube": "None", "website": "None", "summary": "None", "logo": "None", "latitude": 45.51026324508045, "longitude": -73.65135448906437}, "866008030RR0001": {"name": "LIARD ABORIGINAL WOMEN'S SOCIETY", "designationCode": "C", "categoryCode": "09", "address": "BOX 3", "city": "WATSON LAKE", "province": "YT", "country": "CA", "postalCode": "Y0A1C0", "twitter": "None", "instagram": "None", "facebook": "None", "youtube": "None", "website": "None", "summary": "None", "logo": "None", "latitude": 60.062928000000056, "longitude": -128.71524049999994}, "890904121RR0001": {"name": "LIARD EVANGELICAL FREE CHURCH", "designationCode": "C", "categoryCode": "39", "address": "PO BOX 491", "city": "WATSON LAKE", "province": "YT", "country": "CA", "postalCode": "Y0A1C0", "twitter": "None", "instagram": "None", "facebook": "None", "youtube": "None", "website": "None", "summary": "None", "logo": "None", "latitude": 60.062928000000056, "longitude": -128.71524049999994}, "889078267RR0001": {"name": "LIAT BENEVOLENT SERVICES OF CANADA INC.", "designationCode": "C", "categoryCode": "01", "address": "97 ANNETTE ST", "city": "TORONTO", "province": "ON", "country": "CA", "postalCode": "M6P1N7", "twitter": "None", "instagram": "None", "facebook": "None", "youtube": "None", "website": "None", "summary": "None", "logo": "None", "latitude": 43.663477820416716, "longitude": -79.46314618526743}, "129916342RR0001": {"name": "LIBBIE YOUNG CENTRE INC", "designationCode": "C", "categoryCode": "01", "address": "PO BOX 2013 STN MAIN", "city": "LLOYDMINSTER", "province": "SK", "country": "CA", "postalCode": "S9V1R5", "twitter": "None", "instagram": "None", "facebook": "None", "youtube": "None", "website": "None", "summary": "None", "logo": "None", "latitude": 53.274840000000054, "longitude": -109.99074949999994}, "867183691RR0001": {"name": "LIBERAL CHURCH LADIES CLUB", "designationCode": "C", "categoryCode": "59", "address": "BOX 1864", "city": "STETTLER", "province": "AB", "country": "CA", "postalCode": "T0C2L0", "twitter": "None", "instagram": "None", "facebook": "None", "youtube": "None", "website": "None", "summary": "None", "logo": "None", "latitude": 52.32597900000006, "longitude": -112.70698099999993}, "892262247RR0001": {"name": "LIBERT\u00c9 DE CHOISIR", "designationCode": "C", "categoryCode": "59", "address": "53 CHANOINE GROULX", "city": "VAUDREUIL", "province": "QC", "country": "CA", "postalCode": "J7V2T9", "twitter": "None", "instagram": "None", "facebook": "None", "youtube": "None", "website": "None", "summary": "None", "logo": "None", "latitude": 45.39911268053557, "longitude": -74.03164521997792}, "851661470RR0001": {"name": "LIBERTY BAPTIST CHURCH", "designationCode": "C", "categoryCode": "31", "address": "P.O. BOX 392", "city": "LINDSAY", "province": "ON", "country": "CA", "postalCode": "K9V6L2", "twitter": "None", "instagram": "None", "facebook": "None", "youtube": "None", "website": "None", "summary": "None", "logo": "None", "latitude": 44.34277200000005, "longitude": -78.72616249999993}, "119288918RR1421": {"name": "LIBERTY CONGREGATION OF JEHOVAH'S WITNESSES, BOWMANVILLE, ONTARIO", "designationCode": "C", "categoryCode": "61", "address": "11 LORRAINE COURT", "city": "BOWMANVILLE", "province": "ON", "country": "CA", "postalCode": "L1C3L5", "twitter": "None", "instagram": "None", "facebook": "None", "youtube": "None", "website": "None", "summary": "None", "logo": "None", "latitude": 43.920570657222065, "longitude": -78.68576869288484}, "888541505RR0001": {"name": "LIBERTY FOR YOUTH", "designationCode": "C", "categoryCode": "59", "address": "1925 KING ST E", "city": "HAMILTON", "province": "ON", "country": "CA", "postalCode": "L8K1V9", "twitter": "None", "instagram": "None", "facebook": "None", "youtube": "None", "website": "None", "summary": "None", "logo": "None", "latitude": 43.23160243493553, "longitude": -79.80573194018697}, "896286895RR0001": {"name": "LIBERTY INTERNATIONAL CHURCH", "designationCode": "C", "categoryCode": "36", "address": "96 SHORNCLIFFE ROAD", "city": "TORONTO", "province": "ON", "country": "CA", "postalCode": "M8Z5K5", "twitter": "None", "instagram": "None", "facebook": "None", "youtube": "None", "website": "None", "summary": "None", "logo": "None", "latitude": 43.62533479404477, "longitude": -79.54187402019684}, "874246614RR0001": {"name": "LIBERTY INTERNATIONAL MINISTRIES", "designationCode": "C", "categoryCode": "39", "address": "3403 EAST 49TH AVE", "city": "VANCOUVER", "province": "BC", "country": "CA", "postalCode": "V5S1M1", "twitter": "None", "instagram": "None", "facebook": "None", "youtube": "None", "website": "None", "summary": "None", "logo": "None", "latitude": 49.22462238776022, "longitude": -123.03143769579901}, "138722285RR0001": {"name": "LIBERTY LANE INC", "designationCode": "C", "categoryCode": "01", "address": "P.O BOX 1441, STN A", "city": "FREDERICTON", "province": "NB", "country": "CA", "postalCode": "E3B5G2", "twitter": "None", "instagram": "None", "facebook": "None", "youtube": "None", "website": "None", "summary": "None", "logo": "None", "latitude": 45.96062100000006, "longitude": -66.63911299999994}, "879872901RR0001": {"name": "LIBERTY MINISTRIES INC.", "designationCode": "C", "categoryCode": "36", "address": "PO BOX 208 STN POSTAL BOX CTR", "city": "RED DEER", "province": "AB", "country": "CA", "postalCode": "T4N5E8", "twitter": "None", "instagram": "None", "facebook": "None", "youtube": "None", "website": "None", "summary": "None", "logo": "None", "latitude": 52.26852300000006, "longitude": -113.80901299999994}, "867950339RR0001": {"name": "LIBERTY PENTECOSTAL CHURCH", "designationCode": "C", "categoryCode": "36", "address": "1965 MARTIN RD N", "city": "BOWMANVILLE", "province": "ON", "country": "CA", "postalCode": "L1C3K4", "twitter": "None", "instagram": "None", "facebook": "None", "youtube": "None", "website": "None", "summary": "None", "logo": "None", "latitude": 43.90725031730488, "longitude": -78.70044591588947}, "122078983RR0001": {"name": "LIBERTY TEMPLE INC", "designationCode": "C", "categoryCode": "39", "address": "115 COSTELLO DRIVE", "city": "WINNIPEG", "province": "MB", "country": "CA", "postalCode": "R2Y1V6", "twitter": "None", "instagram": "None", "facebook": "None", "youtube": "None", "website": "None", "summary": "None", "logo": "None", "latitude": 49.88881340940029, "longitude": -97.30883400305842}, "891586794RR0001": {"name": "LIBERTY WORLD MINISTRIES INC", "designationCode": "B", "categoryCode": "47", "address": "26765-30TH AVE", "city": "ALDERGROVE", "province": "BC", "country": "CA", "postalCode": "V4W3B9", "twitter": "None", "instagram": "None", "facebook": "None", "youtube": "None", "website": "None", "summary": "None", "logo": "None", "latitude": 49.05686147821569, "longitude": -122.48226745989382}, "103323440RR0001": {"name": "LIBRA HOUSE INC.", "designationCode": "C", "categoryCode": "01", "address": "PO BOX 449 STATION B", "city": "HAPPY VALLEY LABRADOR", "province": "NL", "country": "CA", "postalCode": "A0P1E0", "twitter": "None", "instagram": "None", "facebook": "None", "youtube": "None", "website": "None", "summary": "None", "logo": "None", "latitude": 53.29581900000005, "longitude": -60.29593999999993}, "863093597RR0001": {"name": "LIBRAIRIE CHRETIENNE DE MONTREAL", "designationCode": "C", "categoryCode": "47", "address": "101-2484 DE SALABERRY", "city": "MONTREAL", "province": "QC", "country": "CA", "postalCode": "H3M1K9", "twitter": "None", "instagram": "None", "facebook": "None", "youtube": "None", "website": "None", "summary": "None", "logo": "None", "latitude": 45.53842918177632, "longitude": -73.6986340496568}, "875553737RR0001": {"name": "LIBRAIRIE PAULINES DE MONTREAL", "designationCode": "C", "categoryCode": "50", "address": "5610 RUE BEAUBIEN EST", "city": "MONTR\u00c9AL", "province": "QC", "country": "CA", "postalCode": "H1T1X5", "twitter": "None", "instagram": "None", "facebook": "None", "youtube": "None", "website": "None", "summary": "None", "logo": "None", "latitude": 45.57809610990252, "longitude": -73.56655072534495}}