{"890950348RR0001": {"name": "INTERLAKES VOLUNTEER FIRE DEPARTMENT", "designationCode": "C", "categoryCode": "59", "address": "7272 WILLOW RD", "city": "LONE BUTTE", "province": "BC", "country": "CA", "postalCode": "V0K1X1", "twitter": "None", "instagram": "None", "facebook": "None", "youtube": "None", "website": "None", "summary": "None", "logo": "None", "latitude": 51.52681411485043, "longitude": -120.95866256632385}, "107449811RR0001": {"name": "INTERLINK", "designationCode": "C", "categoryCode": "50", "address": "#158 - 5489 BYRNE ROAD", "city": "BURNABY", "province": "BC", "country": "CA", "postalCode": "V5J3J1", "twitter": "None", "instagram": "None", "facebook": "None", "youtube": "None", "website": "None", "summary": "None", "logo": "None", "latitude": 49.200188845692146, "longitude": -122.9852083297362}, "880400627RR0001": {"name": "INTERNATIONAL ACADEMY OF CARDIOVASCULAR SCIENCES INC", "designationCode": "C", "categoryCode": "11", "address": "351 TACHE AVENUE              ST.BONIFACE RESEARCH CENTER", "city": "WINNIPEG", "province": "MB", "country": "CA", "postalCode": "R2H2A6", "twitter": "None", "instagram": "None", "facebook": "None", "youtube": "None", "website": "None", "summary": "None", "logo": "None", "latitude": 49.88290532334683, "longitude": -97.12358397889503}, "825882673RR0001": {"name": "INTERNATIONAL ARABIC MINISTRIES", "designationCode": "C", "categoryCode": "47", "address": "#265-12899 76 AVE", "city": "SURREY", "province": "BC", "country": "CA", "postalCode": "V3W1E6", "twitter": "None", "instagram": "None", "facebook": "None", "youtube": "None", "website": "None", "summary": "None", "logo": "None", "latitude": 49.1410654565756, "longitude": -122.8648936902591}, "890743594RR0001": {"name": "INTERNATIONAL ASSOCIATION FOR TRANSFORMATION", "designationCode": "C", "categoryCode": "29", "address": "992 NIGHTINGALE ROAD", "city": "MILL BAY", "province": "BC", "country": "CA", "postalCode": "V0R2P2", "twitter": "None", "instagram": "None", "facebook": "None", "youtube": "None", "website": "None", "summary": "None", "logo": "None", "latitude": 48.6786684965828, "longitude": -123.5702900944957}, "891225799RR0001": {"name": "INTERNATIONAL ASSOCIATION OF AGRICULTURAL ECONOMISTS (CANADIAN COUNCIL)", "designationCode": "C", "categoryCode": "21", "address": "4 BRINK ROAD", "city": "CHELSEA", "province": "QC", "country": "CA", "postalCode": "J9B2C6", "twitter": "None", "instagram": "None", "facebook": "None", "youtube": "None", "website": "None", "summary": "None", "logo": "None", "latitude": 45.54651850320266, "longitude": -75.82675726715321}, "132545096RR0001": {"name": "INTERNATIONAL ASSOCIATION OF PROGRESSIVE MONTESSORIANS", "designationCode": "C", "categoryCode": "20", "address": "1841 FAIRBURN ROAD", "city": "VICTORIA", "province": "BC", "country": "CA", "postalCode": "V8N1P8", "twitter": "None", "instagram": "None", "facebook": "None", "youtube": "None", "website": "None", "summary": "None", "logo": "None", "latitude": 48.4741915822325, "longitude": -123.31839625549647}, "869328310RR0001": {"name": "INTERNATIONAL AVENUE ARTS AND CULTURE CENTRE", "designationCode": "C", "categoryCode": "22", "address": "210-4202 17 AVE SE", "city": "CALGARY", "province": "AB", "country": "CA", "postalCode": "T2A0T2", "twitter": "None", "instagram": "None", "facebook": "None", "youtube": "None", "website": "None", "summary": "None", "logo": "None", "latitude": 51.037880467684104, "longitude": -113.97407383236194}, "118970235RR0001": {"name": "INTERNATIONAL BHAKTIYOGA SADHANA SOCIETY", "designationCode": "C", "categoryCode": "49", "address": "56 CASA GRANDE STREET", "city": "RICHMOND HILL", "province": "ON", "country": "CA", "postalCode": "L4S1R1", "twitter": "None", "instagram": "None", "facebook": "None", "youtube": "None", "website": "None", "summary": "None", "logo": "None", "latitude": 43.89847639050153, "longitude": -79.46758646228841}, "824679542RR0001": {"name": "INTERNATIONAL BIBLE BAPTIST CHURCH CANADA INC.", "designationCode": "C", "categoryCode": "31", "address": "A - 6520 GLEN ERIN DR", "city": "MISSISSAUGA", "province": "ON", "country": "CA", "postalCode": "L5N3S3", "twitter": "None", "instagram": "None", "facebook": "None", "youtube": "None", "website": "None", "summary": "None", "logo": "None", "latitude": 43.58176164472857, "longitude": -79.7527306608574}, "107510935RR0001": {"name": "INTERNATIONAL BIBLE COLLEGE", "designationCode": "C", "categoryCode": "20", "address": "401 TRINITY LANE", "city": "MOOSE JAW", "province": "SK", "country": "CA", "postalCode": "S6H0E3", "twitter": "None", "instagram": "None", "facebook": "None", "youtube": "None", "website": "None", "summary": "None", "logo": "None", "latitude": 50.38505432707176, "longitude": -105.52509645250873}, "118970250RR0001": {"name": "INTERNATIONAL BIBLE COLLEGE STUDENT ASSOCIATION", "designationCode": "A", "categoryCode": "43", "address": "410 TRINITY LANE", "city": "MOOSE JAW", "province": "SK", "country": "CA", "postalCode": "S6H0E3", "twitter": "None", "instagram": "None", "facebook": "None", "youtube": "None", "website": "None", "summary": "None", "logo": "None", "latitude": 50.38499488205057, "longitude": -105.52485178824868}, "851193375RR0001": {"name": "INTERNATIONAL BIBLE HOUSE PUBLISHING SOCIETY", "designationCode": "C", "categoryCode": "47", "address": "7630 BERG RD", "city": "DELTA", "province": "BC", "country": "CA", "postalCode": "V4G1G4", "twitter": "None", "instagram": "None", "facebook": "None", "youtube": "None", "website": "None", "summary": "None", "logo": "None", "latitude": 49.141456031828916, "longitude": -123.01201577126609}, "888087269RR0001": {"name": "INTERNATIONAL BIBLE TO ALL SOCIETY", "designationCode": "C", "categoryCode": "47", "address": "34850 GLENEAGLES PL", "city": "ABBOTSFORD", "province": "BC", "country": "CA", "postalCode": "V2S7G5", "twitter": "None", "instagram": "None", "facebook": "None", "youtube": "None", "website": "None", "summary": "None", "logo": "None", "latitude": 49.056026481245446, "longitude": -122.25925238926077}, "107510943RR0001": {"name": "INTERNATIONAL BIBLICAL BAPTIST FELLOWSHIP", "designationCode": "C", "categoryCode": "47", "address": "BOX 114", "city": "CASTOR", "province": "AB", "country": "CA", "postalCode": "T0C0X0", "twitter": "None", "instagram": "None", "facebook": "None", "youtube": "None", "website": "None", "summary": "None", "logo": "None", "latitude": 52.21792000000005, "longitude": -111.90889999999996}, "118970268RR0001": {"name": "INTERNATIONAL BOARD ON BOOKS FOR YOUNG PEOPLE-CANADIAN SECTION/L'UNION INTERNATIONALE POUR LES LIVRES DE JEUNESSE-SECTION CANADIENNE", "designationCode": "C", "categoryCode": "21", "address": "101-40 ORCHARD VIEW BLVD      LOWER LEVEL", "city": "TORONTO", "province": "ON", "country": "CA", "postalCode": "M4R1B9", "twitter": "None", "instagram": "None", "facebook": "None", "youtube": "None", "website": "None", "summary": "None", "logo": "None", "latitude": 43.70762379005355, "longitude": -79.40135901474115}, "897305884RR0001": {"name": "INTERNATIONAL BUDDHIST PROGRESS SOCIETY (EDMONTON)", "designationCode": "C", "categoryCode": "35", "address": "10232-103 STREET N.W.", "city": "EDMONTON", "province": "AB", "country": "CA", "postalCode": "T5J0Y8", "twitter": "None", "instagram": "None", "facebook": "None", "youtube": "None", "website": "None", "summary": "None", "logo": "None", "latitude": 53.54371761226844, "longitude": -113.4974382292974}, "882048184RR0001": {"name": "INTERNATIONAL BUDDHIST PROGRESS SOCIETY OF OTTAWA-CARLETON", "designationCode": "C", "categoryCode": "35", "address": "1950 SCOTT STREET", "city": "OTTAWA", "province": "ON", "country": "CA", "postalCode": "K1Z8L8", "twitter": "None", "instagram": "None", "facebook": "None", "youtube": "None", "website": "None", "summary": "None", "logo": "None", "latitude": 45.397246621963305, "longitude": -75.74965086981372}, "136720273RR0001": {"name": "INTERNATIONAL BUDDHIST PROGRESS SOCIETY OF TORONTO", "designationCode": "C", "categoryCode": "35", "address": "6525 MILLCREEK DRIVE", "city": "MISSISSAUGA", "province": "ON", "country": "CA", "postalCode": "L5N7K6", "twitter": "None", "instagram": "None", "facebook": "None", "youtube": "None", "website": "None", "summary": "None", "logo": "None", "latitude": 43.59098342385568, "longitude": -79.74355545429658}, "880905302RR0001": {"name": "INTERNATIONAL BUSINESS PEOPLE MINISTRIES", "designationCode": "C", "categoryCode": "49", "address": "15100 66A AVENUE", "city": "SURREY", "province": "BC", "country": "CA", "postalCode": "V3S2A6", "twitter": "None", "instagram": "None", "facebook": "None", "youtube": "None", "website": "None", "summary": "None", "logo": "None", "latitude": 49.123491517889164, "longitude": -122.80362194171619}, "890181241RR0001": {"name": "INTERNATIONAL CATHOLIC DEAF ASSOCIATION", "designationCode": "C", "categoryCode": "49", "address": "19 HIGHBURN CRES", "city": "GLOUCESTER", "province": "ON", "country": "CA", "postalCode": "K1B3H7", "twitter": "None", "instagram": "None", "facebook": "None", "youtube": "None", "website": "None", "summary": "None", "logo": "None", "latitude": 45.43846582431186, "longitude": -75.56561178463838}, "850957614RR0001": {"name": "INTERNATIONAL CENTRAL GOSPEL CHURCH - EDMONTON", "designationCode": "C", "categoryCode": "39", "address": "P.O. BOX 60026, UNIVERSITY OF ALBERTA POSTAL OUTLET", "city": "EDMONTON", "province": "AB", "country": "CA", "postalCode": "T6G2S4", "twitter": "None", "instagram": "None", "facebook": "None", "youtube": "None", "website": "None", "summary": "None", "logo": "None"}, "859270340RR0001": {"name": "INTERNATIONAL CENTRE FOR INFECTIOUS DISEASES INC.", "designationCode": "C", "categoryCode": "19", "address": "515 PORTAGE AVE", "city": "WINNIPEG", "province": "MB", "country": "CA", "postalCode": "R3B2E9", "twitter": "None", "instagram": "None", "facebook": "None", "youtube": "None", "website": "None", "summary": "None", "logo": "None", "latitude": 49.89031476164195, "longitude": -97.15288240290808}, "118970300RR0001": {"name": "INTERNATIONAL CHILD CARE (CANADA) INC.", "designationCode": "C", "categoryCode": "09", "address": "372 ERB ST W", "city": "WATERLOO", "province": "ON", "country": "CA", "postalCode": "N2L1W6", "twitter": "None", "instagram": "None", "facebook": "None", "youtube": "None", "website": "None", "summary": "None", "logo": "None", "latitude": 43.45425664060229, "longitude": -80.54849195380564}, "887858660RR0001": {"name": "INTERNATIONAL CHILDREN'S AWARENESS", "designationCode": "C", "categoryCode": "01", "address": "140 DALHOUSIE AVE", "city": "ST CATHARINES", "province": "ON", "country": "CA", "postalCode": "L2N4X4", "twitter": "None", "instagram": "None", "facebook": "None", "youtube": "None", "website": "None", "summary": "None", "logo": "None", "latitude": 43.19877084375891, "longitude": -79.27506931253951}, "886627793RR0001": {"name": "INTERNATIONAL CHILDREN'S HAVEN (CANADA) SOCIETY", "designationCode": "C", "categoryCode": "01", "address": "47982 YALE RD", "city": "CHILLIWACK", "province": "BC", "country": "CA", "postalCode": "V4Z0A8", "twitter": "None", "instagram": "None", "facebook": "None", "youtube": "None", "website": "None", "summary": "None", "logo": "None", "latitude": 49.18201484739612, "longitude": -121.89619612352118}, "893019927RR0001": {"name": "INTERNATIONAL CHILDREN'S MEMORIAL PLACE LTD.", "designationCode": "C", "categoryCode": "09", "address": "PO BOX 159", "city": "SUMMERSIDE", "province": "PE", "country": "CA", "postalCode": "C1N4Y8", "twitter": "None", "instagram": "None", "facebook": "None", "youtube": "None", "website": "None", "summary": "None", "logo": "None", "latitude": 46.39407900000006, "longitude": -63.791980999999936}, "867370645RR0001": {"name": "INTERNATIONAL CHINA CONCERN (CANADA)", "designationCode": "C", "categoryCode": "01", "address": "7B-5707 SIDLEY ST", "city": "BURNABY", "province": "BC", "country": "CA", "postalCode": "V5J5E6", "twitter": "None", "instagram": "None", "facebook": "None", "youtube": "None", "website": "None", "summary": "None", "logo": "None", "latitude": 49.217172420508795, "longitude": -122.98071902830519}, "139155840RR0001": {"name": "INTERNATIONAL CHRISTIAN CENTRE", "designationCode": "C", "categoryCode": "36", "address": "1483 QUEEN ST W", "city": "TORONTO", "province": "ON", "country": "CA", "postalCode": "M6R1A1", "twitter": "None", "instagram": "None", "facebook": "None", "youtube": "None", "website": "None", "summary": "None", "logo": "None", "latitude": 43.639987736597675, "longitude": -79.43949859172488}, "868307943RR0001": {"name": "INTERNATIONAL CHRISTIAN CONTACTS MINISTRIES", "designationCode": "C", "categoryCode": "47", "address": "P.O. BOX 874", "city": "SARNIA", "province": "ON", "country": "CA", "postalCode": "N7T7J9", "twitter": "None", "instagram": "None", "facebook": "None", "youtube": "None", "website": "None", "summary": "None", "logo": "None", "latitude": 42.97877700000005, "longitude": -82.40368399999993}, "107511420RR0001": {"name": "INTERNATIONAL CHRISTIAN FELLOWSHIP EVANGELICAL FREE CHURCH", "designationCode": "C", "categoryCode": "39", "address": "BOX 13", "city": "PINEY", "province": "MB", "country": "CA", "postalCode": "R0A1K0", "twitter": "None", "instagram": "None", "facebook": "None", "youtube": "None", "website": "None", "summary": "None", "logo": "None", "latitude": 49.13571300000005, "longitude": -96.09338149999994}, "859450900RR0001": {"name": "INTERNATIONAL CHRISTIAN FOUNDATION FOR SOCIAL SECURITY IN LEBANON AND THE MIDDLES EAST ICF-SSLME / FONDATION CHRETIENNE INTERNATIONALE POUR LA SECURITE SOCIAL AU LIBAN ET AU", "designationCode": "C", "categoryCode": "09", "address": "2282, BOULEVARD LEVESQUE EST", "city": "LAVAL", "province": "QC", "country": "CA", "postalCode": "H7E2N1", "twitter": "None", "instagram": "None", "facebook": "None", "youtube": "None", "website": "None", "summary": "None", "logo": "None", "latitude": 45.57969030446079, "longitude": -73.66874320563811}, "118970383RR0001": {"name": "INTERNATIONAL CHRISTIAN LEADERSHIP TRAINING", "designationCode": "C", "categoryCode": "47", "address": "27901 JUNCTION AVE", "city": "ABBOTSFORD", "province": "BC", "country": "CA", "postalCode": "V4X2R6", "twitter": "None", "instagram": "None", "facebook": "None", "youtube": "None", "website": "None", "summary": "None", "logo": "None", "latitude": 49.05320152596791, "longitude": -122.45145283236194}, "135783934RR0001": {"name": "INTERNATIONAL CHRISTIAN MINISTRIES", "designationCode": "C", "categoryCode": "47", "address": "34181 17790#10 HWY", "city": "SURREY", "province": "BC", "country": "CA", "postalCode": "V3S8C4", "twitter": "None", "instagram": "None", "facebook": "None", "youtube": "None", "website": "None", "summary": "None", "logo": "None", "latitude": 49.10405674887256, "longitude": -122.72953324887257}, "118970425RR0001": {"name": "INTERNATIONAL CHRISTIAN MISSION INC. HEADQUARTERS", "designationCode": "C", "categoryCode": "47", "address": "737 ACADEMIC AVE", "city": "GREENWOOD", "province": "NS", "country": "CA", "postalCode": "B0P1R0", "twitter": "None", "instagram": "None", "facebook": "None", "youtube": "None", "website": "None", "summary": "None", "logo": "None", "latitude": 44.970896826562225, "longitude": -64.938631692221}, "834646341RR0001": {"name": "INTERNATIONAL CHRISTIAN MISSION SERVICES", "designationCode": "C", "categoryCode": "47", "address": "B11-32112 SOUTH FRASER WAY", "city": "ABBOTSFORD", "province": "BC", "country": "CA", "postalCode": "V2T1W4", "twitter": "None", "instagram": "None", "facebook": "None", "youtube": "None", "website": "None", "summary": "None", "logo": "None", "latitude": 49.050741417681515, "longitude": -122.3344214965089}, "872714514RR0001": {"name": "INTERNATIONAL CHRISTIAN RESPONSE", "designationCode": "C", "categoryCode": "47", "address": "5788 203 ST", "city": "LANGLEY", "province": "BC", "country": "CA", "postalCode": "V3A1W3", "twitter": "None", "instagram": "None", "facebook": "None", "youtube": "None", "website": "None", "summary": "None", "logo": "None", "latitude": 49.107383631151784, "longitude": -122.66002258976388}, "808915698RR0001": {"name": "INTERNATIONAL CHURCHILL SOCIETY CANADA - SOCI\u00c9T\u00c9 INTERNATIONALE CHURCHILL CANADA", "designationCode": "C", "categoryCode": "21", "address": "570, LETITIA COURT", "city": "BURLINGTON", "province": "ON", "country": "CA", "postalCode": "L7N2Y8", "twitter": "None", "instagram": "None", "facebook": "None", "youtube": "None", "website": "None", "summary": "None", "logo": "None", "latitude": 43.349900805153275, "longitude": -79.78040195227643}, "890943269RR0001": {"name": "INTERNATIONAL COMMISSION OF JURISTS CANADIAN SECTION", "designationCode": "C", "categoryCode": "59", "address": "554 - 57 LOUIS-PASTEUR PVT", "city": "OTTAWA", "province": "ON", "country": "CA", "postalCode": "K1N6N5", "twitter": "None", "instagram": "None", "facebook": "None", "youtube": "None", "website": "None", "summary": "None", "logo": "None", "latitude": 45.424155383028356, "longitude": -75.68309778902444}, "887699551RR0001": {"name": "INTERNATIONAL COMMUNITY OF CHRISTIAN MINISTERS", "designationCode": "C", "categoryCode": "49", "address": "7 - 841 SYDNEY                #148", "city": "CORNWALL", "province": "ON", "country": "CA", "postalCode": "K6H3J7", "twitter": "None", "instagram": "None", "facebook": "None", "youtube": "None", "website": "None", "summary": "None", "logo": "None", "latitude": 45.029327899304135, "longitude": -74.73247759721653}, "891376261RR0001": {"name": "INTERNATIONAL COOPERATION OF CHILDREN FOR TREES FOR LIFE CANADA, INC", "designationCode": "C", "categoryCode": "09", "address": "415-260 KING STREET E", "city": "TORONTO", "province": "ON", "country": "CA", "postalCode": "M5A4L5", "twitter": "None", "instagram": "None", "facebook": "None", "youtube": "None", "website": "None", "summary": "None", "logo": "None", "latitude": 43.651722183478434, "longitude": -79.36630598058161}, "886412998RR0001": {"name": "INTERNATIONAL COORDINATED CHRISTIAN MINISTRIES", "designationCode": "C", "categoryCode": "47", "address": "PO BOX 4222 STN MAIN", "city": "WILLIAMS LAKE", "province": "BC", "country": "CA", "postalCode": "V2G2V3", "twitter": "None", "instagram": "None", "facebook": "None", "youtube": "None", "website": "None", "summary": "None", "logo": "None", "latitude": 52.12864500000006, "longitude": -122.14108249999992}, "119238467RR0001": {"name": "INTERNATIONAL COUNCIL FOR CANADIAN STUDIES CONSEIL INTERNATIONAL D'\u00c9TUDES CANADIENNES", "designationCode": "C", "categoryCode": "21", "address": "1620 SCOTT STREET             UNIT 8-64016 HOLLAND CROSS RO", "city": "OTTAWA", "province": "ON", "country": "CA", "postalCode": "K1Y4V1", "twitter": "None", "instagram": "None", "facebook": "None", "youtube": "None", "website": "None", "summary": "None", "logo": "None", "latitude": 45.42177300000006, "longitude": -75.69115999999994}, "895549178RR0001": {"name": "INTERNATIONAL COUNCIL OF AIDS SERVICE ORGANIZATIONS (ICASO)", "designationCode": "C", "categoryCode": "11", "address": "311 - 120 CARLTON ST", "city": "TORONTO", "province": "ON", "country": "CA", "postalCode": "M5A4K2", "twitter": "None", "instagram": "None", "facebook": "None", "youtube": "None", "website": "None", "summary": "None", "logo": "None", "latitude": 43.66252315794319, "longitude": -79.37630931294355}, "854436664RR0001": {"name": "INTERNATIONAL DELIVERANCE MINISTRIES", "designationCode": "C", "categoryCode": "39", "address": "P.O. BOX 25208", "city": "HALIFAX", "province": "NS", "country": "CA", "postalCode": "B3M4H4", "twitter": "None", "instagram": "None", "facebook": "None", "youtube": "None", "website": "None", "summary": "None", "logo": "None", "latitude": 44.66728500000005, "longitude": -63.658200499999936}, "132542705RR0001": {"name": "INTERNATIONAL DEVELOPMENT AND RELIEF FOUNDATION", "designationCode": "C", "categoryCode": "99", "address": "908 THE EAST MALL             1ST FLOOR", "city": "TORONTO", "province": "ON", "country": "CA", "postalCode": "M9B6K2", "twitter": "None", "instagram": "None", "facebook": "None", "youtube": "None", "website": "None", "summary": "None", "logo": "None", "latitude": 43.66988543049213, "longitude": -79.57177602680463}, "892748344RR0001": {"name": "INTERNATIONAL DEVELOPMENT ASSISTANCE SOCIETY OF CANADA", "designationCode": "C", "categoryCode": "13", "address": "100-8833 ODLIN CRESCENT", "city": "RICHMOND", "province": "BC", "country": "CA", "postalCode": "V6X3Z7", "twitter": "None", "instagram": "None", "facebook": "None", "youtube": "None", "website": "None", "summary": "None", "logo": "None", "latitude": 49.18306366440004, "longitude": -123.12709078632004}, "107511586RR0001": {"name": "INTERNATIONAL DEVELOPMENT RESEARCH CENTRE-CENTRE DE RECHERCHES POUR LE DEVELOPPEMENT INTERNATIONAL", "designationCode": "C", "categoryCode": "59", "address": "PO BOX 8500", "city": "OTTAWA", "province": "ON", "country": "CA", "postalCode": "K1G3H9", "twitter": "None", "instagram": "None", "facebook": "None", "youtube": "None", "website": "None", "summary": "None", "logo": "None", "latitude": 45.42177300000006, "longitude": -75.69115999999994}, "118970565RR0001": {"name": "INTERNATIONAL DISASTER EMERGENCY SERVICE OF CANADA", "designationCode": "C", "categoryCode": "02", "address": "PO BOX 3241", "city": "CHARLOTTETOWN", "province": "PE", "country": "CA", "postalCode": "C1A8W4", "twitter": "None", "instagram": "None", "facebook": "None", "youtube": "None", "website": "None", "summary": "None", "logo": "None", "latitude": 46.25817500000005, "longitude": -63.11687372395835}, "891601700RR0001": {"name": "INTERNATIONAL EVANGELICAL FREE CHURCH OF RED DEER", "designationCode": "C", "categoryCode": "39", "address": "67 ADAMS CLOSE", "city": "RED DEER", "province": "AB", "country": "CA", "postalCode": "T4R3C7", "twitter": "None", "instagram": "None", "facebook": "None", "youtube": "None", "website": "None", "summary": "None", "logo": "None", "latitude": 52.240060089647415, "longitude": -113.78921587318926}, "859089708RR0001": {"name": "INTERNATIONAL EVANGELIST MINISTRY THE POWER OF GOD IN ACTION THE TABERNACLE OF REUNION CHURCH", "designationCode": "C", "categoryCode": "39", "address": "32 - 11 LIVONIA PL", "city": "SCARBOROUGH", "province": "ON", "country": "CA", "postalCode": "M1E4W5", "twitter": "None", "instagram": "None", "facebook": "None", "youtube": "None", "website": "None", "summary": "None", "logo": "None", "latitude": 43.78560216290621, "longitude": -79.2058917418778}, "137463808RR0001": {"name": "INTERNATIONAL FEDERATION ON AGEING/FEDERATION INTERNATIONALEDU VIEILLISSEMENT", "designationCode": "C", "categoryCode": "21", "address": "238G - 1 BRIDGEPOINT DR", "city": "TORONTO", "province": "ON", "country": "CA", "postalCode": "M4M2B5", "twitter": "None", "instagram": "None", "facebook": "None", "youtube": "None", "website": "None", "summary": "None", "logo": "None", "latitude": 43.666738405043226, "longitude": -79.35325395267145}, "887404887RR0001": {"name": "INTERNATIONAL FINAL APPROACH CHAPLAINCY MINISTRIES INC", "designationCode": "C", "categoryCode": "39", "address": "36 NEWBURY CRESCENT", "city": "BRAMALEA", "province": "ON", "country": "CA", "postalCode": "L6S5L6", "twitter": "None", "instagram": "None", "facebook": "None", "youtube": "None", "website": "None", "summary": "None", "logo": "None", "latitude": 43.73336251705247, "longitude": -79.75424972733552}, "864916879RR0001": {"name": "INTERNATIONAL FOUNDATION FOR VEDIC SCIENCE", "designationCode": "C", "categoryCode": "48", "address": "43 CHEVIOT PL.", "city": "LONDON", "province": "ON", "country": "CA", "postalCode": "N6C4Z1", "twitter": "None", "instagram": "None", "facebook": "None", "youtube": "None", "website": "None", "summary": "None", "logo": "None", "latitude": 42.95181156895961, "longitude": -81.2374127482831}, "891629206RR0001": {"name": "INTERNATIONAL FOUNDATION FOR VISION & HEALING", "designationCode": "A", "categoryCode": "03", "address": "113-12070-227 STREET", "city": "MAPLE RIDGE", "province": "BC", "country": "CA", "postalCode": "V2X6J5", "twitter": "None", "instagram": "None", "facebook": "None", "youtube": "None", "website": "None", "summary": "None", "logo": "None", "latitude": 49.221779534406636, "longitude": -122.59393923432265}, "892185448RR0001": {"name": "INTERNATIONAL FOUNDATION OF LEARNING", "designationCode": "C", "categoryCode": "21", "address": "209-1628 WEST 1ST AVENUE", "city": "VANCOUVER", "province": "BC", "country": "CA", "postalCode": "V6J1G1", "twitter": "None", "instagram": "None", "facebook": "None", "youtube": "None", "website": "None", "summary": "None", "logo": "None", "latitude": 49.27055048124546, "longitude": -123.14134175007212}, "841686967RR0001": {"name": "INTERNATIONAL FULL GOSPEL FELLOWSHIP", "designationCode": "C", "categoryCode": "39", "address": "206 - 6033 KATSURA ST", "city": "RICHMOND", "province": "BC", "country": "CA", "postalCode": "V6Y0B3", "twitter": "None", "instagram": "None", "facebook": "None", "youtube": "None", "website": "None", "summary": "None", "logo": "None", "latitude": 49.16981808796519, "longitude": -123.12230434927294}, "118970664RR0001": {"name": "INTERNATIONAL GOSPEL CENTRE", "designationCode": "C", "categoryCode": "39", "address": "35 CHARLES ST E", "city": "KITCHENER", "province": "ON", "country": "CA", "postalCode": "N2G2P3", "twitter": "None", "instagram": "None", "facebook": "None", "youtube": "None", "website": "None", "summary": "None", "logo": "None", "latitude": 43.44776077127952, "longitude": -80.48690221400531}, "890419799RR0001": {"name": "INTERNATIONAL GOSPEL OUTREACH", "designationCode": "C", "categoryCode": "47", "address": "PO BOX 1173", "city": "UCLUELET", "province": "BC", "country": "CA", "postalCode": "V0R3A0", "twitter": "None", "instagram": "None", "facebook": "None", "youtube": "None", "website": "None", "summary": "None", "logo": "None", "latitude": 48.938210000000026, "longitude": -125.54276999999996}, "859427049RR0001": {"name": "INTERNATIONAL H.O.P.E. CANADA (HEALTH OVERSEAS PROJECT EDUCATION) INC.", "designationCode": "C", "categoryCode": "59", "address": "PO BOX 23041                  RPO MCGILLIVARY", "city": "WINNIPEG", "province": "MB", "country": "CA", "postalCode": "R3T5S3", "twitter": "None", "instagram": "None", "facebook": "None", "youtube": "None", "website": "None", "summary": "None", "logo": "None", "latitude": 49.829843329955445, "longitude": -97.18019128324278}, "136247301RR0001": {"name": "INTERNATIONAL HARVESTERS FOR CHRIST EVANGELISTIC ASSOCIATION INC.", "designationCode": "C", "categoryCode": "47", "address": "645 PINEWOOD ROAD             UNIT 4", "city": "RIVERVIEW", "province": "NB", "country": "CA", "postalCode": "E1B5R6", "twitter": "None", "instagram": "None", "facebook": "None", "youtube": "None", "website": "None", "summary": "None", "logo": "None", "latitude": 46.05228073602077, "longitude": -64.79006755799534}, "890617996RR0001": {"name": "INTERNATIONAL HELP MINISTRIES INC", "designationCode": "C", "categoryCode": "47", "address": "14868 ROPER AVE", "city": "WHITE ROCK", "province": "BC", "country": "CA", "postalCode": "V4B2E2", "twitter": "None", "instagram": "None", "facebook": "None", "youtube": "None", "website": "None", "summary": "None", "logo": "None", "latitude": 49.025760539529266, "longitude": -122.81020110935425}, "863251336RR0001": {"name": "INTERNATIONAL HOUSE OF PRAYER AND EVANGELISM", "designationCode": "C", "categoryCode": "47", "address": "1350 SWEET BIRCH COURT", "city": "MISSISSAUGA", "province": "ON", "country": "CA", "postalCode": "L5C3R3", "twitter": "None", "instagram": "None", "facebook": "None", "youtube": "None", "website": "None", "summary": "None", "logo": "None", "latitude": 43.57055129113059, "longitude": -79.67177058953185}, "840670566RR0001": {"name": "INTERNATIONAL HUMANITARIAN HOPE SOCIETY", "designationCode": "C", "categoryCode": "47", "address": "223 SAGEWOOD DR", "city": "KAMLOOPS", "province": "BC", "country": "CA", "postalCode": "V2H1R1", "twitter": "None", "instagram": "None", "facebook": "None", "youtube": "None", "website": "None", "summary": "None", "logo": "None", "latitude": 50.68447015422575, "longitude": -120.2977733537531}, "899596886RR0001": {"name": "INTERNATIONAL HUMANITARIAN SOCIETY", "designationCode": "C", "categoryCode": "47", "address": "PO BOX 38125 RPO CAPILANO", "city": "EDMONTON", "province": "AB", "country": "CA", "postalCode": "T6A3Y6", "twitter": "None", "instagram": "None", "facebook": "None", "youtube": "None", "website": "None", "summary": "None", "logo": "None", "latitude": 53.55443349205362, "longitude": -113.43801968520823}, "860807866RR0001": {"name": "INTERNATIONAL INSTITUTE FOR CHILD RIGHTS AND DEVELOPMENT / INSTITUT INTERNATIONAL POUR LES DROITS DES ENFANTS ET LE DEVELOPPEMENT", "designationCode": "C", "categoryCode": "59", "address": "309-1694 CEDAR HILL CROSS RD", "city": "VICTORIA", "province": "BC", "country": "CA", "postalCode": "V8P2P7", "twitter": "None", "instagram": "None", "facebook": "None", "youtube": "None", "website": "None", "summary": "None", "logo": "None", "latitude": 48.46042048600597, "longitude": -123.32976202553522}, "889278370RR0001": {"name": "INTERNATIONAL INSTITUTE FOR HUMAN FACTOR DEVELOPMENT SOCIETY", "designationCode": "C", "categoryCode": "21", "address": "22924 96TH AVENUE             PO. BOX 1017", "city": "LANGLEY", "province": "BC", "country": "CA", "postalCode": "V1M2S4", "twitter": "None", "instagram": "None", "facebook": "None", "youtube": "None", "website": "None", "summary": "None", "logo": "None", "latitude": 49.17121848707384, "longitude": -122.58751160854621}, "127202349RR0001": {"name": "INTERNATIONAL INSTITUTE FOR SUSTAINABLE DEVELOPMENT - INSTITUT INTERNATIONAL DU DEVELOPPEMENT DURABLE", "designationCode": "C", "categoryCode": "21", "address": "325 - 111 LOMBARD AVE", "city": "WINNIPEG", "province": "MB", "country": "CA", "postalCode": "R3B0T4", "twitter": "None", "instagram": "None", "facebook": "None", "youtube": "None", "website": "None", "summary": "None", "logo": "None", "latitude": 49.89568526008409, "longitude": -97.1348164428127}, "863889283RR0001": {"name": "INTERNATIONAL JUSTICE MISSION CANADA / MISSION INTERNATIONALE DE JUSTICE-CANADA", "designationCode": "C", "categoryCode": "59", "address": "P.O. BOX 336, STATION B", "city": "LONDON", "province": "ON", "country": "CA", "postalCode": "N6A4W1", "twitter": "None", "instagram": "None", "facebook": "None", "youtube": "None", "website": "None", "summary": "None", "logo": "None", "latitude": 42.98689500000006, "longitude": -81.24624349999993}, "118970763RR0001": {"name": "INTERNATIONAL LAW ASSOCIATION CANADIAN BRANCH ASSOCIATION DE DROIT INTERNATIONAL BRANCHE CANADIENNE", "designationCode": "C", "categoryCode": "21", "address": "2020 BOUL ROBERT-BOURASSA     BUREAU 1920", "city": "MONTREAL", "province": "QC", "country": "CA", "postalCode": "H3A2A5", "twitter": "None", "instagram": "None", "facebook": "None", "youtube": "None", "website": "None", "summary": "None", "logo": "None", "latitude": 45.50423906269854, "longitude": -73.57204352917056}, "132563024RR0001": {"name": "INTERNATIONAL LEADERSHIP DEVELOPMENT NETWORK SOCIETY", "designationCode": "C", "categoryCode": "39", "address": "204-68 RICHMOND STREET", "city": "NEW WESTMINSTER", "province": "BC", "country": "CA", "postalCode": "V3L5S2", "twitter": "None", "instagram": "None", "facebook": "None", "youtube": "None", "website": "None", "summary": "None", "logo": "None", "latitude": 49.21849442350767, "longitude": -122.89641421402982}, "887521516RR0001": {"name": "INTERNATIONAL LIVESTOCK RESEARCH INSTITUTE", "designationCode": "C", "categoryCode": "21", "address": "1500 WEST GEORGIA STREET      SUITE 1250, BOX 62", "city": "VANCOUVER", "province": "BC", "country": "CA", "postalCode": "V6G2Z6", "twitter": "None", "instagram": "None", "facebook": "None", "youtube": "None", "website": "None", "summary": "None", "logo": "None", "latitude": 49.2900638104334, "longitude": -123.12989899362336}, "118970771RR0001": {"name": "INTERNATIONAL MAHAVIRA JAIN MISSION", "designationCode": "C", "categoryCode": "39", "address": "1210 - 20 DEAN PARK RD", "city": "SCARBOROUGH", "province": "ON", "country": "CA", "postalCode": "M1B3G9", "twitter": "None", "instagram": "None", "facebook": "None", "youtube": "None", "website": "None", "summary": "None", "logo": "None", "latitude": 43.804025885913894, "longitude": -79.16936567692889}, "891101172RR0001": {"name": "INTERNATIONAL MEDITATION CENTRE-CANADA", "designationCode": "B", "categoryCode": "45", "address": "336 SANDOWNE DRIVE", "city": "WATERLOO", "province": "ON", "country": "CA", "postalCode": "N2K1V8", "twitter": "None", "instagram": "None", "facebook": "None", "youtube": "None", "website": "None", "summary": "None", "logo": "None"}, "834526402RR0001": {"name": "INTERNATIONAL MESSENGERS CANADA SOCIETY", "designationCode": "C", "categoryCode": "39", "address": "PO BOX 11022                  1945 MCCALLUM ROAD", "city": "ABBOTSFORD", "province": "BC", "country": "CA", "postalCode": "V2S0E4", "twitter": "None", "instagram": "None", "facebook": "None", "youtube": "None", "website": "None", "summary": "None", "logo": "None", "latitude": 49.03761032163073, "longitude": -122.2933709901806}, "118970821RR0001": {"name": "INTERNATIONAL MINISTERIAL ASSOCIATION (CANADA)", "designationCode": "C", "categoryCode": "47", "address": "2-10611 102 ST", "city": "FORT ST JOHN", "province": "BC", "country": "CA", "postalCode": "V1J5L3", "twitter": "None", "instagram": "None", "facebook": "None", "youtube": "None", "website": "None", "summary": "None", "logo": "None", "latitude": 56.25201921783328, "longitude": -120.85088528216671}, "874660426RR0001": {"name": "INTERNATIONAL MIRACLE MISSION INC.", "designationCode": "C", "categoryCode": "39", "address": "710-11753 SHEPPARD AVE EAST", "city": "SCARBOROUGH", "province": "ON", "country": "CA", "postalCode": "M1B5M3", "twitter": "None", "instagram": "None", "facebook": "None", "youtube": "None", "website": "None", "summary": "None", "logo": "None", "latitude": 43.80400838738221, "longitude": -79.19102065532284}, "124335498RR0001": {"name": "INTERNATIONAL MISSIONARY SOCIETY SEVENTH DAY ADVENTIST REFORM MOVEMENT", "designationCode": "C", "categoryCode": "47", "address": "3897 BLOOR STREET WEST", "city": "TORONTO", "province": "ON", "country": "CA", "postalCode": "M9B1L6", "twitter": "None", "instagram": "None", "facebook": "None", "youtube": "None", "website": "None", "summary": "None", "logo": "None", "latitude": 43.64007494030256, "longitude": -79.54300343268517}, "118970847RR0001": {"name": "INTERNATIONAL MISSIONS IN ONTARIO INC.", "designationCode": "C", "categoryCode": "47", "address": "PO BOX 20164", "city": "ST CATHARINES", "province": "ON", "country": "CA", "postalCode": "L2M7W7", "twitter": "None", "instagram": "None", "facebook": "None", "youtube": "None", "website": "None", "summary": "None", "logo": "None", "latitude": 43.15634700000005, "longitude": -79.24869349999993}, "891212540RR0001": {"name": "INTERNATIONAL MOVEMENT SPANISH PENTECOSTAL CHURCH OF GOD (WINDSOR)", "designationCode": "C", "categoryCode": "39", "address": "2585 SEMINOLE STREET", "city": "WINDSOR", "province": "ON", "country": "CA", "postalCode": "N8Y1X5", "twitter": "None", "instagram": "None", "facebook": "None", "youtube": "None", "website": "None", "summary": "None", "logo": "None", "latitude": 42.31155744711189, "longitude": -82.996300331381}, "107512022RR0001": {"name": "INTERNATIONAL MUKTI MISSION", "designationCode": "C", "categoryCode": "39", "address": "283 HOMEWOOD AV", "city": "WILLOWDALE", "province": "ON", "country": "CA", "postalCode": "M2R2N6", "twitter": "None", "instagram": "None", "facebook": "None", "youtube": "None", "website": "None", "summary": "None", "logo": "None", "latitude": 43.787266681632104, "longitude": -79.43570804648282}, "118970862RR0001": {"name": "INTERNATIONAL MUSIC CAMP MAN INC.", "designationCode": "C", "categoryCode": "22", "address": "130 ATHLONE DR.", "city": "WINNIPEG", "province": "MB", "country": "CA", "postalCode": "R3J3L5", "twitter": "None", "instagram": "None", "facebook": "None", "youtube": "None", "website": "None", "summary": "None", "logo": "None", "latitude": 49.88680656895963, "longitude": -97.27435386663973}, "891300592RR0001": {"name": "INTERNATIONAL MUSLIMS ORGANIZATION OF TORONTO", "designationCode": "C", "categoryCode": "60", "address": "65 REXDALE BOULEVARD", "city": "TORONTO", "province": "ON", "country": "CA", "postalCode": "M9W1P1", "twitter": "None", "instagram": "None", "facebook": "None", "youtube": "None", "website": "None", "summary": "None", "logo": "None", "latitude": 43.713127899763684, "longitude": -79.56015778960136}, "129943072RR0001": {"name": "INTERNATIONAL NEEDS CANADA", "designationCode": "C", "categoryCode": "09", "address": "210-4031 FAIRVIEW STREET", "city": "BURLINGTON", "province": "ON", "country": "CA", "postalCode": "L7L2A4", "twitter": "None", "instagram": "None", "facebook": "None", "youtube": "None", "website": "None", "summary": "None", "logo": "None", "latitude": 43.36060297478189, "longitude": -79.7788448327077}, "856811377RR0001": {"name": "INTERNATIONAL NETWORK OF APOSTOLIC MINISTRIES (INOAM)", "designationCode": "C", "categoryCode": "39", "address": "43 DAVID AVE", "city": "DRYDEN", "province": "ON", "country": "CA", "postalCode": "P8N2J6", "twitter": "None", "instagram": "None", "facebook": "None", "youtube": "None", "website": "None", "summary": "None", "logo": "None", "latitude": 49.78296226311386, "longitude": -92.83107908699301}, "127250181RR0001": {"name": "INTERNATIONAL PEACE GARDEN (MANITOBA) INC", "designationCode": "C", "categoryCode": "52", "address": "BOX 419", "city": "BOISSEVAIN", "province": "MB", "country": "CA", "postalCode": "R0K0E0", "twitter": "None", "instagram": "None", "facebook": "None", "youtube": "None", "website": "None", "summary": "None", "logo": "None", "latitude": 49.23156000000006, "longitude": -100.05945999999994}, "890989189RR0001": {"name": "INTERNATIONAL PENTECOSTAL CHURCH", "designationCode": "C", "categoryCode": "39", "address": "31 KINGSLAND WAY SE", "city": "AIRDRIE", "province": "AB", "country": "CA", "postalCode": "T4A0A4", "twitter": "None", "instagram": "None", "facebook": "None", "youtube": "None", "website": "None", "summary": "None", "logo": "None", "latitude": 51.26904449321933, "longitude": -113.98634169164407}, "875237109RR0001": {"name": "INTERNATIONAL PENTECOSTAL CITY MISSION - MISSISSAUGA BRANCH", "designationCode": "C", "categoryCode": "39", "address": "49 BLUE DIAMOND DRIVE", "city": "BRAMPTON", "province": "ON", "country": "CA", "postalCode": "L6S6J2", "twitter": "None", "instagram": "None", "facebook": "None", "youtube": "None", "website": "None", "summary": "None", "logo": "None", "latitude": 43.75460695891289, "longitude": -79.728387649576}, "890231467RR0001": {"name": "INTERNATIONAL PENTECOSTAL CITY MISSION PRAYER CENTRE OF TORONTO INC.", "designationCode": "C", "categoryCode": "39", "address": "1764 ST. CLAIR AVENUE WEST", "city": "TORONTO", "province": "ON", "country": "CA", "postalCode": "M6N1J3", "twitter": "None", "instagram": "None", "facebook": "None", "youtube": "None", "website": "None", "summary": "None", "logo": "None", "latitude": 43.67405419069179, "longitude": -79.46100592951117}, "881940985RR0001": {"name": "INTERNATIONAL READINGS AT HARBOURFRONT", "designationCode": "C", "categoryCode": "22", "address": "235 QUEENS QUAY WEST", "city": "TORONTO", "province": "ON", "country": "CA", "postalCode": "M5J2G8", "twitter": "None", "instagram": "None", "facebook": "None", "youtube": "None", "website": "None", "summary": "None", "logo": "None", "latitude": 43.63935976934627, "longitude": -79.38311842700101}, "857175632RR0001": {"name": "INTERNATIONAL RESCUE", "designationCode": "C", "categoryCode": "02", "address": "2446 BANK ST., SUITE 455", "city": "OTTAWA", "province": "ON", "country": "CA", "postalCode": "K1V1A8", "twitter": "None", "instagram": "None", "facebook": "None", "youtube": "None", "website": "None", "summary": "None", "logo": "None", "latitude": 45.353556549483926, "longitude": -75.64679924562871}, "100220417RR0001": {"name": "INTERNATIONAL RESOURCE CENTRE FOR PERFORMING ARTISTS", "designationCode": "C", "categoryCode": "22", "address": "43 BRIGHT STREET", "city": "TORONTO", "province": "ON", "country": "CA", "postalCode": "M5A3H5", "twitter": "None", "instagram": "None", "facebook": "None", "youtube": "None", "website": "None", "summary": "None", "logo": "None", "latitude": 43.65633046794392, "longitude": -79.35948396681871}, "871827044RR0001": {"name": "INTERNATIONAL RESTORATION MINISTRIES - HAMILTON", "designationCode": "C", "categoryCode": "47", "address": "70 GADINER DRIVE", "city": "HAMILTON", "province": "ON", "country": "CA", "postalCode": "L9C4V2", "twitter": "None", "instagram": "None", "facebook": "None", "youtube": "None", "website": "None", "summary": "None", "logo": "None", "latitude": 43.21886587373752, "longitude": -79.91293562432924}, "892487372RR0001": {"name": "INTERNATIONAL REVIVAL MISSIONARY CHURCH", "designationCode": "C", "categoryCode": "39", "address": "26 - 850 TAPSCOTT RD", "city": "SCARBOROUGH", "province": "ON", "country": "CA", "postalCode": "M1X1N4", "twitter": "None", "instagram": "None", "facebook": "None", "youtube": "None", "website": "None", "summary": "None", "logo": "None", "latitude": 43.82110009074393, "longitude": -79.24111552060087}, "130827827RR0001": {"name": "INTERNATIONAL SAILORS' SOCIETY CANADA", "designationCode": "C", "categoryCode": "47", "address": "100-1111 WEST HASTING STREET", "city": "VANCOUVER", "province": "BC", "country": "CA", "postalCode": "V6E2J3", "twitter": "None", "instagram": "None", "facebook": "None", "youtube": "None", "website": "None", "summary": "None", "logo": "None", "latitude": 49.28806299030513, "longitude": -123.12011596390452}, "106866544RR0001": {"name": "INTERNATIONAL SCHIZOPHRENIA FOUNDATION", "designationCode": "C", "categoryCode": "11", "address": "16 FLORENCE AVENUE", "city": "TORONTO", "province": "ON", "country": "CA", "postalCode": "M2N1E9", "twitter": "None", "instagram": "None", "facebook": "None", "youtube": "None", "website": "None", "summary": "None", "logo": "None", "latitude": 43.758012183478435, "longitude": -79.41103670358929}, "118970995RR0001": {"name": "INTERNATIONAL SOCIAL SERVICE CANADA/SERVICE SOCIAL INTERNATIONAL CANADA", "designationCode": "C", "categoryCode": "09", "address": "SUITE 201  1376 BANK", "city": "OTTAWA", "province": "ON", "country": "CA", "postalCode": "K1H7Y3", "twitter": "None", "instagram": "None", "facebook": "None", "youtube": "None", "website": "None", "summary": "None", "logo": "None", "latitude": 45.384646694962306, "longitude": -75.67249685154918}, "133088641RR0001": {"name": "INTERNATIONAL SOCIETY FOR ENDANGERED CATS, INC", "designationCode": "C", "categoryCode": "54", "address": "124 LYNNBROOK ROAD S.E.", "city": "CALGARY", "province": "AB", "country": "CA", "postalCode": "T2C1S6", "twitter": "None", "instagram": "None", "facebook": "None", "youtube": "None", "website": "None", "summary": "None", "logo": "None", "latitude": 50.99259779156327, "longitude": -114.01845860669987}, "854819729RR0001": {"name": "INTERNATIONAL SOCIETY FOR KRISHNA CONSCIOUSNESS (BRAMPTON)", "designationCode": "C", "categoryCode": "39", "address": "285 GIDDINGS CRESCENT", "city": "MILTON", "province": "ON", "country": "CA", "postalCode": "L9T7A9", "twitter": "None", "instagram": "None", "facebook": "None", "youtube": "None", "website": "None", "summary": "None", "logo": "None", "latitude": 43.50062910519933, "longitude": -79.88263145654695}, "841450349RR0001": {"name": "INTERNATIONAL SOCIETY FOR KRISHNA CONSCIOUSNESS (MANITOBA) INC.", "designationCode": "C", "categoryCode": "39", "address": "108 CHESTNUT STREET", "city": "WINNIPEG", "province": "MB", "country": "CA", "postalCode": "R3G1R3", "twitter": "None", "instagram": "None", "facebook": "None", "youtube": "None", "website": "None", "summary": "None", "logo": "None", "latitude": 49.881097372468105, "longitude": -97.16513450072114}}