{"107907750RR0001": {"name": "ROCKY VIEW SCHOOL DIVISION NO. 41", "designationCode": "C", "categoryCode": "20", "address": "2651 CHINOOK WINDS DR S.W.", "city": "AIRDRIE", "province": "AB", "country": "CA", "postalCode": "T4B0B4", "twitter": "None", "instagram": "None", "facebook": "None", "youtube": "None", "website": "None", "summary": "None", "logo": "None", "latitude": 51.26907367086936, "longitude": -114.02921238761505}, "879420420RR0001": {"name": "ROCKY YOUTH DEVELOPMENT SOCIETY", "designationCode": "C", "categoryCode": "09", "address": "4928 49TH ST", "city": "ROCKY MOUNTAIN HOUSE", "province": "AB", "country": "CA", "postalCode": "T4T1C2", "twitter": "None", "instagram": "None", "facebook": "None", "youtube": "None", "website": "None", "summary": "None", "logo": "None", "latitude": 52.37385325145709, "longitude": -114.91777844532287}, "107907453RR0001": {"name": "ROCKYFORD UNITED CHURCH", "designationCode": "C", "categoryCode": "44", "address": "BOX 131", "city": "ROCKYFORD", "province": "AB", "country": "CA", "postalCode": "T0J2R0", "twitter": "None", "instagram": "None", "facebook": "None", "youtube": "None", "website": "None", "summary": "None", "logo": "None", "latitude": 51.233610000000056, "longitude": -113.14448999999996}, "107907719RR0001": {"name": "ROCKYVIEW ALLIANCE CHURCH", "designationCode": "C", "categoryCode": "39", "address": "6927 RUNDLEHORN DR NE", "city": "CALGARY", "province": "AB", "country": "CA", "postalCode": "T1Y3V4", "twitter": "None", "instagram": "None", "facebook": "None", "youtube": "None", "website": "None", "summary": "None", "logo": "None", "latitude": 51.080625564544896, "longitude": -113.94104619250946}, "886688597RR0001": {"name": "ROCMAURA FOUNDATION INC", "designationCode": "A", "categoryCode": "03", "address": "10 PARKS STREET", "city": "SAINT JOHN", "province": "NB", "country": "CA", "postalCode": "E2K4P1", "twitter": "None", "instagram": "None", "facebook": "None", "youtube": "None", "website": "None", "summary": "None", "logo": "None", "latitude": 45.2803999323098, "longitude": -66.06540637572901}, "119122323RR0001": {"name": "ROCMAURA INC.", "designationCode": "C", "categoryCode": "01", "address": "10 PARKS ST", "city": "SAINT JOHN", "province": "NB", "country": "CA", "postalCode": "E2K4P1", "twitter": "None", "instagram": "None", "facebook": "None", "youtube": "None", "website": "None", "summary": "None", "logo": "None", "latitude": 45.2803999323098, "longitude": -66.06540637572901}, "139321202RR0001": {"name": "ROCMAURA INC. AUXILIARY", "designationCode": "C", "categoryCode": "10", "address": "10 PARKS STREET", "city": "SAINT JOHN", "province": "NB", "country": "CA", "postalCode": "E2K4P1", "twitter": "None", "instagram": "None", "facebook": "None", "youtube": "None", "website": "None", "summary": "None", "logo": "None", "latitude": 45.2803999323098, "longitude": -66.06540637572901}, "873905806RR0001": {"name": "ROCOR OF PATRIARCH TIKHON CONFESSOR AND NEW MARTYRS", "designationCode": "C", "categoryCode": "39", "address": "443 KELSO DR.", "city": "WATERLOO", "province": "ON", "country": "CA", "postalCode": "N2V2S2", "twitter": "None", "instagram": "None", "facebook": "None", "youtube": "None", "website": "None", "summary": "None", "logo": "None", "latitude": 43.49024893308919, "longitude": -80.58523939967677}, "870962164RR0001": {"name": "RODEL NAVAL CARE OUTREACH", "designationCode": "C", "categoryCode": "01", "address": "19 SAL CIRCLE", "city": "BRAMPTON", "province": "ON", "country": "CA", "postalCode": "L6R1G9", "twitter": "None", "instagram": "None", "facebook": "None", "youtube": "None", "website": "None", "summary": "None", "logo": "None", "latitude": 43.75819139993657, "longitude": -79.73279141635385}, "135437226RR0001": {"name": "RODNEY COMMUNITY CHRISTIAN MISSION", "designationCode": "C", "categoryCode": "39", "address": "RR 2", "city": "RODNEY", "province": "ON", "country": "CA", "postalCode": "N0L2C0", "twitter": "None", "instagram": "None", "facebook": "None", "youtube": "None", "website": "None", "summary": "None", "logo": "None", "latitude": 42.57017129707395, "longitude": -81.65568947088522}, "869802116RR0001": {"name": "RODNEY COMMUNITY SOCIETY", "designationCode": "B", "categoryCode": "56", "address": "842 RODNEY ROAD", "city": "SPRINGHILL", "province": "NS", "country": "CA", "postalCode": "B0M1X0", "twitter": "None", "instagram": "None", "facebook": "None", "youtube": "None", "website": "None", "summary": "None", "logo": "None", "latitude": 45.60511541046816, "longitude": -64.04883385010687}, "119288918RR0230": {"name": "RODNEY, ONTARIO, CONGREGATION OF JEHOVAH'S WITNESSES,", "designationCode": "C", "categoryCode": "61", "address": "9654 GRAHAM RD.               RR #2", "city": "WEST LORNE", "province": "ON", "country": "CA", "postalCode": "N0L2P0", "twitter": "None", "instagram": "None", "facebook": "None", "youtube": "None", "website": "None", "summary": "None", "logo": "None", "latitude": 42.57199655820826, "longitude": -81.56750114076341}, "119122406RR0001": {"name": "ROE CO-OPERATIVE COMMUNITY HALL ASSOCIATION", "designationCode": "C", "categoryCode": "56", "address": "BOX 25", "city": "ABBEY", "province": "SK", "country": "CA", "postalCode": "S0N0A0", "twitter": "None", "instagram": "None", "facebook": "None", "youtube": "None", "website": "None", "summary": "None", "logo": "None", "latitude": 50.85527406382951, "longitude": -109.40240186489247}, "892945866RR0001": {"name": "ROEDDE HOUSE PRESERVATION SOCIETY", "designationCode": "C", "categoryCode": "52", "address": "1415 BARCLAY STREET", "city": "VANCOUVER", "province": "BC", "country": "CA", "postalCode": "V6G1J6", "twitter": "None", "instagram": "None", "facebook": "None", "youtube": "None", "website": "None", "summary": "None", "logo": "None", "latitude": 49.28689512796458, "longitude": -123.13263327266449}, "861405496RR0001": {"name": "ROGER'S HOUSE FOR PALLIATIVE CARE", "designationCode": "C", "categoryCode": "01", "address": "399 SMYTH ROAD", "city": "OTTAWA", "province": "ON", "country": "CA", "postalCode": "K1H8L2", "twitter": "None", "instagram": "None", "facebook": "None", "youtube": "None", "website": "None", "summary": "None", "logo": "None"}, "871713608RR0001": {"name": "ROGERS SCHOOL NO. 1267 CAIRN COMMITTEE INC.", "designationCode": "C", "categoryCode": "52", "address": "BOX 430", "city": "SHOAL LAKE", "province": "MB", "country": "CA", "postalCode": "R0J1Z0", "twitter": "None", "instagram": "None", "facebook": "None", "youtube": "None", "website": "None", "summary": "None", "logo": "None", "latitude": 50.437670000000026, "longitude": -100.59073999999998}, "118819127RR0001": {"name": "ROGERS SUGAR LTD. EMPLOYEES' CHARITY TRUST", "designationCode": "B", "categoryCode": "75", "address": "BOX 2150", "city": "VANCOUVER", "province": "BC", "country": "CA", "postalCode": "V6B3V2", "twitter": "None", "instagram": "None", "facebook": "None", "youtube": "None", "website": "None", "summary": "None", "logo": "None", "latitude": 49.28024400000005, "longitude": -123.11294749999993}, "858871247RR0001": {"name": "ROGERS' FAMILY CHARITABLE TRUST", "designationCode": "B", "categoryCode": "03", "address": "4550 LANCASTER COURT", "city": "KELOWNA", "province": "BC", "country": "CA", "postalCode": "V1W4C2", "twitter": "None", "instagram": "None", "facebook": "None", "youtube": "None", "website": "None", "summary": "None", "logo": "None", "latitude": 49.8167354587973, "longitude": -119.43127026516268}, "865375836RR0001": {"name": "ROGUE AND PEASANT THEATRE COMPANY", "designationCode": "C", "categoryCode": "22", "address": "358 QUEBEC AVE", "city": "TORONTO", "province": "ON", "country": "CA", "postalCode": "M6P2V3", "twitter": "None", "instagram": "None", "facebook": "None", "youtube": "None", "website": "None", "summary": "None", "logo": "None", "latitude": 43.6623036813723, "longitude": -79.47074345686406}, "891773640RR0001": {"name": "ROJAERLOJO FOUNDATION", "designationCode": "B", "categoryCode": "03", "address": "11 SILVERWOOD AVENUE", "city": "TORONTO", "province": "ON", "country": "CA", "postalCode": "M5P1W3", "twitter": "None", "instagram": "None", "facebook": "None", "youtube": "None", "website": "None", "summary": "None", "logo": "None", "latitude": 43.69567683484344, "longitude": -79.41682453774024}, "790020929RR0001": {"name": "ROK CENTRAL INC.", "designationCode": "C", "categoryCode": "09", "address": "PO BOX 1321 STN MAIN", "city": "PORTAGE LA PRAIRIE", "province": "MB", "country": "CA", "postalCode": "R1N3L5", "twitter": "None", "instagram": "None", "facebook": "None", "youtube": "None", "website": "None", "summary": "None", "logo": "None", "latitude": 49.97301900000005, "longitude": -98.29058299999993}, "871513164RR0001": {"name": "ROLAND MICHENER SECONDARY SCHOOL SCHOLARSHIP TRUST FUND", "designationCode": "B", "categoryCode": "21", "address": "P.O. BOX 2001", "city": "SOUTH PORCUPINE", "province": "ON", "country": "CA", "postalCode": "P0N1H0", "twitter": "None", "instagram": "None", "facebook": "None", "youtube": "None", "website": "None", "summary": "None", "logo": "None", "latitude": 48.48521000000005, "longitude": -81.20909999999998}, "119122489RR0001": {"name": "ROLAND UNITED CHURCH", "designationCode": "C", "categoryCode": "44", "address": "BOX-179", "city": "ROLAND", "province": "MB", "country": "CA", "postalCode": "R0G1T0", "twitter": "None", "instagram": "None", "facebook": "None", "youtube": "None", "website": "None", "summary": "None", "logo": "None", "latitude": 49.36776000000003, "longitude": -97.93881999999996}, "119122505RR0001": {"name": "ROLLA BIBLE BAPTIST CHURCH", "designationCode": "C", "categoryCode": "39", "address": "BOX 89", "city": "ROLLA", "province": "BC", "country": "CA", "postalCode": "V0C2G0", "twitter": "None", "instagram": "None", "facebook": "None", "youtube": "None", "website": "None", "summary": "None", "logo": "None", "latitude": 55.89880702303616, "longitude": -120.1405275}, "119122513RR0001": {"name": "ROLLING DAM UNITED BAPTIST CHURCH", "designationCode": "C", "categoryCode": "31", "address": "690 ROLLING DAM ROAD", "city": "ROLLING DAM", "province": "NB", "country": "CA", "postalCode": "E5A2T8", "twitter": "None", "instagram": "None", "facebook": "None", "youtube": "None", "website": "None", "summary": "None", "logo": "None", "latitude": 45.31975800000005, "longitude": -67.08104899999994}, "119122521RR0001": {"name": "ROLLING DAM UNITED CHURCH", "designationCode": "C", "categoryCode": "44", "address": "P.O. BOX 202", "city": "STEPHEN", "province": "NB", "country": "CA", "postalCode": "E3L2X1", "twitter": "None", "instagram": "None", "facebook": "None", "youtube": "None", "website": "None", "summary": "None", "logo": "None", "latitude": 45.19456800000006, "longitude": -67.27532299999993}, "132931924RR0001": {"name": "ROLLING HILLS PASTORAL CHARGE (UNITED CHURCH)", "designationCode": "C", "categoryCode": "44", "address": "PO BOX 93", "city": "ROLLING HILLS", "province": "AB", "country": "CA", "postalCode": "T0J2S0", "twitter": "None", "instagram": "None", "facebook": "None", "youtube": "None", "website": "None", "summary": "None", "logo": "None", "latitude": 50.22270000000003, "longitude": -111.77305999999999}, "119122570RR0001": {"name": "ROLLING HILLS SENIOR CITIZENS CLUB", "designationCode": "C", "categoryCode": "56", "address": "PO BOX 203", "city": "ROLLING HILLS", "province": "AB", "country": "CA", "postalCode": "T0J2S0", "twitter": "None", "instagram": "None", "facebook": "None", "youtube": "None", "website": "None", "summary": "None", "logo": "None", "latitude": 50.22270000000003, "longitude": -111.77305999999999}, "119122588RR0001": {"name": "ROLLING RIVER FESTIVAL OF THE ARTS", "designationCode": "C", "categoryCode": "22", "address": "PO BOX 333", "city": "MINNEDOSA", "province": "MB", "country": "CA", "postalCode": "R0J1E0", "twitter": "None", "instagram": "None", "facebook": "None", "youtube": "None", "website": "None", "summary": "None", "logo": "None", "latitude": 50.35204290882316, "longitude": -100.20187636199029}, "891546988RR0001": {"name": "ROLPH, BUCHANAN, WYLIE & MCKAY HISTORICAL SOCIETY", "designationCode": "C", "categoryCode": "50", "address": "35753 HIGHWAY 17 WEST", "city": "DEEP RIVER", "province": "ON", "country": "CA", "postalCode": "K0J1P0", "twitter": "None", "instagram": "None", "facebook": "None", "youtube": "None", "website": "None", "summary": "None", "logo": "None", "latitude": 46.09843843638107, "longitude": -77.49553780306906}, "892367160RR0001": {"name": "ROMAN AND MARY SCHNEIDER FOUNDATION (UNDER THE WILL OF MARY SCHNEIDER)", "designationCode": "B", "categoryCode": "25", "address": "130 KING ST WEST, 20TH FLOOR  BOX 430 STN FIRST CANADIAN PL", "city": "TORONTO", "province": "ON", "country": "CA", "postalCode": "M5X1K1", "twitter": "None", "instagram": "None", "facebook": "None", "youtube": "None", "website": "None", "summary": "None", "logo": "None", "latitude": 43.64826932503962, "longitude": -79.38190945606182}, "118849470RR0004": {"name": "ROMAN CATHOLIC ARCHBISHOP OF VANCOUVER", "designationCode": "C", "categoryCode": "38", "address": "4885 SAINT JOHN PAUL II WAY", "city": "VANCOUVER", "province": "BC", "country": "CA", "postalCode": "V5Z0G3", "twitter": "None", "instagram": "None", "facebook": "None", "youtube": "None", "website": "None", "summary": "None", "logo": "None", "latitude": 49.23885300000006, "longitude": -123.12055249999993}, "107909913RR0001": {"name": "ROMAN CATHOLIC ARCHIEPISCOPAL CORPORATION OF WINNIPEG", "designationCode": "C", "categoryCode": "38", "address": "1495 PEMBINA HWY", "city": "WINNIPEG", "province": "MB", "country": "CA", "postalCode": "R3T2C6", "twitter": "None", "instagram": "None", "facebook": "None", "youtube": "None", "website": "None", "summary": "None", "logo": "None", "latitude": 49.83504503274859, "longitude": -97.15063124190647}, "106880073RR0026": {"name": "ROMAN CATHOLIC BISHOP OF KAMLOOPS - ST. FRANCIS OF ASSISI CHURCH", "designationCode": "C", "categoryCode": "38", "address": "6299 LORIMER ROAD", "city": "WHISTLER", "province": "BC", "country": "CA", "postalCode": "V0N1B6", "twitter": "None", "instagram": "None", "facebook": "None", "youtube": "None", "website": "None", "summary": "None", "logo": "None", "latitude": 50.12654056670927, "longitude": -122.97086744659136}, "106880073RR0002": {"name": "ROMAN CATHOLIC BISHOP OF KAMLOOPS ST. JUDES PARISH", "designationCode": "C", "categoryCode": "38", "address": "PO BOX 718", "city": "100 MILE HOUSE", "province": "BC", "country": "CA", "postalCode": "V0K2E0", "twitter": "None", "instagram": "None", "facebook": "None", "youtube": "None", "website": "None", "summary": "None", "logo": "None", "latitude": 51.62931000000003, "longitude": -121.30063999999999}, "106880073RR0003": {"name": "ROMAN CATHOLIC BISHOP OF KAMLOOPS, SHUSWAP INDIAN MISSIONS", "designationCode": "C", "categoryCode": "38", "address": "450 PIGEON AVE", "city": "WILLIAMS LAKE", "province": "BC", "country": "CA", "postalCode": "V2G2A9", "twitter": "None", "instagram": "None", "facebook": "None", "youtube": "None", "website": "None", "summary": "None", "logo": "None", "latitude": 52.13624280324869, "longitude": -122.146568001299}, "107909939RR0076": {"name": "ROMAN CATHOLIC BISHOP OF THE DIOCESE OF CALGARY", "designationCode": "C", "categoryCode": "38", "address": "120-17 AVENUE S.W.", "city": "CALGARY", "province": "AB", "country": "CA", "postalCode": "T2S2T2", "twitter": "None", "instagram": "None", "facebook": "None", "youtube": "None", "website": "None", "summary": "None", "logo": "None", "latitude": 51.03784552596791, "longitude": -114.06513149999999}, "107876468RR0020": {"name": "ROMAN CATHOLIC CHURCH OF HARBOUR MAIN", "designationCode": "C", "categoryCode": "38", "address": "PO BOX 89", "city": "NR MAIN", "province": "NL", "country": "CA", "postalCode": "A0A2P0", "twitter": "None", "instagram": "None", "facebook": "None", "youtube": "None", "website": "None", "summary": "None", "logo": "None", "latitude": 48.11070150000001, "longitude": -52.905748499999994}, "107910234RR0001": {"name": "ROMAN CATHOLIC EPISCOPAL CORPORATION", "designationCode": "C", "categoryCode": "38", "address": "P O BOX 907", "city": "CHARLOTTETOWN", "province": "PE", "country": "CA", "postalCode": "C1A7L9", "twitter": "None", "instagram": "None", "facebook": "None", "youtube": "None", "website": "None", "summary": "None", "logo": "None", "latitude": 46.23659700000006, "longitude": -63.12815449999994}, "119122778RR0001": {"name": "ROMAN CATHOLIC EPISCOPAL CORPORATION FOR THE DIOCESE OF ALEXANDRIA-CORNWALL", "designationCode": "C", "categoryCode": "38", "address": "220 MONTREAL RD.", "city": "CORNWALL", "province": "ON", "country": "CA", "postalCode": "K6H1B4", "twitter": "None", "instagram": "None", "facebook": "None", "youtube": "None", "website": "None", "summary": "None", "logo": "None", "latitude": 45.0185315115412, "longitude": -74.71241058090484}, "107876476RR0001": {"name": "ROMAN CATHOLIC EPISCOPAL CORPORATION FOR THE DIOCESE OF SAULT STE.MARIE, IN ONTARIO, CANADA", "designationCode": "C", "categoryCode": "38", "address": "30 STE. ANNE RD", "city": "SUDBURY", "province": "ON", "country": "CA", "postalCode": "P3C5E1", "twitter": "None", "instagram": "None", "facebook": "None", "youtube": "None", "website": "None", "summary": "None", "logo": "None", "latitude": 46.49512132849767, "longitude": -80.99615523166241}, "119109791RR0001": {"name": "ROMAN CATHOLIC EPISCOPAL CORPORATION FOR THE DIOCESE OF ST. CATHARINES IN CANADA", "designationCode": "C", "categoryCode": "38", "address": "P.O. BOX 875", "city": "ST CATHARINES", "province": "ON", "country": "CA", "postalCode": "L2R6Z4", "twitter": "None", "instagram": "None", "facebook": "None", "youtube": "None", "website": "None", "summary": "None", "logo": "None", "latitude": 43.15634700000005, "longitude": -79.24869349999993}, "107910259RR0001": {"name": "ROMAN CATHOLIC EPISCOPAL CORPORATION FOR THE DIOCESE OF TORONTO, IN CANADA", "designationCode": "C", "categoryCode": "38", "address": "603 - 1155 YONGE ST", "city": "TORONTO", "province": "ON", "country": "CA", "postalCode": "M4T1W2", "twitter": "None", "instagram": "None", "facebook": "None", "youtube": "None", "website": "None", "summary": "None", "logo": "None", "latitude": 43.68216966639731, "longitude": -79.3916210252181}, "107876468RR0010": {"name": "ROMAN CATHOLIC EPISCOPAL CORPORATION OF GRAND FALLS", "designationCode": "C", "categoryCode": "38", "address": "P.O. BOX 397", "city": "GRAND FALLS - WINDSOR", "province": "NL", "country": "CA", "postalCode": "A2A2J8", "twitter": "None", "instagram": "None", "facebook": "None", "youtube": "None", "website": "None", "summary": "None", "logo": "None", "latitude": 48.927786000000054, "longitude": -55.65881149999993}, "119109833RR0006": {"name": "ROMAN CATHOLIC EPISCOPAL CORPORATION OF HALIFAX", "designationCode": "C", "categoryCode": "38", "address": "1531 GRAFTON ST P O BOX 1527", "city": "HALIFAX", "province": "NS", "country": "CA", "postalCode": "B3J2Y3", "twitter": "None", "instagram": "None", "facebook": "None", "youtube": "None", "website": "None", "summary": "None", "logo": "None", "latitude": 44.64439061139251, "longitude": -63.57409284393179}, "119110385RR0019": {"name": "ROMAN CATHOLIC EPISCOPAL CORPORATION OF PEMBROKE ST. ANN'S PARISH", "designationCode": "C", "categoryCode": "38", "address": "P.O.BOX 190", "city": "EGANVILLE", "province": "ON", "country": "CA", "postalCode": "K0J1T0", "twitter": "None", "instagram": "None", "facebook": "None", "youtube": "None", "website": "None", "summary": "None", "logo": "None", "latitude": 45.57147000000006, "longitude": -77.04741949999993}, "119110385RR0020": {"name": "ROMAN CATHOLIC EPISCOPAL CORPORATION OF PEMBROKE: OUR LADY OOF THE ANGELS PARISH BRUDENELL", "designationCode": "C", "categoryCode": "38", "address": "PO BOX 10", "city": "KILALOE", "province": "ON", "country": "CA", "postalCode": "K0J2A0", "twitter": "None", "instagram": "None", "facebook": "None", "youtube": "None", "website": "None", "summary": "None", "logo": "None", "latitude": 45.546909000000056, "longitude": -77.30572849999993}, "119122786RR0009": {"name": "ROMAN CATHOLIC EPISCOPAL CORPORATION OF PRINCE RUPERT", "designationCode": "C", "categoryCode": "38", "address": "6500 SOUTHRIDGE AVE", "city": "PRINCE GEORGE", "province": "BC", "country": "CA", "postalCode": "V2N5P9", "twitter": "None", "instagram": "None", "facebook": "None", "youtube": "None", "website": "None", "summary": "None", "logo": "None", "latitude": 53.86420563941114, "longitude": -122.78374828519728}, "107910192RR0002": {"name": "ROMAN CATHOLIC EPISCOPAL CORPORATION OF ST. GEORGE'S ROMAN CATHOLIC EPISCOPAL CORPORATION OF ST. GEORGE'S", "designationCode": "C", "categoryCode": "49", "address": "469 CURLING STREET", "city": "CORNER BROOK", "province": "NL", "country": "CA", "postalCode": "A2H3K8", "twitter": "None", "instagram": "None", "facebook": "None", "youtube": "None", "website": "None", "summary": "None", "logo": "None", "latitude": 48.960868531162056, "longitude": -58.00861137774823}, "107910176RR0010": {"name": "ROMAN CATHOLIC EPISCOPAL CORPORATION OF ST. JOHN'S ARCHIOCESE OF ST. JOHN'S", "designationCode": "C", "categoryCode": "38", "address": "P.O. BOX 1363", "city": "ST. JOHN'S", "province": "NL", "country": "CA", "postalCode": "A1C5N5", "twitter": "None", "instagram": "None", "facebook": "None", "youtube": "None", "website": "None", "summary": "None", "logo": "None", "latitude": 47.56082100000006, "longitude": -52.71219349999993}, "107910176RR0034": {"name": "ROMAN CATHOLIC EPISCOPAL CORPORATION OF ST. JOHN'S HOLY FAMILY PARISH", "designationCode": "C", "categoryCode": "38", "address": "P.O. BOX 1363", "city": "ST. JOHN'S", "province": "NL", "country": "CA", "postalCode": "A1C5N5", "twitter": "None", "instagram": "None", "facebook": "None", "youtube": "None", "website": "None", "summary": "None", "logo": "None", "latitude": 47.56082100000006, "longitude": -52.71219349999993}, "107910176RR0033": {"name": "ROMAN CATHOLIC EPISCOPAL CORPORATION OF ST. JOHN'S ST. PETER'S PARISH", "designationCode": "C", "categoryCode": "38", "address": "PO BOX 1363 STN C", "city": "ST. JOHN'S", "province": "NL", "country": "CA", "postalCode": "A1C5N5", "twitter": "None", "instagram": "None", "facebook": "None", "youtube": "None", "website": "None", "summary": "None", "logo": "None", "latitude": 47.56082100000006, "longitude": -52.71219349999993}, "107910176RR0017": {"name": "ROMAN CATHOLIC EPISCOPAL CORPORATION OF ST. JOHN'S ST. THOMAS OF VILLANOVA PARISH", "designationCode": "C", "categoryCode": "38", "address": "PO BOX 1363", "city": "ST JOHN'S", "province": "NL", "country": "CA", "postalCode": "A1C5N5", "twitter": "None", "instagram": "None", "facebook": "None", "youtube": "None", "website": "None", "summary": "None", "logo": "None", "latitude": 47.56082100000006, "longitude": -52.71219349999993}, "119122778RR0019": {"name": "ROMAN CATHOLIC EPISCOPAL CORPORATION ST BERNARD'S PARISH, FINCH ONTARIO", "designationCode": "C", "categoryCode": "38", "address": "56 FRONT ST. P.O BOX 179", "city": "FINCH", "province": "ON", "country": "CA", "postalCode": "K0C1K0", "twitter": "None", "instagram": "None", "facebook": "None", "youtube": "None", "website": "None", "summary": "None", "logo": "None", "latitude": 45.14392958174158, "longitude": -75.08301360214088}, "107910176RR0004": {"name": "ROMAN CATHOLIC EPISCOPAL CORPORATION-ST. PAUL'S PARISH", "designationCode": "C", "categoryCode": "38", "address": "PO BOX 1363 STN C", "city": "ST. JOHN'S", "province": "NL", "country": "CA", "postalCode": "A1C5N5", "twitter": "None", "instagram": "None", "facebook": "None", "youtube": "None", "website": "None", "summary": "None", "logo": "None", "latitude": 47.56082100000006, "longitude": -52.71219349999993}, "107487159RR0002": {"name": "ROMAN CATHOLIC FAMILY OF HOLDEN TOFIELD VIKING & MISSIONS", "designationCode": "C", "categoryCode": "38", "address": "BOX 274", "city": "VIKING", "province": "AB", "country": "CA", "postalCode": "T0B4N0", "twitter": "None", "instagram": "None", "facebook": "None", "youtube": "None", "website": "None", "summary": "None", "logo": "None", "latitude": 53.10014000000007, "longitude": -111.76843999999994}, "107585085RR0065": {"name": "ROMAN CATHOLIC MISSION OF CHRISTOPHER LAKE", "designationCode": "C", "categoryCode": "38", "address": "P.O. BOX 97", "city": "CHRISTOPHER LAKE", "province": "SK", "country": "CA", "postalCode": "S0J0N0", "twitter": "None", "instagram": "None", "facebook": "None", "youtube": "None", "website": "None", "summary": "None", "logo": "None", "latitude": 53.533390000000054, "longitude": -105.80098999999996}, "131106098RR0005": {"name": "ROMAN CATHOLIC MISSION OF DAVIS INLET", "designationCode": "C", "categoryCode": "38", "address": "PO BOX 184", "city": "NATUASHISH", "province": "NL", "country": "CA", "postalCode": "A0P1A0", "twitter": "None", "instagram": "None", "facebook": "None", "youtube": "None", "website": "None", "summary": "None", "logo": "None", "latitude": 55.91564000000005, "longitude": -61.124149999999986}, "107585085RR0029": {"name": "ROMAN CATHOLIC MISSION OF MEOTA", "designationCode": "C", "categoryCode": "38", "address": "BOX 297", "city": "MEOTA", "province": "SK", "country": "CA", "postalCode": "S0M1X0", "twitter": "None", "instagram": "None", "facebook": "None", "youtube": "None", "website": "None", "summary": "None", "logo": "None", "latitude": 53.03395000000006, "longitude": -108.45862999999997}, "131106098RR0017": {"name": "ROMAN CATHOLIC MISSION OF ST PAUL'S RIVER, QUEBEC", "designationCode": "C", "categoryCode": "38", "address": "PO BOX 09", "city": "ST PAUL'S RIVER", "province": "QC", "country": "CA", "postalCode": "G0G2P0", "twitter": "None", "instagram": "None", "facebook": "None", "youtube": "None", "website": "None", "summary": "None", "logo": "None", "latitude": 51.47442600000005, "longitude": -57.70250449999993}, "107585085RR0014": {"name": "ROMAN CATHOLIC MISSION OF ST. MARY'S", "designationCode": "C", "categoryCode": "38", "address": "P.O.BOX 487", "city": "CHOICELAND", "province": "SK", "country": "CA", "postalCode": "S0J0M0", "twitter": "None", "instagram": "None", "facebook": "None", "youtube": "None", "website": "None", "summary": "None", "logo": "None", "latitude": 53.48339000000004, "longitude": -104.48422999999997}, "131106098RR0006": {"name": "ROMAN CATHOLIC MISSIONS IN BLACK TICKLE LABRADOR", "designationCode": "C", "categoryCode": "38", "address": "PO BOX 10", "city": "BLACK TICKLE", "province": "NL", "country": "CA", "postalCode": "A0K1N0", "twitter": "None", "instagram": "None", "facebook": "None", "youtube": "None", "website": "None", "summary": "None", "logo": "None", "latitude": 53.46678000000003, "longitude": -55.74793999999997}, "107876468RR0011": {"name": "ROMAN CATHOLIC PARISH AVONDALE", "designationCode": "C", "categoryCode": "38", "address": "PO BOX 9", "city": "AVONDALE", "province": "NL", "country": "CA", "postalCode": "A0A1B0", "twitter": "None", "instagram": "None", "facebook": "None", "youtube": "None", "website": "None", "summary": "None", "logo": "None", "latitude": 47.42335000000003, "longitude": -53.19659999999993}, "107876468RR0004": {"name": "ROMAN CATHOLIC PARISH OF BAIE VERTE", "designationCode": "C", "categoryCode": "38", "address": "PO BOX 130", "city": "BAIE VERTE WHITE BAIE", "province": "NL", "country": "CA", "postalCode": "A0K1B0", "twitter": "None", "instagram": "None", "facebook": "None", "youtube": "None", "website": "None", "summary": "None", "logo": "None", "latitude": 49.93981800000006, "longitude": -56.19139099999994}, "107876468RR0013": {"name": "ROMAN CATHOLIC PARISH OF BAY DE VERDE", "designationCode": "C", "categoryCode": "38", "address": "BOX 70", "city": "BAY DE VERDE", "province": "NL", "country": "CA", "postalCode": "A0A1E0", "twitter": "None", "instagram": "None", "facebook": "None", "youtube": "None", "website": "None", "summary": "None", "logo": "None", "latitude": 47.430985916367526, "longitude": -53.097546554299576}, "119110708RR0001": {"name": "ROMAN CATHOLIC PARISH OF BIG RIVER", "designationCode": "C", "categoryCode": "38", "address": "BOX 783", "city": "BIG RIVER", "province": "SK", "country": "CA", "postalCode": "S0J0E0", "twitter": "None", "instagram": "None", "facebook": "None", "youtube": "None", "website": "None", "summary": "None", "logo": "None", "latitude": 53.83341000000007, "longitude": -107.01782999999995}, "107876468RR0005": {"name": "ROMAN CATHOLIC PARISH OF BISHOP'S FALLS", "designationCode": "C", "categoryCode": "38", "address": "P.O.BOX 152", "city": "BISHOP'S FALLS", "province": "NL", "country": "CA", "postalCode": "A0H1C0", "twitter": "None", "instagram": "None", "facebook": "None", "youtube": "None", "website": "None", "summary": "None", "logo": "None", "latitude": 49.02673000000004, "longitude": -55.45667999999995}, "107876468RR0015": {"name": "ROMAN CATHOLIC PARISH OF BRIGUS", "designationCode": "C", "categoryCode": "38", "address": "P.O. BOX 25", "city": "BRIGUS", "province": "NL", "country": "CA", "postalCode": "A0A1K0", "twitter": "None", "instagram": "None", "facebook": "None", "youtube": "None", "website": "None", "summary": "None", "logo": "None", "latitude": 47.11258447559277, "longitude": -52.892937929567815}, "119110740RR0001": {"name": "ROMAN CATHOLIC PARISH OF CANADIAN MARTYRS", "designationCode": "C", "categoryCode": "38", "address": "BOX 271", "city": "MIDDLE LAKE", "province": "SK", "country": "CA", "postalCode": "S0K2X0", "twitter": "None", "instagram": "None", "facebook": "None", "youtube": "None", "website": "None", "summary": "None", "logo": "None", "latitude": 52.48227000000003, "longitude": -105.30166999999994}, "107876468RR0006": {"name": "ROMAN CATHOLIC PARISH OF CARBONEAR", "designationCode": "C", "categoryCode": "38", "address": "PO BOX 429", "city": "CARBONEAR", "province": "NL", "country": "CA", "postalCode": "A1Y1B8", "twitter": "None", "instagram": "None", "facebook": "None", "youtube": "None", "website": "None", "summary": "None", "logo": "None", "latitude": 47.73637500000005, "longitude": -53.22950449999993}, "119110807RR0001": {"name": "ROMAN CATHOLIC PARISH OF DELMAS", "designationCode": "C", "categoryCode": "38", "address": "P O BOX 10", "city": "DELMAS", "province": "SK", "country": "CA", "postalCode": "S0M0P0", "twitter": "None", "instagram": "None", "facebook": "None", "youtube": "None", "website": "None", "summary": "None", "logo": "None", "latitude": 52.932810000000075, "longitude": -108.60118999999997}, "107585085RR0009": {"name": "ROMAN CATHOLIC PARISH OF DUCK LAKE", "designationCode": "C", "categoryCode": "38", "address": "BOX 160", "city": "DUCK LAKE", "province": "SK", "country": "CA", "postalCode": "S0K1J0", "twitter": "None", "instagram": "None", "facebook": "None", "youtube": "None", "website": "None", "summary": "None", "logo": "None", "latitude": 52.809180000000026, "longitude": -106.22419999999994}, "107876468RR0019": {"name": "ROMAN CATHOLIC PARISH OF GAMBO", "designationCode": "C", "categoryCode": "38", "address": "PO BOX 59", "city": "GAMBO", "province": "NL", "country": "CA", "postalCode": "A0G2E0", "twitter": "None", "instagram": "None", "facebook": "None", "youtube": "None", "website": "None", "summary": "None", "logo": "None", "latitude": 48.78680000000003, "longitude": -54.21128999999996}, "107876468RR0003": {"name": "ROMAN CATHOLIC PARISH OF GANDER", "designationCode": "C", "categoryCode": "38", "address": "10 BISHOP STREET", "city": "GANDER", "province": "NL", "country": "CA", "postalCode": "A1V1V3", "twitter": "None", "instagram": "None", "facebook": "None", "youtube": "None", "website": "None", "summary": "None", "logo": "None", "latitude": 48.95712959950339, "longitude": -54.61696735450794}, "107876468RR0009": {"name": "ROMAN CATHOLIC PARISH OF GRAND FALLS", "designationCode": "C", "categoryCode": "38", "address": "P.O. BOX 928", "city": "GRAND FALLS-WINDSOR", "province": "NL", "country": "CA", "postalCode": "A2A2P7", "twitter": "None", "instagram": "None", "facebook": "None", "youtube": "None", "website": "None", "summary": "None", "logo": "None", "latitude": 48.927786000000054, "longitude": -55.65881149999993}, "107876468RR0001": {"name": "ROMAN CATHOLIC PARISH OF HARBOUR GRACE", "designationCode": "C", "categoryCode": "38", "address": "P.O. BOX 299", "city": "HARBOUR GRACE", "province": "NL", "country": "CA", "postalCode": "A0A2M0", "twitter": "None", "instagram": "None", "facebook": "None", "youtube": "None", "website": "None", "summary": "None", "logo": "None", "latitude": 47.68216000000007, "longitude": -53.24321999999995}, "119110898RR0001": {"name": "ROMAN CATHOLIC PARISH OF HOLY GUARDIAN ANGELS", "designationCode": "C", "categoryCode": "38", "address": "PO BOX 26", "city": "ENGLEFELD", "province": "SK", "country": "CA", "postalCode": "S0K1N0", "twitter": "None", "instagram": "None", "facebook": "None", "youtube": "None", "website": "None", "summary": "None", "logo": "None", "latitude": 52.15925000000004, "longitude": -104.65563999999995}, "131758294RR0001": {"name": "ROMAN CATHOLIC PARISH OF HOLY TRINITY", "designationCode": "C", "categoryCode": "38", "address": "5020 SHERWOOD DRIVE", "city": "REGINA", "province": "SK", "country": "CA", "postalCode": "S4R4C2", "twitter": "None", "instagram": "None", "facebook": "None", "youtube": "None", "website": "None", "summary": "None", "logo": "None", "latitude": 50.477046504327824, "longitude": -104.65345252553523}, "107585085RR0023": {"name": "ROMAN CATHOLIC PARISH OF MAIDSTONE", "designationCode": "C", "categoryCode": "38", "address": "P.O. BOX 653", "city": "MAIDSTONE", "province": "SK", "country": "CA", "postalCode": "S0M1M0", "twitter": "None", "instagram": "None", "facebook": "None", "youtube": "None", "website": "None", "summary": "None", "logo": "None", "latitude": 53.087690000000066, "longitude": -109.29660999999999}, "107585085RR0010": {"name": "ROMAN CATHOLIC PARISH OF MEADOW LAKE", "designationCode": "C", "categoryCode": "38", "address": "504-3RD AVE EAST", "city": "MEADOW LAKE", "province": "SK", "country": "CA", "postalCode": "S9X1H5", "twitter": "None", "instagram": "None", "facebook": "None", "youtube": "None", "website": "None", "summary": "None", "logo": "None", "latitude": 54.13062169605884, "longitude": -108.42623531805079}, "107876468RR0024": {"name": "ROMAN CATHOLIC PARISH OF NORTH RIVER", "designationCode": "C", "categoryCode": "38", "address": "P.O. BOX 142", "city": "NORTH RIVER", "province": "NL", "country": "CA", "postalCode": "A0A3C0", "twitter": "None", "instagram": "None", "facebook": "None", "youtube": "None", "website": "None", "summary": "None", "logo": "None", "latitude": 47.54155352557583, "longitude": -53.3161067993701}, "107585085RR0035": {"name": "ROMAN CATHOLIC PARISH OF PIERCELAND", "designationCode": "C", "categoryCode": "38", "address": "BOX 490", "city": "PIERCELAND", "province": "SK", "country": "CA", "postalCode": "S0M2K0", "twitter": "None", "instagram": "None", "facebook": "None", "youtube": "None", "website": "None", "summary": "None", "logo": "None", "latitude": 54.333480000000066, "longitude": -109.76833999999997}, "119122737RR0001": {"name": "ROMAN CATHOLIC PARISH OF SAINT TIMOTHY", "designationCode": "C", "categoryCode": "38", "address": "135 JOHN FORSYTH RD", "city": "WINNIPEG", "province": "MB", "country": "CA", "postalCode": "R2N1R3", "twitter": "None", "instagram": "None", "facebook": "None", "youtube": "None", "website": "None", "summary": "None", "logo": "None", "latitude": 49.811461511801, "longitude": -97.10138668601724}, "855549127RR0001": {"name": "ROMAN CATHOLIC PARISH OF ST JOSEPH", "designationCode": "C", "categoryCode": "38", "address": "BOX 207", "city": "VANGUARD", "province": "SK", "country": "CA", "postalCode": "S0N2V0", "twitter": "None", "instagram": "None", "facebook": "None", "youtube": "None", "website": "None", "summary": "None", "logo": "None", "latitude": 49.91676000000007, "longitude": -107.30129999999997}, "119111169RR0001": {"name": "ROMAN CATHOLIC PARISH OF ST. AGNES", "designationCode": "C", "categoryCode": "38", "address": "PO BOX 125", "city": "BRUNO", "province": "SK", "country": "CA", "postalCode": "S0K0S0", "twitter": "None", "instagram": "None", "facebook": "None", "youtube": "None", "website": "None", "summary": "None", "logo": "None", "latitude": 52.265360000000044, "longitude": -105.52711999999997}, "119111201RR0001": {"name": "ROMAN CATHOLIC PARISH OF ST. ANN", "designationCode": "C", "categoryCode": "38", "address": "BOX 120", "city": "ANNAHEIM", "province": "SK", "country": "CA", "postalCode": "S0K0G0", "twitter": "None", "instagram": "None", "facebook": "None", "youtube": "None", "website": "None", "summary": "None", "logo": "None", "latitude": 52.31674000000004, "longitude": -104.81776999999994}, "119111227RR0001": {"name": "ROMAN CATHOLIC PARISH OF ST. ANTHONY", "designationCode": "C", "categoryCode": "38", "address": "PO BOX 10", "city": "LAKE LENORE", "province": "SK", "country": "CA", "postalCode": "S0K2J0", "twitter": "None", "instagram": "None", "facebook": "None", "youtube": "None", "website": "None", "summary": "None", "logo": "None", "latitude": 52.39781000000005, "longitude": -104.98035999999996}, "119111219RR0001": {"name": "ROMAN CATHOLIC PARISH OF ST. ANTHONY OF REGINA", "designationCode": "C", "categoryCode": "38", "address": "2275 ATKINSON STREET", "city": "REGINA", "province": "SK", "country": "CA", "postalCode": "S4N3X2", "twitter": "None", "instagram": "None", "facebook": "None", "youtube": "None", "website": "None", "summary": "None", "logo": "None", "latitude": 50.44260574854292, "longitude": -104.59223885036667}, "119111243RR0001": {"name": "ROMAN CATHOLIC PARISH OF ST. AUGUSTINE", "designationCode": "C", "categoryCode": "38", "address": "BOX 1989", "city": "HUMBOLDT", "province": "SK", "country": "CA", "postalCode": "S0K2A0", "twitter": "None", "instagram": "None", "facebook": "None", "youtube": "None", "website": "None", "summary": "None", "logo": "None", "latitude": 51.7871843348964, "longitude": -104.71638483007007}, "891087041RR0001": {"name": "ROMAN CATHOLIC PARISH OF ST. BENEDICT", "designationCode": "C", "categoryCode": "38", "address": "BOX 37", "city": "ST BENEDICT", "province": "SK", "country": "CA", "postalCode": "S0K3T0", "twitter": "None", "instagram": "None", "facebook": "None", "youtube": "None", "website": "None", "summary": "None", "logo": "None", "latitude": 37.74695763325742, "longitude": -121.95609786420982}, "119111284RR0001": {"name": "ROMAN CATHOLIC PARISH OF ST. BRUNO", "designationCode": "C", "categoryCode": "38", "address": "BOX 328", "city": "BRUNO", "province": "SK", "country": "CA", "postalCode": "S0K0S0", "twitter": "None", "instagram": "None", "facebook": "None", "youtube": "None", "website": "None", "summary": "None", "logo": "None", "latitude": 52.265360000000044, "longitude": -105.52711999999997}, "107910754RR0001": {"name": "ROMAN CATHOLIC PARISH OF ST. CECILIA", "designationCode": "C", "categoryCode": "38", "address": "5020 7TH AVE", "city": "REGINA", "province": "SK", "country": "CA", "postalCode": "S4T0S1", "twitter": "None", "instagram": "None", "facebook": "None", "youtube": "None", "website": "None", "summary": "None", "logo": "None", "latitude": 50.458414471579246, "longitude": -104.653584}, "119111318RR0001": {"name": "ROMAN CATHOLIC PARISH OF ST. GEORGE", "designationCode": "C", "categoryCode": "38", "address": "PO BOX 99", "city": "NAICAM", "province": "SK", "country": "CA", "postalCode": "S0K2Z0", "twitter": "None", "instagram": "None", "facebook": "None", "youtube": "None", "website": "None", "summary": "None", "logo": "None", "latitude": 52.42007000000007, "longitude": -104.49704999999994}, "108019746RR0001": {"name": "ROMAN CATHOLIC PARISH OF ST. GREGORY", "designationCode": "C", "categoryCode": "38", "address": "BOX 51", "city": "ST GREGOR", "province": "SK", "country": "CA", "postalCode": "S0K3X0", "twitter": "None", "instagram": "None", "facebook": "None", "youtube": "None", "website": "None", "summary": "None", "logo": "None", "latitude": 52.180656000000056, "longitude": -104.82600049999994}, "119111342RR0001": {"name": "ROMAN CATHOLIC PARISH OF ST. IGNATIUS", "designationCode": "C", "categoryCode": "38", "address": "BOX 333", "city": "LANIGAN", "province": "SK", "country": "CA", "postalCode": "S0K2M0", "twitter": "None", "instagram": "None", "facebook": "None", "youtube": "None", "website": "None", "summary": "None", "logo": "None", "latitude": 51.84617000000003, "longitude": -105.03797999999995}, "119111359RR0001": {"name": "ROMAN CATHOLIC PARISH OF ST. JOHN BERCHMANS", "designationCode": "C", "categoryCode": "38", "address": "PO BOX 130", "city": "HOLLAND", "province": "MB", "country": "CA", "postalCode": "R0G0X0", "twitter": "None", "instagram": "None", "facebook": "None", "youtube": "None", "website": "None", "summary": "None", "logo": "None", "latitude": 49.7686281543147, "longitude": -97.632704369717}, "107585085RR0041": {"name": "ROMAN CATHOLIC PARISH OF ST. LOUIS, ST. LOUIS, SK", "designationCode": "C", "categoryCode": "38", "address": "BOX 87", "city": "ST LOUIS", "province": "SK", "country": "CA", "postalCode": "S0J2C0", "twitter": "None", "instagram": "None", "facebook": "None", "youtube": "None", "website": "None", "summary": "None", "logo": "None", "latitude": 52.92279000000008, "longitude": -105.80526999999995}, "107585085RR0039": {"name": "ROMAN CATHOLIC PARISH OF ST. MARK", "designationCode": "C", "categoryCode": "38", "address": "581-9TH ST. EAST", "city": "PRINCE ALBERT", "province": "SK", "country": "CA", "postalCode": "S6V0Y4", "twitter": "None", "instagram": "None", "facebook": "None", "youtube": "None", "website": "None", "summary": "None", "logo": "None", "latitude": 53.20473486173225, "longitude": -105.73844545139177}, "119111433RR0001": {"name": "ROMAN CATHOLIC PARISH OF ST. MARTIN", "designationCode": "C", "categoryCode": "38", "address": "4720 CASTLE", "city": "REGINA", "province": "SK", "country": "CA", "postalCode": "S4S4X1", "twitter": "None", "instagram": "None", "facebook": "None", "youtube": "None", "website": "None", "summary": "None", "logo": "None", "latitude": 50.404484454836854, "longitude": -104.60282727418429}, "119111482RR0001": {"name": "ROMAN CATHOLIC PARISH OF ST. MICHAEL", "designationCode": "C", "categoryCode": "38", "address": "BOX 239", "city": "CUDWORTH", "province": "SK", "country": "CA", "postalCode": "S0K1B0", "twitter": "None", "instagram": "None", "facebook": "None", "youtube": "None", "website": "None", "summary": "None", "logo": "None", "latitude": 52.500060000000076, "longitude": -105.73441999999994}}