{"860767987RR0001": {"name": "KOLLEL TOSH", "designationCode": "C", "categoryCode": "42", "address": "3 RUE BETH-HALEVY", "city": "BOISBRIAND", "province": "QC", "country": "CA", "postalCode": "J7E4H4", "twitter": "None", "instagram": "None", "facebook": "None", "youtube": "None", "website": "None", "summary": "None", "logo": "None", "latitude": 45.614930008050095, "longitude": -73.87172061740434}, "850251141RR0001": {"name": "KOLLEL YISROEL DOVID", "designationCode": "C", "categoryCode": "20", "address": "1810 LAJOIE", "city": "MONTREAL", "province": "QC", "country": "CA", "postalCode": "H2V1S3", "twitter": "None", "instagram": "None", "facebook": "None", "youtube": "None", "website": "None", "summary": "None", "logo": "None", "latitude": 45.513227326937596, "longitude": -73.61741791393061}, "118986850RR0001": {"name": "KOLUMBIA INN DAYCARE SOCIETY (K.I.D.S.)", "designationCode": "C", "categoryCode": "01", "address": "236 ROSS DRIVE", "city": "NEW WESTMINSTER", "province": "BC", "country": "CA", "postalCode": "V3L0B2", "twitter": "None", "instagram": "None", "facebook": "None", "youtube": "None", "website": "None", "summary": "None", "logo": "None", "latitude": 49.21418466497013, "longitude": -122.89998079173384}, "886002120RR0001": {"name": "KOMARNO HOLY TRINITY UKRAINIAN CATHOLIC CHURCH", "designationCode": "C", "categoryCode": "39", "address": "BOX 193", "city": "TEULON", "province": "MB", "country": "CA", "postalCode": "R0C3B0", "twitter": "None", "instagram": "None", "facebook": "None", "youtube": "None", "website": "None", "summary": "None", "logo": "None", "latitude": 50.38882296172802, "longitude": -97.07887338068231}, "129588570RR0001": {"name": "KOMOKA RAILWAY MUSEUM", "designationCode": "C", "categoryCode": "50", "address": "131 QUEEN ST", "city": "KOMOKA", "province": "ON", "country": "CA", "postalCode": "N0L1R0", "twitter": "None", "instagram": "None", "facebook": "None", "youtube": "None", "website": "None", "summary": "None", "logo": "None", "latitude": 42.95430766226068, "longitude": -81.43276387792814}, "118986884RR0001": {"name": "KOMOKA UNITED CHURCH", "designationCode": "C", "categoryCode": "44", "address": "110 ST LAWRENCE AVE           BOX 23", "city": "KOMOKA", "province": "ON", "country": "CA", "postalCode": "N0L1R0", "twitter": "None", "instagram": "None", "facebook": "None", "youtube": "None", "website": "None", "summary": "None", "logo": "None", "latitude": 42.951168597553256, "longitude": -81.43724308728147}, "844363325RR0001": {"name": "KONADIAN EVANGELICAL MISSION FELLOWSHIP (K.E.M.F.) CHURCH", "designationCode": "C", "categoryCode": "39", "address": "217 KING STREET", "city": "SUDBURY", "province": "ON", "country": "CA", "postalCode": "P3C2W2", "twitter": "None", "instagram": "None", "facebook": "None", "youtube": "None", "website": "None", "summary": "None", "logo": "None", "latitude": 46.50425550678067, "longitude": -80.98896158381903}, "865649115RR0001": {"name": "KONKANI ASSOCIATION OF ONTARIO", "designationCode": "A", "categoryCode": "03", "address": "39 FAIRHILL AVE", "city": "BRAMPTON", "province": "ON", "country": "CA", "postalCode": "L7A2E7", "twitter": "None", "instagram": "None", "facebook": "None", "youtube": "None", "website": "None", "summary": "None", "logo": "None", "latitude": 43.68421555952457, "longitude": -79.82468015263443}, "118986900RR0001": {"name": "KONKO CHURCH OF TORONTO", "designationCode": "C", "categoryCode": "39", "address": "398 KENNEDY ROAD", "city": "SCARBOROUGH", "province": "ON", "country": "CA", "postalCode": "M1K2A6", "twitter": "None", "instagram": "None", "facebook": "None", "youtube": "None", "website": "None", "summary": "None", "logo": "None", "latitude": 43.71456475408283, "longitude": -79.2608050379418}, "889554770RR0001": {"name": "KONKO CHURCH OF VANCOUVER", "designationCode": "C", "categoryCode": "39", "address": "5319 SHERBROOKE ST", "city": "VANCOUVER", "province": "BC", "country": "CA", "postalCode": "V5W3M3", "twitter": "None", "instagram": "None", "facebook": "None", "youtube": "None", "website": "None", "summary": "None", "logo": "None", "latitude": 49.23669552844942, "longitude": -123.0813925488774}, "858372360RR0001": {"name": "KONNECT COMMUNITY SUPPORT NETWORK", "designationCode": "C", "categoryCode": "09", "address": "PO BOX 64  STN \"C\"", "city": "TORONTO", "province": "ON", "country": "CA", "postalCode": "M6J3M7", "twitter": "None", "instagram": "None", "facebook": "None", "youtube": "None", "website": "None", "summary": "None", "logo": "None", "latitude": 43.64854800000006, "longitude": -79.41777199999993}, "877226118RR0001": {"name": "KOOCHER BROTHERS CHARITABLE FOUNDATION", "designationCode": "B", "categoryCode": "03", "address": "66 BRADLEY AVE", "city": "BINBROOK", "province": "ON", "country": "CA", "postalCode": "L0R1C0", "twitter": "None", "instagram": "None", "facebook": "None", "youtube": "None", "website": "None", "summary": "None", "logo": "None", "latitude": 43.12086176325808, "longitude": -79.81319181184703}, "859233439RR0001": {"name": "KOOTENAI COMMUNITY CENTRE SOCIETY", "designationCode": "C", "categoryCode": "09", "address": "PO BOX 237", "city": "CRESTON", "province": "BC", "country": "CA", "postalCode": "V0B1G0", "twitter": "None", "instagram": "None", "facebook": "None", "youtube": "None", "website": "None", "summary": "None", "logo": "None", "latitude": 49.738704000000055, "longitude": -115.87167349999993}, "133938381RR0001": {"name": "KOOTENAY ADVOCACY NETWORK/TASK", "designationCode": "C", "categoryCode": "09", "address": "BOX 231", "city": "NELSON", "province": "BC", "country": "CA", "postalCode": "V1L5P9", "twitter": "None", "instagram": "None", "facebook": "None", "youtube": "None", "website": "None", "summary": "None", "logo": "None", "latitude": 49.49754900000005, "longitude": -117.28882249999992}, "893123034RR0001": {"name": "KOOTENAY BOUNDARY REGIONAL HOSPITAL AND HEALTH FOUNDATION SOCIETY", "designationCode": "A", "categoryCode": "13", "address": "1200 HOSPITAL BENCH", "city": "TRAIL", "province": "BC", "country": "CA", "postalCode": "V1R4M1", "twitter": "None", "instagram": "None", "facebook": "None", "youtube": "None", "website": "None", "summary": "None", "logo": "None", "latitude": 49.10384248136292, "longitude": -117.70181544408878}, "822469359RR0001": {"name": "KOOTENAY CAMP RETREAT (2008) FOUNDATION", "designationCode": "A", "categoryCode": "03", "address": "1800 - 510 GEORGIA ST W", "city": "VANCOUVER", "province": "BC", "country": "CA", "postalCode": "V6B0M3", "twitter": "None", "instagram": "None", "facebook": "None", "youtube": "None", "website": "None", "summary": "None", "logo": "None", "latitude": 49.281267759207665, "longitude": -123.11633309804196}, "802919076RR0001": {"name": "KOOTENAY CAMP RETREAT SOCIETY", "designationCode": "C", "categoryCode": "56", "address": "#12-FOURTH STREET, BOX 56", "city": "SALMO", "province": "BC", "country": "CA", "postalCode": "V0G1Z0", "twitter": "None", "instagram": "None", "facebook": "None", "youtube": "None", "website": "None", "summary": "None", "logo": "None", "latitude": 49.19479549228174, "longitude": -117.27920186398323}, "854718608RR0001": {"name": "KOOTENAY CAREER DEVELOPMENT SOCIETY", "designationCode": "C", "categoryCode": "59", "address": "SUITE 203-514 VERNON STREET", "city": "NELSON", "province": "BC", "country": "CA", "postalCode": "V1L4E7", "twitter": "None", "instagram": "None", "facebook": "None", "youtube": "None", "website": "None", "summary": "None", "logo": "None", "latitude": 49.49277392095872, "longitude": -117.29441044802974}, "894450840RR0001": {"name": "KOOTENAY CHRISTIAN FELLOWSHIP", "designationCode": "C", "categoryCode": "39", "address": "520 FALLS STREET", "city": "NELSON", "province": "BC", "country": "CA", "postalCode": "V1L6B5", "twitter": "None", "instagram": "None", "facebook": "None", "youtube": "None", "website": "None", "summary": "None", "logo": "None", "latitude": 49.48998732832258, "longitude": -117.29762402446737}, "869673160RR0001": {"name": "KOOTENAY COLUMBIA TRAILS SOCIETY", "designationCode": "C", "categoryCode": "56", "address": "PO BOX 1179", "city": "ROSSLAND", "province": "BC", "country": "CA", "postalCode": "V0G1Y0", "twitter": "None", "instagram": "None", "facebook": "None", "youtube": "None", "website": "None", "summary": "None", "logo": "None", "latitude": 49.07693000000006, "longitude": -117.79933999999997}, "889369906RR0001": {"name": "KOOTENAY COMMUNITY FELLOWSHIP", "designationCode": "C", "categoryCode": "49", "address": "207 14TH AVE N", "city": "CRANBROOK", "province": "BC", "country": "CA", "postalCode": "V1C3W3", "twitter": "None", "instagram": "None", "facebook": "None", "youtube": "None", "website": "None", "summary": "None", "logo": "None", "latitude": 49.5140646598461, "longitude": -115.76207047780608}, "107576910RR0001": {"name": "KOOTENAY DOUKHOBOR HISTORICAL (KUTNEISKOE DOUKHOBORCHESKOE OBSHCHESTVO ISTOCHSKOE) SOCIETY", "designationCode": "C", "categoryCode": "52", "address": "112 HERITAGE WAY", "city": "CASTLEGAR", "province": "BC", "country": "CA", "postalCode": "V1N4M5", "twitter": "None", "instagram": "None", "facebook": "None", "youtube": "None", "website": "None", "summary": "None", "logo": "None", "latitude": 49.300276771139956, "longitude": -117.63923348023444}, "867238487RR0001": {"name": "KOOTENAY EMPLOYMENT SERVICES SOCIETY", "designationCode": "C", "categoryCode": "09", "address": "BOX 548                       119 - 11TH AVENUE NORTH", "city": "CRESTON", "province": "BC", "country": "CA", "postalCode": "V0B1G0", "twitter": "None", "instagram": "None", "facebook": "None", "youtube": "None", "website": "None", "summary": "None", "logo": "None", "latitude": 49.095594922009354, "longitude": -116.51191396837659}, "107576894RR0001": {"name": "KOOTENAY FAMILY PLACE", "designationCode": "C", "categoryCode": "01", "address": "BOX 3144", "city": "CASTLEGAR", "province": "BC", "country": "CA", "postalCode": "V1N3H4", "twitter": "None", "instagram": "None", "facebook": "None", "youtube": "None", "website": "None", "summary": "None", "logo": "None", "latitude": 49.296228000000056, "longitude": -117.65424049999993}, "896247707RR0001": {"name": "KOOTENAY HELI-RESCUE SOCIETY", "designationCode": "C", "categoryCode": "59", "address": "1223 GORDON ROAD", "city": "NELSON", "province": "BC", "country": "CA", "postalCode": "V1L3M6", "twitter": "None", "instagram": "None", "facebook": "None", "youtube": "None", "website": "None", "summary": "None", "logo": "None", "latitude": 49.50817516627837, "longitude": -117.27004296040695}, "131274110RR0001": {"name": "KOOTENAY KIDS SOCIETY", "designationCode": "C", "categoryCode": "01", "address": "312 SILICA ST", "city": "NELSON", "province": "BC", "country": "CA", "postalCode": "V1L4M5", "twitter": "None", "instagram": "None", "facebook": "None", "youtube": "None", "website": "None", "summary": "None", "logo": "None", "latitude": 49.4894164409887, "longitude": -117.29513763074878}, "107576977RR0001": {"name": "KOOTENAY LAKE COMMUNITY CHURCH SOCIETY", "designationCode": "C", "categoryCode": "39", "address": "PO BOX 79", "city": "CRAWFORD BAY", "province": "BC", "country": "CA", "postalCode": "V0B1E0", "twitter": "None", "instagram": "None", "facebook": "None", "youtube": "None", "website": "None", "summary": "None", "logo": "None", "latitude": 49.67554000000007, "longitude": -116.82475999999997}, "118986959RR0001": {"name": "KOOTENAY LAKE HISTORICAL SOCIETY", "designationCode": "C", "categoryCode": "52", "address": "324 FRONT STREET              BOX 537", "city": "KASLO", "province": "BC", "country": "CA", "postalCode": "V0G1M0", "twitter": "None", "instagram": "None", "facebook": "None", "youtube": "None", "website": "None", "summary": "None", "logo": "None", "latitude": 49.91190882203617, "longitude": -116.903768189758}, "132004227RR0001": {"name": "KOOTENAY LAKE HOSPITAL FOUNDATION", "designationCode": "A", "categoryCode": "13", "address": "3 VIEW ST", "city": "NELSON", "province": "BC", "country": "CA", "postalCode": "V1L2V1", "twitter": "None", "instagram": "None", "facebook": "None", "youtube": "None", "website": "None", "summary": "None", "logo": "None", "latitude": 49.49287326882724, "longitude": -117.28522624730299}, "889611695RR0001": {"name": "KOOTENAY LAKE INDEPENDENT SCHOOL SOCIETY", "designationCode": "C", "categoryCode": "20", "address": "BOX 1136", "city": "KASLO", "province": "BC", "country": "CA", "postalCode": "V0G1M0", "twitter": "None", "instagram": "None", "facebook": "None", "youtube": "None", "website": "None", "summary": "None", "logo": "None", "latitude": 49.91053000000005, "longitude": -116.90458999999998}, "107577173RR0001": {"name": "KOOTENAY REGION ASSOCIATION FOR COMMUNITY LIVING", "designationCode": "C", "categoryCode": "11", "address": "1702 CEDAR STREET", "city": "CRESTON", "province": "BC", "country": "CA", "postalCode": "V0B1G5", "twitter": "None", "instagram": "None", "facebook": "None", "youtube": "None", "website": "None", "summary": "None", "logo": "None", "latitude": 49.091864510964285, "longitude": -116.50499991618096}, "856682141RR0001": {"name": "KOOTENAY RHYTHM DRAGONS ASSOCIATION", "designationCode": "C", "categoryCode": "11", "address": "1 - 622 FRONT ST", "city": "NELSON", "province": "BC", "country": "CA", "postalCode": "V1L4B7", "twitter": "None", "instagram": "None", "facebook": "None", "youtube": "None", "website": "None", "summary": "None", "logo": "None", "latitude": 49.49469012533041, "longitude": -117.29411154471408}, "890996119RR0001": {"name": "KOOTENAY ROBUSTERS SOCIETY", "designationCode": "C", "categoryCode": "11", "address": "BOX 135", "city": "CHRISTINA LAKE", "province": "BC", "country": "CA", "postalCode": "V0H1E0", "twitter": "None", "instagram": "None", "facebook": "None", "youtube": "None", "website": "None", "summary": "None", "logo": "None", "latitude": 49.02012000000008, "longitude": -118.21722999999997}, "870077617RR0001": {"name": "KOOTENAY ROMANIAN RELIEF ORGANIZATION CANADA", "designationCode": "C", "categoryCode": "09", "address": "BOX 652", "city": "NELSON", "province": "BC", "country": "CA", "postalCode": "V1L5R4", "twitter": "None", "instagram": "None", "facebook": "None", "youtube": "None", "website": "None", "summary": "None", "logo": "None", "latitude": 49.49754900000005, "longitude": -117.28882249999992}, "107304636RR0001": {"name": "KOOTENAY SOCIETY FOR COMMUNITY LIVING", "designationCode": "C", "categoryCode": "11", "address": "2224 6TH AVE", "city": "CASTLEGAR", "province": "BC", "country": "CA", "postalCode": "V1N2V9", "twitter": "None", "instagram": "None", "facebook": "None", "youtube": "None", "website": "None", "summary": "None", "logo": "None", "latitude": 49.290933464739304, "longitude": -117.6493925323218}, "851203174RR0001": {"name": "KOOTENAY SOCIETY FOR LIFELONG LEARNING", "designationCode": "C", "categoryCode": "20", "address": "3711 BONNINGTON RD", "city": "BONNINGTON", "province": "BC", "country": "CA", "postalCode": "V0G2G3", "twitter": "None", "instagram": "None", "facebook": "None", "youtube": "None", "website": "None", "summary": "None", "logo": "None", "latitude": 49.46521770573567, "longitude": -117.49972789863695}, "126170414RR0001": {"name": "KOOTENAY WILDLIFE HERITAGE FUND SOCIETY", "designationCode": "C", "categoryCode": "56", "address": "108 - 15 STREET SOUTH", "city": "CRANBROOK", "province": "BC", "country": "CA", "postalCode": "V1C3A6", "twitter": "None", "instagram": "None", "facebook": "None", "youtube": "None", "website": "None", "summary": "None", "logo": "None", "latitude": 49.49482458077371, "longitude": -115.7812826398646}, "118987023RR0001": {"name": "KORAH SCHOLARSHIP AND AWARD FUND", "designationCode": "C", "categoryCode": "21", "address": "636 GOULAIS AVE", "city": "SAULT STE MARIE", "province": "ON", "country": "CA", "postalCode": "P6C5A7", "twitter": "None", "instagram": "None", "facebook": "None", "youtube": "None", "website": "None", "summary": "None", "logo": "None", "latitude": 46.542437072845786, "longitude": -84.3821178479293}, "891394546RR0001": {"name": "KOREAN - CANADIAN FAMILY MINISTRY", "designationCode": "C", "categoryCode": "37", "address": "86 MAXOME AVENUE", "city": "TORONTO", "province": "ON", "country": "CA", "postalCode": "M2M3K1", "twitter": "None", "instagram": "None", "facebook": "None", "youtube": "None", "website": "None", "summary": "None", "logo": "None", "latitude": 43.78893673022103, "longitude": -79.40080685056822}, "107577348RR0001": {"name": "KOREAN BAPTIST CHURCH OF VANCOUVER", "designationCode": "C", "categoryCode": "31", "address": "4798 GLADSTONE ST", "city": "VANCOUVER", "province": "BC", "country": "CA", "postalCode": "V5N5A5", "twitter": "None", "instagram": "None", "facebook": "None", "youtube": "None", "website": "None", "summary": "None", "logo": "None", "latitude": 49.241726046627036, "longitude": -123.0627720094064}, "889383642RR0001": {"name": "KOREAN BETHEL BAPTIST CHURCH", "designationCode": "C", "categoryCode": "39", "address": "6490 BUSWELL ST", "city": "RICHMOND", "province": "BC", "country": "CA", "postalCode": "V6Y2E9", "twitter": "None", "instagram": "None", "facebook": "None", "youtube": "None", "website": "None", "summary": "None", "logo": "None", "latitude": 49.166660292448654, "longitude": -123.13362110476099}, "891435471RR0001": {"name": "KOREAN BETHEL PRESBYTERIAN CHURCH OF CALGARY", "designationCode": "C", "categoryCode": "39", "address": "3403 - 19A SE", "city": "CALGARY", "province": "AB", "country": "CA", "postalCode": "T2B0A6", "twitter": "None", "instagram": "None", "facebook": "None", "youtube": "None", "website": "None", "summary": "None", "logo": "None", "latitude": 51.03604500000006, "longitude": -113.98420249999992}, "873984025RR0001": {"name": "KOREAN BIBLE BAPTIST CHURCH", "designationCode": "C", "categoryCode": "31", "address": "1891 GERARD ST EAST", "city": "TORONTO", "province": "ON", "country": "CA", "postalCode": "M4L2B9", "twitter": "None", "instagram": "None", "facebook": "None", "youtube": "None", "website": "None", "summary": "None", "logo": "None", "latitude": 43.68011283790187, "longitude": -79.31217232901506}, "891563041RR0001": {"name": "KOREAN BIBLE CONFERENCE OF CANADA", "designationCode": "C", "categoryCode": "39", "address": "42 ROBINTER DRIVE", "city": "WILLOWDALE", "province": "ON", "country": "CA", "postalCode": "M2M3R2", "twitter": "None", "instagram": "None", "facebook": "None", "youtube": "None", "website": "None", "summary": "None", "logo": "None", "latitude": 43.80141009103239, "longitude": -79.39830759091682}, "863298295RR0001": {"name": "KOREAN CALVARY PRESBYTERIAN CHURCH OF EDMONTON", "designationCode": "C", "categoryCode": "37", "address": "2710 - 79 ST NW", "city": "EDMONTON", "province": "AB", "country": "CA", "postalCode": "T6K3Z1", "twitter": "None", "instagram": "None", "facebook": "None", "youtube": "None", "website": "None", "summary": "None", "logo": "None", "latitude": 53.458152171244734, "longitude": -113.45368644217754}, "107577413RR0001": {"name": "KOREAN CANADIAN CULTURAL ASSOCIATION OF METROPOLITAN TORONTO", "designationCode": "C", "categoryCode": "22", "address": "1133 LESLIE ST", "city": "NORTH YORK", "province": "ON", "country": "CA", "postalCode": "M3C2J6", "twitter": "None", "instagram": "None", "facebook": "None", "youtube": "None", "website": "None", "summary": "None", "logo": "None", "latitude": 43.72587836779358, "longitude": -79.34959002487231}, "755067527RR0001": {"name": "KOREAN CANADIAN SCHOLARSHIP FOUNDATION", "designationCode": "C", "categoryCode": "21", "address": "56 MOBERLY AVE", "city": "TORONTO", "province": "ON", "country": "CA", "postalCode": "M4C4B1", "twitter": "None", "instagram": "None", "facebook": "None", "youtube": "None", "website": "None", "summary": "None", "logo": "None", "latitude": 43.68381312600267, "longitude": -79.31344683210213}, "118987114RR0001": {"name": "KOREAN CANADIAN SCHOLARSHIP FOUNDATION OF EDMONTON", "designationCode": "C", "categoryCode": "21", "address": "PO BOX 88033                  RABIT HILL POST OFFICE", "city": "EDMONTON", "province": "AB", "country": "CA", "postalCode": "T6R0M5", "twitter": "None", "instagram": "None", "facebook": "None", "youtube": "None", "website": "None", "summary": "None", "logo": "None", "latitude": 53.45589000000007, "longitude": -113.56556999999998}, "119288918RR1334": {"name": "KOREAN CENTRAL CONGREGATION OF JEHOVAH'S WITNESSES, VANCOUVER, BRITISH COLUMBIA", "designationCode": "C", "categoryCode": "61", "address": "6735 151A ST", "city": "SURREY", "province": "BC", "country": "CA", "postalCode": "V3S9G9", "twitter": "None", "instagram": "None", "facebook": "None", "youtube": "None", "website": "None", "summary": "None", "logo": "None", "latitude": 49.124952419095166, "longitude": -122.8025449683766}, "889892865RR0001": {"name": "KOREAN CHRISTIAN BLIND FOUNDATION OF VANCOUVER SOCIETY", "designationCode": "C", "categoryCode": "11", "address": "140 - 10091 156 ST", "city": "SURREY", "province": "BC", "country": "CA", "postalCode": "V3R0C1", "twitter": "None", "instagram": "None", "facebook": "None", "youtube": "None", "website": "None", "summary": "None", "logo": "None", "latitude": 49.18599995337297, "longitude": -122.78981496505837}, "878960210RR0001": {"name": "KOREAN CHURCH OF SASKATOON INC.", "designationCode": "C", "categoryCode": "39", "address": "1602 SOMMERFELD AVE", "city": "SASKATOON", "province": "SK", "country": "CA", "postalCode": "S7H2S6", "twitter": "None", "instagram": "None", "facebook": "None", "youtube": "None", "website": "None", "summary": "None", "logo": "None", "latitude": 52.10993783819032, "longitude": -106.6278567277682}, "134665090RR0001": {"name": "KOREAN COMMUNITY CENTRE FOR MULTICULTURALISM", "designationCode": "C", "categoryCode": "56", "address": "224 BROWNRIDGE DRIVE", "city": "CITY OF VAUGHAN", "province": "ON", "country": "CA", "postalCode": "L4J7G1", "twitter": "None", "instagram": "None", "facebook": "None", "youtube": "None", "website": "None", "summary": "None", "logo": "None", "latitude": 43.80577518347844, "longitude": -79.46701759423505}, "119288918RR1394": {"name": "KOREAN CONGREGATION OF JEHOVAH'S WITNESSES, CALGARY, ALBERTA", "designationCode": "C", "categoryCode": "61", "address": "8104 BOWNESS ROAD", "city": "CALGARY", "province": "AB", "country": "CA", "postalCode": "T3B0H6", "twitter": "None", "instagram": "None", "facebook": "None", "youtube": "None", "website": "None", "summary": "None", "logo": "None", "latitude": 51.08897249321934, "longitude": -114.20264291909515}, "887105633RR0001": {"name": "KOREAN DANCE STUDIES SOCIETY OF CANADA INC", "designationCode": "C", "categoryCode": "22", "address": "ATTN MI-YOUNG KIM             61 BILLINGTON CRES", "city": "DON MILLS", "province": "ON", "country": "CA", "postalCode": "M3A2G7", "twitter": "None", "instagram": "None", "facebook": "None", "youtube": "None", "website": "None", "summary": "None", "logo": "None", "latitude": 43.76670452120741, "longitude": -79.33227288481736}, "119288918RR1303": {"name": "KOREAN EAST CONGREGATION OF JEHOVAH'S WITNESSES, TORONTO, ONTARIO", "designationCode": "C", "categoryCode": "61", "address": "846 PROGRESS AVE", "city": "SCARBOROUGH", "province": "ON", "country": "CA", "postalCode": "M1H2X5", "twitter": "None", "instagram": "None", "facebook": "None", "youtube": "None", "website": "None", "summary": "None", "logo": "None", "latitude": 43.780682460470736, "longitude": -79.23949355551385}, "119288918RR0829": {"name": "KOREAN EAST CONGREGATION OF JEHOVAH'S WITNESSES, VANCOUVER, BRITISH COLUMBIA", "designationCode": "C", "categoryCode": "61", "address": "205 - 19320 65 AVE", "city": "SURREY", "province": "BC", "country": "CA", "postalCode": "V4N0A3", "twitter": "None", "instagram": "None", "facebook": "None", "youtube": "None", "website": "None", "summary": "None", "logo": "None", "latitude": 49.12216754342441, "longitude": -122.68833252844942}, "892661638RR0001": {"name": "KOREAN FIRST METHODIST CHURCH IN CALGARY", "designationCode": "C", "categoryCode": "39", "address": "1638 30 AVENUE SW", "city": "CALGARY", "province": "AB", "country": "CA", "postalCode": "T2T1P4", "twitter": "None", "instagram": "None", "facebook": "None", "youtube": "None", "website": "None", "summary": "None", "logo": "None", "latitude": 51.02686710217672, "longitude": -114.09808360878019}, "107396905RR0043": {"name": "KOREAN FOURSQUARE GOSPEL CHURCH", "designationCode": "C", "categoryCode": "39", "address": "5825 NELSON AVE", "city": "BURNABY", "province": "BC", "country": "CA", "postalCode": "V5H3H6", "twitter": "None", "instagram": "None", "facebook": "None", "youtube": "None", "website": "None", "summary": "None", "logo": "None", "latitude": 49.23166025716753, "longitude": -122.99420128583758}, "118987247RR0001": {"name": "KOREAN HYUP SHIN MISSION SOCIETY", "designationCode": "C", "categoryCode": "47", "address": "565 PRINCE EDWARD DR NORTH", "city": "ETOBICOKE", "province": "ON", "country": "CA", "postalCode": "M8X2M8", "twitter": "None", "instagram": "None", "facebook": "None", "youtube": "None", "website": "None", "summary": "None", "logo": "None", "latitude": 43.65990680988513, "longitude": -79.5100568696695}, "824597215RR0001": {"name": "KOREAN JUSARANG PRESBYTERIAN CHURCH", "designationCode": "C", "categoryCode": "37", "address": "105-3280 E. 58TH AVE.", "city": "VANCOUVER", "province": "BC", "country": "CA", "postalCode": "V5S3T2", "twitter": "None", "instagram": "None", "facebook": "None", "youtube": "None", "website": "None", "summary": "None", "logo": "None", "latitude": 49.21670232033766, "longitude": -123.03542588991736}, "897622213RR0001": {"name": "KOREAN LUTHERAN CHURCH", "designationCode": "C", "categoryCode": "39", "address": "619 SHERBOURNE STREET", "city": "TORONTO", "province": "ON", "country": "CA", "postalCode": "M4X2J8", "twitter": "None", "instagram": "None", "facebook": "None", "youtube": "None", "website": "None", "summary": "None", "logo": "None", "latitude": 43.67169151846608, "longitude": -79.37657917591929}, "108086109RR0001": {"name": "KOREAN METHODIST CHURCH OF VANCOUVER", "designationCode": "C", "categoryCode": "39", "address": "67 - 2422 HAWTHORNE AVE", "city": "PORT COQUITLAM", "province": "BC", "country": "CA", "postalCode": "V3C6K7", "twitter": "None", "instagram": "None", "facebook": "None", "youtube": "None", "website": "None", "summary": "None", "logo": "None"}, "118987262RR0001": {"name": "KOREAN PEACE PRESBYTERIAN CHURCH", "designationCode": "C", "categoryCode": "37", "address": "175 ISLINGTON AVE", "city": "ETOBICOKE", "province": "ON", "country": "CA", "postalCode": "M8V3B8", "twitter": "None", "instagram": "None", "facebook": "None", "youtube": "None", "website": "None", "summary": "None", "logo": "None", "latitude": 43.60237875742972, "longitude": -79.50588709850555}, "135031573RR0002": {"name": "KOREAN PENTECOSTAL CHURCH OF THE RESURRECTION", "designationCode": "C", "categoryCode": "36", "address": "1 TIPPETT ROAD", "city": "NORTH YORK", "province": "ON", "country": "CA", "postalCode": "M3H2V1", "twitter": "None", "instagram": "None", "facebook": "None", "youtube": "None", "website": "None", "summary": "None", "logo": "None", "latitude": 43.73196919233656, "longitude": -79.44616917436142}, "108086125RR0001": {"name": "KOREAN PHILADELPHIA PRESBYTERIAN CHURCH", "designationCode": "C", "categoryCode": "37", "address": "8 CODECO CRT", "city": "TORONTO", "province": "ON", "country": "CA", "postalCode": "M3A1A2", "twitter": "None", "instagram": "None", "facebook": "None", "youtube": "None", "website": "None", "summary": "None", "logo": "None", "latitude": 43.73598310687275, "longitude": -79.3283776769289}, "898360417RR0001": {"name": "KOREAN PRESBYTERIAN CHURCH OF CHATHAM-KENT", "designationCode": "C", "categoryCode": "37", "address": "22125 COMMUNICATION ROAD", "city": "CHATHAM", "province": "ON", "country": "CA", "postalCode": "N7M5J3", "twitter": "None", "instagram": "None", "facebook": "None", "youtube": "None", "website": "None", "summary": "None", "logo": "None", "latitude": 42.393285910641055, "longitude": -82.11165216859035}, "888749546RR0001": {"name": "KOREAN PRESBYTERIAN CHURCH OF EDMONTON", "designationCode": "C", "categoryCode": "37", "address": "9920 67 STREET", "city": "EDMONTON", "province": "AB", "country": "CA", "postalCode": "T6A2R2", "twitter": "None", "instagram": "None", "facebook": "None", "youtube": "None", "website": "None", "summary": "None", "logo": "None", "latitude": 53.54024342408682, "longitude": -113.43250217156185}, "892455965RR0001": {"name": "KOREAN PRESBYTERIAN CHURCH OF LOVE", "designationCode": "C", "categoryCode": "37", "address": "1333 BLOOR ST. #804", "city": "MISSISSAUGA", "province": "ON", "country": "CA", "postalCode": "L4Y3T6", "twitter": "None", "instagram": "None", "facebook": "None", "youtube": "None", "website": "None", "summary": "None", "logo": "None", "latitude": 43.615840743031654, "longitude": -79.59580372739283}, "889356606RR0001": {"name": "KOREAN PRESBYTERIAN CHURCH OF NOVA SCOTIA", "designationCode": "C", "categoryCode": "37", "address": "3524 DUTCH VILLAGE RD", "city": "HALIFAX", "province": "NS", "country": "CA", "postalCode": "B3N2S1", "twitter": "None", "instagram": "None", "facebook": "None", "youtube": "None", "website": "None", "summary": "None", "logo": "None", "latitude": 44.65584048182236, "longitude": -63.63208899630641}, "873005474RR0001": {"name": "KOREAN PRESBYTERIAN CHURCH OF PARADISE", "designationCode": "C", "categoryCode": "37", "address": "100 HEPBOURNE STREET          (700 DOVERCOURT ROAD)", "city": "TORONTO", "province": "ON", "country": "CA", "postalCode": "M6H1K5", "twitter": "None", "instagram": "None", "facebook": "None", "youtube": "None", "website": "None", "summary": "None", "logo": "None", "latitude": 43.658961190691784, "longitude": -79.42860534277796}, "888159647RR0001": {"name": "KOREAN PRESBYTERIAN CHURCH, NIAGARA FALLS", "designationCode": "C", "categoryCode": "37", "address": "4898 KITCHENER ST.", "city": "NIAGARA FALLS", "province": "ON", "country": "CA", "postalCode": "L2G1A7", "twitter": "None", "instagram": "None", "facebook": "None", "youtube": "None", "website": "None", "summary": "None", "logo": "None", "latitude": 43.095516517889166, "longitude": -79.07439188773155}, "107577587RR0002": {"name": "KOREAN ROMAN CATHOLIC COMMUNITY PARISH", "designationCode": "C", "categoryCode": "38", "address": "8350 77TH AVE", "city": "EDMONTON", "province": "AB", "country": "CA", "postalCode": "T6C0L4", "twitter": "None", "instagram": "None", "facebook": "None", "youtube": "None", "website": "None", "summary": "None", "logo": "None", "latitude": 53.51326147489748, "longitude": -113.45787}, "118987296RR0001": {"name": "KOREAN SENIOR CITIZENS SOCIETY OF TORONTO", "designationCode": "C", "categoryCode": "09", "address": "476 GRACE ST.", "city": "TORONTO", "province": "ON", "country": "CA", "postalCode": "M6G3A9", "twitter": "None", "instagram": "None", "facebook": "None", "youtube": "None", "website": "None", "summary": "None", "logo": "None", "latitude": 43.663120900080806, "longitude": -79.41875311339362}, "850924143RR0001": {"name": "KOREAN SOCIETY OF LONDON", "designationCode": "C", "categoryCode": "56", "address": "300 - 633 COLBORNE ST", "city": "LONDON", "province": "ON", "country": "CA", "postalCode": "N6B2V3", "twitter": "None", "instagram": "None", "facebook": "None", "youtube": "None", "website": "None", "summary": "None", "logo": "None", "latitude": 42.99384872603744, "longitude": -81.24348426348828}, "119288918RR1422": {"name": "KOREAN SOUTH CONGREGATION OF JEHOVAH'S WITNESSES, VANCOUVER, BRITISH COLUMBIA", "designationCode": "C", "categoryCode": "61", "address": "7725 CAMBIE ST", "city": "VANCOUVER", "province": "BC", "country": "CA", "postalCode": "V6P3H9", "twitter": "None", "instagram": "None", "facebook": "None", "youtube": "None", "website": "None", "summary": "None", "logo": "None", "latitude": 49.21479936663974, "longitude": -123.11710249448873}, "862507423RR0001": {"name": "KOREAN TRINITY PRESBYTERIAN CHURCH", "designationCode": "C", "categoryCode": "39", "address": "1550 WEST 33RD AVENUE", "city": "VANCOUVER", "province": "BC", "country": "CA", "postalCode": "V6M1A7", "twitter": "None", "instagram": "None", "facebook": "None", "youtube": "None", "website": "None", "summary": "None", "logo": "None", "latitude": 49.24188550288552, "longitude": -123.14193147016562}, "118987320RR0001": {"name": "KOREAN UNITED CHURCH IN HAMILTON", "designationCode": "C", "categoryCode": "44", "address": "69 PEARL ST NORTH", "city": "HAMILTON", "province": "ON", "country": "CA", "postalCode": "L8R2Z1", "twitter": "None", "instagram": "None", "facebook": "None", "youtube": "None", "website": "None", "summary": "None", "logo": "None", "latitude": 43.26231150458762, "longitude": -79.88108405998591}, "118987346RR0001": {"name": "KOREAN UNITED CHURCH OF CALGARY", "designationCode": "C", "categoryCode": "44", "address": "131, 7TH AVE SW", "city": "CALGARY", "province": "AB", "country": "CA", "postalCode": "T2P0W5", "twitter": "None", "instagram": "None", "facebook": "None", "youtube": "None", "website": "None", "summary": "None", "logo": "None", "latitude": 51.046476517889175, "longitude": -114.06505469608747}, "887964468RR0001": {"name": "KOREAN UNITED CHURCH OF VANCOUVER", "designationCode": "C", "categoryCode": "44", "address": "3821 LISTER ST", "city": "BURNABY", "province": "BC", "country": "CA", "postalCode": "V5G2B9", "twitter": "None", "instagram": "None", "facebook": "None", "youtube": "None", "website": "None", "summary": "None", "logo": "None", "latitude": 49.244500079556545, "longitude": -123.01923338078267}, "107577637RR0001": {"name": "KOREAN UNITED CHURCH OF WINDSOR", "designationCode": "C", "categoryCode": "44", "address": "2595 REMINGTON AVENUE", "city": "WINDSOR", "province": "ON", "country": "CA", "postalCode": "N8X3Z3", "twitter": "None", "instagram": "None", "facebook": "None", "youtube": "None", "website": "None", "summary": "None", "logo": "None", "latitude": 42.28801972217097, "longitude": -83.01189899474853}, "889684197RR0001": {"name": "KOREAN UNITED CHURCH OF WINNIPEG", "designationCode": "C", "categoryCode": "44", "address": "525 BERESFORD AVENUE", "city": "WINNIPEG", "province": "MB", "country": "CA", "postalCode": "R3L1J4", "twitter": "None", "instagram": "None", "facebook": "None", "youtube": "None", "website": "None", "summary": "None", "logo": "None", "latitude": 49.860344848202296, "longitude": -97.13473014406473}, "119288918RR1271": {"name": "KOREAN WEST CONGREGATION OF JEHOVAH'S WITNESSES, TORONTO, ONTARIO", "designationCode": "C", "categoryCode": "61", "address": "77 CHAMPAGNE DRIVE", "city": "NORTH YORK", "province": "ON", "country": "CA", "postalCode": "M3J2C6", "twitter": "None", "instagram": "None", "facebook": "None", "youtube": "None", "website": "None", "summary": "None", "logo": "None", "latitude": 43.76610834999131, "longitude": -79.4708426732649}, "119288918RR1358": {"name": "KOREAN WEST CONGREGATION OF JEHOVAH'S WITNESSES, VANCOUVER, BRITISH COLUMBIA", "designationCode": "C", "categoryCode": "61", "address": "5975 SUNSET STREET", "city": "BURNABY", "province": "BC", "country": "CA", "postalCode": "V5G4N2", "twitter": "None", "instagram": "None", "facebook": "None", "youtube": "None", "website": "None", "summary": "None", "logo": "None", "latitude": 49.24919050375092, "longitude": -122.97664277699232}, "118987213RR0001": {"name": "KOREAN) ETERNAL LIFE CHURCH OF CHRIST", "designationCode": "C", "categoryCode": "37", "address": "47 NIAGARA DR", "city": "OSHAWA", "province": "ON", "country": "CA", "postalCode": "L1G8A7", "twitter": "None", "instagram": "None", "facebook": "None", "youtube": "None", "website": "None", "summary": "None", "logo": "None", "latitude": 43.94017548707384, "longitude": -78.88727059435061}, "811269000RR0001": {"name": "KOREAN-AMERICAN PRESBYTERIAN CHURCH, CANADA PRESBYTERY", "designationCode": "C", "categoryCode": "49", "address": "23 FASKEN DRIVE", "city": "ETOBICOKE", "province": "ON", "country": "CA", "postalCode": "M9W1K6", "twitter": "None", "instagram": "None", "facebook": "None", "youtube": "None", "website": "None", "summary": "None", "logo": "None", "latitude": 43.69016051786052, "longitude": -79.60051756365084}, "131127029RR0001": {"name": "KOREAN-CANADIAN SYMPHONY ORCHESTRA ASSOCIATION", "designationCode": "C", "categoryCode": "22", "address": "3333 BAYVIEW AVE. #203", "city": "WILLOWDALE", "province": "ON", "country": "CA", "postalCode": "M2K1G4", "twitter": "None", "instagram": "None", "facebook": "None", "youtube": "None", "website": "None", "summary": "None", "logo": "None", "latitude": 43.79200734332622, "longitude": -79.39351334886614}, "859246837RR0001": {"name": "KORLE-BU FOUNDATION", "designationCode": "A", "categoryCode": "03", "address": "1250-1500 W.GEORGIA ST.", "city": "VANCOUVER", "province": "BC", "country": "CA", "postalCode": "V6G2Z6", "twitter": "None", "instagram": "None", "facebook": "None", "youtube": "None", "website": "None", "summary": "None", "logo": "None", "latitude": 49.29013479542975, "longitude": -123.1300069287031}, "118987353RR0001": {"name": "KORTRIGHT PRESBYTERIAN CHURCH", "designationCode": "C", "categoryCode": "37", "address": "55 DEVERE DR.", "city": "GUELPH", "province": "ON", "country": "CA", "postalCode": "N1G2T3", "twitter": "None", "instagram": "None", "facebook": "None", "youtube": "None", "website": "None", "summary": "None", "logo": "None", "latitude": 43.51401829431914, "longitude": -80.2497720889456}, "864674361RR0001": {"name": "KOSTA CANADA", "designationCode": "C", "categoryCode": "47", "address": "98 FINCH AVE W", "city": "TORONTO", "province": "ON", "country": "CA", "postalCode": "M2N2H7", "twitter": "None", "instagram": "None", "facebook": "None", "youtube": "None", "website": "None", "summary": "None", "logo": "None", "latitude": 43.777984198482066, "longitude": -79.42370965641399}, "878550664RR0001": {"name": "KOWACH FOUNDATION FOR ADVANCING EDUCATION INC.", "designationCode": "A", "categoryCode": "03", "address": "304-2ND AVE S", "city": "SASKATOON", "province": "SK", "country": "CA", "postalCode": "S7K1L1", "twitter": "None", "instagram": "None", "facebook": "None", "youtube": "None", "website": "None", "summary": "None", "logo": "None", "latitude": 52.12527827087549, "longitude": -106.66546624888962}, "118987379RR0001": {"name": "KOZY KORNER INC.", "designationCode": "C", "categoryCode": "56", "address": "419-6TH STREET N.W.", "city": "PORTAGE LA PRAIRIE", "province": "MB", "country": "CA", "postalCode": "R1N2J7", "twitter": "None", "instagram": "None", "facebook": "None", "youtube": "None", "website": "None", "summary": "None", "logo": "None", "latitude": 49.97941831560783, "longitude": -98.280626578653}, "891418147RR0001": {"name": "KRACAUER FAMILY FOUNDATION/FONDATION FAMILIALE KRACAUER", "designationCode": "B", "categoryCode": "03", "address": "1130 SHERBROOKE STREET WEST   SUITE PH-2", "city": "MONTREAL", "province": "QC", "country": "CA", "postalCode": "H3A2M8", "twitter": "None", "instagram": "None", "facebook": "None", "youtube": "None", "website": "None", "summary": "None", "logo": "None", "latitude": 45.50128050317399, "longitude": -73.5770884953837}, "119288918RR0939": {"name": "KRAKOW POLISH CONGREGATION OF JEHOVAH'S WITNESSES", "designationCode": "C", "categoryCode": "61", "address": "4351 DIXIE ROAD", "city": "MISSISSAUGA", "province": "ON", "country": "CA", "postalCode": "L4W1M9", "twitter": "None", "instagram": "None", "facebook": "None", "youtube": "None", "website": "None", "summary": "None", "logo": "None", "latitude": 43.62960737027508, "longitude": -79.61219583856568}, "889471173RR0001": {"name": "KRAUSS FAMILY CHARITABLE TRUST", "designationCode": "B", "categoryCode": "05", "address": "100 SHEPPARD AVE. EAST        SUITE 502", "city": "TORONTO", "province": "ON", "country": "CA", "postalCode": "M2N6N5", "twitter": "None", "instagram": "None", "facebook": "None", "youtube": "None", "website": "None", "summary": "None", "logo": "None"}, "887766467RR0001": {"name": "KRESTOVA DOUKHOBOR COMMUNITY SOCIETY", "designationCode": "C", "categoryCode": "20", "address": "3760 KRESTOVA CEMETERY ROAD", "city": "KRESTOVA", "province": "BC", "country": "CA", "postalCode": "V0G1H2", "twitter": "None", "instagram": "None", "facebook": "None", "youtube": "None", "website": "None", "summary": "None", "logo": "None", "latitude": 49.44150110046745, "longitude": -117.57388754867586}, "895736312RR0001": {"name": "KRG CHILDREN'S CHARITABLE FOUNDATION", "designationCode": "B", "categoryCode": "03", "address": "200-2450 VICTORIA PARK AVE", "city": "TORONTO", "province": "ON", "country": "CA", "postalCode": "M2J4A2", "twitter": "None", "instagram": "None", "facebook": "None", "youtube": "None", "website": "None", "summary": "None", "logo": "None", "latitude": 43.77144514181438, "longitude": -79.3214250933114}, "857753172RR0001": {"name": "KRISHNA SEVA INC.", "designationCode": "C", "categoryCode": "48", "address": "816-1 MASSEY SQUARE", "city": "TORONTO", "province": "ON", "country": "CA", "postalCode": "M4C5L4", "twitter": "None", "instagram": "None", "facebook": "None", "youtube": "None", "website": "None", "summary": "None", "logo": "None", "latitude": 43.69622042440395, "longitude": -79.29413327852153}, "107578320RR0001": {"name": "KRISHNAMURTI EDUCATIONAL CENTRE OF CANADA", "designationCode": "C", "categoryCode": "20", "address": "1349 MARINE DR", "city": "WEST VANCOUVER", "province": "BC", "country": "CA", "postalCode": "V7T1B6", "twitter": "None", "instagram": "None", "facebook": "None", "youtube": "None", "website": "None", "summary": "None", "logo": "None", "latitude": 49.32779863779335, "longitude": -123.1530092949924}, "867386880RR0001": {"name": "KRISTOVA PENTEKOSTNA CRKVA", "designationCode": "C", "categoryCode": "36", "address": "9 CONWAY DRIVE", "city": "KITCHENER", "province": "ON", "country": "CA", "postalCode": "N2A2C4", "twitter": "None", "instagram": "None", "facebook": "None", "youtube": "None", "website": "None", "summary": "None", "logo": "None", "latitude": 43.44745791750862, "longitude": -80.44172572742242}, "131500423RR0001": {"name": "KRISTUS DARZS LATVIAN HOME", "designationCode": "C", "categoryCode": "10", "address": "11290 PINE VALLEY DRIVE", "city": "WOODBRIDGE", "province": "ON", "country": "CA", "postalCode": "L4L1A6", "twitter": "None", "instagram": "None", "facebook": "None", "youtube": "None", "website": "None", "summary": "None", "logo": "None", "latitude": 43.8713760294017, "longitude": -79.59369796199901}}