{"132004391RR0001": {"name": "ST.DAVID'S HOUSE SOCIETY", "designationCode": "C", "categoryCode": "01", "address": "1117 51 A ST.", "city": "DELTA", "province": "BC", "country": "CA", "postalCode": "V4M2Y2", "twitter": "None", "instagram": "None", "facebook": "None", "youtube": "None", "website": "None", "summary": "None", "logo": "None", "latitude": 49.022356861818416, "longitude": -123.0805455926622}, "868274390RR0001": {"name": "ST.EPHRASINIA BYELORUSSIAN GREEK ORTHODOX CHURCH", "designationCode": "C", "categoryCode": "39", "address": "1008 DOVERCOURT ROAD", "city": "TORONTO", "province": "ON", "country": "CA", "postalCode": "M6H2X8", "twitter": "None", "instagram": "None", "facebook": "None", "youtube": "None", "website": "None", "summary": "None", "logo": "None", "latitude": 43.66776612600268, "longitude": -79.43198680656691}, "867469868RR0001": {"name": "ST.FRANCIS MEMORIAL HOSPITAL AUXILIARY", "designationCode": "A", "categoryCode": "13", "address": "7 ST-FRANCIS MEMORIAL DRIVE   BOX 129", "city": "BARRY'S BAY", "province": "ON", "country": "CA", "postalCode": "K0J1B0", "twitter": "None", "instagram": "None", "facebook": "None", "youtube": "None", "website": "None", "summary": "None", "logo": "None", "latitude": 45.482674244503535, "longitude": -77.69379674724391}, "119175248RR0001": {"name": "ST.GEORGE ON YONGE", "designationCode": "C", "categoryCode": "30", "address": "5350 YONGE ST", "city": "WILLOWDALE, NORTH YORK", "province": "ON", "country": "CA", "postalCode": "M2N5R5", "twitter": "None", "instagram": "None", "facebook": "None", "youtube": "None", "website": "None", "summary": "None", "logo": "None", "latitude": 43.77413362669516, "longitude": -79.41417929909376}, "108084658RR0081": {"name": "ST.GEORGE'S CHURCH VERNON", "designationCode": "C", "categoryCode": "30", "address": "4315 PIONEER LINE ROAD", "city": "OSGOODE", "province": "ON", "country": "CA", "postalCode": "K0A2W0", "twitter": "None", "instagram": "None", "facebook": "None", "youtube": "None", "website": "None", "summary": "None", "logo": "None", "latitude": 45.14377657077636, "longitude": -75.47887195479034}, "864340138RR0001": {"name": "ST.GEORGE'S YOUTHNET SOCIETY", "designationCode": "C", "categoryCode": "09", "address": "2222 BRUNSWICK STREET", "city": "HALIFAX", "province": "NS", "country": "CA", "postalCode": "B3K2Z3", "twitter": "None", "instagram": "None", "facebook": "None", "youtube": "None", "website": "None", "summary": "None", "logo": "None", "latitude": 44.65359515624111, "longitude": -63.5826271988861}, "127996999RR0001": {"name": "ST.JOHN EVANGELICAL LUTHERAN CHURCH", "designationCode": "C", "categoryCode": "32", "address": "BOX 1063                      66164 ROAD 44E", "city": "BEAUSEJOUR", "province": "MB", "country": "CA", "postalCode": "R0E0C0", "twitter": "None", "instagram": "None", "facebook": "None", "youtube": "None", "website": "None", "summary": "None", "logo": "None", "latitude": 50.061750000000075, "longitude": -96.50519999999995}, "119183572RR0001": {"name": "ST.JOSEPH'S HOSPITAL (GREY NUNS) OF GRAVELBOURG", "designationCode": "C", "categoryCode": "10", "address": "PO BOX 810", "city": "GRAVELBOURG", "province": "SK", "country": "CA", "postalCode": "S0H1X0", "twitter": "None", "instagram": "None", "facebook": "None", "youtube": "None", "website": "None", "summary": "None", "logo": "None", "latitude": 49.87668000000008, "longitude": -106.55736999999999}, "119183523RR0001": {"name": "ST.JOSEPH'S HOSPITAL FOUNDATION OF SAINT JOHN INC./LA FONDATION DE L'HOPITAL ST.JOSEPH DE SAINT JEAN INC.", "designationCode": "A", "categoryCode": "13", "address": "130 PROMENADE BAYARD DRIVE", "city": "SAINT JOHN", "province": "NB", "country": "CA", "postalCode": "E2L3L6", "twitter": "None", "instagram": "None", "facebook": "None", "youtube": "None", "website": "None", "summary": "None", "logo": "None", "latitude": 45.27906312600269, "longitude": -66.05797260115995}, "133163998RR0001": {"name": "ST.LAWRENCE CO-OPERATIVE DAY CARE INC.", "designationCode": "C", "categoryCode": "20", "address": "230 THE ESPLANADE", "city": "TORONTO", "province": "ON", "country": "CA", "postalCode": "M5A4J6", "twitter": "None", "instagram": "None", "facebook": "None", "youtube": "None", "website": "None", "summary": "None", "logo": "None", "latitude": 43.64959915794319, "longitude": -79.36489862268445}, "132410671RR0353": {"name": "ST.LEO'S CONFERENCE, SOCIETY OF ST.VINCENT DE PAUL", "designationCode": "C", "categoryCode": "09", "address": "130, WATFORD STREET", "city": "BROOKLIN", "province": "ON", "country": "CA", "postalCode": "L1M1H2", "twitter": "None", "instagram": "None", "facebook": "None", "youtube": "None", "website": "None", "summary": "None", "logo": "None", "latitude": 43.96514843213689, "longitude": -78.95042925425571}, "128946829RR0001": {"name": "ST.LEONARD'S SOCIETY OF CANADA", "designationCode": "C", "categoryCode": "59", "address": "208-211 BRONSON AVE", "city": "OTTAWA", "province": "ON", "country": "CA", "postalCode": "K1R6H5", "twitter": "None", "instagram": "None", "facebook": "None", "youtube": "None", "website": "None", "summary": "None", "logo": "None", "latitude": 45.41349725618897, "longitude": -75.7068905103587}, "875497018RR0001": {"name": "ST.MARTIN'S ANGLICAN CHURCH", "designationCode": "C", "categoryCode": "30", "address": "1460 HIGHWAY 2", "city": "COURTICE", "province": "ON", "country": "CA", "postalCode": "L1E3C4", "twitter": "None", "instagram": "None", "facebook": "None", "youtube": "None", "website": "None", "summary": "None", "logo": "None", "latitude": 43.90721624354247, "longitude": -78.80698004012328}, "806257010RR0001": {"name": "ST.MARY'S GENERAL HOSPITAL VOLUNTEER ASSOCIATION", "designationCode": "C", "categoryCode": "19", "address": "911 QUEEN'S BOULEVARD", "city": "KITCHENER", "province": "ON", "country": "CA", "postalCode": "N2M1B2", "twitter": "None", "instagram": "None", "facebook": "None", "youtube": "None", "website": "None", "summary": "None", "logo": "None", "latitude": 43.438183676379396, "longitude": -80.5004276584491}, "871317558RR0001": {"name": "ST.PAUL LUTHERAN HOME FOUNDATION INC.", "designationCode": "C", "categoryCode": "19", "address": "PO BOX 1183", "city": "MELVILLE", "province": "SK", "country": "CA", "postalCode": "S0A2P0", "twitter": "None", "instagram": "None", "facebook": "None", "youtube": "None", "website": "None", "summary": "None", "logo": "None", "latitude": 50.87164886256234, "longitude": -103.09293300498788}, "827981580RR0001": {"name": "ST.PAUL ROMAN CATHOLIC PARISH, FORT MCMURRAY", "designationCode": "C", "categoryCode": "38", "address": "4609 50 AVE", "city": "ST PAUL", "province": "AB", "country": "CA", "postalCode": "T0A3A3", "twitter": "None", "instagram": "None", "facebook": "None", "youtube": "None", "website": "None", "summary": "None", "logo": "None", "latitude": 53.99135148730496, "longitude": -111.28695202553523}, "135391688RR0002": {"name": "ST.PAUL'S ANGLICAN CHURCH", "designationCode": "C", "categoryCode": "30", "address": "310 JAMES STREET", "city": "PALMERSTON", "province": "ON", "country": "CA", "postalCode": "N0G2P0", "twitter": "None", "instagram": "None", "facebook": "None", "youtube": "None", "website": "None", "summary": "None", "logo": "None", "latitude": 43.83126317430318, "longitude": -80.85009413249489}, "131893083RR0001": {"name": "ST.PAUL'S UNITED CHURCH PASTORAL CHARGE", "designationCode": "C", "categoryCode": "44", "address": "404 CLEVELAND AVENUE", "city": "RIVERVIEW", "province": "NB", "country": "CA", "postalCode": "E1B1Y2", "twitter": "None", "instagram": "None", "facebook": "None", "youtube": "None", "website": "None", "summary": "None", "logo": "None", "latitude": 46.0615104476888, "longitude": -64.7961754326565}, "132410671RR0069": {"name": "ST- VINCENT DE PAUL SOCIETY, OUR LADY OF LOURDES CONFERENCE", "designationCode": "C", "categoryCode": "56", "address": "173 LOURDES ST. W.", "city": "WATERLOO", "province": "ON", "country": "CA", "postalCode": "N2L1N5", "twitter": "None", "instagram": "None", "facebook": "None", "youtube": "None", "website": "None", "summary": "None", "logo": "None", "latitude": 43.459053676351985, "longitude": -80.53139321951657}, "131548190RR0002": {"name": "ST-ANDREW'S CHURCH", "designationCode": "C", "categoryCode": "30", "address": "POST OFFICE BOX 12", "city": "NEIL'S HARBOUR", "province": "NS", "country": "CA", "postalCode": "B0C1N0", "twitter": "None", "instagram": "None", "facebook": "None", "youtube": "None", "website": "None", "summary": "None", "logo": "None", "latitude": 46.80842000000007, "longitude": -60.32177999999993}, "128882669RR0002": {"name": "ST-BARNABAS CHURCH", "designationCode": "C", "categoryCode": "30", "address": "95 LORNE AVE", "city": "ST. LAMBERT", "province": "QC", "country": "CA", "postalCode": "J4P2G7", "twitter": "None", "instagram": "None", "facebook": "None", "youtube": "None", "website": "None", "summary": "None", "logo": "None", "latitude": 45.50040048456366, "longitude": -73.511712}, "130622830RR0002": {"name": "ST-BARNABAS' CHURCH", "designationCode": "C", "categoryCode": "30", "address": "12301 COLIN STREET", "city": "PIERREFONDS", "province": "QC", "country": "CA", "postalCode": "H9A1C3", "twitter": "None", "instagram": "None", "facebook": "None", "youtube": "None", "website": "None", "summary": "None", "logo": "None", "latitude": 45.503113114663044, "longitude": -73.8272076848634}, "107876476RR0089": {"name": "ST-BERNADINE OF SIENNA PARISH, SKEAD ONTARIO", "designationCode": "C", "categoryCode": "38", "address": "255 CHURCH STREET             PO BOX 130", "city": "GARSON", "province": "ON", "country": "CA", "postalCode": "P3L1S5", "twitter": "None", "instagram": "None", "facebook": "None", "youtube": "None", "website": "None", "summary": "None", "logo": "None", "latitude": 46.560374434358614, "longitude": -80.86158026138217}, "132433111RR0002": {"name": "ST-BRIDGET'S ANGLICAN CHURCH", "designationCode": "C", "categoryCode": "30", "address": "BOX 395", "city": "MANNING", "province": "AB", "country": "CA", "postalCode": "T0H2M0", "twitter": "None", "instagram": "None", "facebook": "None", "youtube": "None", "website": "None", "summary": "None", "logo": "None", "latitude": 56.92804794843537, "longitude": -117.62848367126821}, "130402019RR0029": {"name": "ST-DAVID'S CHURCH ANGLICAN CHURCH OF CANADA", "designationCode": "C", "categoryCode": "30", "address": "PO BOX 7", "city": "FORT SIMPSON", "province": "NT", "country": "CA", "postalCode": "X0E0N0", "twitter": "None", "instagram": "None", "facebook": "None", "youtube": "None", "website": "None", "summary": "None", "logo": "None", "latitude": 61.866550000000075, "longitude": -121.36152999999996}, "119110443RR0037": {"name": "ST-FRANCOIS D'ASSISE", "designationCode": "C", "categoryCode": "38", "address": "512 RUE FRONTENAC", "city": "KINGSTON", "province": "ON", "country": "CA", "postalCode": "K7K4M1", "twitter": "None", "instagram": "None", "facebook": "None", "youtube": "None", "website": "None", "summary": "None", "logo": "None", "latitude": 44.23678761587513, "longitude": -76.49922087567076}, "140374455RR0002": {"name": "ST-GEORGE'S ANGLICAN CHURCH", "designationCode": "C", "categoryCode": "30", "address": "PO BOX 677", "city": "MONTAGUE", "province": "PE", "country": "CA", "postalCode": "C0A1R0", "twitter": "None", "instagram": "None", "facebook": "None", "youtube": "None", "website": "None", "summary": "None", "logo": "None", "latitude": 46.14343222329997, "longitude": -62.75594020244682}, "119179414RR0002": {"name": "ST-JOHNS ANGLICAN CHURCH", "designationCode": "C", "categoryCode": "30", "address": "BOX 681", "city": "KILLAM", "province": "AB", "country": "CA", "postalCode": "T0B2L0", "twitter": "None", "instagram": "None", "facebook": "None", "youtube": "None", "website": "None", "summary": "None", "logo": "None", "latitude": 52.78344000000004, "longitude": -111.85174999999998}, "866077183RR0001": {"name": "ST-JOSEPH'S HOSPITAL AUXILIARY", "designationCode": "C", "categoryCode": "19", "address": "PO BOX 145", "city": "RAYMORE", "province": "SK", "country": "CA", "postalCode": "S0A3J0", "twitter": "None", "instagram": "None", "facebook": "None", "youtube": "None", "website": "None", "summary": "None", "logo": "None", "latitude": 51.409260000000074, "longitude": -104.52537999999998}, "130091135RR0052": {"name": "ST-JUDE'S PARISH", "designationCode": "C", "categoryCode": "38", "address": "5 FATIMA DR", "city": "RIVERVIEW", "province": "NB", "country": "CA", "postalCode": "E1B2X8", "twitter": "None", "instagram": "None", "facebook": "None", "youtube": "None", "website": "None", "summary": "None", "logo": "None", "latitude": 46.06098423454887, "longitude": -64.80547883556459}, "136358504RR0002": {"name": "ST-MARY'S ANGLICAN CHURCH", "designationCode": "C", "categoryCode": "30", "address": "5120 - 49 AVENUE", "city": "PONOKA", "province": "AB", "country": "CA", "postalCode": "T4J1J1", "twitter": "None", "instagram": "None", "facebook": "None", "youtube": "None", "website": "None", "summary": "None", "logo": "None", "latitude": 52.67631723454886, "longitude": -113.58115730792323}, "129950804RR0026": {"name": "ST-MARY'S PARISH", "designationCode": "C", "categoryCode": "38", "address": "BOX 610", "city": "LADYSMITH", "province": "BC", "country": "CA", "postalCode": "V9G1A4", "twitter": "None", "instagram": "None", "facebook": "None", "youtube": "None", "website": "None", "summary": "None", "logo": "None", "latitude": 48.99822900000005, "longitude": -123.82257049999993}, "119190924RR0002": {"name": "ST-MICHAELS AND ALL ANGELS ANGLICAN CHURCH", "designationCode": "C", "categoryCode": "30", "address": "5003-146 AVENUE", "city": "EDMONTON", "province": "AB", "country": "CA", "postalCode": "T5A4M7", "twitter": "None", "instagram": "None", "facebook": "None", "youtube": "None", "website": "None", "summary": "None", "logo": "None", "latitude": 53.60873749177702, "longitude": -113.41787391618097}, "129838330RR0002": {"name": "ST-PETER'S CHURCH", "designationCode": "C", "categoryCode": "30", "address": "900 LAIRD BLVD.", "city": "TOWN OF MOUNT ROYAL", "province": "QC", "country": "CA", "postalCode": "H3R1Y8", "twitter": "None", "instagram": "None", "facebook": "None", "youtube": "None", "website": "None", "summary": "None", "logo": "None", "latitude": 45.51294815820301, "longitude": -73.6430236945296}, "129863361RR0002": {"name": "ST-PHILIP'S CHURCH", "designationCode": "C", "categoryCode": "30", "address": "3400 CONNAUGHT AVE", "city": "MONTREAL", "province": "QC", "country": "CA", "postalCode": "H4B1X3", "twitter": "None", "instagram": "None", "facebook": "None", "youtube": "None", "website": "None", "summary": "None", "logo": "None", "latitude": 45.45415239604144, "longitude": -73.64293390564937}, "130295785RR0001": {"name": "ST-THOMAS ANGLICAN CHURCH, FALL RIVER", "designationCode": "C", "categoryCode": "30", "address": "3534 HIGHWAY #2", "city": "FALL RIVER", "province": "NS", "country": "CA", "postalCode": "B2T1H7", "twitter": "None", "instagram": "None", "facebook": "None", "youtube": "None", "website": "None", "summary": "None", "logo": "None", "latitude": 44.82730038164338, "longitude": -63.61140568376782}, "134499474RR0002": {"name": "ST-THOMAS' ANGLICAN CHURCH", "designationCode": "C", "categoryCode": "30", "address": "195 SIGNAL ROAD", "city": "FORT MCMURRAY", "province": "AB", "country": "CA", "postalCode": "T9H4Z9", "twitter": "None", "instagram": "None", "facebook": "None", "youtube": "None", "website": "None", "summary": "None", "logo": "None", "latitude": 56.72896623258696, "longitude": -111.42620128247398}, "886917608RR0001": {"name": "STACEY PCHAJEK MEMORIAL FOUNDATION INC.", "designationCode": "C", "categoryCode": "21", "address": "P. O. BOX 91A, RR#2", "city": "STE-ANNE", "province": "MB", "country": "CA", "postalCode": "R5H1R2", "twitter": "None", "instagram": "None", "facebook": "None", "youtube": "None", "website": "None", "summary": "None", "logo": "None", "latitude": 49.67120400000006, "longitude": -96.65241199999993}, "119161297RR0001": {"name": "STADACONA GOSPEL CHAPEL INC.", "designationCode": "C", "categoryCode": "39", "address": "68 STADACONA ST W.", "city": "MOOSE JAW", "province": "SK", "country": "CA", "postalCode": "S6H1Z1", "twitter": "None", "instagram": "None", "facebook": "None", "youtube": "None", "website": "None", "summary": "None", "logo": "None", "latitude": 50.39449159671684, "longitude": -105.53683645854993}, "888798246RR0001": {"name": "STAGE CENTRE PRODUCTIONS", "designationCode": "C", "categoryCode": "22", "address": "10 BAY ST STE 801", "city": "TORONTO", "province": "ON", "country": "CA", "postalCode": "M5J2R8", "twitter": "None", "instagram": "None", "facebook": "None", "youtube": "None", "website": "None", "summary": "None", "logo": "None", "latitude": 43.64150138106645, "longitude": -79.3771619705983}, "119161412RR0001": {"name": "STAGE 43 THEATRICAL SOCIETY", "designationCode": "C", "categoryCode": "22", "address": "BOX 247                       34A-2755 LOUGHEED HWY", "city": "PORT COQUITLAM", "province": "BC", "country": "CA", "postalCode": "V3B5Y9", "twitter": "None", "instagram": "None", "facebook": "None", "youtube": "None", "website": "None", "summary": "None", "logo": "None", "latitude": 49.27318357900025, "longitude": -122.7895005624101}, "862047990RR0001": {"name": "STAGECOACH SCHOOL FOR THE PERFORMING ARTS SOCIETY", "designationCode": "C", "categoryCode": "22", "address": "100 JACKSON AVENUE", "city": "SALT SPRINGS ISLAND", "province": "BC", "country": "CA", "postalCode": "V8K2V8", "twitter": "None", "instagram": "None", "facebook": "None", "youtube": "None", "website": "None", "summary": "None", "logo": "None", "latitude": 48.8516514361216, "longitude": -123.50220450517934}, "861186054RR0001": {"name": "STAGES AND STORES HERITAGE FOUNDATION, INC.", "designationCode": "B", "categoryCode": "52", "address": "20 LEAH BLVD", "city": "QUISPAMSIS", "province": "NB", "country": "CA", "postalCode": "E2E6E7", "twitter": "None", "instagram": "None", "facebook": "None", "youtube": "None", "website": "None", "summary": "None", "logo": "None", "latitude": 45.426144866495505, "longitude": -65.9937970069249}, "894397884RR0001": {"name": "STAHLVILLE CHARITABLE TRUST", "designationCode": "B", "categoryCode": "39", "address": "3425 2 AVE S", "city": "LETHBRIDGE", "province": "AB", "country": "CA", "postalCode": "T1J4V1", "twitter": "None", "instagram": "None", "facebook": "None", "youtube": "None", "website": "None", "summary": "None", "logo": "None", "latitude": 49.696839530439966, "longitude": -112.78914308381903}, "108002197RR0001": {"name": "STAIRS MEMORIAL UNITED CHURCH", "designationCode": "C", "categoryCode": "44", "address": "44 HESTER ST", "city": "DARTMOUTH", "province": "NS", "country": "CA", "postalCode": "B2W3Z8", "twitter": "None", "instagram": "None", "facebook": "None", "youtube": "None", "website": "None", "summary": "None", "logo": "None", "latitude": 44.672528733019654, "longitude": -63.58633772756665}, "867930711RR0001": {"name": "STAIRWELL CAROLLERS", "designationCode": "C", "categoryCode": "22", "address": "5748 BRIDGET STREET", "city": "OSGOODE", "province": "ON", "country": "CA", "postalCode": "K0A2W0", "twitter": "None", "instagram": "None", "facebook": "None", "youtube": "None", "website": "None", "summary": "None", "logo": "None", "latitude": 45.152142570892856, "longitude": -75.5977708144441}, "119288918RR0222": {"name": "STAMFORD CENTRE CONGREGATION OF JEHOVAH'S WITNESSES, NIAGARA FALLS, ONTARIO", "designationCode": "C", "categoryCode": "61", "address": "6457 MONTROSE RD", "city": "NIAGARA FALLS", "province": "ON", "country": "CA", "postalCode": "L2H1M1", "twitter": "None", "instagram": "None", "facebook": "None", "youtube": "None", "website": "None", "summary": "None", "logo": "None", "latitude": 43.081255582289835, "longitude": -79.12308961324845}, "119162535RR0001": {"name": "STAMFORD COLLEGIATE VOCATIONAL INSTITUTE", "designationCode": "A", "categoryCode": "20", "address": "5775 DRUMMOND RD", "city": "NIAGARA FALLS", "province": "ON", "country": "CA", "postalCode": "L2G4L2", "twitter": "None", "instagram": "None", "facebook": "None", "youtube": "None", "website": "None", "summary": "None", "logo": "None", "latitude": 43.091442, "longitude": -79.09784762594442}, "132466665RR0001": {"name": "STAMFORD PRESBYTERIAN CHURCH,", "designationCode": "C", "categoryCode": "37", "address": "7079 BRADY STREET", "city": "NIAGARA FALLS", "province": "ON", "country": "CA", "postalCode": "L2J3P1", "twitter": "None", "instagram": "None", "facebook": "None", "youtube": "None", "website": "None", "summary": "None", "logo": "None", "latitude": 43.126845504327825, "longitude": -79.11597102844941}, "888208444RR0001": {"name": "STAN BALLARD BETTER BUY ALBERTA SCHOLARSHIP FUND", "designationCode": "A", "categoryCode": "25", "address": "#100, 4760-72 AVENUE SE", "city": "CALGARY", "province": "AB", "country": "CA", "postalCode": "T2C3Z2", "twitter": "None", "instagram": "None", "facebook": "None", "youtube": "None", "website": "None", "summary": "None", "logo": "None", "latitude": 50.98956353318129, "longitude": -113.96621258381903}, "119166817RR0001": {"name": "STAN FOWLER SANTA CLAUS FUND", "designationCode": "C", "categoryCode": "09", "address": "BOX 231", "city": "SCHUMACHER", "province": "ON", "country": "CA", "postalCode": "P0N1G0", "twitter": "None", "instagram": "None", "facebook": "None", "youtube": "None", "website": "None", "summary": "None", "logo": "None", "latitude": 48.477042665132416, "longitude": -81.29837988953307}, "119162618RR0001": {"name": "STANBRIDGE EAST UNITED CHURCH", "designationCode": "C", "categoryCode": "44", "address": "16 ACADEMY ST", "city": "STANBRIDGE EAST", "province": "QC", "country": "CA", "postalCode": "J0J2H0", "twitter": "None", "instagram": "None", "facebook": "None", "youtube": "None", "website": "None", "summary": "None", "logo": "None", "latitude": 45.12312588842406, "longitude": -72.91374298164948}, "744051327RR0001": {"name": "STAND for Hannah", "designationCode": "C", "categoryCode": "21", "address": "POST OFFICE BOX 264           34 THORNE'S ROAD", "city": "NEW HARBOUR", "province": "NL", "country": "CA", "postalCode": "A0B2P0", "twitter": "None", "instagram": "None", "facebook": "None", "youtube": "None", "website": "None", "summary": "None", "logo": "None", "latitude": 47.581040257897065, "longitude": -53.542565986319154}, "819075557RR0001": {"name": "STAND AS ONE MINISTRY", "designationCode": "C", "categoryCode": "09", "address": "37 - 15454 32 AVE", "city": "SURREY", "province": "BC", "country": "CA", "postalCode": "V3Z2J8", "twitter": "None", "instagram": "None", "facebook": "None", "youtube": "None", "website": "None", "summary": "None", "logo": "None", "latitude": 49.060082474032086, "longitude": -122.793291}, "847646619RR0001": {"name": "STAND FOUNDATION", "designationCode": "A", "categoryCode": "03", "address": "1500 - 409 GRANVILLE STREET", "city": "VANCOUVER", "province": "BC", "country": "CA", "postalCode": "V6C1T2", "twitter": "None", "instagram": "None", "facebook": "None", "youtube": "None", "website": "None", "summary": "None", "logo": "None", "latitude": 49.28514383654554, "longitude": -123.11419112049143}, "888628849RR0001": {"name": "STANDARD AERO LIMITED EMPLOYEES CHARITABLE TRUST FUND", "designationCode": "B", "categoryCode": "75", "address": "33 ALLEN DYNE RD", "city": "WINNIPEG", "province": "MB", "country": "CA", "postalCode": "R3H1A1", "twitter": "None", "instagram": "None", "facebook": "None", "youtube": "None", "website": "None", "summary": "None", "logo": "None", "latitude": 49.89714947735031, "longitude": -97.21475147134903}, "141049692RR0001": {"name": "STANDARD CHARITABLE TRUST", "designationCode": "B", "categoryCode": "39", "address": "3425 2 AVE S", "city": "LETHBRIDGE", "province": "AB", "country": "CA", "postalCode": "T1J4V1", "twitter": "None", "instagram": "None", "facebook": "None", "youtube": "None", "website": "None", "summary": "None", "logo": "None", "latitude": 49.696839530439966, "longitude": -112.78914308381903}, "119162691RR0001": {"name": "STANDARD CHURCH OF AMERICA", "designationCode": "C", "categoryCode": "39", "address": "1307 10 AVE SE", "city": "CALGARY", "province": "AB", "country": "CA", "postalCode": "T2G0W8", "twitter": "None", "instagram": "None", "facebook": "None", "youtube": "None", "website": "None", "summary": "None", "logo": "None", "latitude": 51.04023842879004, "longitude": -114.03458414129477}, "119162733RR0001": {"name": "STANDARD COMMUNITY CHEST", "designationCode": "A", "categoryCode": "03", "address": "BOX 1", "city": "STANDARD", "province": "AB", "country": "CA", "postalCode": "T0J3G0", "twitter": "None", "instagram": "None", "facebook": "None", "youtube": "None", "website": "None", "summary": "None", "logo": "None", "latitude": 51.1054065, "longitude": -112.983696}, "856961479RR0001": {"name": "STANDARD HOLINESS CHURCH", "designationCode": "C", "categoryCode": "39", "address": "4007 PRICE STREET", "city": "BURNABY", "province": "BC", "country": "CA", "postalCode": "V5G2L5", "twitter": "None", "instagram": "None", "facebook": "None", "youtube": "None", "website": "None", "summary": "None", "logo": "None", "latitude": 49.23995690612234, "longitude": -123.01559642810001}, "119162766RR0001": {"name": "STANDARD MUNICIPAL LIBRARY BOARD", "designationCode": "C", "categoryCode": "50", "address": "P.O. BOX 305", "city": "STANDARD", "province": "AB", "country": "CA", "postalCode": "T0J3G0", "twitter": "None", "instagram": "None", "facebook": "None", "youtube": "None", "website": "None", "summary": "None", "logo": "None", "latitude": 51.109930062179025, "longitude": -112.98285000057689}, "119162782RR0001": {"name": "STANDARD SENIORS YOUNG AT HEART CLUB", "designationCode": "C", "categoryCode": "56", "address": "BOX 327                       GENERAL DELIVERY", "city": "STANDARD", "province": "AB", "country": "CA", "postalCode": "T0J3G0", "twitter": "None", "instagram": "None", "facebook": "None", "youtube": "None", "website": "None", "summary": "None", "logo": "None", "latitude": 51.110034000000056, "longitude": -112.98179149999993}, "119162774RR0001": {"name": "STANDARDS COUNCIL OF CANADA", "designationCode": "C", "categoryCode": "53", "address": "600 - 55 METCALFE ST", "city": "OTTAWA", "province": "ON", "country": "CA", "postalCode": "K1P6L5", "twitter": "None", "instagram": "None", "facebook": "None", "youtube": "None", "website": "None", "summary": "None", "logo": "None", "latitude": 45.42200567112917, "longitude": -75.69674417868924}, "893040964RR0001": {"name": "STANDOFF CHARITABLE TRUST", "designationCode": "B", "categoryCode": "39", "address": "3425-2 AVENUE SOUTH", "city": "LETHBRIDGE", "province": "AB", "country": "CA", "postalCode": "T1J4V1", "twitter": "None", "instagram": "None", "facebook": "None", "youtube": "None", "website": "None", "summary": "None", "logo": "None", "latitude": 49.696839530439966, "longitude": -112.78914308381903}, "888832441RR0001": {"name": "STANISLAW GRABOWIECKI (GEORGE STEPHEN STANLEY) MEMORIAL FOUNDATION", "designationCode": "B", "categoryCode": "43", "address": "2300 - 335 8 AVE SW", "city": "CALGARY", "province": "AB", "country": "CA", "postalCode": "T2P1C9", "twitter": "None", "instagram": "None", "facebook": "None", "youtube": "None", "website": "None", "summary": "None", "logo": "None", "latitude": 51.04590663887669, "longitude": -114.07575818403993}, "890889264RR0001": {"name": "STANISLAW SMOLINSKI FOUNDATION", "designationCode": "B", "categoryCode": "43", "address": "8 SAINT ANN ST", "city": "HAMILTON", "province": "ON", "country": "CA", "postalCode": "L8L6P8", "twitter": "None", "instagram": "None", "facebook": "None", "youtube": "None", "website": "None", "summary": "None", "logo": "None", "latitude": 43.25551217845811, "longitude": -79.83527970647482}, "119166866RR0001": {"name": "STANLEY AVENUE BAPTIST CHURCH", "designationCode": "C", "categoryCode": "31", "address": "115 STANLEY AVE", "city": "HAMILTON", "province": "ON", "country": "CA", "postalCode": "L8P2L5", "twitter": "None", "instagram": "None", "facebook": "None", "youtube": "None", "website": "None", "summary": "None", "logo": "None", "latitude": 43.251656992261935, "longitude": -79.8879484251216}, "889819348RR0001": {"name": "STANLEY COMMUNITY LIBRARY BOARD", "designationCode": "C", "categoryCode": "50", "address": "2 - 28 BRIDGE ST", "city": "STANLEY", "province": "NB", "country": "CA", "postalCode": "E6B1B2", "twitter": "None", "instagram": "None", "facebook": "None", "youtube": "None", "website": "None", "summary": "None", "logo": "None", "latitude": 46.28289954328111, "longitude": -66.73935169900167}, "869647347RR0001": {"name": "STANLEY FRANCIS FOUNDATION", "designationCode": "B", "categoryCode": "03", "address": "130 - 265 CASSANDRA BLVD", "city": "NORTH YORK", "province": "ON", "country": "CA", "postalCode": "M3A1V4", "twitter": "None", "instagram": "None", "facebook": "None", "youtube": "None", "website": "None", "summary": "None", "logo": "None", "latitude": 43.75389686037867, "longitude": -79.31582653774024}, "108007238RR0001": {"name": "STANLEY KNOWLES CHILDREN'S CENTRE, INC.", "designationCode": "C", "categoryCode": "01", "address": "RM 113 2424 KING EDWARD STREET", "city": "WINNIPEG", "province": "MB", "country": "CA", "postalCode": "R2K2R2", "twitter": "None", "instagram": "None", "facebook": "None", "youtube": "None", "website": "None", "summary": "None", "logo": "None", "latitude": 49.94488769608748, "longitude": -97.20685621726527}, "131036246RR0001": {"name": "STANLEY KNOWLES PRE-SCHOOL CENTER INC", "designationCode": "C", "categoryCode": "20", "address": "ROOM 112                      2424 KING EDWARD ST", "city": "WINNIPEG", "province": "MB", "country": "CA", "postalCode": "R2R2R2", "twitter": "None", "instagram": "None", "facebook": "None", "youtube": "None", "website": "None", "summary": "None", "logo": "None", "latitude": 49.94488769608748, "longitude": -97.20685621726527}, "108007253RR0001": {"name": "STANLEY PARK BAPTIST CHURCH", "designationCode": "C", "categoryCode": "31", "address": "31 LORRAINE AVENUE", "city": "KITCHENER", "province": "ON", "country": "CA", "postalCode": "N2B2M9", "twitter": "None", "instagram": "None", "facebook": "None", "youtube": "None", "website": "None", "summary": "None", "logo": "None", "latitude": 43.45769640518803, "longitude": -80.44873961431726}, "119166890RR0001": {"name": "STANLEY PARK ECOLOGY SOCIETY", "designationCode": "C", "categoryCode": "50", "address": "PO BOX 5167 STN TERMINAL", "city": "VANCOUVER", "province": "BC", "country": "CA", "postalCode": "V6B4B2", "twitter": "None", "instagram": "None", "facebook": "None", "youtube": "None", "website": "None", "summary": "None", "logo": "None", "latitude": 49.28024400000005, "longitude": -123.11294749999993}, "108007261RR0001": {"name": "STANLEY PARK-ROSEMOUNT PRESCHOOL INC.", "designationCode": "C", "categoryCode": "20", "address": "171 SHERWOOD AVE.", "city": "KITCHENER", "province": "ON", "country": "CA", "postalCode": "N2B1K2", "twitter": "None", "instagram": "None", "facebook": "None", "youtube": "None", "website": "None", "summary": "None", "logo": "None", "latitude": 43.45653365361538, "longitude": -80.46027789309858}, "865329379RR0001": {"name": "STANLEY TRAIL ASSOCIATION INC.", "designationCode": "C", "categoryCode": "56", "address": "96 MAPLE STREET", "city": "MORDEN", "province": "MB", "country": "CA", "postalCode": "R6M1H4", "twitter": "None", "instagram": "None", "facebook": "None", "youtube": "None", "website": "None", "summary": "None", "logo": "None", "latitude": 49.18951893228114, "longitude": -98.11960363310047}, "890603939RR0001": {"name": "STANSBERRY CHILDREN'S HOME - CANADA", "designationCode": "C", "categoryCode": "47", "address": "BOX 182", "city": "DUCHESS", "province": "AB", "country": "CA", "postalCode": "T0J0Z0", "twitter": "None", "instagram": "None", "facebook": "None", "youtube": "None", "website": "None", "summary": "None", "logo": "None"}, "119167724RR0001": {"name": "STANSTEAD SOUTH UNITED CHURCH", "designationCode": "C", "categoryCode": "44", "address": "479 DUFFERIN STREET", "city": "STANSTEAD", "province": "QC", "country": "CA", "postalCode": "J0B3E0", "twitter": "None", "instagram": "None", "facebook": "None", "youtube": "None", "website": "None", "summary": "None", "logo": "None", "latitude": 45.013861790466756, "longitude": -72.09500845966268}, "108008624RR0001": {"name": "STANTON TERRITORIAL HEALTH AUTHORITY", "designationCode": "C", "categoryCode": "10", "address": "P.O. BOX 10", "city": "YELLOWKNIFE", "province": "NT", "country": "CA", "postalCode": "X1A2N1", "twitter": "None", "instagram": "None", "facebook": "None", "youtube": "None", "website": "None", "summary": "None", "logo": "None", "latitude": 62.45446200000005, "longitude": -114.37092349999993}, "890724370RR0001": {"name": "STANTON TERRITORIAL HOSPITAL AUXILIARY", "designationCode": "C", "categoryCode": "19", "address": "POST OFFICE BOX 10", "city": "YELLOWKNIFE", "province": "NT", "country": "CA", "postalCode": "X1A2N1", "twitter": "None", "instagram": "None", "facebook": "None", "youtube": "None", "website": "None", "summary": "None", "logo": "None", "latitude": 62.45446200000005, "longitude": -114.37092349999993}, "882094584RR0001": {"name": "STANTON TERRITORIAL HOSPITAL FOUNDATION", "designationCode": "A", "categoryCode": "13", "address": "YK CENTRE EAST                4915 48 ST, BOX 22", "city": "YELLOWKNIFE", "province": "NT", "country": "CA", "postalCode": "X1A3S4", "twitter": "None", "instagram": "None", "facebook": "None", "youtube": "None", "website": "None", "summary": "None", "logo": "None", "latitude": 62.455659000000054, "longitude": -114.37047799999993}, "108008681RR0001": {"name": "STAPLES SETTLEMENT BAPTIST CHURCH INC.", "designationCode": "C", "categoryCode": "31", "address": "38 WIGGINS MILL ROAD", "city": "STAPLES SETTLEMENT", "province": "NB", "country": "CA", "postalCode": "E6E1A2", "twitter": "None", "instagram": "None", "facebook": "None", "youtube": "None", "website": "None", "summary": "None", "logo": "None", "latitude": 46.05021396693594, "longitude": -67.09297611436256}, "893250761RR0001": {"name": "STAR CITY CHARITABLE TRUST", "designationCode": "B", "categoryCode": "39", "address": "3425 2 AVE S", "city": "LETHBRIDGE", "province": "AB", "country": "CA", "postalCode": "T1J4V1", "twitter": "None", "instagram": "None", "facebook": "None", "youtube": "None", "website": "None", "summary": "None", "logo": "None", "latitude": 49.696839530439966, "longitude": -112.78914308381903}, "131796997RR0001": {"name": "STAR CITY PASTORAL CHARGE,", "designationCode": "C", "categoryCode": "44", "address": "PO BOX 276", "city": "STAR CITY", "province": "SK", "country": "CA", "postalCode": "S0E1P0", "twitter": "None", "instagram": "None", "facebook": "None", "youtube": "None", "website": "None", "summary": "None", "logo": "None", "latitude": 52.86635717851631, "longitude": -104.5917405}, "891776643RR0001": {"name": "STAR LITERACY PROGRAM", "designationCode": "C", "categoryCode": "21", "address": "#211, 86 MCKENNEY AVENUE", "city": "ST ALBERT", "province": "AB", "country": "CA", "postalCode": "T8N2T7", "twitter": "None", "instagram": "None", "facebook": "None", "youtube": "None", "website": "None", "summary": "None", "logo": "None", "latitude": 53.640092956409056, "longitude": -113.63857061873995}, "119168243RR0001": {"name": "STAR OF DAVID HEBREW SCHOOL", "designationCode": "C", "categoryCode": "20", "address": "2281 URBANDALE DR", "city": "OTTAWA", "province": "ON", "country": "CA", "postalCode": "K1G3G5", "twitter": "None", "instagram": "None", "facebook": "None", "youtube": "None", "website": "None", "summary": "None", "logo": "None", "latitude": 45.38639375105308, "longitude": -75.6324567630852}, "119109791RR0015": {"name": "STAR OF THE SEA CHURCH", "designationCode": "C", "categoryCode": "38", "address": "34 ELGIN ST", "city": "ST CATHARINES", "province": "ON", "country": "CA", "postalCode": "L2N5G5", "twitter": "None", "instagram": "None", "facebook": "None", "youtube": "None", "website": "None", "summary": "None", "logo": "None", "latitude": 43.199529819608664, "longitude": -79.27340469842476}, "119109817RR0157": {"name": "STAR OF THE SEA CHURCH", "designationCode": "C", "categoryCode": "38", "address": "67 MAIN ST EAST", "city": "KINGSVILLE", "province": "ON", "country": "CA", "postalCode": "N9Y1A1", "twitter": "None", "instagram": "None", "facebook": "None", "youtube": "None", "website": "None", "summary": "None", "logo": "None", "latitude": 42.037961096865594, "longitude": -82.73678124962194}, "107910192RR0020": {"name": "STAR OF THE SEA PARISH", "designationCode": "C", "categoryCode": "38", "address": "BENOIT'S COVE", "city": "BAY OF ISLANDS", "province": "NL", "country": "CA", "postalCode": "A0L1A0", "twitter": "None", "instagram": "None", "facebook": "None", "youtube": "None", "website": "None", "summary": "None", "logo": "None", "latitude": 49.00754400000005, "longitude": -58.12885249999994}, "118849470RR0073": {"name": "STAR OF THE SEA PARISH", "designationCode": "C", "categoryCode": "38", "address": "2250 150TH ST", "city": "SURREY", "province": "BC", "country": "CA", "postalCode": "V4A9J3", "twitter": "None", "instagram": "None", "facebook": "None", "youtube": "None", "website": "None", "summary": "None", "logo": "None", "latitude": 49.04308800000001, "longitude": -122.80671155715864}, "106880107RR0013": {"name": "STAR OF THE SEA PARISH, CANSO", "designationCode": "C", "categoryCode": "38", "address": "PO BOX 40", "city": "CANSO", "province": "NS", "country": "CA", "postalCode": "B0H1H0", "twitter": "None", "instagram": "None", "facebook": "None", "youtube": "None", "website": "None", "summary": "None", "logo": "None", "latitude": 45.643443709263856, "longitude": -61.4208012834455}, "892924671RR0001": {"name": "STARBRITE CHARITABLE TRUST", "designationCode": "B", "categoryCode": "39", "address": "3425 2 AVE S", "city": "LETHBRIDGE", "province": "AB", "country": "CA", "postalCode": "T1J4V1", "twitter": "None", "instagram": "None", "facebook": "None", "youtube": "None", "website": "None", "summary": "None", "logo": "None", "latitude": 49.696839530439966, "longitude": -112.78914308381903}, "890523996RR0001": {"name": "STARBUCK ALL CHARITIES INC", "designationCode": "A", "categoryCode": "03", "address": "BOX 34", "city": "STARBUCK", "province": "MB", "country": "CA", "postalCode": "R0G2P0", "twitter": "None", "instagram": "None", "facebook": "None", "youtube": "None", "website": "None", "summary": "None", "logo": "None", "latitude": 49.77049000000005, "longitude": -97.61840999999998}, "129972691RR0001": {"name": "STARBUCK RECREATION ASSOCIATION INC", "designationCode": "C", "categoryCode": "56", "address": "BOX 87", "city": "STARBUCK", "province": "MB", "country": "CA", "postalCode": "R0G2P0", "twitter": "None", "instagram": "None", "facebook": "None", "youtube": "None", "website": "None", "summary": "None", "logo": "None", "latitude": 49.77049000000005, "longitude": -97.61840999999998}, "119168201RR0001": {"name": "STARBUCK UNITED CHURCH", "designationCode": "C", "categoryCode": "44", "address": "BOX 66", "city": "STARBUCK", "province": "MB", "country": "CA", "postalCode": "R0G2P0", "twitter": "None", "instagram": "None", "facebook": "None", "youtube": "None", "website": "None", "summary": "None", "logo": "None", "latitude": 49.77049000000005, "longitude": -97.61840999999998}, "894942622RR0001": {"name": "STARDALE WOMEN'S GROUP INCORPORATED", "designationCode": "C", "categoryCode": "09", "address": "BOX 1752", "city": "MELFORT", "province": "SK", "country": "CA", "postalCode": "S0E1A0", "twitter": "None", "instagram": "None", "facebook": "None", "youtube": "None", "website": "None", "summary": "None", "logo": "None", "latitude": 52.85637, "longitude": -104.63436225000001}, "884314626RR0001": {"name": "STARFISH FAMILY RESOURCES SOCIETY", "designationCode": "C", "categoryCode": "11", "address": "1107 10235-124 ST", "city": "EDMONTON", "province": "AB", "country": "CA", "postalCode": "T5N1P9", "twitter": "None", "instagram": "None", "facebook": "None", "youtube": "None", "website": "None", "summary": "None", "logo": "None", "latitude": 53.54398800000001, "longitude": -113.53586630345117}, "864872072RR0001": {"name": "STARFISH GREATHEARTS FOUNDATION (CANADA)/LA FONDATION GREATHEARTS STARFISH (CANADA)", "designationCode": "C", "categoryCode": "09", "address": "BOX 48 SUITE 5300             TORONTO DOMINION BANK TOWER", "city": "TORONTO", "province": "ON", "country": "CA", "postalCode": "M5K1E6", "twitter": "None", "instagram": "None", "facebook": "None", "youtube": "None", "website": "None", "summary": "None", "logo": "None", "latitude": 43.6468467508999, "longitude": -79.3819558202305}, "848283347RR0001": {"name": "STARFISH MINISTRIES", "designationCode": "C", "categoryCode": "09", "address": "5177 - 224TH STREET", "city": "LANGLEY", "province": "BC", "country": "CA", "postalCode": "V2Y2M5", "twitter": "None", "instagram": "None", "facebook": "None", "youtube": "None", "website": "None", "summary": "None", "logo": "None", "latitude": 49.096394298084135, "longitude": -122.6039118746029}, "891435141RR0001": {"name": "STARLAND CHARITABLE TRUST", "designationCode": "B", "categoryCode": "39", "address": "3425 2 AVE S", "city": "LETHBRIDGE", "province": "AB", "country": "CA", "postalCode": "T1J4V1", "twitter": "None", "instagram": "None", "facebook": "None", "youtube": "None", "website": "None", "summary": "None", "logo": "None", "latitude": 49.696839530439966, "longitude": -112.78914308381903}, "131295693RR0001": {"name": "STARLIGHT CHILDREN'S FOUNDATION CANADA / FONDATION POUR L'ENFANCE STARLIGHT CANADA", "designationCode": "C", "categoryCode": "09", "address": "1805 RTE TRANSCANADIENNE", "city": "DORVAL", "province": "QC", "country": "CA", "postalCode": "H9P1J1", "twitter": "None", "instagram": "None", "facebook": "None", "youtube": "None", "website": "None", "summary": "None", "logo": "None", "latitude": 45.48623899558526, "longitude": -73.78124466835921}}