{"812508505RR0001": {"name": "Perroquetsecours", "designationCode": "C", "categoryCode": "54", "address": "190, 86E AVENUE E.", "city": "ST-ZOTIQUE", "province": "QC", "country": "CA", "postalCode": "J0P1Z0", "twitter": "None", "instagram": "None", "facebook": "None", "youtube": "None", "website": "None", "summary": "None", "logo": "None", "latitude": 45.22185756370817, "longitude": -74.29705971354396}, "119288918RR1685": {"name": "Persian Congregation of Jehovah's Witnesses, Richmond Hill, Ontario", "designationCode": "C", "categoryCode": "61", "address": "335 16TH AVE", "city": "RICHMOND HILL", "province": "ON", "country": "CA", "postalCode": "L4C7A6", "twitter": "None", "instagram": "None", "facebook": "None", "youtube": "None", "website": "None", "summary": "None", "logo": "None", "latitude": 43.85511183758474, "longitude": -79.42313532526416}, "119288918RR1606": {"name": "Persian Coquitlam Congregation of Jehovah's Witnesses, Vancouver, British Columbia", "designationCode": "C", "categoryCode": "61", "address": "1360 PIPELINE ROAD", "city": "COQUITLAM", "province": "BC", "country": "CA", "postalCode": "V3E3P6", "twitter": "None", "instagram": "None", "facebook": "None", "youtube": "None", "website": "None", "summary": "None", "logo": "None", "latitude": 49.295792706903995, "longitude": -122.77975579363165}, "859363798RR0001": {"name": "Persian Dreams and Canine Themes Rescue Society", "designationCode": "C", "categoryCode": "54", "address": "PO BOX 23134                  RPO MEDCINE HAT MAL", "city": "MEDICINE HAT", "province": "AB", "country": "CA", "postalCode": "T1B4C7", "twitter": "None", "instagram": "None", "facebook": "None", "youtube": "None", "website": "None", "summary": "None", "logo": "None"}, "819475583RR0001": {"name": "Personnes Aphasiques Regroup\u00e9es de L\u00e9vis et les Environs (PARLE)", "designationCode": "C", "categoryCode": "11", "address": "1357 RUE DU CREPUSCULE", "city": "LEVIS", "province": "QC", "country": "CA", "postalCode": "G7A4K4", "twitter": "None", "instagram": "None", "facebook": "None", "youtube": "None", "website": "None", "summary": "None", "logo": "None", "latitude": 46.703653356079485, "longitude": -71.39608044503441}, "805056017RR0001": {"name": "Perspectives Jeunesse", "designationCode": "C", "categoryCode": "21", "address": "302 - 6839A RUE DROLET", "city": "MONTREAL", "province": "QC", "country": "CA", "postalCode": "H2S2T1", "twitter": "None", "instagram": "None", "facebook": "None", "youtube": "None", "website": "None", "summary": "None", "logo": "None", "latitude": 45.53598767224107, "longitude": -73.6115378120771}, "850851635RR0001": {"name": "Perth Enrichment Program for Older Adults", "designationCode": "C", "categoryCode": "11", "address": "12 ELLIOTT STREET", "city": "PERTH", "province": "ON", "country": "CA", "postalCode": "K7H3A3", "twitter": "None", "instagram": "None", "facebook": "None", "youtube": "None", "website": "None", "summary": "None", "logo": "None", "latitude": 44.91032048227156, "longitude": -76.26193269351509}, "126294552RR0001": {"name": "Perth-Andover Recreation Commission Inc.", "designationCode": "C", "categoryCode": "56", "address": "11 SCHOOL ST", "city": "PERTH-ANDOVER", "province": "NB", "country": "CA", "postalCode": "E7H4T4", "twitter": "None", "instagram": "None", "facebook": "None", "youtube": "None", "website": "None", "summary": "None", "logo": "None", "latitude": 46.7488669191406, "longitude": -67.69703518155552}, "806263992RR0001": {"name": "Pet Resource Bank Ottawa", "designationCode": "C", "categoryCode": "54", "address": "5218 STONECREST RD - BOX 358", "city": "WOODLAWN", "province": "ON", "country": "CA", "postalCode": "K0A3M0", "twitter": "None", "instagram": "None", "facebook": "None", "youtube": "None", "website": "None", "summary": "None", "logo": "None", "latitude": 45.498257968491224, "longitude": -76.18791424138873}, "753724129RR0001": {"name": "Petawawa Pantry", "designationCode": "C", "categoryCode": "09", "address": "43 HERMAN STREET", "city": "PETAWAWA", "province": "ON", "country": "CA", "postalCode": "K8H3B2", "twitter": "None", "instagram": "None", "facebook": "None", "youtube": "None", "website": "None", "summary": "None", "logo": "None", "latitude": 45.891905344971, "longitude": -77.27155365419229}, "891529778RR0001": {"name": "Peter Barry Duff Memorial Park Development Commission", "designationCode": "C", "categoryCode": "56", "address": "17 TOPSAIL SHORES TERR", "city": "CONCEPTION BAY SOUTH", "province": "NL", "country": "CA", "postalCode": "A1W0E3", "twitter": "None", "instagram": "None", "facebook": "None", "youtube": "None", "website": "None", "summary": "None", "logo": "None", "latitude": 47.528699103024664, "longitude": -52.92694789519703}, "837911312RR0001": {"name": "Peter Wood Family Foundation", "designationCode": "B", "categoryCode": "03", "address": "95 SANDRINGHAM DRIVE", "city": "TORONTO", "province": "ON", "country": "CA", "postalCode": "M3H1E1", "twitter": "None", "instagram": "None", "facebook": "None", "youtube": "None", "website": "None", "summary": "None", "logo": "None", "latitude": 43.74653617011957, "longitude": -79.41856929476592}, "848623575RR0006": {"name": "Peterborough Area Korean Catholic Church", "designationCode": "C", "categoryCode": "35", "address": "40 CENTRE STREET              PO BOX 724", "city": "BRIGHTON", "province": "ON", "country": "CA", "postalCode": "K0K1H0", "twitter": "None", "instagram": "None", "facebook": "None", "youtube": "None", "website": "None", "summary": "None", "logo": "None", "latitude": 44.03794595446948, "longitude": -77.74058333325597}, "887250355RR0001": {"name": "Peterborough Camping Services", "designationCode": "C", "categoryCode": "56", "address": "2B - 688 QUEENSDALE AVE E", "city": "HAMILTON", "province": "ON", "country": "CA", "postalCode": "L8V1M1", "twitter": "None", "instagram": "None", "facebook": "None", "youtube": "None", "website": "None", "summary": "None", "logo": "None", "latitude": 43.234258863696894, "longitude": -79.84667814100632}, "869513754RR0001": {"name": "Peterborough Community Housing Development Corporation", "designationCode": "C", "categoryCode": "09", "address": "479 REID ST", "city": "PETERBOROUGH", "province": "ON", "country": "CA", "postalCode": "K9H4G7", "twitter": "None", "instagram": "None", "facebook": "None", "youtube": "None", "website": "None", "summary": "None", "logo": "None", "latitude": 44.307925543712855, "longitude": -78.32812122595053}, "819641945RR0001": {"name": "Peterborough Family Health Team", "designationCode": "C", "categoryCode": "11", "address": "185 KING STREET               5TH FLOOR SUITE 500", "city": "PETERBOROUGH", "province": "ON", "country": "CA", "postalCode": "K9J2R8", "twitter": "None", "instagram": "None", "facebook": "None", "youtube": "None", "website": "None", "summary": "None", "logo": "None", "latitude": 44.30193454284748, "longitude": -78.32128241756594}, "131770844RR0004": {"name": "Peterborough Monthly Meeting of the Religious Society of Freinds (Quakers)", "designationCode": "C", "categoryCode": "39", "address": "PO BOX 4033, RPO CHARLOTTE", "city": "PETERBOROUGH", "province": "ON", "country": "CA", "postalCode": "K9J8R9", "twitter": "None", "instagram": "None", "facebook": "None", "youtube": "None", "website": "None", "summary": "None", "logo": "None", "latitude": 44.30300560472418, "longitude": -78.32921391785027}, "824718522RR0001": {"name": "Peterborough New Horizons Bands", "designationCode": "C", "categoryCode": "22", "address": "82 CADILLAC BLVD              RR 1", "city": "OMEMEE", "province": "ON", "country": "CA", "postalCode": "K0L2W0", "twitter": "None", "instagram": "None", "facebook": "None", "youtube": "None", "website": "None", "summary": "None", "logo": "None", "latitude": 44.34297278319609, "longitude": -78.45800579560263}, "812900066RR0001": {"name": "Peterborough Poverty Reduction Network", "designationCode": "C", "categoryCode": "09", "address": "206 AYLMER STREET NORTH       PO BOX 1900, STATION MAIN", "city": "PETERBOROUGH", "province": "ON", "country": "CA", "postalCode": "K9J3K4", "twitter": "None", "instagram": "None", "facebook": "None", "youtube": "None", "website": "None", "summary": "None", "logo": "None", "latitude": 44.29965745628715, "longitude": -78.3229147884762}, "849481387RR0001": {"name": "Petirojo Foundation/Fondation Petirojo", "designationCode": "B", "categoryCode": "01", "address": "141 WYCHWOOD PLACE", "city": "LONDON", "province": "ON", "country": "CA", "postalCode": "N6G1S7", "twitter": "None", "instagram": "None", "facebook": "None", "youtube": "None", "website": "None", "summary": "None", "logo": "None", "latitude": 43.00615182930353, "longitude": -81.29371600363534}, "814893491RR0001": {"name": "Petit s\u00e9minaire dioc\u00e9sain de Qu\u00e9bec", "designationCode": "C", "categoryCode": "20", "address": "2215 MARIE-VICTORIN", "city": "QU\u00c9BEC", "province": "QC", "country": "CA", "postalCode": "G1T1J6", "twitter": "None", "instagram": "None", "facebook": "None", "youtube": "None", "website": "None", "summary": "None", "logo": "None", "latitude": 46.777338506752024, "longitude": -71.2611059874492}, "841387764RR0001": {"name": "Petits bonheurs Diffusion culturelle", "designationCode": "C", "categoryCode": "22", "address": "4200 RUE ONTARIO EST", "city": "MONTREAL", "province": "QC", "country": "CA", "postalCode": "H1V1K1", "twitter": "None", "instagram": "None", "facebook": "None", "youtube": "None", "website": "None", "summary": "None", "logo": "None", "latitude": 45.551277136822726, "longitude": -73.54057288048953}, "836185066RR0001": {"name": "PetitsPawz Cat Refuge of Montreal", "designationCode": "C", "categoryCode": "54", "address": "155 ST-MARY'S", "city": "CHATEAUGUAY", "province": "QC", "country": "CA", "postalCode": "J6K2J3", "twitter": "None", "instagram": "None", "facebook": "None", "youtube": "None", "website": "None", "summary": "None", "logo": "None", "latitude": 45.347043876767295, "longitude": -73.72720510502641}, "806377073RR0001": {"name": "Petros Network Canada", "designationCode": "C", "categoryCode": "47", "address": "#1250 1500 WEST GEORGIA BOX 62", "city": "VANCOUVER", "province": "BC", "country": "CA", "postalCode": "V6G2Z6", "twitter": "None", "instagram": "None", "facebook": "None", "youtube": "None", "website": "None", "summary": "None", "logo": "None", "latitude": 49.290187500000016, "longitude": -123.130035}, "878279116RR0001": {"name": "Pets for Life Society Alberta", "designationCode": "C", "categoryCode": "54", "address": "261116 WAGON WHEEL WAY", "city": "ROCKY VIEW COUNTY", "province": "AB", "country": "CA", "postalCode": "T4A0E3", "twitter": "None", "instagram": "None", "facebook": "None", "youtube": "None", "website": "None", "summary": "None", "logo": "None", "latitude": 51.2058835903395, "longitude": -113.96674717308876}, "822630844RR0001": {"name": "Pets Alive Animal Rescue Niagara Inc.", "designationCode": "C", "categoryCode": "54", "address": "PO BOX 1514                   4 QUEEN ST", "city": "ST. CATHARINES", "province": "ON", "country": "CA", "postalCode": "L2R7J9", "twitter": "None", "instagram": "None", "facebook": "None", "youtube": "None", "website": "None", "summary": "None", "logo": "None", "latitude": 43.15698050181768, "longitude": -79.24581180293157}, "812909588RR0001": {"name": "Petsindanger Charitable Foundation", "designationCode": "C", "categoryCode": "54", "address": "53 PARKHURST SQUARE", "city": "BRAMPTON", "province": "ON", "country": "CA", "postalCode": "L6T5H5", "twitter": "None", "instagram": "None", "facebook": "None", "youtube": "None", "website": "None", "summary": "None", "logo": "None", "latitude": 43.72754341860421, "longitude": -79.66657448672804}, "871190898RR0001": {"name": "Petsmart Charities of Canada - Charit\u00e9s Petsmart du Canada", "designationCode": "A", "categoryCode": "54", "address": "4475 N SERVICE RD             SUITE 500", "city": "BURLINGTON", "province": "ON", "country": "CA", "postalCode": "L7L4X7", "twitter": "None", "instagram": "None", "facebook": "None", "youtube": "None", "website": "None", "summary": "None", "logo": "None", "latitude": 43.381883316665814, "longitude": -79.77479757120999}, "819326299RR0001": {"name": "Phakamani Foundation Canada", "designationCode": "C", "categoryCode": "09", "address": "2968 CLIFFROSE CRES", "city": "COQUITLAM", "province": "BC", "country": "CA", "postalCode": "V3E2T2", "twitter": "None", "instagram": "None", "facebook": "None", "youtube": "None", "website": "None", "summary": "None", "logo": "None", "latitude": 49.300088742426084, "longitude": -122.79417096321204}, "834437436RR0001": {"name": "Phare des Lucioles", "designationCode": "C", "categoryCode": "09", "address": "280, RUE SAINT-ANTOINE", "city": "ST-ANNE-DES-PLAINES", "province": "QC", "country": "CA", "postalCode": "J0N1H0", "twitter": "None", "instagram": "None", "facebook": "None", "youtube": "None", "website": "None", "summary": "None", "logo": "None"}, "107888539RR0001": {"name": "Phare Providence", "designationCode": "C", "categoryCode": "01", "address": "95 BOUL SAINT-JOSEPH EST", "city": "MONTREAL", "province": "QC", "country": "CA", "postalCode": "H2T1H2", "twitter": "None", "instagram": "None", "facebook": "None", "youtube": "None", "website": "None", "summary": "None", "logo": "None", "latitude": 45.523398519851085, "longitude": -73.59059495019896}, "840976443RR0001": {"name": "Phebe Foundation", "designationCode": "B", "categoryCode": "03", "address": "39 MAIN STREET EAST,", "city": "SMITHS FALLS", "province": "ON", "country": "CA", "postalCode": "K7A1A3", "twitter": "None", "instagram": "None", "facebook": "None", "youtube": "None", "website": "None", "summary": "None", "logo": "None", "latitude": 44.89971267394482, "longitude": -76.0182702239771}, "794570887RR0001": {"name": "Phelan-McDermid Syndrome Foundation Canada Fondation du Syndrome Phelan-McDermid Canada", "designationCode": "C", "categoryCode": "11", "address": "1000 RUE DE LA GAUCHETIERE O  APP 3700", "city": "MONTREAL", "province": "QC", "country": "CA", "postalCode": "H3B4W5", "twitter": "None", "instagram": "None", "facebook": "None", "youtube": "None", "website": "None", "summary": "None", "logo": "None", "latitude": 45.49846698248619, "longitude": -73.56698518102652}, "844636605RR0001": {"name": "Phil McNamee Charitable Foundation", "designationCode": "B", "categoryCode": "03", "address": "367 PRINCESS AVE.", "city": "LONDON", "province": "ON", "country": "CA", "postalCode": "N6B2A7", "twitter": "None", "instagram": "None", "facebook": "None", "youtube": "None", "website": "None", "summary": "None", "logo": "None"}, "810265678RR0001": {"name": "Philadelphia Assembly of God Church in Calgary", "designationCode": "C", "categoryCode": "39", "address": "2022 CENTRE ST NE", "city": "CALGARY", "province": "AB", "country": "CA", "postalCode": "T2E2T1", "twitter": "None", "instagram": "None", "facebook": "None", "youtube": "None", "website": "None", "summary": "None", "logo": "None", "latitude": 51.05252018946342, "longitude": -114.00807127252254}, "119288918RR1460": {"name": "Philadelphia Congregation of Jehovah's Witnesses, Toronto, Ontario", "designationCode": "C", "categoryCode": "61", "address": "172 DONLANDS AVENUE", "city": "TORONTO", "province": "ON", "country": "CA", "postalCode": "M4J3P8", "twitter": "None", "instagram": "None", "facebook": "None", "youtube": "None", "website": "None", "summary": "None", "logo": "None", "latitude": 43.68602851956261, "longitude": -79.33963662741631}, "830581252RR0001": {"name": "Philadelphia Fellowship", "designationCode": "C", "categoryCode": "39", "address": "98 CEDARWOOD RD", "city": "LONDON", "province": "ON", "country": "CA", "postalCode": "N6H5R9", "twitter": "None", "instagram": "None", "facebook": "None", "youtube": "None", "website": "None", "summary": "None", "logo": "None", "latitude": 42.98095989537762, "longitude": -81.31182194116793}, "808859540RR0001": {"name": "Philadelphia Romanian Pentecostal Church", "designationCode": "C", "categoryCode": "39", "address": "202 - 33708 KING RD", "city": "ABBOTSFORD", "province": "BC", "country": "CA", "postalCode": "V2S8C6", "twitter": "None", "instagram": "None", "facebook": "None", "youtube": "None", "website": "None", "summary": "None", "logo": "None", "latitude": 49.03126449567217, "longitude": -122.29010138773155}, "805160108RR0001": {"name": "Philanthropie Qu\u00e9bec / Philanthropy Qu\u00e9bec", "designationCode": "C", "categoryCode": "59", "address": "5435 PL CH\u00c9NIER", "city": "MONTR\u00c9AL", "province": "QC", "country": "CA", "postalCode": "H1K3Z1", "twitter": "None", "instagram": "None", "facebook": "None", "youtube": "None", "website": "None", "summary": "None", "logo": "None", "latitude": 45.598015895377614, "longitude": -73.54231361420169}, "831388699RR0001": {"name": "Philip and Harriet Libin Family Foundation", "designationCode": "B", "categoryCode": "05", "address": "604,5920-1A STREET SW", "city": "CALGARY", "province": "AB", "country": "CA", "postalCode": "T2H0G3", "twitter": "None", "instagram": "None", "facebook": "None", "youtube": "None", "website": "None", "summary": "None", "logo": "None", "latitude": 51.00018319900167, "longitude": -114.06761737298771}, "894228063RR0001": {"name": "Philip Aziz Centre for Hospice Care", "designationCode": "C", "categoryCode": "13", "address": "558 GERRARD ST E", "city": "TORONTO", "province": "ON", "country": "CA", "postalCode": "M4M1X8", "twitter": "None", "instagram": "None", "facebook": "None", "youtube": "None", "website": "None", "summary": "None", "logo": "None", "latitude": 43.66523078602336, "longitude": -79.3537408857983}, "819617838RR0001": {"name": "Philip Kam Va Leong Foundation", "designationCode": "B", "categoryCode": "03", "address": "35 STONEHEATH CRESCENT", "city": "MARKHAM", "province": "ON", "country": "CA", "postalCode": "L9C2K9", "twitter": "None", "instagram": "None", "facebook": "None", "youtube": "None", "website": "None", "summary": "None", "logo": "None", "latitude": 43.88044422344037, "longitude": -79.36633856618965}, "892458167RR0001": {"name": "Phillips Exeter Academy Canadian Foundation/Fondation canadienne de la Phillips Exeter Academy", "designationCode": "B", "categoryCode": "21", "address": "2000 AV MCGILL COLLEGE        SUITE 1500", "city": "MONTREAL", "province": "QC", "country": "CA", "postalCode": "H3A3H3", "twitter": "None", "instagram": "None", "facebook": "None", "youtube": "None", "website": "None", "summary": "None", "logo": "None", "latitude": 45.502789414749586, "longitude": -73.5731644067988}, "823104757RR0001": {"name": "Philomathia Foundation", "designationCode": "B", "categoryCode": "23", "address": "4822 DOVE COURT", "city": "OTTAWA", "province": "ON", "country": "CA", "postalCode": "K1J9J7", "twitter": "None", "instagram": "None", "facebook": "None", "youtube": "None", "website": "None", "summary": "None", "logo": "None", "latitude": 45.45148176406615, "longitude": -75.61069117372624}, "810324483RR0001": {"name": "Pho Duc Vietnamese Buddhist Cultural Centre of Calgary", "designationCode": "C", "categoryCode": "35", "address": "43 DOVERCREST WAY SE", "city": "CALGARY", "province": "AB", "country": "CA", "postalCode": "T2B2L7", "twitter": "None", "instagram": "None", "facebook": "None", "youtube": "None", "website": "None", "summary": "None", "logo": "None", "latitude": 51.016902496249095, "longitude": -113.99169195045876}, "759041924RR0001": {"name": "Phoebe Rose Rocks Foundation", "designationCode": "A", "categoryCode": "03", "address": "44 LAVAL ST", "city": "VANIER", "province": "ON", "country": "CA", "postalCode": "K1L7Z8", "twitter": "None", "instagram": "None", "facebook": "None", "youtube": "None", "website": "None", "summary": "None", "logo": "None", "latitude": 45.438742897570656, "longitude": -75.67456562487749}, "840069512RR0001": {"name": "Phoenix Academy of the Arts", "designationCode": "C", "categoryCode": "22", "address": "109-25 BRIMWOOD BLVD", "city": "TORONTO", "province": "ON", "country": "CA", "postalCode": "M1V1E2", "twitter": "None", "instagram": "None", "facebook": "None", "youtube": "None", "website": "None", "summary": "None", "logo": "None", "latitude": 43.81152128253225, "longitude": -79.27831077211623}, "810569277RR0001": {"name": "Phoenix Human Services Association", "designationCode": "C", "categoryCode": "09", "address": "1095 MCKENZIE AVENUE          4TH FLOOR", "city": "VICTORIA", "province": "BC", "country": "CA", "postalCode": "V8P2L5", "twitter": "None", "instagram": "None", "facebook": "None", "youtube": "None", "website": "None", "summary": "None", "logo": "None", "latitude": 48.47030970717854, "longitude": -123.3614640551191}, "118829035RR0001": {"name": "Physical and Health Education Canada", "designationCode": "C", "categoryCode": "56", "address": "301-2197 PROM. RIVERSIDE DRIVE", "city": "OTTAWA", "province": "ON", "country": "CA", "postalCode": "K1H7X3", "twitter": "None", "instagram": "None", "facebook": "None", "youtube": "None", "website": "None", "summary": "None", "logo": "None", "latitude": 45.37693486951961, "longitude": -75.69140928314455}, "829798115RR0001": {"name": "Physical Lifestyles for Autistic Youth Corporation", "designationCode": "C", "categoryCode": "56", "address": "POST OFFICE BOX 80017         COTTRELLE RPO", "city": "BRAMPTON", "province": "ON", "country": "CA", "postalCode": "L6P2W7", "twitter": "None", "instagram": "None", "facebook": "None", "youtube": "None", "website": "None", "summary": "None", "logo": "None", "latitude": 43.7748290471312, "longitude": -79.68224607507388}, "842197485RR0001": {"name": "Physical Literacy for Life", "designationCode": "C", "categoryCode": "21", "address": "3914 ASCOT DR", "city": "VICTORIA", "province": "BC", "country": "CA", "postalCode": "V8P3S1", "twitter": "None", "instagram": "None", "facebook": "None", "youtube": "None", "website": "None", "summary": "None", "logo": "None", "latitude": 48.465322544261134, "longitude": -123.34717978149304}, "833265119RR0001": {"name": "Pick My Class Canada", "designationCode": "C", "categoryCode": "21", "address": "44 ROSELAWN AVE", "city": "TORONTO", "province": "ON", "country": "CA", "postalCode": "M4R1E4", "twitter": "None", "instagram": "None", "facebook": "None", "youtube": "None", "website": "None", "summary": "None", "logo": "None", "latitude": 43.71065524176223, "longitude": -79.40055659132085}, "896290426RR0001": {"name": "Pickering Museum Village Foundation", "designationCode": "C", "categoryCode": "50", "address": "1665 PORTLAND CRT", "city": "PICKERING", "province": "ON", "country": "CA", "postalCode": "L1V5L7", "twitter": "None", "instagram": "None", "facebook": "None", "youtube": "None", "website": "None", "summary": "None", "logo": "None", "latitude": 43.839751324076815, "longitude": -79.07398566440794}, "851261438RR0001": {"name": "Pictou County Recreation and Athletics Society", "designationCode": "C", "categoryCode": "56", "address": "PO BOX 2510", "city": "STELLARTON", "province": "NS", "country": "CA", "postalCode": "B0K1S0", "twitter": "None", "instagram": "None", "facebook": "None", "youtube": "None", "website": "None", "summary": "None", "logo": "None", "latitude": 45.56177000000008, "longitude": -62.65966999999995}, "107843500RR0001": {"name": "Pictou County Women's Resource and Sexual Assault Centre Society", "designationCode": "C", "categoryCode": "59", "address": "503 SOUTH FREDERICK ST", "city": "NEW GLASGOW", "province": "NS", "country": "CA", "postalCode": "B2H3P3", "twitter": "None", "instagram": "None", "facebook": "None", "youtube": "None", "website": "None", "summary": "None", "logo": "None", "latitude": 45.57873945712386, "longitude": -62.64339077742501}, "119093037RR0001": {"name": "Pictou Island Volunteer Fire Fighters Association", "designationCode": "C", "categoryCode": "59", "address": "1160 PICTOU ISLAND ROAD", "city": "PICTOU ISLAND", "province": "NS", "country": "CA", "postalCode": "B0K1J0", "twitter": "None", "instagram": "None", "facebook": "None", "youtube": "None", "website": "None", "summary": "None", "logo": "None", "latitude": 45.8142356571074, "longitude": -62.52372989852293}, "131579807RR0001": {"name": "Pictou Landing Fire Department", "designationCode": "C", "categoryCode": "59", "address": "RR 2", "city": "TRENTON", "province": "NS", "country": "CA", "postalCode": "B0K1X0", "twitter": "None", "instagram": "None", "facebook": "None", "youtube": "None", "website": "None", "summary": "None", "logo": "None", "latitude": 45.62400273902701, "longitude": -62.64792410764862}, "810155697RR0001": {"name": "Pictou Mutual Community Foundation", "designationCode": "B", "categoryCode": "05", "address": "PO BOX 1180", "city": "PICTOU", "province": "NS", "country": "CA", "postalCode": "B0K1H0", "twitter": "None", "instagram": "None", "facebook": "None", "youtube": "None", "website": "None", "summary": "None", "logo": "None", "latitude": 45.67583400000005, "longitude": -62.70865099999993}, "855414785RR0001": {"name": "Pigeon Lake Watershed Association", "designationCode": "C", "categoryCode": "59", "address": "P O BOX 1353                  4701-50TH AVE", "city": "CALMAR", "province": "AB", "country": "CA", "postalCode": "T0C0V0", "twitter": "None", "instagram": "None", "facebook": "None", "youtube": "None", "website": "None", "summary": "None", "logo": "None", "latitude": 53.26492007301866, "longitude": -113.80061852599125}, "835450354RR0001": {"name": "Pilgrim Feast Tabernacles", "designationCode": "C", "categoryCode": "39", "address": "11181 YONGE STREET SUITE 206", "city": "RICHMOND HILL", "province": "ON", "country": "CA", "postalCode": "L4S1L2", "twitter": "None", "instagram": "None", "facebook": "None", "youtube": "None", "website": "None", "summary": "None", "logo": "None", "latitude": 43.90013167721735, "longitude": -79.44391532566819}, "847423902RR0001": {"name": "Pillar of Fire Churches International", "designationCode": "C", "categoryCode": "39", "address": "30 APPALACHIAN CR.", "city": "KITCHENER", "province": "ON", "country": "CA", "postalCode": "N2E1A4", "twitter": "None", "instagram": "None", "facebook": "None", "youtube": "None", "website": "None", "summary": "None", "logo": "None", "latitude": 43.42222800972352, "longitude": -80.48184588470178}, "896000445RR0001": {"name": "Piller Jeunesse", "designationCode": "C", "categoryCode": "09", "address": "4040, MICHELET", "city": "QU\u00c9BEC", "province": "QC", "country": "CA", "postalCode": "G1P4J3", "twitter": "None", "instagram": "None", "facebook": "None", "youtube": "None", "website": "None", "summary": "None", "logo": "None", "latitude": 46.8120845135031, "longitude": -71.32363416059759}, "842713125RR0001": {"name": "Pimachiowin Aki Corp.", "designationCode": "C", "categoryCode": "52", "address": "220 ROCHESTER AVENUE", "city": "WINNIPEG", "province": "MB", "country": "CA", "postalCode": "R3T3W2", "twitter": "None", "instagram": "None", "facebook": "None", "youtube": "None", "website": "None", "summary": "None", "logo": "None", "latitude": 49.78240072052619, "longitude": -97.14977298946842}, "868950015RR0001": {"name": "Pin the People and Information Network", "designationCode": "C", "categoryCode": "59", "address": "1-46 CORK ST E", "city": "GUELPH", "province": "ON", "country": "CA", "postalCode": "N1H2W8", "twitter": "None", "instagram": "None", "facebook": "None", "youtube": "None", "website": "None", "summary": "None", "logo": "None", "latitude": 43.5448665, "longitude": -80.24988374999998}, "847132065RR0001": {"name": "Pinawa Community Foundation Inc.", "designationCode": "A", "categoryCode": "03", "address": "36 BURROWS RD                 PO BOX 100", "city": "PINAWA", "province": "MB", "country": "CA", "postalCode": "R0E1L0", "twitter": "None", "instagram": "None", "facebook": "None", "youtube": "None", "website": "None", "summary": "None", "logo": "None", "latitude": 50.147629777631295, "longitude": -95.87863997562697}, "854809969RR0001": {"name": "Pinball Clemons Foundation", "designationCode": "A", "categoryCode": "03", "address": "106-1599 HURONTARIO ST", "city": "MISSISSAUGA", "province": "ON", "country": "CA", "postalCode": "L5G4S1", "twitter": "None", "instagram": "None", "facebook": "None", "youtube": "None", "website": "None", "summary": "None", "logo": "None", "latitude": 43.56684473166335, "longitude": -79.59783695317141}, "860461326RR0001": {"name": "Pincher Creek Humane Society/SPCA", "designationCode": "C", "categoryCode": "54", "address": "BOX 2647", "city": "PINCHER CREEK", "province": "AB", "country": "CA", "postalCode": "T0K1W0", "twitter": "None", "instagram": "None", "facebook": "None", "youtube": "None", "website": "None", "summary": "None", "logo": "None", "latitude": 49.48739000000006, "longitude": -113.9366800732874}, "840242960RR0001": {"name": "Pine Lodge Bible Camp Society", "designationCode": "C", "categoryCode": "49", "address": "BOX 2319                      10621-98 AVENUE", "city": "LA-CRETE", "province": "AB", "country": "CA", "postalCode": "T0H2H0", "twitter": "None", "instagram": "None", "facebook": "None", "youtube": "None", "website": "None", "summary": "None", "logo": "None", "latitude": 58.18409948845883, "longitude": -116.42153391618098}, "894945633RR0055": {"name": "Pine Ridge Family Church", "designationCode": "C", "categoryCode": "39", "address": "27 BRUMM ROAD", "city": "PEMBROKE", "province": "ON", "country": "CA", "postalCode": "K8A7G6", "twitter": "None", "instagram": "None", "facebook": "None", "youtube": "None", "website": "None", "summary": "None", "logo": "None", "latitude": 45.852122800132946, "longitude": -77.20525287402597}, "834506057RR0001": {"name": "Pine River Foundation", "designationCode": "A", "categoryCode": "03", "address": "2 ST. CLAIR AVE. E.           SUITE 800", "city": "TORONTO", "province": "ON", "country": "CA", "postalCode": "M4T2T5", "twitter": "None", "instagram": "None", "facebook": "None", "youtube": "None", "website": "None", "summary": "None", "logo": "None", "latitude": 43.688418118241074, "longitude": -79.39419137881609}, "851171751RR0001": {"name": "Pine River Orthodox Church of Holy Cross", "designationCode": "C", "categoryCode": "39", "address": "BOX 87, SW 33-32-22           208-2ND AVENUE S", "city": "PINE RIVER", "province": "MB", "country": "CA", "postalCode": "R0L1M0", "twitter": "None", "instagram": "None", "facebook": "None", "youtube": "None", "website": "None", "summary": "None", "logo": "None", "latitude": 52.10233832358987, "longitude": -101.27261701236638}, "846181857RR0001": {"name": "Pine River Watershed Initiative Network", "designationCode": "C", "categoryCode": "52", "address": "PO BOX 367", "city": "RIPLEY", "province": "ON", "country": "CA", "postalCode": "N0G2R0", "twitter": "None", "instagram": "None", "facebook": "None", "youtube": "None", "website": "None", "summary": "None", "logo": "None", "latitude": 44.068873499999995, "longitude": -81.57846375}, "119030666RR0016": {"name": "Pinehouse Drive Seventh-day Adventist Church", "designationCode": "C", "categoryCode": "41", "address": "1004 VICTORIA AVENUE", "city": "SASKATOON", "province": "SK", "country": "CA", "postalCode": "S7N0Z8", "twitter": "None", "instagram": "None", "facebook": "None", "youtube": "None", "website": "None", "summary": "None", "logo": "None", "latitude": 52.115409, "longitude": -106.66240826773014}, "852129154RR0001": {"name": "Pineridge House Community Church-A congregation of the Free Methodist Church in Canada", "designationCode": "C", "categoryCode": "39", "address": "151 PINEGROVE CLOSE NE", "city": "CALGARY", "province": "AB", "country": "CA", "postalCode": "T1Y1L1", "twitter": "None", "instagram": "None", "facebook": "None", "youtube": "None", "website": "None", "summary": "None", "logo": "None", "latitude": 51.06845012738766, "longitude": -113.9406113516361}, "806730883RR0001": {"name": "Pinewoods Chapel", "designationCode": "C", "categoryCode": "39", "address": "9058 5TH LINE", "city": "ANGUS", "province": "ON", "country": "CA", "postalCode": "L0M1B4", "twitter": "None", "instagram": "None", "facebook": "None", "youtube": "None", "website": "None", "summary": "None", "logo": "None", "latitude": 44.33636885593525, "longitude": -79.856367709965}, "823563580RR0001": {"name": "Piney Community Church", "designationCode": "C", "categoryCode": "39", "address": "BOX 106", "city": "PINEY", "province": "MB", "country": "CA", "postalCode": "R0A1K0", "twitter": "None", "instagram": "None", "facebook": "None", "youtube": "None", "website": "None", "summary": "None", "logo": "None", "latitude": 49.13571300000005, "longitude": -96.09338149999994}, "809542830RR0001": {"name": "Pink Pearl Foundation", "designationCode": "C", "categoryCode": "11", "address": "12 CLANCY CRESCENT", "city": "THOROLD", "province": "ON", "country": "CA", "postalCode": "L2V4H6", "twitter": "None", "instagram": "None", "facebook": "None", "youtube": "None", "website": "None", "summary": "None", "logo": "None", "latitude": 43.12064912519461, "longitude": -79.21811930749054}, "819745498RR0001": {"name": "Pink Warrior Foundation", "designationCode": "B", "categoryCode": "03", "address": "158 FLEGEL CRT", "city": "SASKATOON", "province": "SK", "country": "CA", "postalCode": "S7V0B9", "twitter": "None", "instagram": "None", "facebook": "None", "youtube": "None", "website": "None", "summary": "None", "logo": "None", "latitude": 52.091162896185665, "longitude": -106.56366548046604}, "833612047RR0001": {"name": "Pinnacle 20/20 Foundation", "designationCode": "A", "categoryCode": "05", "address": "250 - 15 ROYAL VISTA PL NW", "city": "CALGARY", "province": "AB", "country": "CA", "postalCode": "T3R0P3", "twitter": "None", "instagram": "None", "facebook": "None", "youtube": "None", "website": "None", "summary": "None", "logo": "None", "latitude": 51.15038884809277, "longitude": -114.20918897382127}, "894933688RR0001": {"name": "Pinzgau Christian Mission Canada", "designationCode": "B", "categoryCode": "49", "address": "4730 INMAN AVE", "city": "BURNABY", "province": "BC", "country": "CA", "postalCode": "V5G2Y2", "twitter": "None", "instagram": "None", "facebook": "None", "youtube": "None", "website": "None", "summary": "None", "logo": "None", "latitude": 49.2423949999888, "longitude": -123.0157632142681}, "129539516RR0001": {"name": "Pioneer Bible Camp", "designationCode": "C", "categoryCode": "56", "address": "BOX 839", "city": "SMOKY LAKE", "province": "AB", "country": "CA", "postalCode": "T0A3C0", "twitter": "None", "instagram": "None", "facebook": "None", "youtube": "None", "website": "None", "summary": "None", "logo": "None", "latitude": 54.113230000000044, "longitude": -112.47107999999997}, "783312499RR0001": {"name": "Pioneer Church International", "designationCode": "B", "categoryCode": "39", "address": "7936 144 ST", "city": "SURREY", "province": "BC", "country": "CA", "postalCode": "V3W1K1", "twitter": "None", "instagram": "None", "facebook": "None", "youtube": "None", "website": "None", "summary": "None", "logo": "None", "latitude": 49.14685736081137, "longitude": -122.82341099497967}, "811597194RR0001": {"name": "Pious Islamic Association", "designationCode": "C", "categoryCode": "60", "address": "1380 CONNAUGHT TERR", "city": "MILTON", "province": "ON", "country": "CA", "postalCode": "L9E0B8", "twitter": "None", "instagram": "None", "facebook": "None", "youtube": "None", "website": "None", "summary": "None", "logo": "None", "latitude": 43.48580523918664, "longitude": -79.84450583059544}, "808932222RR0001": {"name": "Pipsqueak Paddocks Miniature Horse Haven Society", "designationCode": "C", "categoryCode": "54", "address": "P.O. BOX 4044                 YARROW STATION MAIN", "city": "CHILLIWACK", "province": "BC", "country": "CA", "postalCode": "V2R5H8", "twitter": "None", "instagram": "None", "facebook": "None", "youtube": "None", "website": "None", "summary": "None", "logo": "None", "latitude": 49.08102000000008, "longitude": -122.04812999999996}, "811630276RR0001": {"name": "Pit Bulls for Life Foundation of Alberta", "designationCode": "C", "categoryCode": "54", "address": "P.O. BOX 3608", "city": "SPRUCE GROVE", "province": "AB", "country": "CA", "postalCode": "T7X3A8", "twitter": "None", "instagram": "None", "facebook": "None", "youtube": "None", "website": "None", "summary": "None", "logo": "None", "latitude": 53.544624000000056, "longitude": -113.90185249999993}, "849098793RR0001": {"name": "Pitt Meadows Food Bank", "designationCode": "C", "categoryCode": "09", "address": "12070 DUNBAR ST.", "city": "MAPLE RIDGE", "province": "BC", "country": "CA", "postalCode": "V2X5T6", "twitter": "None", "instagram": "None", "facebook": "None", "youtube": "None", "website": "None", "summary": "None", "logo": "None", "latitude": 49.221818245628725, "longitude": -122.60894841837401}, "107406316RR0059": {"name": "Pivot 613", "designationCode": "C", "categoryCode": "39", "address": "2 MONK ST", "city": "OTTAWA", "province": "ON", "country": "CA", "postalCode": "K1S3Y6", "twitter": "None", "instagram": "None", "facebook": "None", "youtube": "None", "website": "None", "summary": "None", "logo": "None", "latitude": 45.40110530584576, "longitude": -75.68824082226305}, "856591953RR0001": {"name": "Place des Argousiers", "designationCode": "C", "categoryCode": "09", "address": "600, RUE DE L'HARRICANA", "city": "MALARTIC", "province": "QC", "country": "CA", "postalCode": "J0Y1Z0", "twitter": "None", "instagram": "None", "facebook": "None", "youtube": "None", "website": "None", "summary": "None", "logo": "None", "latitude": 48.13902846956004, "longitude": -78.1194015}, "840337349RR0001": {"name": "Place of Refuge Society", "designationCode": "C", "categoryCode": "57", "address": "7155 SHERBROOKE STREET", "city": "VANCOUVER", "province": "BC", "country": "CA", "postalCode": "V5X4E3", "twitter": "None", "instagram": "None", "facebook": "None", "youtube": "None", "website": "None", "summary": "None", "logo": "None", "latitude": 49.219227754371275, "longitude": -123.08159405277253}, "851483453RR0001": {"name": "Place Koala", "designationCode": "C", "categoryCode": "09", "address": "123 PITT ST", "city": "CORNWALL", "province": "ON", "country": "CA", "postalCode": "K6J3P5", "twitter": "None", "instagram": "None", "facebook": "None", "youtube": "None", "website": "None", "summary": "None", "logo": "None", "latitude": 45.01730038856828, "longitude": -74.72811275324611}, "833678840RR0001": {"name": "Place2Give Foundation", "designationCode": "C", "categoryCode": "03", "address": "109-5760 9TH ST SE", "city": "CALGARY", "province": "AB", "country": "CA", "postalCode": "T2H1Z9", "twitter": "None", "instagram": "None", "facebook": "None", "youtube": "None", "website": "None", "summary": "None", "logo": "None", "latitude": 51.00340775411148, "longitude": -114.04076791895093}, "802376392RR0001": {"name": "Plain Precepts Publications (Canada)", "designationCode": "C", "categoryCode": "47", "address": "7277 THIRD LINE               RR 2", "city": "WALLENSTEIN", "province": "ON", "country": "CA", "postalCode": "N0B2S0", "twitter": "None", "instagram": "None", "facebook": "None", "youtube": "None", "website": "None", "summary": "None", "logo": "None", "latitude": 43.621112407467066, "longitude": -80.6173829965089}, "891060360RR0001": {"name": "Plains Rd. Child Care Inc.", "designationCode": "C", "categoryCode": "01", "address": "520 PLAINS ROAD", "city": "TORONTO", "province": "ON", "country": "CA", "postalCode": "M4C2Z1", "twitter": "None", "instagram": "None", "facebook": "None", "youtube": "None", "website": "None", "summary": "None", "logo": "None", "latitude": 43.698012190691784, "longitude": -79.31920978740833}, "888140399RR0001": {"name": "Plainsview Pastoral Charge", "designationCode": "C", "categoryCode": "44", "address": "RR 2 STN MAIN                 BOX 158 SITE 200", "city": "REGINA", "province": "SK", "country": "CA", "postalCode": "S4P2Z2", "twitter": "None", "instagram": "None", "facebook": "None", "youtube": "None", "website": "None", "summary": "None", "logo": "None", "latitude": 50.448246000000054, "longitude": -104.59517299999993}, "107848368RR0001": {"name": "Planned Parenthood - Newfoundland and Labrador Sexual Health Centre Inc.", "designationCode": "C", "categoryCode": "11", "address": "203 MERRYMEETING ROAD", "city": "ST. JOHN'S", "province": "NL", "country": "CA", "postalCode": "A1C2W6", "twitter": "None", "instagram": "None", "facebook": "None", "youtube": "None", "website": "None", "summary": "None", "logo": "None", "latitude": 47.56325068942238, "longitude": -52.72493933415094}, "806222832RR0001": {"name": "Plant a Seed & See What Grows Foundation", "designationCode": "C", "categoryCode": "03", "address": "104-3686 BONNEVILLE PLACE", "city": "BURNABY", "province": "BC", "country": "CA", "postalCode": "V3N4T6", "twitter": "None", "instagram": "None", "facebook": "None", "youtube": "None", "website": "None", "summary": "None", "logo": "None", "latitude": 49.25148516682195, "longitude": -122.91526211605483}, "812705580RR0001": {"name": "Plant By Waters Ministries", "designationCode": "C", "categoryCode": "39", "address": "904 CASTLE BAY RD", "city": "CASTLE BAY", "province": "NS", "country": "CA", "postalCode": "B1T1J6", "twitter": "None", "instagram": "None", "facebook": "None", "youtube": "None", "website": "None", "summary": "None", "logo": "None", "latitude": 45.907282305903095, "longitude": -60.687684137572525}, "810198374RR0001": {"name": "Planta! - Plantlife Conservation Society", "designationCode": "C", "categoryCode": "59", "address": "2922 3RD W AVE", "city": "VANCOUVER", "province": "BC", "country": "CA", "postalCode": "V6K1M7", "twitter": "None", "instagram": "None", "facebook": "None", "youtube": "None", "website": "None", "summary": "None", "logo": "None", "latitude": 49.26924550288554, "longitude": -123.17051138926077}, "807769245RR0001": {"name": "Planted Community Foundation", "designationCode": "A", "categoryCode": "03", "address": "1250-1500 WEST GEORGIA STREET PO BOX 62", "city": "VANCOUVER", "province": "BC", "country": "CA", "postalCode": "V6G2Z6", "twitter": "None", "instagram": "None", "facebook": "None", "youtube": "None", "website": "None", "summary": "None", "logo": "None", "latitude": 49.290187500000016, "longitude": -123.130035}, "861549657RR0001": {"name": "Platinum Jets Inc.", "designationCode": "A", "categoryCode": "03", "address": "608-386 BROADWAY", "city": "WINNIPEG", "province": "MB", "country": "CA", "postalCode": "R3C3R6", "twitter": "None", "instagram": "None", "facebook": "None", "youtube": "None", "website": "None", "summary": "None", "logo": "None", "latitude": 49.88653076545114, "longitude": -97.14461727517464}}