{"119288918RR0382": {"name": "APPLEWOOD CONGREGATION OF JEHOVAH'S WITNESSES", "designationCode": "C", "categoryCode": "61", "address": "3311 GOLDEN ORCHARD DR", "city": "MISSISSAUGA", "province": "ON", "country": "CA", "postalCode": "L4Y3H1", "twitter": "None", "instagram": "None", "facebook": "None", "youtube": "None", "website": "None", "summary": "None", "logo": "None", "latitude": 43.61353252290951, "longitude": -79.59440327655963}, "131801649RR0001": {"name": "APPLEWOOD UNITED CHURCH,", "designationCode": "C", "categoryCode": "44", "address": "2067 STANFIELD RD", "city": "MISSISSAUGA", "province": "ON", "country": "CA", "postalCode": "L4Y1R4", "twitter": "None", "instagram": "None", "facebook": "None", "youtube": "None", "website": "None", "summary": "None", "logo": "None", "latitude": 43.59338350265439, "longitude": -79.57614030195062}, "139866339RR0001": {"name": "APPLEYARD FOUNDATION", "designationCode": "B", "categoryCode": "03", "address": "14608 115 AVE NW", "city": "EDMONTON", "province": "AB", "country": "CA", "postalCode": "T5M3B9", "twitter": "None", "instagram": "None", "facebook": "None", "youtube": "None", "website": "None", "summary": "None", "logo": "None", "latitude": 53.56529148990112, "longitude": -113.574024}, "118788660RR0001": {"name": "APPOINT", "designationCode": "C", "categoryCode": "47", "address": "CP 10010 SUCCURSALE           CURE-POIRIER", "city": "LONGUEUIL", "province": "QC", "country": "CA", "postalCode": "J4K0B3", "twitter": "None", "instagram": "None", "facebook": "None", "youtube": "None", "website": "None", "summary": "None", "logo": "None", "latitude": 45.51643059266168, "longitude": -73.49008693822555}, "865559611RR0001": {"name": "APPRENDRE EN COEUR", "designationCode": "C", "categoryCode": "21", "address": "25 RUE ST. SAUVEUR            C.P 3554", "city": "SAINT-REMI", "province": "QC", "country": "CA", "postalCode": "J0L2L0", "twitter": "None", "instagram": "None", "facebook": "None", "youtube": "None", "website": "None", "summary": "None", "logo": "None", "latitude": 45.25526131167416, "longitude": -73.61491132552395}, "841563927RR0001": {"name": "APPRENTISSAGE POUR ADULTES SUD-EST INC.", "designationCode": "C", "categoryCode": "21", "address": "42 RUE THERRIEN", "city": "DIEPPE", "province": "NB", "country": "CA", "postalCode": "E1A2E6", "twitter": "None", "instagram": "None", "facebook": "None", "youtube": "None", "website": "None", "summary": "None", "logo": "None", "latitude": 46.10242458451151, "longitude": -64.6872331251373}, "100238252RR0001": {"name": "APPROCHE SECURISANTE DES POLYTOXICOMANES ANONYMES (A.S.P.A.)", "designationCode": "C", "categoryCode": "01", "address": "200-2700 RACHEL EST", "city": "MONTREAL", "province": "QC", "country": "CA", "postalCode": "H2H1S7", "twitter": "None", "instagram": "None", "facebook": "None", "youtube": "None", "website": "None", "summary": "None", "logo": "None", "latitude": 45.53570098563441, "longitude": -73.56457970096774}, "869323717RR0001": {"name": "APPUI COLLEGE NOTRE-DAME", "designationCode": "C", "categoryCode": "21", "address": "1843 GRAYWOOD DR", "city": "SUDBURY", "province": "ON", "country": "CA", "postalCode": "P3A5S5", "twitter": "None", "instagram": "None", "facebook": "None", "youtube": "None", "website": "None", "summary": "None", "logo": "None"}, "740996293RR0001": {"name": "APRIL 1 FOUNDATION", "designationCode": "B", "categoryCode": "03", "address": "1600 - 333 SEYMOUR ST", "city": "VANCOUVER", "province": "BC", "country": "CA", "postalCode": "V6B0A4", "twitter": "None", "instagram": "None", "facebook": "None", "youtube": "None", "website": "None", "summary": "None", "logo": "None", "latitude": 49.28514037942167, "longitude": -123.11218777257757}, "118951052RR0001": {"name": "APSEA AUXILIARY", "designationCode": "C", "categoryCode": "25", "address": "3003 OLIVET ST. APT 304A", "city": "HALIFAX", "province": "NS", "country": "CA", "postalCode": "B3L4A1", "twitter": "None", "instagram": "None", "facebook": "None", "youtube": "None", "website": "None", "summary": "None", "logo": "None", "latitude": 44.64700220927346, "longitude": -63.62404328789926}, "874303472RR0001": {"name": "APT ASSOCIATION FOR PRESERVATION TECHNOLOGY / APT ASSOCIATION POUR LA PRESERVATION ET SES TECHNIQUES", "designationCode": "C", "categoryCode": "21", "address": "115 BEECHWOOD AVENUE SUITE #2", "city": "OTTAWA", "province": "ON", "country": "CA", "postalCode": "K1M1L6", "twitter": "None", "instagram": "None", "facebook": "None", "youtube": "None", "website": "None", "summary": "None", "logo": "None", "latitude": 45.441529636707166, "longitude": -75.67296210312185}, "103798245RR0001": {"name": "APTUS TREATMENT CENTRE", "designationCode": "C", "categoryCode": "09", "address": "40 SAMOR RD", "city": "TORONTO", "province": "ON", "country": "CA", "postalCode": "M6A1J6", "twitter": "None", "instagram": "None", "facebook": "None", "youtube": "None", "website": "None", "summary": "None", "logo": "None", "latitude": 43.71792110023632, "longitude": -79.45842774314721}, "808514657RR0001": {"name": "APU Malawi Education Foundation", "designationCode": "C", "categoryCode": "20", "address": "POST OFFICE BOX 939", "city": "SOOKE", "province": "BC", "country": "CA", "postalCode": "V9Z1H9", "twitter": "None", "instagram": "None", "facebook": "None", "youtube": "None", "website": "None", "summary": "None", "logo": "None", "latitude": 48.381873000000056, "longitude": -123.73120249999994}, "809272370RR0001": {"name": "APULU", "designationCode": "C", "categoryCode": "21", "address": "66 WATERLILY TRAIL", "city": "SCHOMBERG", "province": "ON", "country": "CA", "postalCode": "L0G1T0", "twitter": "None", "instagram": "None", "facebook": "None", "youtube": "None", "website": "None", "summary": "None", "logo": "None", "latitude": 44.0100827510244, "longitude": -79.68083523674191}, "835850025RR0001": {"name": "AQUA VITAE CHARITABLE FOUNDATION", "designationCode": "C", "categoryCode": "09", "address": "1500 GEORGIA ST W             BOX 62, SUITE 1250", "city": "VANCOUVER", "province": "BC", "country": "CA", "postalCode": "V6G2Z6", "twitter": "None", "instagram": "None", "facebook": "None", "youtube": "None", "website": "None", "summary": "None", "logo": "None", "latitude": 49.29013479542975, "longitude": -123.1300069287031}, "118788710RR0001": {"name": "AQUARIUM DES ILES DE LA MADELEINE, INC.", "designationCode": "C", "categoryCode": "50", "address": "982 ROUTE 199", "city": "HAVRE-AUBERT", "province": "QC", "country": "CA", "postalCode": "G4T9C7", "twitter": "None", "instagram": "None", "facebook": "None", "youtube": "None", "website": "None", "summary": "None", "logo": "None", "latitude": 47.238588184565025, "longitude": -61.8838263423264}, "132146853RR0001": {"name": "AQUATIC HALL OF FAME & MUSEUM OF CANADA INC GALERIE DE LA RENOMME ET LE MUSEE NAUTIQUES", "designationCode": "C", "categoryCode": "50", "address": "25 POSEIDON BAY", "city": "WINNIPEG", "province": "MB", "country": "CA", "postalCode": "R3M3E4", "twitter": "None", "instagram": "None", "facebook": "None", "youtube": "None", "website": "None", "summary": "None", "logo": "None", "latitude": 49.85472359214324, "longitude": -97.17490445635785}, "866087034RR0001": {"name": "AQUEDUCT FOUNDATION", "designationCode": "A", "categoryCode": "03", "address": "P.O.BOX 11538,                650 WEST GEORGIA STREET, #510", "city": "VANCOUVER", "province": "BC", "country": "CA", "postalCode": "V6B4N7", "twitter": "None", "instagram": "None", "facebook": "None", "youtube": "None", "website": "None", "summary": "None", "logo": "None", "latitude": 49.282095217179936, "longitude": -123.11767129779695}, "863737839RR0001": {"name": "AQUILLA FOUNDATION", "designationCode": "B", "categoryCode": "03", "address": "2001 - 1888 ALBERNI ST", "city": "VANCOUVER", "province": "BC", "country": "CA", "postalCode": "V6G1B3", "twitter": "None", "instagram": "None", "facebook": "None", "youtube": "None", "website": "None", "summary": "None", "logo": "None", "latitude": 49.292967678862155, "longitude": -123.13564996575086}, "118788751RR0001": {"name": "ARAB CANADIAN ASSOCIATION OF THE ATLANTIC PROVINCES", "designationCode": "C", "categoryCode": "59", "address": "PO BOX 1024", "city": "HALIFAX", "province": "NS", "country": "CA", "postalCode": "B3J2X1", "twitter": "None", "instagram": "None", "facebook": "None", "youtube": "None", "website": "None", "summary": "None", "logo": "None", "latitude": 44.645478000000054, "longitude": -63.576552499999934}, "870636164RR0001": {"name": "ARABIC ASSEMBLY OF GOD", "designationCode": "C", "categoryCode": "36", "address": "178 YORK MILLS ROAD", "city": "NORTH YORK", "province": "ON", "country": "CA", "postalCode": "M2L1K7", "twitter": "None", "instagram": "None", "facebook": "None", "youtube": "None", "website": "None", "summary": "None", "logo": "None", "latitude": 43.746467216227, "longitude": -79.39179895213219}, "870679388RR0001": {"name": "ARABIC CHRISTIAN CHURCH OF CALGARY", "designationCode": "C", "categoryCode": "39", "address": "2700 KINGS HEIGHTS GATE SE", "city": "AIRDRIE", "province": "AB", "country": "CA", "postalCode": "T4A0W4", "twitter": "None", "instagram": "None", "facebook": "None", "youtube": "None", "website": "None", "summary": "None", "logo": "None", "latitude": 51.26953499999999, "longitude": -113.98161762153062}, "119288918RR0982": {"name": "ARABIC CIRCUIT OF JEHOVAH'S WITNESSES", "designationCode": "C", "categoryCode": "61", "address": "204 LUCINDA CRES", "city": "ORLEANS", "province": "ON", "country": "CA", "postalCode": "K1W0A1", "twitter": "None", "instagram": "None", "facebook": "None", "youtube": "None", "website": "None", "summary": "None", "logo": "None", "latitude": 45.42618924785043, "longitude": -75.52261146430857}, "119288918RR0620": {"name": "ARABIC CONGREGATION OF JEHOVAH'S WITNESSES", "designationCode": "C", "categoryCode": "61", "address": "204 LUCINDA CRESCENT", "city": "OTTAWA", "province": "ON", "country": "CA", "postalCode": "K1W0A1", "twitter": "None", "instagram": "None", "facebook": "None", "youtube": "None", "website": "None", "summary": "None", "logo": "None", "latitude": 45.42618924785043, "longitude": -75.52261146430857}, "119288918RR0969": {"name": "ARABIC CONGREGATION OF JEHOVAH'S WITNESSES TORONTO ONTARIO", "designationCode": "C", "categoryCode": "61", "address": "BOX 4100", "city": "GEORGETOWN", "province": "ON", "country": "CA", "postalCode": "L7G4Y4", "twitter": "None", "instagram": "None", "facebook": "None", "youtube": "None", "website": "None", "summary": "None", "logo": "None", "latitude": 43.65006000000005, "longitude": -79.89909199999994}, "889918595RR0001": {"name": "ARABIC EVANGELICAL BAPTIST CHURCH OF OTTAWA", "designationCode": "C", "categoryCode": "31", "address": "887 CANTERBURY AVENUE", "city": "OTTAWA", "province": "ON", "country": "CA", "postalCode": "K1G3A3", "twitter": "None", "instagram": "None", "facebook": "None", "youtube": "None", "website": "None", "summary": "None", "logo": "None", "latitude": 45.38925243883067, "longitude": -75.62774397169481}, "125437160RR0001": {"name": "ARABIC EVANGELICAL BAPTIST CHURCH, MONTREAL", "designationCode": "C", "categoryCode": "31", "address": "3200 5E RUE", "city": "LAVAL", "province": "QC", "country": "CA", "postalCode": "H7V1M2", "twitter": "None", "instagram": "None", "facebook": "None", "youtube": "None", "website": "None", "summary": "None", "logo": "None", "latitude": 45.54344371161072, "longitude": -73.73319547458034}, "140267568RR0001": {"name": "ARABIC EVANGELICAL CHURCH", "designationCode": "C", "categoryCode": "34", "address": "15133 82A AVE", "city": "SURREY", "province": "BC", "country": "CA", "postalCode": "V3S8R1", "twitter": "None", "instagram": "None", "facebook": "None", "youtube": "None", "website": "None", "summary": "None", "logo": "None", "latitude": 49.153413456575606, "longitude": -122.80344261226844}, "861638286RR0001": {"name": "ARABIC GOSPEL CHURCH / EGLISE ARABE DE L'EVANGILE", "designationCode": "C", "categoryCode": "39", "address": "1720 DECARIE BLVD", "city": "ST-LAURENT", "province": "QC", "country": "CA", "postalCode": "H4L3N3", "twitter": "None", "instagram": "None", "facebook": "None", "youtube": "None", "website": "None", "summary": "None", "logo": "None", "latitude": 45.52006909795729, "longitude": -73.69187719888609}, "877418517RR0001": {"name": "ARABIC PRESBYTERIAN CHURCH", "designationCode": "C", "categoryCode": "37", "address": "948 COMO LAKE AVENUE", "city": "COQUITLAM", "province": "BC", "country": "CA", "postalCode": "V3J7P9", "twitter": "None", "instagram": "None", "facebook": "None", "youtube": "None", "website": "None", "summary": "None", "logo": "None", "latitude": 49.26345998993742, "longitude": -122.86911952751916}, "858391733RR0001": {"name": "ARABS FOR JESUS - ARABES POUR J\u00c9SUS", "designationCode": "C", "categoryCode": "39", "address": "20280 97 AVE UNIT 9", "city": "LANGLEY", "province": "BC", "country": "CA", "postalCode": "V1M4B9", "twitter": "None", "instagram": "None", "facebook": "None", "youtube": "None", "website": "None", "summary": "None", "logo": "None", "latitude": 49.17917961689322, "longitude": -122.66062067708737}, "892901364RR0001": {"name": "ARAN SOMALI CANADIAN RELIEF ORGANIZATION", "designationCode": "C", "categoryCode": "09", "address": "1901 WESTON RD, UNIT #10", "city": "TORONTO", "province": "ON", "country": "CA", "postalCode": "M9N3P1", "twitter": "None", "instagram": "None", "facebook": "None", "youtube": "None", "website": "None", "summary": "None", "logo": "None", "latitude": 43.70019580492214, "longitude": -79.51624506644946}, "118788819RR0001": {"name": "ARBAB RUSTAM GUIV DARBE MEHR - ZOROASTRIAN HOUSE OF B.C.", "designationCode": "C", "categoryCode": "39", "address": "703 DONEGAL PLACE", "city": "NORTH VANCOUVER", "province": "BC", "country": "CA", "postalCode": "V7N2X6", "twitter": "None", "instagram": "None", "facebook": "None", "youtube": "None", "website": "None", "summary": "None", "logo": "None", "latitude": 49.33995525393861, "longitude": -123.0881499311846}, "118788942RR0001": {"name": "ARBOR THEATRE", "designationCode": "C", "categoryCode": "22", "address": "PO BOX 100", "city": "PETERBOROUGH", "province": "ON", "country": "CA", "postalCode": "K9J6Y5", "twitter": "None", "instagram": "None", "facebook": "None", "youtube": "None", "website": "None", "summary": "None", "logo": "None", "latitude": 44.30591700000005, "longitude": -78.31950199999993}, "876788324RR0001": {"name": "ARBORG & DISTRICT MULTI-CULTURAL HERITAGE VILLAGE", "designationCode": "C", "categoryCode": "50", "address": "BOX 4007", "city": "ARBORG", "province": "MB", "country": "CA", "postalCode": "R0C0A0", "twitter": "None", "instagram": "None", "facebook": "None", "youtube": "None", "website": "None", "summary": "None", "logo": "None", "latitude": 50.91022850109325, "longitude": -97.2043884534773}, "890171077RR0001": {"name": "ARBORG & DISTRICTS SENIORS RESOURCE COUNCIL INC.", "designationCode": "C", "categoryCode": "09", "address": "BOX 935", "city": "ARBORG", "province": "MB", "country": "CA", "postalCode": "R0C0A0", "twitter": "None", "instagram": "None", "facebook": "None", "youtube": "None", "website": "None", "summary": "None", "logo": "None", "latitude": 50.91022850109325, "longitude": -97.2043884534773}, "126359116RR0001": {"name": "ARBORG CHRISTIAN FELLOWSHIP INC", "designationCode": "C", "categoryCode": "39", "address": "BOX 676", "city": "ARBORG", "province": "MB", "country": "CA", "postalCode": "R0C0A0", "twitter": "None", "instagram": "None", "facebook": "None", "youtube": "None", "website": "None", "summary": "None", "logo": "None", "latitude": 50.91022850109325, "longitude": -97.2043884534773}, "890569247RR0001": {"name": "ARBORG COMMUNITY CEMETERY INC", "designationCode": "C", "categoryCode": "59", "address": "BOX 833", "city": "ARBORG", "province": "MB", "country": "CA", "postalCode": "R0C0A0", "twitter": "None", "instagram": "None", "facebook": "None", "youtube": "None", "website": "None", "summary": "None", "logo": "None", "latitude": 50.91022850109325, "longitude": -97.2043884534773}, "119288918RR0643": {"name": "ARBORG CONGREGATION OF JEHOVAH'S WITNESSES", "designationCode": "C", "categoryCode": "61", "address": "BOX 391", "city": "ARBORG", "province": "MB", "country": "CA", "postalCode": "R0C0A0", "twitter": "None", "instagram": "None", "facebook": "None", "youtube": "None", "website": "None", "summary": "None", "logo": "None", "latitude": 50.91022850109325, "longitude": -97.2043884534773}, "106719784RR0001": {"name": "ARBORG PLAY GROUP INC.", "designationCode": "C", "categoryCode": "01", "address": "BOX 805", "city": "ARBORG", "province": "MB", "country": "CA", "postalCode": "R0C0A0", "twitter": "None", "instagram": "None", "facebook": "None", "youtube": "None", "website": "None", "summary": "None", "logo": "None", "latitude": 50.91022850109325, "longitude": -97.2043884534773}, "118788934RR0001": {"name": "ARBORG UNITARIAN CHURCH", "designationCode": "C", "categoryCode": "39", "address": "BOX 1102", "city": "ARBORG", "province": "MB", "country": "CA", "postalCode": "R0C0A0", "twitter": "None", "instagram": "None", "facebook": "None", "youtube": "None", "website": "None", "summary": "None", "logo": "None", "latitude": 50.91022850109325, "longitude": -97.2043884534773}, "133820399RR0001": {"name": "ARBORG-BIFROST PARKS AND RECREATION COMMISSION", "designationCode": "C", "categoryCode": "59", "address": "PO BOX 555", "city": "ARBORG", "province": "MB", "country": "CA", "postalCode": "R0C0A0", "twitter": "None", "instagram": "None", "facebook": "None", "youtube": "None", "website": "None", "summary": "None", "logo": "None", "latitude": 50.91022850109325, "longitude": -97.2043884534773}, "127281301RR0001": {"name": "ARBUTUS GROVE CHURCH", "designationCode": "C", "categoryCode": "39", "address": "PO BOX 1295  STN MAIN", "city": "PARKSVILLE", "province": "BC", "country": "CA", "postalCode": "V9P2H3", "twitter": "None", "instagram": "None", "facebook": "None", "youtube": "None", "website": "None", "summary": "None", "logo": "None", "latitude": 49.31968200000006, "longitude": -124.31365099999994}, "118788967RR0001": {"name": "ARBUTUS SHAUGHNESSY KERRISDALE FRIENDSHIP SOCIETY FOR SENIOR", "designationCode": "C", "categoryCode": "09", "address": "2177 42ND AVE W", "city": "VANCOUVER", "province": "BC", "country": "CA", "postalCode": "V6M2B7", "twitter": "None", "instagram": "None", "facebook": "None", "youtube": "None", "website": "None", "summary": "None", "logo": "None", "latitude": 49.23362151875455, "longitude": -123.1577727485429}, "118789023RR0001": {"name": "ARC EN CIEL", "designationCode": "C", "categoryCode": "09", "address": "258 CHEMIN DU GOUVERNEMENT    C.P. 24", "city": "OPASATIKA", "province": "ON", "country": "CA", "postalCode": "P0L1Z0", "twitter": "None", "instagram": "None", "facebook": "None", "youtube": "None", "website": "None", "summary": "None", "logo": "None", "latitude": 49.526979000000054, "longitude": -82.86549199999993}, "893751123RR0001": {"name": "ARC-EN-CIEL (VAUDREUIL-SOULANGES)", "designationCode": "C", "categoryCode": "09", "address": "60, RUE DE L'EGLISE", "city": "VAUDREUIL-DORION", "province": "QC", "country": "CA", "postalCode": "J7V1W4", "twitter": "None", "instagram": "None", "facebook": "None", "youtube": "None", "website": "None", "summary": "None", "logo": "None", "latitude": 45.386684245628715, "longitude": -74.00834689869582}, "890066178RR0001": {"name": "ARC-EN-CIEL DU COEUR", "designationCode": "C", "categoryCode": "19", "address": "1201 6E AV PILOTE", "city": "LA POCATIERE", "province": "QC", "country": "CA", "postalCode": "G0R1Z0", "twitter": "None", "instagram": "None", "facebook": "None", "youtube": "None", "website": "None", "summary": "None", "logo": "None", "latitude": 47.37197403647723, "longitude": -70.02813194336014}, "139289680RR0001": {"name": "ARC-EN-CIEL ORGANISME COMMUNAUTAIRE EN SANTE MENTALE", "designationCode": "C", "categoryCode": "09", "address": "331 RUE NOTRE-DAME", "city": "DONNACONA", "province": "QC", "country": "CA", "postalCode": "G3M1H3", "twitter": "None", "instagram": "None", "facebook": "None", "youtube": "None", "website": "None", "summary": "None", "logo": "None", "latitude": 46.673041652778664, "longitude": -71.7356974299152}, "118789007RR0001": {"name": "ARCADIA WORLD PRAYER MINISTRY INC. / ARCADIA MAISON SPIRITUELLE DU MONDE INC.", "designationCode": "B", "categoryCode": "47", "address": "PO BOX 984", "city": "CAMPBELLTON", "province": "NB", "country": "CA", "postalCode": "E3N3H4", "twitter": "None", "instagram": "None", "facebook": "None", "youtube": "None", "website": "None", "summary": "None", "logo": "None", "latitude": 47.99757300000006, "longitude": -66.66103249999993}, "119247443RR0001": {"name": "ARCADY", "designationCode": "C", "categoryCode": "22", "address": "P.O. BOX 955", "city": "SIMCOE", "province": "ON", "country": "CA", "postalCode": "N3Y5B3", "twitter": "None", "instagram": "None", "facebook": "None", "youtube": "None", "website": "None", "summary": "None", "logo": "None", "latitude": 42.83590200000006, "longitude": -80.30531149999993}, "896114162RR0001": {"name": "ARCANE HORIZON INC.", "designationCode": "C", "categoryCode": "01", "address": "62-1313 BORDER ST", "city": "WINNIPEG", "province": "MB", "country": "CA", "postalCode": "R3H0X4", "twitter": "None", "instagram": "None", "facebook": "None", "youtube": "None", "website": "None", "summary": "None", "logo": "None", "latitude": 49.90984967998731, "longitude": -97.20165768076671}, "118777994RR0001": {"name": "ARCH DISABILITY LAW CENTRE", "designationCode": "C", "categoryCode": "59", "address": "55 UNIVERSITY AVENUE          15TH FLOOR", "city": "TORONTO", "province": "ON", "country": "CA", "postalCode": "M5J2H7", "twitter": "None", "instagram": "None", "facebook": "None", "youtube": "None", "website": "None", "summary": "None", "logo": "None", "latitude": 43.64683659867845, "longitude": -79.38431430818304}, "118789098RR0001": {"name": "ARCH ENTERPRISES & TRAINING ASSOCIATION OF EDMONTON", "designationCode": "C", "categoryCode": "01", "address": "3151 - 97 STREET", "city": "EDMONTON", "province": "AB", "country": "CA", "postalCode": "T6N1B7", "twitter": "None", "instagram": "None", "facebook": "None", "youtube": "None", "website": "None", "summary": "None", "logo": "None", "latitude": 53.46409471717931, "longitude": -113.47953686389937}, "887151397RR0001": {"name": "ARCHAEOLOGICAL SOCIETY OF BRITISH COLUMBIA", "designationCode": "C", "categoryCode": "21", "address": "ASBC ARCHAEOLOGY UNIT         675 BELLEVILLE STREET", "city": "VICTORIA", "province": "BC", "country": "CA", "postalCode": "V8W9W2", "twitter": "None", "instagram": "None", "facebook": "None", "youtube": "None", "website": "None", "summary": "None", "logo": "None", "latitude": 48.42036670990861, "longitude": -123.36729902250546}, "872254214RR0001": {"name": "ARCHANGELS CHILDREN'S CENTRE", "designationCode": "C", "categoryCode": "01", "address": "2547 HEBERT ROAD", "city": "WESTBANK", "province": "BC", "country": "CA", "postalCode": "V4T2J6", "twitter": "None", "instagram": "None", "facebook": "None", "youtube": "None", "website": "None", "summary": "None", "logo": "None", "latitude": 49.828148999999996, "longitude": -119.63389089540719}, "118789049RR0001": {"name": "ARCHBISHOP ANDREWS FUND WESTERN DIOCESE OF THE UKRAINIAN ORTHODOX CHURCH", "designationCode": "C", "categoryCode": "21", "address": "12414-28 AVENUE NW", "city": "EDMONTON", "province": "AB", "country": "CA", "postalCode": "T6J4E4", "twitter": "None", "instagram": "None", "facebook": "None", "youtube": "None", "website": "None", "summary": "None", "logo": "None", "latitude": 53.45834819040333, "longitude": -113.54228568489206}, "134835297RR0001": {"name": "ARCHDIOCESE OF CANADA ORTHODOX CHURCH IN AMERICA", "designationCode": "C", "categoryCode": "39", "address": "3441 15TH AVE", "city": "RAWDON", "province": "QC", "country": "CA", "postalCode": "J0K1S0", "twitter": "None", "instagram": "None", "facebook": "None", "youtube": "None", "website": "None", "summary": "None", "logo": "None", "latitude": 46.05663917320665, "longitude": -73.71312244757323}, "118789064RR0001": {"name": "ARCHDIOCESE OF GROUARD MCLENNAN CURSILLO SECRETARIATE", "designationCode": "C", "categoryCode": "49", "address": "P.O. BOX 21064", "city": "GRANDE PRAIRIE", "province": "AB", "country": "CA", "postalCode": "T8V6W7", "twitter": "None", "instagram": "None", "facebook": "None", "youtube": "None", "website": "None", "summary": "None", "logo": "None", "latitude": 55.171122000000054, "longitude": -118.79491399999993}, "856645239RR0001": {"name": "ARCHDIOCESE OF MONCTON FOUNDATION INC./FONDATION DE L'ARCHI DIOCESE DE MONCTON INC.", "designationCode": "A", "categoryCode": "43", "address": "45, RUE YORK", "city": "MONCTON", "province": "NB", "country": "CA", "postalCode": "E1C2Y5", "twitter": "None", "instagram": "None", "facebook": "None", "youtube": "None", "website": "None", "summary": "None", "logo": "None", "latitude": 46.09482921233187, "longitude": -64.79487868526743}, "106720063RR0001": {"name": "ARCHE AGAPE INC.", "designationCode": "C", "categoryCode": "01", "address": "19 RUE HANSON", "city": "GATINEAU", "province": "QC", "country": "CA", "postalCode": "J8Y3M4", "twitter": "None", "instagram": "None", "facebook": "None", "youtube": "None", "website": "None", "summary": "None", "logo": "None", "latitude": 45.42578769525077, "longitude": -75.72657863159992}, "119028546RR0001": {"name": "ARCHE MAURICIE INC.", "designationCode": "C", "categoryCode": "09", "address": "570 RUE ST-PAUL", "city": "TROIS-RIVIERES", "province": "QC", "country": "CA", "postalCode": "G9A1H8", "twitter": "None", "instagram": "None", "facebook": "None", "youtube": "None", "website": "None", "summary": "None", "logo": "None", "latitude": 46.348728735789614, "longitude": -72.53862043003078}, "887167880RR0001": {"name": "ARCHELAUS SMITH HISTORICAL SOCIETY", "designationCode": "C", "categoryCode": "50", "address": "P O BOX 286", "city": "CLARKS HARBOUR", "province": "NS", "country": "CA", "postalCode": "B0W1P0", "twitter": "None", "instagram": "None", "facebook": "None", "youtube": "None", "website": "None", "summary": "None", "logo": "None", "latitude": 43.44708000000003, "longitude": -65.63532999999995}, "118789171RR0001": {"name": "ARCHIBALD ALEXANDER CAMPBELL ESTATE", "designationCode": "B", "categoryCode": "05", "address": "1402 - 1 KING ST W", "city": "HAMILTON", "province": "ON", "country": "CA", "postalCode": "L8P1A4", "twitter": "None", "instagram": "None", "facebook": "None", "youtube": "None", "website": "None", "summary": "None", "logo": "None", "latitude": 43.26019321073324, "longitude": -79.88135629363086}, "106720253RR0001": {"name": "ARCHIEPISCOPAL CORPORATION OF REGINA", "designationCode": "C", "categoryCode": "38", "address": "445 BROAD STREET N.", "city": "REGINA", "province": "SK", "country": "CA", "postalCode": "S4R2X8", "twitter": "None", "instagram": "None", "facebook": "None", "youtube": "None", "website": "None", "summary": "None", "logo": "None", "latitude": 50.48300758673324, "longitude": -104.60629834315333}, "865022529RR0001": {"name": "ARCHIVES ASSOCIATION OF BRITISH COLUMBIA", "designationCode": "C", "categoryCode": "50", "address": "34A-2755 LOUGHEED HIGHWAY     SUITE 249", "city": "PORT COQUITLAM", "province": "BC", "country": "CA", "postalCode": "V3B5Y9", "twitter": "None", "instagram": "None", "facebook": "None", "youtube": "None", "website": "None", "summary": "None", "logo": "None", "latitude": 49.260115278467985, "longitude": -122.75893891011623}, "100249168RR0001": {"name": "ARCHIVES GAIES DU QUEBEC", "designationCode": "C", "categoryCode": "50", "address": "103-1000, RUE AMHERST", "city": "MONTR\u00c9AL", "province": "QC", "country": "CA", "postalCode": "H2L3K5", "twitter": "None", "instagram": "None", "facebook": "None", "youtube": "None", "website": "None", "summary": "None", "logo": "None", "latitude": 45.51563189895562, "longitude": -73.55312232918794}, "816065056RR0001": {"name": "ARCHIVES HISTORIQUES HEMMINGFORD/HEMMINGFORD HISTORICAL ARCHIVES", "designationCode": "C", "categoryCode": "50", "address": "404 CH LAVALLEE", "city": "HEMMINGFORD", "province": "QC", "country": "CA", "postalCode": "J0L1H0", "twitter": "None", "instagram": "None", "facebook": "None", "youtube": "None", "website": "None", "summary": "None", "logo": "None", "latitude": 45.06570268769161, "longitude": -73.6035676152982}, "118789197RR0001": {"name": "ARCHWAY COMMUNITY HOMES", "designationCode": "C", "categoryCode": "09", "address": "757 BOGART AVE", "city": "NEWMARKET", "province": "ON", "country": "CA", "postalCode": "L3Y2A7", "twitter": "None", "instagram": "None", "facebook": "None", "youtube": "None", "website": "None", "summary": "None", "logo": "None", "latitude": 44.05767518737356, "longitude": -79.44526005718728}, "118789205RR0001": {"name": "ARCIA INC.", "designationCode": "C", "categoryCode": "01", "address": "78 HATCHER RD", "city": "WINNIPEG", "province": "MB", "country": "CA", "postalCode": "R2C3W1", "twitter": "None", "instagram": "None", "facebook": "None", "youtube": "None", "website": "None", "summary": "None", "logo": "None", "latitude": 49.88882568163211, "longitude": -97.03779614239129}, "118789213RR0001": {"name": "ARCOLA ALLIANCE CHURCH OF THE CHRISTIAN & MISSIONARY ALLIANCE", "designationCode": "C", "categoryCode": "39", "address": "PO BOX 158", "city": "ARCOLA", "province": "SK", "country": "CA", "postalCode": "S0C0G0", "twitter": "None", "instagram": "None", "facebook": "None", "youtube": "None", "website": "None", "summary": "None", "logo": "None", "latitude": 49.627126771998505, "longitude": -102.26060915780955}, "866562283RR0001": {"name": "ARCTIC ART MUSEUM SOCIETY", "designationCode": "C", "categoryCode": "50", "address": "#401 - 1859 SPYGLASS PLACE", "city": "VANCOUVER", "province": "BC", "country": "CA", "postalCode": "V5Z4K6", "twitter": "None", "instagram": "None", "facebook": "None", "youtube": "None", "website": "None", "summary": "None", "logo": "None", "latitude": 49.2695463141843, "longitude": -123.1152854662122}, "889830923RR0001": {"name": "ARCTIC BORDERLANDS ECOLOGICAL KNOWLEDGE SOCIETY", "designationCode": "C", "categoryCode": "59", "address": "PO BOX 33251 RPO OGILVIE", "city": "WHITEHORSE", "province": "YT", "country": "CA", "postalCode": "Y1A6S1", "twitter": "None", "instagram": "None", "facebook": "None", "youtube": "None", "website": "None", "summary": "None", "logo": "None", "latitude": 60.725686384902716, "longitude": -135.06208261385214}, "878596600RR0001": {"name": "ARCTIC CHILDREN AND YOUTH FOUNDATION/FONDATION DES ENFANTS ET DES JEUNES DE L'ARCTIQUE", "designationCode": "C", "categoryCode": "09", "address": "BOX 4206", "city": "IQALUIT", "province": "NU", "country": "CA", "postalCode": "X0A1H0", "twitter": "None", "instagram": "None", "facebook": "None", "youtube": "None", "website": "None", "summary": "None", "logo": "None", "latitude": 63.75486300000006, "longitude": -68.51770549999993}, "725221121RR0001": {"name": "ARCTIC INDIGENOUS WELLNESS FOUNDATION", "designationCode": "C", "categoryCode": "11", "address": "31 OTTO DR", "city": "YELLOWKNIFE", "province": "NT", "country": "CA", "postalCode": "X1A2T9", "twitter": "None", "instagram": "None", "facebook": "None", "youtube": "None", "website": "None", "summary": "None", "logo": "None", "latitude": 62.47187214136886, "longitude": -114.34074652810935}, "118789254RR0001": {"name": "ARCTIC INSTITUTE OF NORTH AMERICA", "designationCode": "C", "categoryCode": "52", "address": "C-O UNIVERSITY OF CALGARY     2500 UNIVERSITY DR NW", "city": "CALGARY", "province": "AB", "country": "CA", "postalCode": "T2N1N4", "twitter": "None", "instagram": "None", "facebook": "None", "youtube": "None", "website": "None", "summary": "None", "logo": "None", "latitude": 51.07491998831462, "longitude": -114.12851991949915}, "870076031RR0001": {"name": "ARCTIC MISSION OUTREACH TRUST FUND", "designationCode": "A", "categoryCode": "45", "address": "1795 PARKHURST AVE.", "city": "LONDON", "province": "ON", "country": "CA", "postalCode": "N5V2C4", "twitter": "None", "instagram": "None", "facebook": "None", "youtube": "None", "website": "None", "summary": "None", "logo": "None", "latitude": 43.007119042443456, "longitude": -81.18372245960536}, "889025045RR0001": {"name": "ARCUS ASSOCIATION FOR COMMUNITY LIVING", "designationCode": "C", "categoryCode": "09", "address": "25598 100 AVE", "city": "MAPLE RIDGE", "province": "BC", "country": "CA", "postalCode": "V2W1Y5", "twitter": "None", "instagram": "None", "facebook": "None", "youtube": "None", "website": "None", "summary": "None", "logo": "None", "latitude": 49.18385132326542, "longitude": -122.51279059269056}, "131861346RR0001": {"name": "ARDAL - GEYSIR EVANGELICAL LUTHERAN CHURCH", "designationCode": "C", "categoryCode": "32", "address": "BOX 160", "city": "ARBORG", "province": "MB", "country": "CA", "postalCode": "R0C0A0", "twitter": "None", "instagram": "None", "facebook": "None", "youtube": "None", "website": "None", "summary": "None", "logo": "None", "latitude": 50.91022850109325, "longitude": -97.2043884534773}, "888236445RR0001": {"name": "ARDELEANA CHAMBER MUSIC SOCIETY", "designationCode": "C", "categoryCode": "22", "address": "267 MCDOUGALL RD SS 5", "city": "MCDOUGALL", "province": "ON", "country": "CA", "postalCode": "P2A0B3", "twitter": "None", "instagram": "None", "facebook": "None", "youtube": "None", "website": "None", "summary": "None", "logo": "None", "latitude": 45.399530514570955, "longitude": -79.94733281750253}, "889046595RR0001": {"name": "ARDOISE COMMUNITY RECREATION CENTRE", "designationCode": "C", "categoryCode": "56", "address": "3 ARDOISE SCHOOL ROAD         RR1", "city": "ELLERSHOUSE", "province": "NS", "country": "CA", "postalCode": "B0N1L0", "twitter": "None", "instagram": "None", "facebook": "None", "youtube": "None", "website": "None", "summary": "None", "logo": "None", "latitude": 44.95951993756126, "longitude": -63.93344492550046}, "140773623RR0001": {"name": "ARDORINI MISSIONARIES PIOUS WORKERS RURAL CATECHISTS", "designationCode": "C", "categoryCode": "47", "address": "200 PINE GROVE RD", "city": "WOODBRIDGE", "province": "ON", "country": "CA", "postalCode": "L4L2H6", "twitter": "None", "instagram": "None", "facebook": "None", "youtube": "None", "website": "None", "summary": "None", "logo": "None", "latitude": 43.79855944330273, "longitude": -79.58336356953653}, "885262600RR0001": {"name": "ARDROSSAN DREAM CATCHER NATURE - ASSISTED THERAPY ASSOCIATION", "designationCode": "C", "categoryCode": "11", "address": "53044 RR 213", "city": "ARDROSSAN", "province": "AB", "country": "CA", "postalCode": "T8G2C4", "twitter": "None", "instagram": "None", "facebook": "None", "youtube": "None", "website": "None", "summary": "None", "logo": "None", "latitude": 53.54942438773156, "longitude": -113.02516676824881}, "118789346RR0001": {"name": "ARDROSSAN PASTORAL CHARGE", "designationCode": "C", "categoryCode": "44", "address": "22 MAIN ST", "city": "ARDROSSAN", "province": "AB", "country": "CA", "postalCode": "T8E2A2", "twitter": "None", "instagram": "None", "facebook": "None", "youtube": "None", "website": "None", "summary": "None", "logo": "None", "latitude": 53.55211023203871, "longitude": -113.14195403110381}, "118789353RR0001": {"name": "ARDROSSAN 55 PLUS CLUB", "designationCode": "C", "categoryCode": "56", "address": "21 QUEEN ST", "city": "ARDROSSAN", "province": "AB", "country": "CA", "postalCode": "T8E2A2", "twitter": "None", "instagram": "None", "facebook": "None", "youtube": "None", "website": "None", "summary": "None", "logo": "None", "latitude": 53.55320074242607, "longitude": -113.14370980417232}, "888667847RR0001": {"name": "ARDTREA UNITED CHURCH", "designationCode": "C", "categoryCode": "44", "address": "3601 MENOKE BEACH RD", "city": "SEVERN", "province": "ON", "country": "CA", "postalCode": "L3V0T9", "twitter": "None", "instagram": "None", "facebook": "None", "youtube": "None", "website": "None", "summary": "None", "logo": "None", "latitude": 44.685788111864404, "longitude": -79.40217916677268}, "899095798RR0001": {"name": "ARENA DES ILES INC.", "designationCode": "C", "categoryCode": "56", "address": "65 RUE DE L'ARENA", "city": "LAMEQUE", "province": "NB", "country": "CA", "postalCode": "E8T1B4", "twitter": "None", "instagram": "None", "facebook": "None", "youtube": "None", "website": "None", "summary": "None", "logo": "None", "latitude": 47.798325585056034, "longitude": -64.64793172433441}, "118789403RR0001": {"name": "ARGENTA COMMUNITY ASSOCIATION", "designationCode": "C", "categoryCode": "55", "address": "GENERAL DELIVERY", "city": "ARGENTA", "province": "BC", "country": "CA", "postalCode": "V0G1B0", "twitter": "None", "instagram": "None", "facebook": "None", "youtube": "None", "website": "None", "summary": "None", "logo": "None", "latitude": 50.11587357288575, "longitude": -116.90666100818785}, "118942689RR0001": {"name": "ARGYLE CHRISTIAN ASSEMBLY", "designationCode": "C", "categoryCode": "47", "address": "RR 1 CIVIC 4813 HGY 3", "city": "GLENWOOD", "province": "NS", "country": "CA", "postalCode": "B0W1W0", "twitter": "None", "instagram": "None", "facebook": "None", "youtube": "None", "website": "None", "summary": "None", "logo": "None", "latitude": 43.81449000000005, "longitude": -65.90226949999993}, "805725678RR0001": {"name": "ARGYLE DISTRICT FOOD BANK", "designationCode": "C", "categoryCode": "09", "address": "4660 HWY 522", "city": "COMMANDA", "province": "ON", "country": "CA", "postalCode": "P0H1J0", "twitter": "None", "instagram": "None", "facebook": "None", "youtube": "None", "website": "None", "summary": "None", "logo": "None", "latitude": 45.95151942884281, "longitude": -79.60146257552644}, "857509343RR0001": {"name": "ARGYLE MUNICIPALITY HISTORICAL & GENEALOGICAL SOCIETY", "designationCode": "C", "categoryCode": "50", "address": "PO BOX 101", "city": "TUSKET", "province": "NS", "country": "CA", "postalCode": "B0W3M0", "twitter": "None", "instagram": "None", "facebook": "None", "youtube": "None", "website": "None", "summary": "None", "logo": "None", "latitude": 43.92724200000005, "longitude": -65.89714399999993}, "118789445RR0001": {"name": "ARGYLE PRESBYTERIAN CHURCH", "designationCode": "C", "categoryCode": "37", "address": "224 NANCY STREET", "city": "DUTTON", "province": "ON", "country": "CA", "postalCode": "N0L1J0", "twitter": "None", "instagram": "None", "facebook": "None", "youtube": "None", "website": "None", "summary": "None", "logo": "None", "latitude": 42.66686732824338, "longitude": -81.50386497650639}, "118789452RR0001": {"name": "ARGYLE PUBNICO BAPTIST CHURCH", "designationCode": "C", "categoryCode": "31", "address": "4548 HIGHWAY 3", "city": "CENTRAL ARGYLE", "province": "NS", "country": "CA", "postalCode": "B0W1W0", "twitter": "None", "instagram": "None", "facebook": "None", "youtube": "None", "website": "None", "summary": "None", "logo": "None", "latitude": 43.759748552028675, "longitude": -65.83892244042003}, "118789460RR0001": {"name": "ARGYLE ROAD BAPTIST CHURCH", "designationCode": "C", "categoryCode": "31", "address": "3514 ARGYLE ROAD", "city": "REGINA", "province": "SK", "country": "CA", "postalCode": "S4S2B8", "twitter": "None", "instagram": "None", "facebook": "None", "youtube": "None", "website": "None", "summary": "None", "logo": "None", "latitude": 50.422744635293526, "longitude": -104.62521005692749}, "890800790RR0001": {"name": "ARGYLE SUNSET CEMETERY SOCIETY", "designationCode": "C", "categoryCode": "59", "address": "825, HWY 276", "city": "GOSHEN", "province": "NS", "country": "CA", "postalCode": "B0H1M0", "twitter": "None", "instagram": "None", "facebook": "None", "youtube": "None", "website": "None", "summary": "None", "logo": "None", "latitude": 45.379920667016066, "longitude": -61.9858866108236}, "888359643RR0001": {"name": "ARGYLL REGIMENTAL FOUNDATION", "designationCode": "B", "categoryCode": "53", "address": "400 - 175 LONGWOOD RD S", "city": "HAMILTON", "province": "ON", "country": "CA", "postalCode": "L8P0A1", "twitter": "None", "instagram": "None", "facebook": "None", "youtube": "None", "website": "None", "summary": "None", "logo": "None", "latitude": 43.25359288916674, "longitude": -79.90272099341341}, "853446243RR0001": {"name": "ARH HEALTHCARE FOUNDATION / FONDATION ARH SANT\u00c9", "designationCode": "A", "categoryCode": "13", "address": "1301 CALEDONIA", "city": "TOWN OF MOUNT ROYAL", "province": "QC", "country": "CA", "postalCode": "H3R2V9", "twitter": "None", "instagram": "None", "facebook": "None", "youtube": "None", "website": "None", "summary": "None", "logo": "None", "latitude": 45.51026386262901, "longitude": -73.64696306313124}, "889383196RR0001": {"name": "ARICHAT BIBLE CHURCH", "designationCode": "C", "categoryCode": "39", "address": "667 VETERANS MEMORIAL DRIVE   P.O.BOX 63", "city": "ARICHAT", "province": "NS", "country": "CA", "postalCode": "B0E1A0", "twitter": "None", "instagram": "None", "facebook": "None", "youtube": "None", "website": "None", "summary": "None", "logo": "None", "latitude": 45.5107534565756, "longitude": -61.01495130391251}, "118789502RR0001": {"name": "ARID GROUP HOMES (NIAGARA)", "designationCode": "C", "categoryCode": "57", "address": "175 PINE STREET SOUTH", "city": "THOROLD", "province": "ON", "country": "CA", "postalCode": "L2V3M5", "twitter": "None", "instagram": "None", "facebook": "None", "youtube": "None", "website": "None", "summary": "None", "logo": "None", "latitude": 43.11393191035259, "longitude": -79.20242864643068}, "862499951RR0001": {"name": "ARIOSE WOMEN'S CHORAL ASSOCIATION", "designationCode": "C", "categoryCode": "22", "address": "BOX 306, 10301 104TH STREET", "city": "EDMONTON", "province": "AB", "country": "CA", "postalCode": "T5J1B9", "twitter": "None", "instagram": "None", "facebook": "None", "youtube": "None", "website": "None", "summary": "None", "logo": "None", "latitude": 53.544825, "longitude": -113.49918528902445}, "892473323RR0001": {"name": "ARISE MINISTRIES OF CANADA (CALGARY)", "designationCode": "C", "categoryCode": "39", "address": "82 ELGIN PARK RD SE", "city": "CALGARY", "province": "AB", "country": "CA", "postalCode": "T2Z4B8", "twitter": "None", "instagram": "None", "facebook": "None", "youtube": "None", "website": "None", "summary": "None", "logo": "None", "latitude": 50.90858920399334, "longitude": -113.96655119510652}}