{"133193532RR0002": {"name": "St John's Anglican Church", "designationCode": "C", "categoryCode": "30", "address": "P.O. BOX 387", "city": "PORT ROWAN", "province": "ON", "country": "CA", "postalCode": "N0E1M0", "twitter": "None", "instagram": "None", "facebook": "None", "youtube": "None", "website": "None", "summary": "None", "logo": "None", "latitude": 42.62403000000006, "longitude": -80.45044999999999}, "108099771RR0093": {"name": "St John's Church, Rockwood", "designationCode": "C", "categoryCode": "30", "address": "PO BOX 875", "city": "ROCKWOOD", "province": "ON", "country": "CA", "postalCode": "N0B2K0", "twitter": "None", "instagram": "None", "facebook": "None", "youtube": "None", "website": "None", "summary": "None", "logo": "None", "latitude": 43.61851000000007, "longitude": -80.14375999999999}, "887391795RR0001": {"name": "St Josephs Polish National Catholic Church", "designationCode": "C", "categoryCode": "38", "address": "PO BOX 71", "city": "BEAUSEJOUR", "province": "MB", "country": "CA", "postalCode": "R0E0C0", "twitter": "None", "instagram": "None", "facebook": "None", "youtube": "None", "website": "None", "summary": "None", "logo": "None", "latitude": 50.061750000000075, "longitude": -96.50519999999995}, "828874305RR0001": {"name": "St Luke's Church on the Lake", "designationCode": "C", "categoryCode": "39", "address": "BOX 602", "city": "FRANCOIS LAKE", "province": "BC", "country": "CA", "postalCode": "V0J1R0", "twitter": "None", "instagram": "None", "facebook": "None", "youtube": "None", "website": "None", "summary": "None", "logo": "None", "latitude": 54.026014934253624, "longitude": -124.95026576451009}, "129144549RR0048": {"name": "St Mary's Church Sorrento, BC", "designationCode": "C", "categoryCode": "30", "address": "PO BOX 271", "city": "SORRENTO", "province": "BC", "country": "CA", "postalCode": "V0E2W0", "twitter": "None", "instagram": "None", "facebook": "None", "youtube": "None", "website": "None", "summary": "None", "logo": "None"}, "847127529RR0001": {"name": "St Mary's Education Society Vegreville", "designationCode": "C", "categoryCode": "21", "address": "4434 53 STREET", "city": "VEGREVILLE", "province": "AB", "country": "CA", "postalCode": "T9C1A1", "twitter": "None", "instagram": "None", "facebook": "None", "youtube": "None", "website": "None", "summary": "None", "logo": "None", "latitude": 53.491620793470645, "longitude": -112.06408680735738}, "846790954RR0001": {"name": "St Paul Coptic Charitable Organization", "designationCode": "B", "categoryCode": "01", "address": "4 HOLBROOK COURT", "city": "MARKHAM", "province": "ON", "country": "CA", "postalCode": "L3R7P6", "twitter": "None", "instagram": "None", "facebook": "None", "youtube": "None", "website": "None", "summary": "None", "logo": "None", "latitude": 43.86945880930823, "longitude": -79.34792626366212}, "119195931RR0001": {"name": "St Paul's Evangelical Lutheran Church of McCreary, Manitoba", "designationCode": "C", "categoryCode": "32", "address": "POST OFFICE BOX 166", "city": "MCCREARY", "province": "MB", "country": "CA", "postalCode": "R0J1B0", "twitter": "None", "instagram": "None", "facebook": "None", "youtube": "None", "website": "None", "summary": "None", "logo": "None", "latitude": 50.772380000000055, "longitude": -99.49212999999997}, "836720805RR0001": {"name": "St Perpetua Women Charity, Canada", "designationCode": "C", "categoryCode": "09", "address": "4615 164 AVENUE", "city": "EDMONTON", "province": "AB", "country": "CA", "postalCode": "T5Y0A5", "twitter": "None", "instagram": "None", "facebook": "None", "youtube": "None", "website": "None", "summary": "None", "logo": "None", "latitude": 53.624028532315904, "longitude": -113.40906227699232}, "133512509RR0001": {"name": "St Peter & St Paul Parish", "designationCode": "C", "categoryCode": "38", "address": "4609 50 AVE", "city": "ST PAUL", "province": "AB", "country": "CA", "postalCode": "T0A3A3", "twitter": "None", "instagram": "None", "facebook": "None", "youtube": "None", "website": "None", "summary": "None", "logo": "None", "latitude": 53.99135148730496, "longitude": -111.28695202553523}, "891855769RR0003": {"name": "St Peter and Paul Catholic Church", "designationCode": "C", "categoryCode": "38", "address": "P.O. BOX 182", "city": "RAINBOW LAKE", "province": "AB", "country": "CA", "postalCode": "T0H2Y0", "twitter": "None", "instagram": "None", "facebook": "None", "youtube": "None", "website": "None", "summary": "None", "logo": "None", "latitude": 58.50739772156, "longitude": -119.40343370798375}, "818858896RR0001": {"name": "St Peter and St Paul's Anglican Church Ottawa", "designationCode": "C", "categoryCode": "30", "address": "152 METCALFE STREET", "city": "OTTAWA", "province": "ON", "country": "CA", "postalCode": "K2P1N9", "twitter": "None", "instagram": "None", "facebook": "None", "youtube": "None", "website": "None", "summary": "None", "logo": "None", "latitude": 45.419690662213725, "longitude": -75.69481722387306}, "121274930RR0001": {"name": "St. Adolphe Nursery School Inc.", "designationCode": "C", "categoryCode": "20", "address": "POST OFFICE BOX 330", "city": "ST. ADOLPHE", "province": "MB", "country": "CA", "postalCode": "R5A1A2", "twitter": "None", "instagram": "None", "facebook": "None", "youtube": "None", "website": "None", "summary": "None", "logo": "None", "latitude": 49.674977600490465, "longitude": -97.10658509643498}, "107910259RR0213": {"name": "St. Agnes Kouying Tsao Parish", "designationCode": "C", "categoryCode": "38", "address": "2130 RODICK ROAD", "city": "MARKHAM", "province": "ON", "country": "CA", "postalCode": "L6C1S7", "twitter": "None", "instagram": "None", "facebook": "None", "youtube": "None", "website": "None", "summary": "None", "logo": "None", "latitude": 43.870478490968964, "longitude": -79.35287252960325}, "107910259RR0085": {"name": "St. Agnes' Parish", "designationCode": "C", "categoryCode": "38", "address": "15 GRACE STREET", "city": "TORONTO", "province": "ON", "country": "CA", "postalCode": "M6J2S3", "twitter": "None", "instagram": "None", "facebook": "None", "youtube": "None", "website": "None", "summary": "None", "logo": "None", "latitude": 43.65117020927345, "longitude": -79.41408044489017}, "137150116RR0002": {"name": "St. Aidan and St. Hilda Anglican Church", "designationCode": "C", "categoryCode": "30", "address": "P.O. BOX  1093", "city": "WABAMUN", "province": "AB", "country": "CA", "postalCode": "T0E2K0", "twitter": "None", "instagram": "None", "facebook": "None", "youtube": "None", "website": "None", "summary": "None", "logo": "None", "latitude": 53.568336633845774, "longitude": -114.64443560770479}, "737915124RR0001": {"name": "St. Aidan Orthodox Church", "designationCode": "C", "categoryCode": "39", "address": "201 7TH AVE S", "city": "CRANBROOK", "province": "BC", "country": "CA", "postalCode": "V1C2J6", "twitter": "None", "instagram": "None", "facebook": "None", "youtube": "None", "website": "None", "summary": "None", "logo": "None", "latitude": 49.508447716914446, "longitude": -115.77184078308555}, "107910259RR0012": {"name": "St. Aidan's Parish", "designationCode": "C", "categoryCode": "38", "address": "3501 FINCH AVENUE EAST", "city": "SCARBOROUGH", "province": "ON", "country": "CA", "postalCode": "M1W2S2", "twitter": "None", "instagram": "None", "facebook": "None", "youtube": "None", "website": "None", "summary": "None", "logo": "None", "latitude": 43.797928823158024, "longitude": -79.31043690616899}, "809770571RR0001": {"name": "St. Albert Chamber Music Society", "designationCode": "B", "categoryCode": "22", "address": "5 - 8 RIEL DR", "city": "ST. ALBERT", "province": "AB", "country": "CA", "postalCode": "T8N3Z7", "twitter": "None", "instagram": "None", "facebook": "None", "youtube": "None", "website": "None", "summary": "None", "logo": "None", "latitude": 53.625748246148305, "longitude": -113.63874057253764}, "119162147RR0001": {"name": "St. Albert Community Village and Food Bank Society", "designationCode": "C", "categoryCode": "09", "address": "30-50 BELLEROSE DR", "city": "ST ALBERT", "province": "AB", "country": "CA", "postalCode": "T8N3L5", "twitter": "None", "instagram": "None", "facebook": "None", "youtube": "None", "website": "None", "summary": "None", "logo": "None", "latitude": 53.66897418377522, "longitude": -113.60619338691195}, "124658600RR0001": {"name": "St. Albert Seniors Association", "designationCode": "C", "categoryCode": "56", "address": "7 TACHE ST", "city": "ST ALBERT", "province": "AB", "country": "CA", "postalCode": "T8N2S3", "twitter": "None", "instagram": "None", "facebook": "None", "youtube": "None", "website": "None", "summary": "None", "logo": "None", "latitude": 53.63064134055627, "longitude": -113.63064572000657}, "803249770RR0001": {"name": "St. Albert Sturgeon Hospice Association", "designationCode": "A", "categoryCode": "13", "address": "PO BOX 65105                  RPO MISSION HILL PL", "city": "ST. ALBERT", "province": "AB", "country": "CA", "postalCode": "T8N5Y3", "twitter": "None", "instagram": "None", "facebook": "None", "youtube": "None", "website": "None", "summary": "None", "logo": "None", "latitude": 53.63292839909977, "longitude": -113.63602607541739}, "757966320RR0008": {"name": "St. Alphonsa Syro Malabar Catholic Cathedral, Mississauga", "designationCode": "C", "categoryCode": "39", "address": "6630 TURNER VALLEY RD", "city": "MISSISSAUGA", "province": "ON", "country": "CA", "postalCode": "L5N2P1", "twitter": "None", "instagram": "None", "facebook": "None", "youtube": "None", "website": "None", "summary": "None", "logo": "None", "latitude": 43.5978327976228, "longitude": -79.74209964920064}, "839660834RR0001": {"name": "St. Alphonsa Syro Malabar Catholic Church Edmonton", "designationCode": "C", "categoryCode": "38", "address": "9120 146 ST NW", "city": "EDMONTON", "province": "AB", "country": "CA", "postalCode": "T5R0W2", "twitter": "None", "instagram": "None", "facebook": "None", "youtube": "None", "website": "None", "summary": "None", "logo": "None", "latitude": 53.526035611951336, "longitude": -113.57103928270513}, "757966320RR0013": {"name": "St. Alphonsa Syro Malabar Catholic Church, Vancouver", "designationCode": "C", "categoryCode": "39", "address": "6543 132 STREET", "city": "SURREY", "province": "BC", "country": "CA", "postalCode": "V3W4L4", "twitter": "None", "instagram": "None", "facebook": "None", "youtube": "None", "website": "None", "summary": "None", "logo": "None", "latitude": 49.121576664723875, "longitude": -122.85658295510372}, "107910259RR0025": {"name": "St. Alphonsus Parish", "designationCode": "C", "categoryCode": "38", "address": "540 ST CLAIR AVE W", "city": "TORONTO", "province": "ON", "country": "CA", "postalCode": "M6C1A4", "twitter": "None", "instagram": "None", "facebook": "None", "youtube": "None", "website": "None", "summary": "None", "logo": "None", "latitude": 43.68286218347843, "longitude": -79.42015803595123}, "107910259RR0027": {"name": "St. Ambrose Parish", "designationCode": "C", "categoryCode": "38", "address": "782 BROWNS LINE", "city": "TORONTO", "province": "ON", "country": "CA", "postalCode": "M8W3W2", "twitter": "None", "instagram": "None", "facebook": "None", "youtube": "None", "website": "None", "summary": "None", "logo": "None", "latitude": 43.60865171524606, "longitude": -79.54821644180217}, "107910259RR0235": {"name": "St. Andre Bessette Parish", "designationCode": "C", "categoryCode": "38", "address": "2 BARLETTA DRIVE", "city": "VAUGHN", "province": "ON", "country": "CA", "postalCode": "L6A4H4", "twitter": "None", "instagram": "None", "facebook": "None", "youtube": "None", "website": "None", "summary": "None", "logo": "None", "latitude": 43.855402157943196, "longitude": -79.49217742951117}, "852830553RR0001": {"name": "St. Andrew Anglican Mission", "designationCode": "C", "categoryCode": "30", "address": "ALL SAINTS ANGLICAN CHURCH    175 COLONY STREET", "city": "WINNIPEG", "province": "MB", "country": "CA", "postalCode": "R3C1W2", "twitter": "None", "instagram": "None", "facebook": "None", "youtube": "None", "website": "None", "summary": "None", "logo": "None", "latitude": 49.8857761887299, "longitude": -97.15126997648493}, "107910259RR0167": {"name": "St. Andrew Kim's Parish", "designationCode": "C", "categoryCode": "38", "address": "849 DON MILLS RD", "city": "NORTH YORK", "province": "ON", "country": "CA", "postalCode": "M3C1W1", "twitter": "None", "instagram": "None", "facebook": "None", "youtube": "None", "website": "None", "summary": "None", "logo": "None", "latitude": 43.72343396393321, "longitude": -79.3395570200249}, "857994099RR0001": {"name": "St. Andrew Soup Kitchen Inc.", "designationCode": "C", "categoryCode": "09", "address": "292 RED RIVER ROAD,", "city": "THUNDER BAY", "province": "ON", "country": "CA", "postalCode": "P7B1A8", "twitter": "None", "instagram": "None", "facebook": "None", "youtube": "None", "website": "None", "summary": "None", "logo": "None", "latitude": 48.43675551514787, "longitude": -89.22371964648893}, "831870860RR0001": {"name": "St. Andrew's Church, Delta", "designationCode": "C", "categoryCode": "30", "address": "P.O. BOX 19146                1153-56TH STREET", "city": "DELTA", "province": "BC", "country": "CA", "postalCode": "V4L2P8", "twitter": "None", "instagram": "None", "facebook": "None", "youtube": "None", "website": "None", "summary": "None", "logo": "None", "latitude": 49.023807104694626, "longitude": -123.06882928791019}, "890163777RR0001": {"name": "St. Andrew's Maple Cross Presbyterian Church", "designationCode": "C", "categoryCode": "37", "address": "1 CAROLINE ST WEST", "city": "CREEMORE", "province": "ON", "country": "CA", "postalCode": "L0M1G0", "twitter": "None", "instagram": "None", "facebook": "None", "youtube": "None", "website": "None", "summary": "None", "logo": "None", "latitude": 44.32596574712927, "longitude": -80.10653599679735}, "107910259RR0028": {"name": "St. Andrew's Parish", "designationCode": "C", "categoryCode": "38", "address": "2547 KIPLING AVE", "city": "ETOBICOKE", "province": "ON", "country": "CA", "postalCode": "M9V3A8", "twitter": "None", "instagram": "None", "facebook": "None", "youtube": "None", "website": "None", "summary": "None", "logo": "None", "latitude": 43.745922889549234, "longitude": -79.58329095637406}, "107910259RR0118": {"name": "St. Andrew's Parish", "designationCode": "C", "categoryCode": "38", "address": "BOX 65", "city": "BRECHIN", "province": "ON", "country": "CA", "postalCode": "L0K1B0", "twitter": "None", "instagram": "None", "facebook": "None", "youtube": "None", "website": "None", "summary": "None", "logo": "None", "latitude": 44.61056390491339, "longitude": -79.11780209458949}, "839288719RR0001": {"name": "St. Andrew's Presbyterian Church, Rose Bay, Nova Scotia", "designationCode": "C", "categoryCode": "37", "address": "4 PINEHILL ROAD", "city": "DARTMOUTH", "province": "NS", "country": "CA", "postalCode": "B3A2E6", "twitter": "None", "instagram": "None", "facebook": "None", "youtube": "None", "website": "None", "summary": "None", "logo": "None", "latitude": 44.681255579808315, "longitude": -63.576299819579994}, "894354745RR0001": {"name": "St. Andrew's United / St. Mary's Anglican (SM) Pastoral Charge", "designationCode": "C", "categoryCode": "44", "address": "BOX 285", "city": "LILLOOET", "province": "BC", "country": "CA", "postalCode": "V0K1V0", "twitter": "None", "instagram": "None", "facebook": "None", "youtube": "None", "website": "None", "summary": "None", "logo": "None", "latitude": 50.70518720689823, "longitude": -121.90890624938581}, "829533686RR0001": {"name": "St. Andrews and Districts Veterans Memorial Society", "designationCode": "C", "categoryCode": "59", "address": "25 DUNNS LOOP                 RR #7", "city": "ANTIGONISH", "province": "NS", "country": "CA", "postalCode": "B2G2L4", "twitter": "None", "instagram": "None", "facebook": "None", "youtube": "None", "website": "None", "summary": "None", "logo": "None", "latitude": 45.60479231562662, "longitude": -61.925585891915155}, "813499373RR0001": {"name": "St. Andrews Baptist Church Ltd.", "designationCode": "C", "categoryCode": "31", "address": "115 KING STREET", "city": "ST ANDREWS", "province": "NB", "country": "CA", "postalCode": "E5B1X8", "twitter": "None", "instagram": "None", "facebook": "None", "youtube": "None", "website": "None", "summary": "None", "logo": "None", "latitude": 45.07599382346005, "longitude": -67.05103354570016}, "835588112RR0001": {"name": "St. Andrews Child Care Inc.", "designationCode": "C", "categoryCode": "01", "address": "4249 MAIN STREET", "city": "WEST ST. PAUL", "province": "MB", "country": "CA", "postalCode": "R4A2A7", "twitter": "None", "instagram": "None", "facebook": "None", "youtube": "None", "website": "None", "summary": "None", "logo": "None", "latitude": 50.001076105230545, "longitude": -97.05407352122292}, "856230503RR0001": {"name": "St. Andrews Heritage Centre", "designationCode": "C", "categoryCode": "52", "address": "374 RIVER ROAD", "city": "ST. ANDREWS", "province": "MB", "country": "CA", "postalCode": "R1A2Y1", "twitter": "None", "instagram": "None", "facebook": "None", "youtube": "None", "website": "None", "summary": "None", "logo": "None", "latitude": 50.06609492199816, "longitude": -96.97680667151603}, "812190619RR0001": {"name": "St. Andronik of Perm Edmonton Podvorie (of the Russian Convent of our Lady of Vladimir)", "designationCode": "C", "categoryCode": "46", "address": "570-21-10405 JASPER AVE", "city": "EDMONTON", "province": "AB", "country": "CA", "postalCode": "T5J3S2", "twitter": "None", "instagram": "None", "facebook": "None", "youtube": "None", "website": "None", "summary": "None", "logo": "None", "latitude": 53.5408984773503, "longitude": -113.50015297446477}, "107910259RR0013": {"name": "St. Ann's Parish", "designationCode": "C", "categoryCode": "38", "address": "28 ROBERT ST W", "city": "PENETANGUISHENE", "province": "ON", "country": "CA", "postalCode": "L9M1N2", "twitter": "None", "instagram": "None", "facebook": "None", "youtube": "None", "website": "None", "summary": "None", "logo": "None", "latitude": 44.76765636841474, "longitude": -79.9362614152683}, "107910259RR0029": {"name": "St. Ann's Parish", "designationCode": "C", "categoryCode": "38", "address": "120 FIRST AVE", "city": "TORONTO", "province": "ON", "country": "CA", "postalCode": "M4M1X1", "twitter": "None", "instagram": "None", "facebook": "None", "youtube": "None", "website": "None", "summary": "None", "logo": "None", "latitude": 43.665643150729835, "longitude": -79.34766672912451}, "119167278RR0002": {"name": "St. Anne's Anglican Church, Poplar Point", "designationCode": "C", "categoryCode": "30", "address": "POST OFFICE BOX 30", "city": "POPLAR POINT", "province": "MB", "country": "CA", "postalCode": "R0H0Z0", "twitter": "None", "instagram": "None", "facebook": "None", "youtube": "None", "website": "None", "summary": "None", "logo": "None", "latitude": 49.898447999999995, "longitude": -99.0783585}, "851063396RR0001": {"name": "St. Anne's Day Nursery Inc.", "designationCode": "C", "categoryCode": "01", "address": "425 ST ANNE'S ROAD", "city": "WINNIPEG", "province": "MB", "country": "CA", "postalCode": "R2M3C7", "twitter": "None", "instagram": "None", "facebook": "None", "youtube": "None", "website": "None", "summary": "None", "logo": "None", "latitude": 49.84613598695827, "longitude": -97.09721020508985}, "107910259RR0170": {"name": "St. Anne's Parish", "designationCode": "C", "categoryCode": "38", "address": "115 VODDEN STREET EAST", "city": "BRAMPTON", "province": "ON", "country": "CA", "postalCode": "L6V1M4", "twitter": "None", "instagram": "None", "facebook": "None", "youtube": "None", "website": "None", "summary": "None", "logo": "None", "latitude": 43.69853298915129, "longitude": -79.76338321893965}, "107910259RR0030": {"name": "St. Anselm's Parish", "designationCode": "C", "categoryCode": "38", "address": "1 MACNAUGHTON RD", "city": "TORONTO", "province": "ON", "country": "CA", "postalCode": "M4G3H3", "twitter": "None", "instagram": "None", "facebook": "None", "youtube": "None", "website": "None", "summary": "None", "logo": "None"}, "107910259RR0177": {"name": "St. Anthony of Padua Parish", "designationCode": "C", "categoryCode": "38", "address": "940 NORTH PARK DR", "city": "BRAMALEA", "province": "ON", "country": "CA", "postalCode": "L6S3L5", "twitter": "None", "instagram": "None", "facebook": "None", "youtube": "None", "website": "None", "summary": "None", "logo": "None", "latitude": 43.73527864420896, "longitude": -79.74218597437786}, "119288918RR0786": {"name": "St. Anthony Congregation of Jehovah's Witnesses, Newfoundland", "designationCode": "C", "categoryCode": "61", "address": "P.O. BOX 25", "city": "ST.ANTHONY", "province": "NL", "country": "CA", "postalCode": "A0K4S0", "twitter": "None", "instagram": "None", "facebook": "None", "youtube": "None", "website": "None", "summary": "None", "logo": "None", "latitude": 51.372690000000034, "longitude": -55.597039999999936}, "838731230RR0001": {"name": "St. Anthony Coptic Orthodox Monastery of Eastern Ontario", "designationCode": "C", "categoryCode": "46", "address": "1081 CADBORO RD", "city": "GLOUCESTER", "province": "ON", "country": "CA", "postalCode": "K1J7T8", "twitter": "None", "instagram": "None", "facebook": "None", "youtube": "None", "website": "None", "summary": "None", "logo": "None", "latitude": 45.43271886652417, "longitude": -75.62185052461251}, "107910259RR0020": {"name": "St. Anthony's Parish", "designationCode": "C", "categoryCode": "38", "address": "1041 BLOOR ST WEST", "city": "TORONTO", "province": "ON", "country": "CA", "postalCode": "M6H1M4", "twitter": "None", "instagram": "None", "facebook": "None", "youtube": "None", "website": "None", "summary": "None", "logo": "None", "latitude": 43.660638860378675, "longitude": -79.43159625644876}, "108008731RR0001": {"name": "St. Archangel Michael Free Serbian Orthodox Church", "designationCode": "C", "categoryCode": "39", "address": "7837 CANADA WAY", "city": "BURNABY", "province": "BC", "country": "CA", "postalCode": "V3N3K8", "twitter": "None", "instagram": "None", "facebook": "None", "youtube": "None", "website": "None", "summary": "None", "logo": "None", "latitude": 49.21781330945245, "longitude": -122.9327915429048}, "108009838RR0002": {"name": "St. Augustine of Canterbury", "designationCode": "C", "categoryCode": "30", "address": "5145 WYANDOTTE STREET EAST", "city": "WINDSOR", "province": "ON", "country": "CA", "postalCode": "N8S1L3", "twitter": "None", "instagram": "None", "facebook": "None", "youtube": "None", "website": "None", "summary": "None", "logo": "None", "latitude": 42.32737979430459, "longitude": -82.97469674825444}, "108084658RR0127": {"name": "St. Augustine's Church Drummond", "designationCode": "C", "categoryCode": "30", "address": "12 HARVEY ST", "city": "PERTH", "province": "ON", "country": "CA", "postalCode": "K7H1W4", "twitter": "None", "instagram": "None", "facebook": "None", "youtube": "None", "website": "None", "summary": "None", "logo": "None", "latitude": 44.899560504010715, "longitude": -76.24492643323342}, "852191683RR0001": {"name": "St. Augustine's Seminary of Toronto", "designationCode": "C", "categoryCode": "20", "address": "2661 KINGSTON ROAD", "city": "SCARBOROUGH", "province": "ON", "country": "CA", "postalCode": "M1M1M3", "twitter": "None", "instagram": "None", "facebook": "None", "youtube": "None", "website": "None", "summary": "None", "logo": "None", "latitude": 43.71557727563129, "longitude": -79.24317754791616}, "851389759RR0001": {"name": "St. Barnabas Anglican Missions Inc.", "designationCode": "C", "categoryCode": "30", "address": "306 DUNCOMBE RD               RR 5", "city": "WATERFORD", "province": "ON", "country": "CA", "postalCode": "N0E1Y0", "twitter": "None", "instagram": "None", "facebook": "None", "youtube": "None", "website": "None", "summary": "None", "logo": "None", "latitude": 42.92562463780367, "longitude": -80.28160933498766}, "106880107RR0036": {"name": "St. Barra Parish", "designationCode": "C", "categoryCode": "38", "address": "2579 ST COLUMBA RD", "city": "IONA", "province": "NS", "country": "CA", "postalCode": "B2C1A8", "twitter": "None", "instagram": "None", "facebook": "None", "youtube": "None", "website": "None", "summary": "None", "logo": "None", "latitude": 45.962199, "longitude": -60.80515092904982}, "107910259RR0162": {"name": "St. Bartholomew's Parish", "designationCode": "C", "categoryCode": "38", "address": "59 HEATHER RD", "city": "SCARBOROUGH", "province": "ON", "country": "CA", "postalCode": "M1S2E2", "twitter": "None", "instagram": "None", "facebook": "None", "youtube": "None", "website": "None", "summary": "None", "logo": "None", "latitude": 43.79042889976369, "longitude": -79.27042545723943}, "107909939RR0094": {"name": "St. Basil's Melkite Greek Catholic Church", "designationCode": "C", "categoryCode": "38", "address": "120 17 AVE SW", "city": "CALGARY", "province": "AB", "country": "CA", "postalCode": "T2S2T2", "twitter": "None", "instagram": "None", "facebook": "None", "youtube": "None", "website": "None", "summary": "None", "logo": "None", "latitude": 51.03784552596791, "longitude": -114.06513149999999}, "107910259RR0022": {"name": "St. Basil's Parish", "designationCode": "C", "categoryCode": "38", "address": "50 ST-JOSEPH ST", "city": "TORONTO", "province": "ON", "country": "CA", "postalCode": "M5S1J4", "twitter": "None", "instagram": "None", "facebook": "None", "youtube": "None", "website": "None", "summary": "None", "logo": "None", "latitude": 43.6655071329849, "longitude": -79.38830671039862}, "838305803RR0001": {"name": "St. Bede's Incorporated", "designationCode": "B", "categoryCode": "30", "address": "GENERAL DELIVERY KINOSOTA", "city": "KINOSOTA", "province": "MB", "country": "CA", "postalCode": "R0H0L0", "twitter": "None", "instagram": "None", "facebook": "None", "youtube": "None", "website": "None", "summary": "None", "logo": "None", "latitude": 50.90538300000006, "longitude": -98.87013349999994}, "817049190RR0001": {"name": "St. Benedict the Public Association of the Faithful (Edmonton)", "designationCode": "C", "categoryCode": "39", "address": "5136 - 54 AVENUE", "city": "MUNDARE", "province": "AB", "country": "CA", "postalCode": "T0B3H0", "twitter": "None", "instagram": "None", "facebook": "None", "youtube": "None", "website": "None", "summary": "None", "logo": "None", "latitude": 53.59730278270513, "longitude": -112.34093270840806}, "119110450RR0132": {"name": "St. Benedict Parish, Milton, Ontario", "designationCode": "C", "categoryCode": "38", "address": "1069 KELMAN COURT", "city": "MILTON", "province": "ON", "country": "CA", "postalCode": "L9T2W3", "twitter": "None", "instagram": "None", "facebook": "None", "youtube": "None", "website": "None", "summary": "None", "logo": "None", "latitude": 43.50171715258114, "longitude": -79.84567039322178}, "106880073RR0037": {"name": "St. Benedict's and St. Theresa's Parish", "designationCode": "C", "categoryCode": "38", "address": "2607 27 ST", "city": "VERNON", "province": "BC", "country": "CA", "postalCode": "V1T4W1", "twitter": "None", "instagram": "None", "facebook": "None", "youtube": "None", "website": "None", "summary": "None", "logo": "None", "latitude": 50.261949922009364, "longitude": -119.26654052132295}, "107910259RR0034": {"name": "St. Benedict's Parish", "designationCode": "C", "categoryCode": "38", "address": "2194 KIPLING AVENUE", "city": "TORONTO", "province": "ON", "country": "CA", "postalCode": "M9W4K9", "twitter": "None", "instagram": "None", "facebook": "None", "youtube": "None", "website": "None", "summary": "None", "logo": "None", "latitude": 43.72280385039535, "longitude": -79.57204174634985}, "107910259RR0107": {"name": "St. Bernadette's Parish", "designationCode": "C", "categoryCode": "38", "address": "21 BAYLY ST EAST AT HARWOOD", "city": "AJAX", "province": "ON", "country": "CA", "postalCode": "L1S1P2", "twitter": "None", "instagram": "None", "facebook": "None", "youtube": "None", "website": "None", "summary": "None", "logo": "None", "latitude": 43.844021999999995, "longitude": -79.0182225}, "107910259RR0035": {"name": "St. Bernard de Clairvaux Parish", "designationCode": "C", "categoryCode": "38", "address": "1789 LAWRENCE AVE W.", "city": "TORONTO", "province": "ON", "country": "CA", "postalCode": "M6L1E3", "twitter": "None", "instagram": "None", "facebook": "None", "youtube": "None", "website": "None", "summary": "None", "logo": "None", "latitude": 43.70345683816167, "longitude": -79.5006148262451}, "783201080RR0001": {"name": "St. Blaise Roman Catholic Parish", "designationCode": "C", "categoryCode": "38", "address": "PO BOX 209", "city": "LAKE ALMA", "province": "SK", "country": "CA", "postalCode": "S0C1M0", "twitter": "None", "instagram": "None", "facebook": "None", "youtube": "None", "website": "None", "summary": "None", "logo": "None", "latitude": 49.15006000000005, "longitude": -104.20101999999997}, "107910259RR0036": {"name": "St. Bonaventure's Parish", "designationCode": "C", "categoryCode": "38", "address": "1300 LESLIE STREET", "city": "DON MILLS", "province": "ON", "country": "CA", "postalCode": "M3C2K9", "twitter": "None", "instagram": "None", "facebook": "None", "youtube": "None", "website": "None", "summary": "None", "logo": "None", "latitude": 43.73182985483875, "longitude": -79.35532342273049}, "119169639RR0001": {"name": "St. Boniface Hospital Foundation Inc.", "designationCode": "C", "categoryCode": "13", "address": "C1026-409 TACHE AVE", "city": "WINNIPEG", "province": "MB", "country": "CA", "postalCode": "R2H2A6", "twitter": "None", "instagram": "None", "facebook": "None", "youtube": "None", "website": "None", "summary": "None", "logo": "None", "latitude": 49.88406859893824, "longitude": -97.12368486190692}, "107910259RR0003": {"name": "St. Boniface Parish", "designationCode": "C", "categoryCode": "38", "address": "21 MARKANNA DR", "city": "SCARBOROUGH", "province": "ON", "country": "CA", "postalCode": "M1M2H9", "twitter": "None", "instagram": "None", "facebook": "None", "youtube": "None", "website": "None", "summary": "None", "logo": "None", "latitude": 43.74055886037866, "longitude": -79.21806484456695}, "891490864RR0001": {"name": "St. Brendan's Chapel Ecumenical", "designationCode": "A", "categoryCode": "39", "address": "BUILDING S-90                 PO BOX 99000 STN FORCES", "city": "HALIFAX", "province": "NS", "country": "CA", "postalCode": "B3K5X5", "twitter": "None", "instagram": "None", "facebook": "None", "youtube": "None", "website": "None", "summary": "None", "logo": "None", "latitude": 44.645478000000054, "longitude": -63.576552499999934}, "834063505RR0001": {"name": "St. Brieux Manor Inc.", "designationCode": "C", "categoryCode": "09", "address": "300 MAIN STREET               P.O. BOX 149", "city": "ST. BRIEUX", "province": "SK", "country": "CA", "postalCode": "S0K3V0", "twitter": "None", "instagram": "None", "facebook": "None", "youtube": "None", "website": "None", "summary": "None", "logo": "None", "latitude": 52.63468697776623, "longitude": -104.88932977939616}, "107910259RR0037": {"name": "St. Brigid's Parish", "designationCode": "C", "categoryCode": "38", "address": "300 WOLVERLEIGH BLVD.", "city": "TORONTO", "province": "ON", "country": "CA", "postalCode": "M4C1S6", "twitter": "None", "instagram": "None", "facebook": "None", "youtube": "None", "website": "None", "summary": "None", "logo": "None", "latitude": 43.6864312018003, "longitude": -79.31757883847877}, "107910259RR0038": {"name": "St. Casimir's Parish", "designationCode": "C", "categoryCode": "38", "address": "156 RONCESVALLES AVE", "city": "TORONTO", "province": "ON", "country": "CA", "postalCode": "M6R2L4", "twitter": "None", "instagram": "None", "facebook": "None", "youtube": "None", "website": "None", "summary": "None", "logo": "None", "latitude": 43.644078880373975, "longitude": -79.44821385333819}, "107396905RR0083": {"name": "St. Catharines Foursquare Gospel Church", "designationCode": "C", "categoryCode": "39", "address": "202 PELHAM ROAD", "city": "ST. CATHARINES", "province": "ON", "country": "CA", "postalCode": "L2S1W2", "twitter": "None", "instagram": "None", "facebook": "None", "youtube": "None", "website": "None", "summary": "None", "logo": "None", "latitude": 43.13422786317728, "longitude": -79.25418845325738}, "131664377RR0001": {"name": "St. Catharines Mainstream Non-Profit Housing Project", "designationCode": "C", "categoryCode": "09", "address": "263 PELHAM ROAD", "city": "ST.CATHARINES", "province": "ON", "country": "CA", "postalCode": "L2S1X7", "twitter": "None", "instagram": "None", "facebook": "None", "youtube": "None", "website": "None", "summary": "None", "logo": "None", "latitude": 43.13139337965281, "longitude": -79.25741894959339}, "107396905RR0079": {"name": "St. Catharines NewVida Foursquare Gospel Church", "designationCode": "C", "categoryCode": "39", "address": "89 SCOTT ST", "city": "ST CATHARINES", "province": "ON", "country": "CA", "postalCode": "L2N1G8", "twitter": "None", "instagram": "None", "facebook": "None", "youtube": "None", "website": "None", "summary": "None", "logo": "None", "latitude": 43.17920543473303, "longitude": -79.25626443193443}, "809066251RR0001": {"name": "St. Catharines Seniors Apartments Phase Three Inc.", "designationCode": "C", "categoryCode": "09", "address": "87 LAKE ST.", "city": "ST. CATHARINES", "province": "ON", "country": "CA", "postalCode": "L2R6Z4", "twitter": "None", "instagram": "None", "facebook": "None", "youtube": "None", "website": "None", "summary": "None", "logo": "None", "latitude": 43.16371096280801, "longitude": -79.25068011368208}, "131952376RR0009": {"name": "St. Catharines Worship Centre", "designationCode": "C", "categoryCode": "39", "address": "28 EAST 23RD STREET", "city": "HAMILTON", "province": "ON", "country": "CA", "postalCode": "L8V2W6", "twitter": "None", "instagram": "None", "facebook": "None", "youtube": "None", "website": "None", "summary": "None", "logo": "None", "latitude": 43.23962907464381, "longitude": -79.85139681966339}, "107910259RR0120": {"name": "St. Catherine of Siena Parish", "designationCode": "C", "categoryCode": "38", "address": "ST. CATHERINE OF SIENA CHURCH 2340 HURONTARIO ST", "city": "MISSISSAUGA", "province": "ON", "country": "CA", "postalCode": "L5B1N1", "twitter": "None", "instagram": "None", "facebook": "None", "youtube": "None", "website": "None", "summary": "None", "logo": "None", "latitude": 43.57521000000003, "longitude": -79.60932999999994}, "119110450RR0135": {"name": "St. Catherine of Siena Parish", "designationCode": "C", "categoryCode": "38", "address": "416 MOHAWK RD E", "city": "HAMILTON", "province": "ON", "country": "CA", "postalCode": "L8V2H7", "twitter": "None", "instagram": "None", "facebook": "None", "youtube": "None", "website": "None", "summary": "None", "logo": "None", "latitude": 43.22304189976369, "longitude": -79.85891051292617}, "107910259RR0239": {"name": "St. Cecilia's Parish", "designationCode": "C", "categoryCode": "38", "address": "161 ANNETTE ST", "city": "TORONTO", "province": "ON", "country": "CA", "postalCode": "M6P1P5", "twitter": "None", "instagram": "None", "facebook": "None", "youtube": "None", "website": "None", "summary": "None", "logo": "None", "latitude": 43.66331683816166, "longitude": -79.46708582915929}, "107910259RR0040": {"name": "St. Charles Borromeo Parish", "designationCode": "C", "categoryCode": "38", "address": "811 LAWRENCE AVE WEST", "city": "TORONTO", "province": "ON", "country": "CA", "postalCode": "M6A1C3", "twitter": "None", "instagram": "None", "facebook": "None", "youtube": "None", "website": "None", "summary": "None", "logo": "None", "latitude": 43.713940758237776, "longitude": -79.45537615292288}, "811093103RR0001": {"name": "St. Charles Garnier Columbus Charity Society", "designationCode": "C", "categoryCode": "09", "address": "3645 BENVOULIN RD", "city": "KELOWNA", "province": "BC", "country": "CA", "postalCode": "V1W4M7", "twitter": "None", "instagram": "None", "facebook": "None", "youtube": "None", "website": "None", "summary": "None", "logo": "None", "latitude": 49.851220138194854, "longitude": -119.4672633614483}, "107910259RR0119": {"name": "St. Christopher's Parish", "designationCode": "C", "categoryCode": "38", "address": "1171 CLARKSON RD NORTH", "city": "MISSISSAUGA", "province": "ON", "country": "CA", "postalCode": "L5J2W1", "twitter": "None", "instagram": "None", "facebook": "None", "youtube": "None", "website": "None", "summary": "None", "logo": "None", "latitude": 43.520569037509105, "longitude": -79.62824539018439}, "808432298RR0001": {"name": "St. Clair Community Church", "designationCode": "C", "categoryCode": "39", "address": "P.O.BOX 114", "city": "SOMBRA", "province": "ON", "country": "CA", "postalCode": "N0P2H0", "twitter": "None", "instagram": "None", "facebook": "None", "youtube": "None", "website": "None", "summary": "None", "logo": "None", "latitude": 42.71417000000008, "longitude": -82.47841999999997}, "828840074RR0001": {"name": "St. Clare's - Monaco Place", "designationCode": "C", "categoryCode": "09", "address": "138 PEARS AVE-B4", "city": "TORONTO", "province": "ON", "country": "CA", "postalCode": "M5R3K6", "twitter": "None", "instagram": "None", "facebook": "None", "youtube": "None", "website": "None", "summary": "None", "logo": "None", "latitude": 43.675339157943206, "longitude": -79.39800567805408}, "119170777RR0001": {"name": "St. Clare's Mercy Hospital Auxiliary", "designationCode": "C", "categoryCode": "19", "address": "154 LEMARCHANT ROAD           ROOM S-216C", "city": "ST. JOHN'S", "province": "NL", "country": "CA", "postalCode": "A1C5B8", "twitter": "None", "instagram": "None", "facebook": "None", "youtube": "None", "website": "None", "summary": "None", "logo": "None", "latitude": 47.55837868832598, "longitude": -52.71982887995614}, "107910259RR0042": {"name": "St. Clare's Parish", "designationCode": "C", "categoryCode": "38", "address": "133 WESTMOUNT AVENUE", "city": "TORONTO", "province": "ON", "country": "CA", "postalCode": "M6E3M6", "twitter": "None", "instagram": "None", "facebook": "None", "youtube": "None", "website": "None", "summary": "None", "logo": "None", "latitude": 43.67886042215359, "longitude": -79.4421798287266}, "123000226RR0001": {"name": "St. Claude Community Centre Inc.", "designationCode": "C", "categoryCode": "56", "address": "BOX 189", "city": "ST CLAUDE", "province": "MB", "country": "CA", "postalCode": "R0G1Z0", "twitter": "None", "instagram": "None", "facebook": "None", "youtube": "None", "website": "None", "summary": "None", "logo": "None", "latitude": 49.65375240493102, "longitude": -98.34234710777315}, "108011990RR0001": {"name": "St. Columba Presbyterian Church", "designationCode": "C", "categoryCode": "37", "address": "520 BRIDGE ST E", "city": "BELLEVILLE", "province": "ON", "country": "CA", "postalCode": "K8N1A6", "twitter": "None", "instagram": "None", "facebook": "None", "youtube": "None", "website": "None", "summary": "None", "logo": "None", "latitude": 44.17153224932188, "longitude": -77.35048146120559}, "107910259RR0147": {"name": "St. Columbkille's Parish", "designationCode": "C", "categoryCode": "38", "address": "115 WEST STREET NORTH", "city": "ORILLIA", "province": "ON", "country": "CA", "postalCode": "L3V5C4", "twitter": "None", "instagram": "None", "facebook": "None", "youtube": "None", "website": "None", "summary": "None", "logo": "None", "latitude": 44.61141375019598, "longitude": -79.42232368801953}, "124275637RR0001": {"name": "St. Croix Vocational Centre Inc.", "designationCode": "C", "categoryCode": "59", "address": "129 UNION ST.", "city": "ST. STEPHEN", "province": "NB", "country": "CA", "postalCode": "E3L1V9", "twitter": "None", "instagram": "None", "facebook": "None", "youtube": "None", "website": "None", "summary": "None", "logo": "None", "latitude": 45.194721417767504, "longitude": -67.29127773729017}, "129144549RR0047": {"name": "St. David's Church Celista, BC", "designationCode": "C", "categoryCode": "30", "address": "5518 SQUILAX-ANGLEMONT RD", "city": "CELISTA", "province": "BC", "country": "CA", "postalCode": "V0E1M6", "twitter": "None", "instagram": "None", "facebook": "None", "youtube": "None", "website": "None", "summary": "None", "logo": "None", "latitude": 50.946149409455785, "longitude": -119.33635718093493}, "107910259RR0207": {"name": "St. David's Parish", "designationCode": "C", "categoryCode": "38", "address": "2601 MAJOR MACKENZIE DRIVE", "city": "MAPLE", "province": "ON", "country": "CA", "postalCode": "L6A1C6", "twitter": "None", "instagram": "None", "facebook": "None", "youtube": "None", "website": "None", "summary": "None", "logo": "None", "latitude": 43.852417445458265, "longitude": -79.52400730643355}, "108012535RR0001": {"name": "St. David's United Church", "designationCode": "C", "categoryCode": "44", "address": "4614 48 ST", "city": "LEDUC", "province": "AB", "country": "CA", "postalCode": "T9E5X7", "twitter": "None", "instagram": "None", "facebook": "None", "youtube": "None", "website": "None", "summary": "None", "logo": "None", "latitude": 53.2620451784581, "longitude": -113.54755019279791}, "811769033RR0001": {"name": "St. Dismas Prison Ministry Society", "designationCode": "C", "categoryCode": "59", "address": "2519 MORRIS CRESCENT", "city": "AIRDRIE", "province": "AB", "country": "CA", "postalCode": "T4A2B8", "twitter": "None", "instagram": "None", "facebook": "None", "youtube": "None", "website": "None", "summary": "None", "logo": "None", "latitude": 51.27290549321933, "longitude": -113.97917274173358}, "107910259RR0137": {"name": "St. Dominic's Parish", "designationCode": "C", "categoryCode": "38", "address": "625 ATWATER AVE", "city": "MISSISSAUGA", "province": "ON", "country": "CA", "postalCode": "L5G2A8", "twitter": "None", "instagram": "None", "facebook": "None", "youtube": "None", "website": "None", "summary": "None", "logo": "None", "latitude": 43.57411175881469, "longitude": -79.57388390328346}}