{"819746082RR0001": {"name": "Destiny International Christian Assembly Canada", "designationCode": "C", "categoryCode": "39", "address": "212 MORRISON DRIVE", "city": "YORKTON", "province": "SK", "country": "CA", "postalCode": "S3N4A1", "twitter": "None", "instagram": "None", "facebook": "None", "youtube": "None", "website": "None", "summary": "None", "logo": "None", "latitude": 51.216633575913185, "longitude": -102.43203581903173}, "809470370RR0001": {"name": "Destiny Ministries International - Toronto", "designationCode": "C", "categoryCode": "39", "address": "3364 KINGSTON RD", "city": "SCARBOROUGH", "province": "ON", "country": "CA", "postalCode": "M1M1R2", "twitter": "None", "instagram": "None", "facebook": "None", "youtube": "None", "website": "None", "summary": "None", "logo": "None", "latitude": 43.73538527283737, "longitude": -79.22104123371216}, "832896609RR0001": {"name": "Detour Gold Foundation", "designationCode": "B", "categoryCode": "05", "address": "4100-199 BAY STREET           PO BOX 121,COMMERCE COURT WEST", "city": "TORONTO", "province": "ON", "country": "CA", "postalCode": "M5L1E2", "twitter": "None", "instagram": "None", "facebook": "None", "youtube": "None", "website": "None", "summary": "None", "logo": "None", "latitude": 43.648121220381945, "longitude": -79.38003052423714}, "850805458RR0001": {"name": "Deuil 02", "designationCode": "C", "categoryCode": "09", "address": "02-497, RUE RACINE", "city": "CHICOUTIMI", "province": "QC", "country": "CA", "postalCode": "G7H1T8", "twitter": "None", "instagram": "None", "facebook": "None", "youtube": "None", "website": "None", "summary": "None", "logo": "None", "latitude": 48.42874338776021, "longitude": -71.05299344477461}, "825887177RR0001": {"name": "Deuil-Jeunesse", "designationCode": "C", "categoryCode": "09", "address": "8007, BOULEVARD MATHIEU", "city": "QU\u00c9BEC", "province": "QC", "country": "CA", "postalCode": "G1G3M1", "twitter": "None", "instagram": "None", "facebook": "None", "youtube": "None", "website": "None", "summary": "None", "logo": "None", "latitude": 46.86660098528482, "longitude": -71.26254915113387}, "808873533RR0001": {"name": "Deutsche Mennoniten Bruedergemeinde Steinbach Inc.", "designationCode": "C", "categoryCode": "34", "address": "223 DEERFOOT TRAIL            BOX 21194", "city": "STEINBACH", "province": "MB", "country": "CA", "postalCode": "R5G1S5", "twitter": "None", "instagram": "None", "facebook": "None", "youtube": "None", "website": "None", "summary": "None", "logo": "None", "latitude": 49.52572800000006, "longitude": -96.68393449999994}, "809647159RR0001": {"name": "Developing Scholars: Supporting Education in Developing Countries Inc.", "designationCode": "C", "categoryCode": "21", "address": "1007 - 3018 YONGE ST", "city": "TORONTO", "province": "ON", "country": "CA", "postalCode": "M4N0A5", "twitter": "None", "instagram": "None", "facebook": "None", "youtube": "None", "website": "None", "summary": "None", "logo": "None", "latitude": 43.724191463500496, "longitude": -79.40205655678326}, "822327151RR0001": {"name": "Developing World Partnerships", "designationCode": "C", "categoryCode": "09", "address": "2101 ROUTE 11", "city": "SUMMERSIDE", "province": "PE", "country": "CA", "postalCode": "C1N4J8", "twitter": "None", "instagram": "None", "facebook": "None", "youtube": "None", "website": "None", "summary": "None", "logo": "None", "latitude": 46.414765980841416, "longitude": -63.847990529286136}, "106830060RR0001": {"name": "Developmental Disabilities Resource Centre of Calgary", "designationCode": "C", "categoryCode": "11", "address": "4631 RICHARDSON WAY SW", "city": "CALGARY", "province": "AB", "country": "CA", "postalCode": "T3E7B7", "twitter": "None", "instagram": "None", "facebook": "None", "youtube": "None", "website": "None", "summary": "None", "logo": "None", "latitude": 51.01370446747259, "longitude": -114.13618471976287}, "107017204RR0001": {"name": "Devon Alliance Church of the Christian and Missionary Alliance", "designationCode": "C", "categoryCode": "39", "address": "201 MIQUELON AVENUE", "city": "DEVON", "province": "AB", "country": "CA", "postalCode": "T9G0L8", "twitter": "None", "instagram": "None", "facebook": "None", "youtube": "None", "website": "None", "summary": "None", "logo": "None"}, "739409290RR0001": {"name": "Devon Historical Society", "designationCode": "C", "categoryCode": "50", "address": "2 KAWARTHA ST", "city": "DEVON", "province": "AB", "country": "CA", "postalCode": "T9G1B7", "twitter": "None", "instagram": "None", "facebook": "None", "youtube": "None", "website": "None", "summary": "None", "logo": "None", "latitude": 53.368029734375995, "longitude": -113.72656606013014}, "851022202RR0001": {"name": "Devon R. B. Clifford Memorial Foundation", "designationCode": "B", "categoryCode": "22", "address": "35867 HEATHERSTONE PL", "city": "ABBOTSFORD", "province": "BC", "country": "CA", "postalCode": "V3G1E6", "twitter": "None", "instagram": "None", "facebook": "None", "youtube": "None", "website": "None", "summary": "None", "logo": "None", "latitude": 49.04344868181854, "longitude": -122.23159753550412}, "118884873RR0001": {"name": "Devon United Church, A Congregation of the United Church of Canada", "designationCode": "C", "categoryCode": "44", "address": "2 ST. CLAIR STREET", "city": "DEVON", "province": "AB", "country": "CA", "postalCode": "T9G1J3", "twitter": "None", "instagram": "None", "facebook": "None", "youtube": "None", "website": "None", "summary": "None", "logo": "None", "latitude": 53.36323200000001, "longitude": -113.72487751780226}, "815921010RR0001": {"name": "Devoted Ministries Inc.", "designationCode": "C", "categoryCode": "36", "address": "440 RICHMOND AVENUE", "city": "BRANDON", "province": "MB", "country": "CA", "postalCode": "R7A6E9", "twitter": "None", "instagram": "None", "facebook": "None", "youtube": "None", "website": "None", "summary": "None", "logo": "None", "latitude": 49.827277455048886, "longitude": -99.94372460521171}, "845664085RR0001": {"name": "Devries Family Foundation", "designationCode": "B", "categoryCode": "03", "address": "206 - 1353 ELLIS ST", "city": "KELOWNA", "province": "BC", "country": "CA", "postalCode": "V1Y1Z9", "twitter": "None", "instagram": "None", "facebook": "None", "youtube": "None", "website": "None", "summary": "None", "logo": "None", "latitude": 49.89006891618098, "longitude": -119.493498334959}, "850430810RR0001": {"name": "Dhammakaya International Meditation Society of B.C.", "designationCode": "C", "categoryCode": "35", "address": "3331 CAPELLA PL", "city": "RICHMOND", "province": "BC", "country": "CA", "postalCode": "V6X3N3", "twitter": "None", "instagram": "None", "facebook": "None", "youtube": "None", "website": "None", "summary": "None", "logo": "None", "latitude": 49.188793075768956, "longitude": -123.11951274052147}, "826969172RR0001": {"name": "Dhammanjali Meditation Center", "designationCode": "C", "categoryCode": "35", "address": "902A RAE ST", "city": "REGINA", "province": "SK", "country": "CA", "postalCode": "S4T2B4", "twitter": "None", "instagram": "None", "facebook": "None", "youtube": "None", "website": "None", "summary": "None", "logo": "None", "latitude": 50.46439865593537, "longitude": -104.62113777359932}, "857904981RR0001": {"name": "Dharma Vardhiny Sabha", "designationCode": "C", "categoryCode": "09", "address": "710 - 360 BELL ST S", "city": "OTTAWA", "province": "ON", "country": "CA", "postalCode": "K1S5E8", "twitter": "None", "instagram": "None", "facebook": "None", "youtube": "None", "website": "None", "summary": "None", "logo": "None", "latitude": 45.40133700000001, "longitude": -75.70283175}, "845414143RR0001": {"name": "Dharmic Cultural Centre", "designationCode": "C", "categoryCode": "48", "address": "76 ROBSON AVENUE", "city": "CAMBRIDGE", "province": "ON", "country": "CA", "postalCode": "N3C3T4", "twitter": "None", "instagram": "None", "facebook": "None", "youtube": "None", "website": "None", "summary": "None", "logo": "None", "latitude": 43.38569593308921, "longitude": -80.29946659740904}, "140892506RR0001": {"name": "Diab\u00e8te Brome-Missisquoi (DBM)", "designationCode": "C", "categoryCode": "11", "address": "5225, MONTEE ST-HUBERT", "city": "ST-HUBERT", "province": "QC", "country": "CA", "postalCode": "J3Y1V8", "twitter": "None", "instagram": "None", "facebook": "None", "youtube": "None", "website": "None", "summary": "None", "logo": "None", "latitude": 45.48178663890019, "longitude": -73.44476748138968}, "863506051RR0001": {"name": "Diab\u00e8te Rive Nord", "designationCode": "C", "categoryCode": "11", "address": "CP 41041 CSP LACHENAIE", "city": "TERREBONNE", "province": "QC", "country": "CA", "postalCode": "J6V0C8", "twitter": "None", "instagram": "None", "facebook": "None", "youtube": "None", "website": "None", "summary": "None", "logo": "None", "latitude": 45.701730000000055, "longitude": -73.56339999999994}, "857321152RR0001": {"name": "Diab\u00e8te Val-d'Or inc.", "designationCode": "C", "categoryCode": "11", "address": "605 DU RIVAGE                 CP 444", "city": "VAL D'OR", "province": "QC", "country": "CA", "postalCode": "J9P6C2", "twitter": "None", "instagram": "None", "facebook": "None", "youtube": "None", "website": "None", "summary": "None", "logo": "None", "latitude": 48.12372952510254, "longitude": -77.78224349999999}, "819247420RR0001": {"name": "Dialogue of Faith Church of Canada", "designationCode": "C", "categoryCode": "39", "address": "149 JONAS MILLWAY", "city": "STOUFFVILLE", "province": "ON", "country": "CA", "postalCode": "L4A0M9", "twitter": "None", "instagram": "None", "facebook": "None", "youtube": "None", "website": "None", "summary": "None", "logo": "None", "latitude": 43.965138929222725, "longitude": -79.23203952112047}, "811058643RR0001": {"name": "Dialogue sciences et politiques / Science & Policy Exchange", "designationCode": "C", "categoryCode": "21", "address": "3650, RUE MCTAVISH", "city": "MONTREAL", "province": "QC", "country": "CA", "postalCode": "H3A1Y2", "twitter": "None", "instagram": "None", "facebook": "None", "youtube": "None", "website": "None", "summary": "None", "logo": "None", "latitude": 45.50413701220502, "longitude": -73.5788358537422}, "806378659RR0001": {"name": "Diamond Blackfan Anemia Canada", "designationCode": "B", "categoryCode": "11", "address": "67 YOUNG CRT", "city": "ORANGEVILLE", "province": "ON", "country": "CA", "postalCode": "L9W0A8", "twitter": "None", "instagram": "None", "facebook": "None", "youtube": "None", "website": "None", "summary": "None", "logo": "None", "latitude": 43.89357461945314, "longitude": -80.11716005661037}, "851199083RR0001": {"name": "Diamond C Cowboy Church Inc.", "designationCode": "C", "categoryCode": "39", "address": "BOX 1136", "city": "MAPLE CREEK", "province": "SK", "country": "CA", "postalCode": "S0N1N0", "twitter": "None", "instagram": "None", "facebook": "None", "youtube": "None", "website": "None", "summary": "None", "logo": "None", "latitude": 49.91416000000004, "longitude": -109.46959999999996}, "841883606RR0001": {"name": "Diamond Development Initiative Canada / L'initiative diamant et d\u00e9veloppement Canada", "designationCode": "C", "categoryCode": "09", "address": "SUITE 1516A                   1 NICHOLAS STREET", "city": "OTTAWA", "province": "ON", "country": "CA", "postalCode": "K1N7B7", "twitter": "None", "instagram": "None", "facebook": "None", "youtube": "None", "website": "None", "summary": "None", "logo": "None", "latitude": 45.4263641759766, "longitude": -75.69026080319138}, "859383184RR0001": {"name": "Diamond Jubilee International Charitable Trust", "designationCode": "C", "categoryCode": "21", "address": "18 WESTWOOD LANE", "city": "RICHMOND HILL", "province": "ON", "country": "CA", "postalCode": "L4C6X9", "twitter": "None", "instagram": "None", "facebook": "None", "youtube": "None", "website": "None", "summary": "None", "logo": "None", "latitude": 43.843712194586935, "longitude": -79.43395669637593}, "827335159RR0001": {"name": "Dianne and Russ Fast Family Foundation Inc.", "designationCode": "B", "categoryCode": "03", "address": "88 OLD TOM ROAD", "city": "STEINBACH", "province": "MB", "country": "CA", "postalCode": "R5G0P8", "twitter": "None", "instagram": "None", "facebook": "None", "youtube": "None", "website": "None", "summary": "None", "logo": "None", "latitude": 49.54016827347266, "longitude": -96.66560657687587}, "851305748RR0001": {"name": "Diaspora Film Festival Group", "designationCode": "C", "categoryCode": "22", "address": "21 WATFORD AVENUE", "city": "TORONTO", "province": "ON", "country": "CA", "postalCode": "M6C1G4", "twitter": "None", "instagram": "None", "facebook": "None", "youtube": "None", "website": "None", "summary": "None", "logo": "None", "latitude": 43.6817698859139, "longitude": -79.43262756327547}, "133673012RR0001": {"name": "Didsbury Municipal Library Board", "designationCode": "C", "categoryCode": "50", "address": "BOX 10", "city": "DIDSBURY", "province": "AB", "country": "CA", "postalCode": "T0M0W0", "twitter": "None", "instagram": "None", "facebook": "None", "youtube": "None", "website": "None", "summary": "None", "logo": "None", "latitude": 51.662268, "longitude": -114.11970299999999}, "756220927RR0001": {"name": "Diena Charitable Trust", "designationCode": "A", "categoryCode": "03", "address": "4256 BATHURST STREET          UNIT 200", "city": "NORTH YORK", "province": "ON", "country": "CA", "postalCode": "M3H5Y8", "twitter": "None", "instagram": "None", "facebook": "None", "youtube": "None", "website": "None", "summary": "None", "logo": "None", "latitude": 43.75116532278265, "longitude": -79.43746856497758}, "119288918RR1718": {"name": "Dieppe Sign Language Congregation of Jehovah's Witnesses", "designationCode": "C", "categoryCode": "61", "address": "668 RUE CHAMPLAIN", "city": "DIEPPE", "province": "NB", "country": "CA", "postalCode": "E1A1P5", "twitter": "None", "instagram": "None", "facebook": "None", "youtube": "None", "website": "None", "summary": "None", "logo": "None", "latitude": 46.099826802094846, "longitude": -64.72659507340302}, "821597325RR0001": {"name": "Diffusion Inter-Livres", "designationCode": "C", "categoryCode": "47", "address": "1701 AV BELLEVILLE", "city": "LEMOYNE", "province": "QC", "country": "CA", "postalCode": "J4P3M2", "twitter": "None", "instagram": "None", "facebook": "None", "youtube": "None", "website": "None", "summary": "None", "logo": "None", "latitude": 45.51019018844144, "longitude": -73.49559074660965}, "131431587RR0001": {"name": "Diffusions Amal'Gamme Inc.", "designationCode": "C", "categoryCode": "56", "address": "794 RUE MAPLE CP 119", "city": "PREVOST", "province": "QC", "country": "CA", "postalCode": "J0R1T0", "twitter": "None", "instagram": "None", "facebook": "None", "youtube": "None", "website": "None", "summary": "None", "logo": "None"}, "822653291RR0001": {"name": "Digby Clare Mental Health Volunteers Association", "designationCode": "C", "categoryCode": "19", "address": "9 MONTEQUE ROW, #1            P.O. BOX 2245", "city": "DIGBY", "province": "NS", "country": "CA", "postalCode": "B0V1A0", "twitter": "None", "instagram": "None", "facebook": "None", "youtube": "None", "website": "None", "summary": "None", "logo": "None", "latitude": 44.39616000000005, "longitude": -66.20374249999993}, "119288918RR0095": {"name": "Digby Congregation of Jehovah's Witnesses, Digby, Nova Scotia", "designationCode": "C", "categoryCode": "61", "address": "PO BOX 422", "city": "DIGBY", "province": "NS", "country": "CA", "postalCode": "B0V1A0", "twitter": "None", "instagram": "None", "facebook": "None", "youtube": "None", "website": "None", "summary": "None", "logo": "None", "latitude": 44.39616000000005, "longitude": -66.20374249999993}, "840863393RR0001": {"name": "Dignity House Inc.", "designationCode": "C", "categoryCode": "01", "address": "1977 NORRIS RD", "city": "WINNIPEG", "province": "MB", "country": "CA", "postalCode": "R2G4C1", "twitter": "None", "instagram": "None", "facebook": "None", "youtube": "None", "website": "None", "summary": "None", "logo": "None", "latitude": 49.93893206630524, "longitude": -97.03719419862723}, "810542134RR0001": {"name": "Dik Tiy Housing Society", "designationCode": "C", "categoryCode": "09", "address": "PO BOX 4041", "city": "SMITHERS", "province": "BC", "country": "CA", "postalCode": "V0J2N0", "twitter": "None", "instagram": "None", "facebook": "None", "youtube": "None", "website": "None", "summary": "None", "logo": "None", "latitude": 54.78312000000005, "longitude": -127.16847999999999}, "847949096RR0001": {"name": "Diku Dilenga (Canada)", "designationCode": "C", "categoryCode": "09", "address": "137, BOUL. DU MONT-BLEU", "city": "GATINEAU", "province": "QC", "country": "CA", "postalCode": "J8Z1K2", "twitter": "None", "instagram": "None", "facebook": "None", "youtube": "None", "website": "None", "summary": "None", "logo": "None", "latitude": 45.4612875212074, "longitude": -75.75772183083272}, "848225439RR0001": {"name": "Dil Walk Foundation", "designationCode": "C", "categoryCode": "11", "address": "222 HAMPTONS GARDEN NORTHWEST", "city": "CALGARY", "province": "AB", "country": "CA", "postalCode": "T3A5X4", "twitter": "None", "instagram": "None", "facebook": "None", "youtube": "None", "website": "None", "summary": "None", "logo": "None", "latitude": 51.14509961726012, "longitude": -114.1452666691386}, "804908739RR0001": {"name": "Dim Sum Ensemble", "designationCode": "B", "categoryCode": "22", "address": "10520 YONGE STREET            UNIT 35B-258", "city": "RICHMOND HILL", "province": "ON", "country": "CA", "postalCode": "L4C3C7", "twitter": "None", "instagram": "None", "facebook": "None", "youtube": "None", "website": "None", "summary": "None", "logo": "None", "latitude": 43.884329428241756, "longitude": -79.44029823102817}, "837109123RR0001": {"name": "Dimension sportive et culturelle", "designationCode": "C", "categoryCode": "21", "address": "2652 RTE DES RIVIERES", "city": "LEVIS", "province": "QC", "country": "CA", "postalCode": "G6K1J6", "twitter": "None", "instagram": "None", "facebook": "None", "youtube": "None", "website": "None", "summary": "None", "logo": "None", "latitude": 46.69329330831137, "longitude": -71.28263541589314}, "854773660RR0001": {"name": "Dinamik, A Bristow Community Foundation", "designationCode": "B", "categoryCode": "03", "address": "69 MARTIN STREET", "city": "MILTON", "province": "ON", "country": "CA", "postalCode": "L9T2R3", "twitter": "None", "instagram": "None", "facebook": "None", "youtube": "None", "website": "None", "summary": "None", "logo": "None", "latitude": 43.51487118042001, "longitude": -79.88471351107984}, "755625092RR0001": {"name": "Dine to Donate", "designationCode": "A", "categoryCode": "03", "address": "PO BOX 19603 RPO MANULIFE", "city": "TORONTO", "province": "ON", "country": "CA", "postalCode": "M4W3T9", "twitter": "None", "instagram": "None", "facebook": "None", "youtube": "None", "website": "None", "summary": "None", "logo": "None", "latitude": 43.68204600000006, "longitude": -79.37818999999993}, "855299863RR0001": {"name": "Dinosaur Football's 5th Quarter Association", "designationCode": "C", "categoryCode": "21", "address": "8 MURRAY PLACE", "city": "CALGARY", "province": "AB", "country": "CA", "postalCode": "T3Z3L4", "twitter": "None", "instagram": "None", "facebook": "None", "youtube": "None", "website": "None", "summary": "None", "logo": "None", "latitude": 51.05333119545675, "longitude": -114.32264720528096}, "850464389RR0001": {"name": "Diocesan Franciscan Society", "designationCode": "C", "categoryCode": "09", "address": "6466 BAYERS ROAD", "city": "HALIFAX", "province": "NS", "country": "CA", "postalCode": "B3L2B1", "twitter": "None", "instagram": "None", "facebook": "None", "youtube": "None", "website": "None", "summary": "None", "logo": "None", "latitude": 44.65392149290221, "longitude": -63.611836173582006}, "821032364RR0001": {"name": "Directions Society: Center For Sacramental Vocation", "designationCode": "C", "categoryCode": "49", "address": "3205 27 ST", "city": "VERNON", "province": "BC", "country": "CA", "postalCode": "V1T4W8", "twitter": "None", "instagram": "None", "facebook": "None", "youtube": "None", "website": "None", "summary": "None", "logo": "None", "latitude": 50.26581916763806, "longitude": -119.26657851079139}, "860442771RR0001": {"name": "Directly Observed Therapy for Highly Active Antiretroviral Treatment (DOT for HAART) Society", "designationCode": "C", "categoryCode": "11", "address": "31 - 54519 RGE RD 273", "city": "STURGEON COUNTY", "province": "AB", "country": "CA", "postalCode": "T8R1X7", "twitter": "None", "instagram": "None", "facebook": "None", "youtube": "None", "website": "None", "summary": "None", "logo": "None", "latitude": 53.88339665312506, "longitude": -113.9424124781629}, "132258948RR0001": {"name": "Disabled Peoples' International", "designationCode": "C", "categoryCode": "59", "address": "UNIT 1 - 110 DIDSBURY RD", "city": "KANATA", "province": "ON", "country": "CA", "postalCode": "K2T0C2", "twitter": "None", "instagram": "None", "facebook": "None", "youtube": "None", "website": "None", "summary": "None", "logo": "None", "latitude": 45.30698768552725, "longitude": -75.91558132921661}, "839424629RR0001": {"name": "Disaster Animal Response Team of Nova Scotia Society", "designationCode": "C", "categoryCode": "54", "address": "200-14 COURT STREET           PO BOX 151", "city": "TRURO", "province": "NS", "country": "CA", "postalCode": "B2N3H7", "twitter": "None", "instagram": "None", "facebook": "None", "youtube": "None", "website": "None", "summary": "None", "logo": "None", "latitude": 45.36648428449414, "longitude": -63.287221370361046}, "840950315RR0001": {"name": "Discerning the Times Ministry", "designationCode": "C", "categoryCode": "49", "address": "PO BOX 57", "city": "ASQUITH", "province": "SK", "country": "CA", "postalCode": "S0K0J0", "twitter": "None", "instagram": "None", "facebook": "None", "youtube": "None", "website": "None", "summary": "None", "logo": "None", "latitude": 52.13273000000004, "longitude": -107.22944999999999}, "827767815RR0001": {"name": "Disciples de la derni\u00e8re moisson", "designationCode": "B", "categoryCode": "47", "address": "1693, RUE L\u00c9ON-BALCER", "city": "TROIS-RIVI\u00c8RES", "province": "QC", "country": "CA", "postalCode": "G8Y7E1", "twitter": "None", "instagram": "None", "facebook": "None", "youtube": "None", "website": "None", "summary": "None", "logo": "None", "latitude": 46.3776875323159, "longitude": -72.62575391243006}, "858842313RR0001": {"name": "Disciples for Christ Ministries Red Deer", "designationCode": "C", "categoryCode": "39", "address": "PO BOX 1003", "city": "RED DEER", "province": "AB", "country": "CA", "postalCode": "T4N6S5", "twitter": "None", "instagram": "None", "facebook": "None", "youtube": "None", "website": "None", "summary": "None", "logo": "None", "latitude": 52.26852300000006, "longitude": -113.80901299999994}, "118858000RR0001": {"name": "Disciples Women of the Milton Christian Church (Disciples of Christ)", "designationCode": "C", "categoryCode": "49", "address": "762 MEDWAY RIVER ROAD         RR#1", "city": "MILL VILLAGE", "province": "NS", "country": "CA", "postalCode": "B0J2H0", "twitter": "None", "instagram": "None", "facebook": "None", "youtube": "None", "website": "None", "summary": "None", "logo": "None", "latitude": 44.17312750375091, "longitude": -64.65938340409151}, "833455579RR0001": {"name": "Discipleship Christian Secondary School", "designationCode": "C", "categoryCode": "20", "address": "71 WEDGEWOOD DRIVE", "city": "KITCHENER", "province": "ON", "country": "CA", "postalCode": "N2B1E6", "twitter": "None", "instagram": "None", "facebook": "None", "youtube": "None", "website": "None", "summary": "None", "logo": "None", "latitude": 43.45146233775763, "longitude": -80.46162247348383}, "871461547RR0001": {"name": "Discipulos de Cristo Internacional", "designationCode": "C", "categoryCode": "36", "address": "135 BRISCOE ST. EAST", "city": "LONDON", "province": "ON", "country": "CA", "postalCode": "N6A1H3", "twitter": "None", "instagram": "None", "facebook": "None", "youtube": "None", "website": "None", "summary": "None", "logo": "None", "latitude": 42.966697590599715, "longitude": -81.25363963474526}, "746827328RR0001": {"name": "Discount Car And Truck Rentals Charitable Foundation", "designationCode": "B", "categoryCode": "03", "address": "720 ARROW ROAD,", "city": "TORONTO", "province": "ON", "country": "CA", "postalCode": "M9M2M1", "twitter": "None", "instagram": "None", "facebook": "None", "youtube": "None", "website": "None", "summary": "None", "logo": "None", "latitude": 43.747473406313226, "longitude": -79.53029315087406}, "797848884RR0001": {"name": "Discovery Church .", "designationCode": "C", "categoryCode": "36", "address": "3652 73 ST NW", "city": "EDMONTON", "province": "AB", "country": "CA", "postalCode": "T6K0L7", "twitter": "None", "instagram": "None", "facebook": "None", "youtube": "None", "website": "None", "summary": "None", "logo": "None", "latitude": 53.46968326397923, "longitude": -113.44560822814357}, "801263484RR0001": {"name": "Discovery Passage SeaLife Society", "designationCode": "C", "categoryCode": "50", "address": "980 ALDER ST", "city": "CAMPBELL RIVER", "province": "BC", "country": "CA", "postalCode": "V9W2P9", "twitter": "None", "instagram": "None", "facebook": "None", "youtube": "None", "website": "None", "summary": "None", "logo": "None", "latitude": 50.02505661658591, "longitude": -125.2443628148525}, "107020828RR0001": {"name": "Discovery Playhouse Childrens Society", "designationCode": "C", "categoryCode": "01", "address": "12027 HARRIS ROAD", "city": "PITT MEADOWS", "province": "BC", "country": "CA", "postalCode": "V3Y2B5", "twitter": "None", "instagram": "None", "facebook": "None", "youtube": "None", "website": "None", "summary": "None", "logo": "None", "latitude": 49.220867251923075, "longitude": -122.68966828594675}, "107021024RR0001": {"name": "Distress Centre Calgary", "designationCode": "C", "categoryCode": "57", "address": "300 1010 8TH AVE SW", "city": "CALGARY", "province": "AB", "country": "CA", "postalCode": "T2P1J2", "twitter": "None", "instagram": "None", "facebook": "None", "youtube": "None", "website": "None", "summary": "None", "logo": "None", "latitude": 51.04590663887669, "longitude": -114.07575818403993}, "889506846RR0001": {"name": "District du Qu\u00e9bec Assembl\u00e9es de la Pentec\u00f4te du Canada", "designationCode": "C", "categoryCode": "36", "address": "839, RUE LASALLE", "city": "LONGUEUIL", "province": "QC", "country": "CA", "postalCode": "J4K3G6", "twitter": "None", "instagram": "None", "facebook": "None", "youtube": "None", "website": "None", "summary": "None", "logo": "None", "latitude": 45.51902700000005, "longitude": -73.51013599999993}, "833201056RR0001": {"name": "District of North Vancouver Firefighters Charitable Society Local 1183 I.A.F.F.", "designationCode": "A", "categoryCode": "03", "address": "PO BOX 30001 RPO PARKGATE VLG", "city": "NORTH VANCOUVER", "province": "BC", "country": "CA", "postalCode": "V7H2Y8", "twitter": "None", "instagram": "None", "facebook": "None", "youtube": "None", "website": "None", "summary": "None", "logo": "None", "latitude": 49.3174752080322, "longitude": -122.97382911744121}, "829738392RR0001": {"name": "District scout Les Ailes du Nord", "designationCode": "C", "categoryCode": "29", "address": "13908 BOUL. DU CUR\u00c9 LABELLE   C.P. 1005 SUCC. ST-JANVIER", "city": "MIRABEL", "province": "QC", "country": "CA", "postalCode": "J7J1A1", "twitter": "None", "instagram": "None", "facebook": "None", "youtube": "None", "website": "None", "summary": "None", "logo": "None", "latitude": 45.70610801413828, "longitude": -73.93062797296423}, "892823642RR0001": {"name": "District Guide et Scout du Cuivre (F.S.C.P.Q.-district Cuivre)", "designationCode": "C", "categoryCode": "29", "address": "CASE POSTALE 852", "city": "ROUYN-NORANDA", "province": "QC", "country": "CA", "postalCode": "J9X5C7", "twitter": "None", "instagram": "None", "facebook": "None", "youtube": "None", "website": "None", "summary": "None", "logo": "None", "latitude": 48.237252000000055, "longitude": -79.01455399999993}, "842088726RR0001": {"name": "District 19A Diabetes Foundation", "designationCode": "C", "categoryCode": "11", "address": "5319 ESPERANZA DRIVE", "city": "NORTH VANCOUVER", "province": "BC", "country": "CA", "postalCode": "V7R3W3", "twitter": "None", "instagram": "None", "facebook": "None", "youtube": "None", "website": "None", "summary": "None", "logo": "None", "latitude": 49.361692433233415, "longitude": -123.10082057193114}, "827040221RR0002": {"name": "Diverse Citi Athletic Foundation", "designationCode": "A", "categoryCode": "53", "address": "40 WYNFORD DRIVE              SUITE 207A", "city": "TORONTO", "province": "ON", "country": "CA", "postalCode": "M3C1J5", "twitter": "None", "instagram": "None", "facebook": "None", "youtube": "None", "website": "None", "summary": "None", "logo": "None", "latitude": 43.72384111994317, "longitude": -79.33536227578021}, "811853894RR0001": {"name": "Diversit\u00e9 artistique Montr\u00e9al", "designationCode": "C", "categoryCode": "22", "address": "310B - 3680 RUE JEANNE-MANCE", "city": "MONTREAL", "province": "QC", "country": "CA", "postalCode": "H2X2K5", "twitter": "None", "instagram": "None", "facebook": "None", "youtube": "None", "website": "None", "summary": "None", "logo": "None", "latitude": 45.51161383345846, "longitude": -73.57612466876323}, "837584820RR0001": {"name": "Divine Apostolic Ark Church of Jesus Christ", "designationCode": "C", "categoryCode": "39", "address": "218 SUNFOREST DRIVE", "city": "BRAMPTON", "province": "ON", "country": "CA", "postalCode": "L6Z4S4", "twitter": "None", "instagram": "None", "facebook": "None", "youtube": "None", "website": "None", "summary": "None", "logo": "None"}, "812898864RR0001": {"name": "Divine Favour 7th Day Ministries Inc.", "designationCode": "C", "categoryCode": "39", "address": "2-351 PARKHURST SQUARE", "city": "BRAMPTON", "province": "ON", "country": "CA", "postalCode": "L6T0C2", "twitter": "None", "instagram": "None", "facebook": "None", "youtube": "None", "website": "None", "summary": "None", "logo": "None", "latitude": 43.72708525310187, "longitude": -79.66739342475064}, "834347130RR0001": {"name": "Divine Freedom International Ministry", "designationCode": "C", "categoryCode": "36", "address": "15 ANDREA LANE", "city": "WOODBRIDGE", "province": "ON", "country": "CA", "postalCode": "L4L1E6", "twitter": "None", "instagram": "None", "facebook": "None", "youtube": "None", "website": "None", "summary": "None", "logo": "None", "latitude": 43.80188961532686, "longitude": -79.56733886868855}, "802931436RR0001": {"name": "Divine International Youth Association (DIYA) Canada", "designationCode": "C", "categoryCode": "48", "address": "4 DUNSANY CRESCENT", "city": "ETOBICOKE", "province": "ON", "country": "CA", "postalCode": "M9R3W6", "twitter": "None", "instagram": "None", "facebook": "None", "youtube": "None", "website": "None", "summary": "None", "logo": "None", "latitude": 43.68474115072985, "longitude": -79.57060572912451}, "821395282RR0001": {"name": "Divine Restoration Center", "designationCode": "C", "categoryCode": "39", "address": "105, KENDRICK COURT", "city": "ANCASTER", "province": "ON", "country": "CA", "postalCode": "L9G5A5", "twitter": "None", "instagram": "None", "facebook": "None", "youtube": "None", "website": "None", "summary": "None", "logo": "None", "latitude": 43.20379251875455, "longitude": -79.99372333236194}, "790790323RR0001": {"name": "Divine Restoration Ministries Edmonton", "designationCode": "C", "categoryCode": "39", "address": "304 - 18204 93 AVE NW", "city": "EDMONTON", "province": "AB", "country": "CA", "postalCode": "T5T2V2", "twitter": "None", "instagram": "None", "facebook": "None", "youtube": "None", "website": "None", "summary": "None", "logo": "None", "latitude": 53.528040000000004, "longitude": -113.61964038288855}, "802576843RR0001": {"name": "Divine Vine Gospel Ministries", "designationCode": "C", "categoryCode": "39", "address": "858 WHALEY WAY", "city": "MILTON", "province": "ON", "country": "CA", "postalCode": "L9T0Z2", "twitter": "None", "instagram": "None", "facebook": "None", "youtube": "None", "website": "None", "summary": "None", "logo": "None", "latitude": 43.483125532315896, "longitude": -79.8732255328928}, "888749645RR0001": {"name": "Division Three Agricultural Society", "designationCode": "C", "categoryCode": "56", "address": "PO BOX 99", "city": "PATRICIA", "province": "AB", "country": "CA", "postalCode": "T0J2K0", "twitter": "None", "instagram": "None", "facebook": "None", "youtube": "None", "website": "None", "summary": "None", "logo": "None", "latitude": 50.69722915988393, "longitude": -111.67625257849095}, "129778130RR0001": {"name": "Dixon Transition Society", "designationCode": "C", "categoryCode": "09", "address": "204-2101 HOLDOM AVE", "city": "BURNABY", "province": "BC", "country": "CA", "postalCode": "V5B0A4", "twitter": "None", "instagram": "None", "facebook": "None", "youtube": "None", "website": "None", "summary": "None", "logo": "None", "latitude": 49.264669676380635, "longitude": -122.98127352276526}, "728011529RR0001": {"name": "Do Amazing Things", "designationCode": "B", "categoryCode": "09", "address": "160 CIDERMILL AVENUE, UNIT 1", "city": "CONCORD", "province": "ON", "country": "CA", "postalCode": "L4K4K5", "twitter": "None", "instagram": "None", "facebook": "None", "youtube": "None", "website": "None", "summary": "None", "logo": "None", "latitude": 43.80537223238449, "longitude": -79.53339553652816}, "813896578RR0001": {"name": "Do What U Luv Foundation", "designationCode": "C", "categoryCode": "09", "address": "609 ARROW LANE", "city": "COQUITLAM", "province": "BC", "country": "CA", "postalCode": "V3K7C6", "twitter": "None", "instagram": "None", "facebook": "None", "youtube": "None", "website": "None", "summary": "None", "logo": "None", "latitude": 49.24195623801304, "longitude": -122.88692537315454}, "810062372RR0001": {"name": "Doane Uschool", "designationCode": "C", "categoryCode": "22", "address": "266 MONARCH PARK AVENUE", "city": "TORONTO", "province": "ON", "country": "CA", "postalCode": "M4J4S7", "twitter": "None", "instagram": "None", "facebook": "None", "youtube": "None", "website": "None", "summary": "None", "logo": "None", "latitude": 43.68700029946911, "longitude": -79.32902374689812}, "882191786RR0001": {"name": "Dobbinton United Church", "designationCode": "C", "categoryCode": "44", "address": "559 CONCESSION 10 ELDERSLIE   RURAL ROUTE 2", "city": "DOBBINTON", "province": "ON", "country": "CA", "postalCode": "N0H1L0", "twitter": "None", "instagram": "None", "facebook": "None", "youtube": "None", "website": "None", "summary": "None", "logo": "None", "latitude": 44.36841507915239, "longitude": -81.15796918776849}, "801572330RR0001": {"name": "Docs4GreatApes", "designationCode": "C", "categoryCode": "54", "address": "10203 CHARLTON DRIVE          RURAL ROUTE 1", "city": "DENFIELD", "province": "ON", "country": "CA", "postalCode": "N0M1P0", "twitter": "None", "instagram": "None", "facebook": "None", "youtube": "None", "website": "None", "summary": "None", "logo": "None", "latitude": 43.031913870823765, "longitude": -81.5261488275865}, "797759123RR0001": {"name": "Doctors for Doctors & Nurses for Nurses Society", "designationCode": "C", "categoryCode": "09", "address": "545 SHERBOURNE ST. (UNIT 2506)", "city": "TORONTO", "province": "ON", "country": "CA", "postalCode": "M4X1W5", "twitter": "None", "instagram": "None", "facebook": "None", "youtube": "None", "website": "None", "summary": "None", "logo": "None", "latitude": 43.668808206042755, "longitude": -79.37537129773396}, "812319291RR0001": {"name": "Dog Speed Animal Rescue and Transport Society", "designationCode": "C", "categoryCode": "54", "address": "6961 WELLINGTON RD. 16        RR #1", "city": "BELWOOD", "province": "ON", "country": "CA", "postalCode": "N0B1J0", "twitter": "None", "instagram": "None", "facebook": "None", "youtube": "None", "website": "None", "summary": "None", "logo": "None", "latitude": 43.79782458439635, "longitude": -80.40166187792457}, "844540138RR0001": {"name": "Doggone Foundation / Fondation Doggone", "designationCode": "A", "categoryCode": "03", "address": "100, QUEEN STREET             SUITE 1100", "city": "OTTAWA", "province": "ON", "country": "CA", "postalCode": "K1P1J9", "twitter": "None", "instagram": "None", "facebook": "None", "youtube": "None", "website": "None", "summary": "None", "logo": "None", "latitude": 45.42179783677668, "longitude": -75.69784066261774}, "810675835RR0001": {"name": "Dogs and Cats of the DR Animal Rescue", "designationCode": "C", "categoryCode": "54", "address": "262-10TH STREET", "city": "HANOVER", "province": "ON", "country": "CA", "postalCode": "N4N1N9", "twitter": "None", "instagram": "None", "facebook": "None", "youtube": "None", "website": "None", "summary": "None", "logo": "None", "latitude": 44.1518937392491, "longitude": -81.02923970127274}, "838060911RR0001": {"name": "Dogsway Dog Rescue Society", "designationCode": "C", "categoryCode": "54", "address": "30919 SILVERDALE AVE", "city": "MISSION", "province": "BC", "country": "CA", "postalCode": "V4S1H2", "twitter": "None", "instagram": "None", "facebook": "None", "youtube": "None", "website": "None", "summary": "None", "logo": "None", "latitude": 49.14758727082524, "longitude": -122.36772346029336}, "833753908RR0001": {"name": "Dogwood Rescue Society", "designationCode": "C", "categoryCode": "54", "address": "360 FOREST RIDGE RD", "city": "BOWEN ISLAND", "province": "BC", "country": "CA", "postalCode": "V0N1G2", "twitter": "None", "instagram": "None", "facebook": "None", "youtube": "None", "website": "None", "summary": "None", "logo": "None", "latitude": 49.349788404395504, "longitude": -123.37854246468373}, "834187775RR0001": {"name": "Dogwood 25 Society", "designationCode": "C", "categoryCode": "21", "address": "3126 WEST 38TH AVENUE", "city": "VANCOUVER", "province": "BC", "country": "CA", "postalCode": "V6N2X3", "twitter": "None", "instagram": "None", "facebook": "None", "youtube": "None", "website": "None", "summary": "None", "logo": "None", "latitude": 49.23755048845882, "longitude": -123.17474160935426}, "725183693RR0001": {"name": "Domaine du Couvent", "designationCode": "C", "categoryCode": "09", "address": "259 RUE JEAN-MARIE-ROUSSEAU", "city": "VALLEE-JONCTION", "province": "QC", "country": "CA", "postalCode": "G0S3J0", "twitter": "None", "instagram": "None", "facebook": "None", "youtube": "None", "website": "None", "summary": "None", "logo": "None", "latitude": 46.37472900000006, "longitude": -70.92793249999993}, "855000659RR0001": {"name": "Dominican Advance Christian Charity", "designationCode": "B", "categoryCode": "47", "address": "PO BOX 32003 RPO PRESTON", "city": "CAMBRIDGE", "province": "ON", "country": "CA", "postalCode": "N3H5M2", "twitter": "None", "instagram": "None", "facebook": "None", "youtube": "None", "website": "None", "summary": "None", "logo": "None", "latitude": 43.39510606971258, "longitude": -80.3777667858046}, "848195178RR0001": {"name": "Dominican Republic Homes Opportunities Prosperity Education", "designationCode": "C", "categoryCode": "09", "address": "2175 ALBION CRT", "city": "BURLINGTON", "province": "ON", "country": "CA", "postalCode": "L7P3M4", "twitter": "None", "instagram": "None", "facebook": "None", "youtube": "None", "website": "None", "summary": "None", "logo": "None", "latitude": 43.36707987457424, "longitude": -79.82963487053486}, "849587175RR0001": {"name": "Dominican Starfish Foundation", "designationCode": "C", "categoryCode": "09", "address": "BOX 175", "city": "STIRLING", "province": "AB", "country": "CA", "postalCode": "T0K2E0", "twitter": "None", "instagram": "None", "facebook": "None", "youtube": "None", "website": "None", "summary": "None", "logo": "None", "latitude": 49.50334000000004, "longitude": -112.51675999999998}, "812778702RR0001": {"name": "Dominican Vision Inc.", "designationCode": "C", "categoryCode": "09", "address": "307 OAKLAND AVENUE", "city": "WINNIPEG", "province": "MB", "country": "CA", "postalCode": "R2G0B2", "twitter": "None", "instagram": "None", "facebook": "None", "youtube": "None", "website": "None", "summary": "None", "logo": "None", "latitude": 49.9353539392347, "longitude": -97.08641468399803}, "822260725RR0001": {"name": "Dominion Chapel Ministries of Airdrie, AB", "designationCode": "B", "categoryCode": "39", "address": "PO BOX 10503 STN MAIN", "city": "AIRDRIE", "province": "AB", "country": "CA", "postalCode": "T4A0H7", "twitter": "None", "instagram": "None", "facebook": "None", "youtube": "None", "website": "None", "summary": "None", "logo": "None", "latitude": 51.28868400000006, "longitude": -114.01344349999994}, "837956846RR0001": {"name": "Dominion Chapel Ministry Corporation", "designationCode": "C", "categoryCode": "39", "address": "366 INDEPENDENT ST", "city": "YORKTON", "province": "SK", "country": "CA", "postalCode": "S3N2Y1", "twitter": "None", "instagram": "None", "facebook": "None", "youtube": "None", "website": "None", "summary": "None", "logo": "None", "latitude": 51.206391503462456, "longitude": -102.48559102553523}, "827550419RR0001": {"name": "Dominion Kingdom Ministries.", "designationCode": "C", "categoryCode": "39", "address": "3 FAWCETT TRAIL,", "city": "SCARBOROUGH", "province": "ON", "country": "CA", "postalCode": "M1B3B2", "twitter": "None", "instagram": "None", "facebook": "None", "youtube": "None", "website": "None", "summary": "None", "logo": "None", "latitude": 43.80871006549717, "longitude": -79.20636450011557}, "806256020RR0001": {"name": "Dominion Ministries", "designationCode": "C", "categoryCode": "39", "address": "46 AV GRAND TRUNK", "city": "MAPLE", "province": "ON", "country": "CA", "postalCode": "L6A0X8", "twitter": "None", "instagram": "None", "facebook": "None", "youtube": "None", "website": "None", "summary": "None", "logo": "None", "latitude": 43.84335944401361, "longitude": -79.48733228955099}, "814120317RR0001": {"name": "Dominion Miracle Center", "designationCode": "C", "categoryCode": "39", "address": "66 VANIER ST", "city": "WHITBY", "province": "ON", "country": "CA", "postalCode": "L1R3H2", "twitter": "None", "instagram": "None", "facebook": "None", "youtube": "None", "website": "None", "summary": "None", "logo": "None", "latitude": 43.90136273965611, "longitude": -78.94868661728877}}