{"130590540RR0001": {"name": "ITAL-CANADIAN SENIORS ASSOCIATION", "designationCode": "C", "categoryCode": "01", "address": "9111 - 110 AVE", "city": "EDMONTON", "province": "AB", "country": "CA", "postalCode": "T5H4J9", "twitter": "None", "instagram": "None", "facebook": "None", "youtube": "None", "website": "None", "summary": "None", "logo": "None", "latitude": 53.55936766273331, "longitude": -113.48100683830589}, "118972223RR0001": {"name": "ITALIAN CANADIAN BENEVOLENT SENIORS APARTMENT CORPORATION", "designationCode": "C", "categoryCode": "01", "address": "901 LAWRENCE AVENUE WEST", "city": "TORONTO", "province": "ON", "country": "CA", "postalCode": "M6A1C3", "twitter": "None", "instagram": "None", "facebook": "None", "youtube": "None", "website": "None", "summary": "None", "logo": "None", "latitude": 43.713601768192426, "longitude": -79.45694700011556}, "127795862RR0001": {"name": "ITALIAN CANADIAN COMMUNITY DEVELOPMENT CORPORATION", "designationCode": "C", "categoryCode": "01", "address": "1035 WILKES AVE", "city": "WINNIPEG", "province": "MB", "country": "CA", "postalCode": "R3P1T1", "twitter": "None", "instagram": "None", "facebook": "None", "youtube": "None", "website": "None", "summary": "None", "logo": "None", "latitude": 49.846943498268324, "longitude": -97.191234}, "892011842RR0001": {"name": "ITALIAN CANADIAN FOUNDATION OF MANITOBA INC.", "designationCode": "C", "categoryCode": "21", "address": "1055 WILKES AVE", "city": "WINNIPEG", "province": "MB", "country": "CA", "postalCode": "R3P2L7", "twitter": "None", "instagram": "None", "facebook": "None", "youtube": "None", "website": "None", "summary": "None", "logo": "None", "latitude": 49.846939454411235, "longitude": -97.1929035}, "894402981RR0001": {"name": "ITALIAN CANADIAN HANDICAPABLE ASSOCIATION (WINDSOR & DISTRICT)", "designationCode": "C", "categoryCode": "09", "address": "3939 CARMICHAEL DRIVE", "city": "WINDSOR", "province": "ON", "country": "CA", "postalCode": "N9C0C3", "twitter": "None", "instagram": "None", "facebook": "None", "youtube": "None", "website": "None", "summary": "None", "logo": "None", "latitude": 42.28222682426187, "longitude": -83.07206502433166}, "107516957RR0001": {"name": "ITALIAN CANADIAN LEAGUE OF MANITOBA INC.", "designationCode": "C", "categoryCode": "22", "address": "1055 WILKES AVE", "city": "WINNIPEG", "province": "MB", "country": "CA", "postalCode": "R3P2L7", "twitter": "None", "instagram": "None", "facebook": "None", "youtube": "None", "website": "None", "summary": "None", "logo": "None", "latitude": 49.846939454411235, "longitude": -97.1929035}, "891916165RR0001": {"name": "ITALIAN CANADIAN YOUTH FORMATION CENTRE CENTRE DE FORMATION ITALO-CANADIEN POUR LA JEUNESSE", "designationCode": "C", "categoryCode": "20", "address": "30 CONCOURSE GATE             UNIT 29", "city": "OTTAWA", "province": "ON", "country": "CA", "postalCode": "K2E7V7", "twitter": "None", "instagram": "None", "facebook": "None", "youtube": "None", "website": "None", "summary": "None", "logo": "None", "latitude": 45.34472951292617, "longitude": -75.70897254345306}, "118972256RR0001": {"name": "ITALIAN CHRISTIAN CHURCH", "designationCode": "C", "categoryCode": "36", "address": "9688 WARNER RD", "city": "NIAGARA FALLS", "province": "ON", "country": "CA", "postalCode": "L2H0H6", "twitter": "None", "instagram": "None", "facebook": "None", "youtube": "None", "website": "None", "summary": "None", "logo": "None", "latitude": 43.14230694636209, "longitude": -79.16612621339974}, "118972272RR0001": {"name": "ITALIAN CHURCH OF THE REDEEMER", "designationCode": "C", "categoryCode": "39", "address": "6980 PAPINEAU AVENUE", "city": "MONTREAL", "province": "QC", "country": "CA", "postalCode": "H2E2G5", "twitter": "None", "instagram": "None", "facebook": "None", "youtube": "None", "website": "None", "summary": "None", "logo": "None", "latitude": 45.546611847885195, "longitude": -73.6041231288013}, "107517021RR0001": {"name": "ITALIAN CULTURAL CENTRE SENIOR CITIZENS HOUSING SOCIETY", "designationCode": "C", "categoryCode": "01", "address": "2610 GRANDVIEW HWY S", "city": "VANCOUVER", "province": "BC", "country": "CA", "postalCode": "V5M4P5", "twitter": "None", "instagram": "None", "facebook": "None", "youtube": "None", "website": "None", "summary": "None", "logo": "None", "latitude": 49.25744325724019, "longitude": -123.05250081237568}, "118972298RR0001": {"name": "ITALIAN CULTURAL CENTRE SOCIETY", "designationCode": "C", "categoryCode": "22", "address": "3075 SLOCAN ST", "city": "VANCOUVER", "province": "BC", "country": "CA", "postalCode": "V5M3E4", "twitter": "None", "instagram": "None", "facebook": "None", "youtube": "None", "website": "None", "summary": "None", "logo": "None", "latitude": 49.256506210480396, "longitude": -123.04960978558961}, "141019505RR0001": {"name": "ITALIAN GENEALOGY AND HERALDRY SOCIETY OF CANADA", "designationCode": "C", "categoryCode": "50", "address": "86 HAZEL CRESCENT", "city": "KINGSVILLE", "province": "ON", "country": "CA", "postalCode": "N9Y0B2", "twitter": "None", "instagram": "None", "facebook": "None", "youtube": "None", "website": "None", "summary": "None", "logo": "None", "latitude": 42.04980517377149, "longitude": -82.73252013195952}, "893978320RR0001": {"name": "ITALIAN PENTECOSTAL CHURCH", "designationCode": "C", "categoryCode": "36", "address": "55 COMO PLACE", "city": "HAMILTON", "province": "ON", "country": "CA", "postalCode": "L9B1Y3", "twitter": "None", "instagram": "None", "facebook": "None", "youtube": "None", "website": "None", "summary": "None", "logo": "None", "latitude": 43.206128133217256, "longitude": -79.8812190311014}, "862374378RR0001": {"name": "ITALIAN SENIORS PROJECT", "designationCode": "C", "categoryCode": "09", "address": "1109 HAMILTON ROAD            OFFICE MAIL", "city": "LONDON", "province": "ON", "country": "CA", "postalCode": "N5W0A7", "twitter": "None", "instagram": "None", "facebook": "None", "youtube": "None", "website": "None", "summary": "None", "logo": "None", "latitude": 42.976115615558015, "longitude": -81.18278632682201}, "119288918RR1008": {"name": "ITALSUD CONGREGATION OF JEHOVAH'S WITNESSES", "designationCode": "C", "categoryCode": "61", "address": "8776 RUE CHARTRAND", "city": "LASALLE", "province": "QC", "country": "CA", "postalCode": "H8R2R3", "twitter": "None", "instagram": "None", "facebook": "None", "youtube": "None", "website": "None", "summary": "None", "logo": "None", "latitude": 45.426607523169295, "longitude": -73.62898447971624}, "872723150RR0001": {"name": "ITLMA FOUNDATION", "designationCode": "B", "categoryCode": "03", "address": "142 DALHOUSIE ROAD N.W.", "city": "CALGARY", "province": "AB", "country": "CA", "postalCode": "T3A2H1", "twitter": "None", "instagram": "None", "facebook": "None", "youtube": "None", "website": "None", "summary": "None", "logo": "None", "latitude": 51.108465153211355, "longitude": -114.1659317325583}, "829120278RR0001": {"name": "ITS ALL GOOD (IAG)", "designationCode": "C", "categoryCode": "11", "address": "39 SHOALHAVEN DRIVE", "city": "SCARBOROUGH", "province": "ON", "country": "CA", "postalCode": "M1C5G5", "twitter": "None", "instagram": "None", "facebook": "None", "youtube": "None", "website": "None", "summary": "None", "logo": "None", "latitude": 43.77848494419769, "longitude": -79.1338159808414}, "802373944RR0001": {"name": "ITSAZOO PRODUCTIONS SOCIETY", "designationCode": "C", "categoryCode": "22", "address": "UNIT 10- 410 WEST 12TH AVE", "city": "VANCOUVER", "province": "BC", "country": "CA", "postalCode": "V5Y1V3", "twitter": "None", "instagram": "None", "facebook": "None", "youtube": "None", "website": "None", "summary": "None", "logo": "None", "latitude": 49.260350495672164, "longitude": -123.11326391909515}, "107517260RR0001": {"name": "ITUNA & DISTRICT REGIONAL PARK AUTHORITY", "designationCode": "C", "categoryCode": "56", "address": "PO BOX 76", "city": "ITUNA", "province": "SK", "country": "CA", "postalCode": "S0A1N0", "twitter": "None", "instagram": "None", "facebook": "None", "youtube": "None", "website": "None", "summary": "None", "logo": "None", "latitude": 51.17134000000004, "longitude": -103.49577999999997}, "890368996RR0001": {"name": "IVAN CEMETERY TRUSTEES", "designationCode": "C", "categoryCode": "59", "address": "23993 NAIRN RD.               R.R.1", "city": "ILDERTON", "province": "ON", "country": "CA", "postalCode": "N0M2A0", "twitter": "None", "instagram": "None", "facebook": "None", "youtube": "None", "website": "None", "summary": "None", "logo": "None", "latitude": 43.02434384843344, "longitude": -81.45443851113716}, "107517450RR0001": {"name": "IVAN FRANKO MANOR INC.", "designationCode": "C", "categoryCode": "01", "address": "200 MCGREGOR STREET", "city": "WINNIPEG", "province": "MB", "country": "CA", "postalCode": "R2W5L6", "twitter": "None", "instagram": "None", "facebook": "None", "youtube": "None", "website": "None", "summary": "None", "logo": "None", "latitude": 49.9180810535806, "longitude": -97.14807944662094}, "118972405RR0001": {"name": "IVANHOE CAMP", "designationCode": "C", "categoryCode": "49", "address": "103 POTTER RD", "city": "TRENTON", "province": "ON", "country": "CA", "postalCode": "K8V5P6", "twitter": "None", "instagram": "None", "facebook": "None", "youtube": "None", "website": "None", "summary": "None", "logo": "None", "latitude": 44.151153332957506, "longitude": -77.65299661864462}, "107517492RR0001": {"name": "IVANHOE WESLEYAN STANDARD CHURCH", "designationCode": "C", "categoryCode": "39", "address": "207 POST ROAD                 RR 1", "city": "THOMASBURG", "province": "ON", "country": "CA", "postalCode": "K0K3H0", "twitter": "None", "instagram": "None", "facebook": "None", "youtube": "None", "website": "None", "summary": "None", "logo": "None", "latitude": 44.403151239714376, "longitude": -77.37070154682672}, "856213673RR0001": {"name": "IVER MAIN PLACE INC.", "designationCode": "C", "categoryCode": "09", "address": "PO BOX 550", "city": "CENTRAL BUTTE", "province": "SK", "country": "CA", "postalCode": "S0H0T0", "twitter": "None", "instagram": "None", "facebook": "None", "youtube": "None", "website": "None", "summary": "None", "logo": "None", "latitude": 50.80006000000003, "longitude": -106.51793999999995}, "118972439RR0001": {"name": "IVES CEMETERY", "designationCode": "C", "categoryCode": "59", "address": "MARY PARTINGTON               76 CHEMIN BELLEVUE", "city": "GEORGEVILLE", "province": "QC", "country": "CA", "postalCode": "J0B1T0", "twitter": "None", "instagram": "None", "facebook": "None", "youtube": "None", "website": "None", "summary": "None", "logo": "None", "latitude": 45.12763243493553, "longitude": -72.24099217208146}, "119118578RR0001": {"name": "IVEY FOUNDATION", "designationCode": "B", "categoryCode": "03", "address": "400-11 CHURCH ST", "city": "TORONTO", "province": "ON", "country": "CA", "postalCode": "M5E1W1", "twitter": "None", "instagram": "None", "facebook": "None", "youtube": "None", "website": "None", "summary": "None", "logo": "None", "latitude": 43.6478392872641, "longitude": -79.37349023048084}, "131627176RR0001": {"name": "IVY MONTESSORI SCHOOL SOCIETY", "designationCode": "C", "categoryCode": "20", "address": "2490 37TH AVE W", "city": "VANCOUVER", "province": "BC", "country": "CA", "postalCode": "V6M1P5", "twitter": "None", "instagram": "None", "facebook": "None", "youtube": "None", "website": "None", "summary": "None", "logo": "None"}, "118972454RR0001": {"name": "IVY PRESBYTERIAN CHURCH", "designationCode": "C", "categoryCode": "37", "address": "4 ALGONQUIN HEIGHTS COURT     RR #3", "city": "THORNTON", "province": "ON", "country": "CA", "postalCode": "L0L2N0", "twitter": "None", "instagram": "None", "facebook": "None", "youtube": "None", "website": "None", "summary": "None", "logo": "None", "latitude": 44.31631574926643, "longitude": -79.77718403761028}, "867558090RR0001": {"name": "IWK HEALTH CENTRE CHARITABLE FOUNDATION", "designationCode": "A", "categoryCode": "15", "address": "P.O.BOX 9700", "city": "HALIFAX", "province": "NS", "country": "CA", "postalCode": "B3K6R8", "twitter": "None", "instagram": "None", "facebook": "None", "youtube": "None", "website": "None", "summary": "None", "logo": "None", "latitude": 44.645478000000054, "longitude": -63.576552499999934}, "847394129RR0001": {"name": "IYAHRHE NAKODA FOOD BANK SOCIETY", "designationCode": "C", "categoryCode": "09", "address": "PO BOX 1048", "city": "MORLEY", "province": "AB", "country": "CA", "postalCode": "T0L1N0", "twitter": "None", "instagram": "None", "facebook": "None", "youtube": "None", "website": "None", "summary": "None", "logo": "None", "latitude": 51.15961094554243, "longitude": -114.8458543136534}, "119261626RR0001": {"name": "IYENGAR YOGA CENTRE OF VICTORIA SOCIETY", "designationCode": "C", "categoryCode": "20", "address": "202 - 919 FORT ST", "city": "VICTORIA", "province": "BC", "country": "CA", "postalCode": "V8V3K3", "twitter": "None", "instagram": "None", "facebook": "None", "youtube": "None", "website": "None", "summary": "None", "logo": "None", "latitude": 48.42388854674263, "longitude": -123.35870311241267}, "887854354RR0001": {"name": "IZAAK WALTON KILLAM - GRACE HEALTH CENTRE FOR CHILDREN, WOMEN AND FAMILIES", "designationCode": "C", "categoryCode": "10", "address": "5850-5980 UNIVERSITY AVE      PO BOX 9700", "city": "HALIFAX", "province": "NS", "country": "CA", "postalCode": "B3K6R8", "twitter": "None", "instagram": "None", "facebook": "None", "youtube": "None", "website": "None", "summary": "None", "logo": "None", "latitude": 44.63807180860951, "longitude": -63.58525377169834}, "863711461RR0001": {"name": "IZUNOME ASSOCIATION, CANADA", "designationCode": "C", "categoryCode": "49", "address": "2103 - 620 LOLITA GDNS", "city": "MISSISSAUGA", "province": "ON", "country": "CA", "postalCode": "L5A3K7", "twitter": "None", "instagram": "None", "facebook": "None", "youtube": "None", "website": "None", "summary": "None", "logo": "None", "latitude": 43.59439745355016, "longitude": -79.6036809326794}, "128299096RR0001": {"name": "J & F Home Day Care Services Incorporated", "designationCode": "C", "categoryCode": "01", "address": "301-211 CONSUMERS RD", "city": "TORONTO", "province": "ON", "country": "CA", "postalCode": "M2J4G8", "twitter": "None", "instagram": "None", "facebook": "None", "youtube": "None", "website": "None", "summary": "None", "logo": "None", "latitude": 43.77182536219633, "longitude": -79.33167558800262}, "892954165RR0001": {"name": "J & G SERVANT FOUNDATION", "designationCode": "B", "categoryCode": "43", "address": "1500-1090 WEST GEORGIA ST", "city": "VANCOUVER", "province": "BC", "country": "CA", "postalCode": "V6E3V7", "twitter": "None", "instagram": "None", "facebook": "None", "youtube": "None", "website": "None", "summary": "None", "logo": "None", "latitude": 49.28541748568885, "longitude": -123.12279712756055}, "826835142RR0001": {"name": "J & H FELDMAN CHARITABLE FOUNDATION", "designationCode": "B", "categoryCode": "03", "address": "63 HILLMOUNT AVENUE", "city": "TORONTO", "province": "ON", "country": "CA", "postalCode": "M6B1X3", "twitter": "None", "instagram": "None", "facebook": "None", "youtube": "None", "website": "None", "summary": "None", "logo": "None", "latitude": 43.710546867592015, "longitude": -79.43173523812689}, "846033280RR0001": {"name": "J & L Rogers Family Charitable Foundation", "designationCode": "B", "categoryCode": "05", "address": "1 ADELAIDE STREET EAST, #2601", "city": "TORONTO", "province": "ON", "country": "CA", "postalCode": "M5C2V9", "twitter": "None", "instagram": "None", "facebook": "None", "youtube": "None", "website": "None", "summary": "None", "logo": "None", "latitude": 43.650488809308214, "longitude": -79.37807503774025}, "886601798RR0001": {"name": "J & P Lang Family Charitable Foundation", "designationCode": "B", "categoryCode": "53", "address": "460 WYECROFT RD", "city": "OAKVILLE", "province": "ON", "country": "CA", "postalCode": "L6K2G7", "twitter": "None", "instagram": "None", "facebook": "None", "youtube": "None", "website": "None", "summary": "None", "logo": "None", "latitude": 43.439442894800685, "longitude": -79.70376095654694}, "832440820RR0001": {"name": "J and W Murphy Foundation", "designationCode": "B", "categoryCode": "05", "address": "1777 BLOOMINGDALE TERRACE", "city": "HALIFAX", "province": "NS", "country": "CA", "postalCode": "B3H4E6", "twitter": "None", "instagram": "None", "facebook": "None", "youtube": "None", "website": "None", "summary": "None", "logo": "None", "latitude": 44.64063038663505, "longitude": -63.60442864902773}, "850851502RR0001": {"name": "J C Froese Foundation", "designationCode": "A", "categoryCode": "03", "address": "SUITE 1165                    5328 CALGARY TRAIL NW", "city": "EDMONTON", "province": "AB", "country": "CA", "postalCode": "T6H4J8", "twitter": "None", "instagram": "None", "facebook": "None", "youtube": "None", "website": "None", "summary": "None", "logo": "None", "latitude": 53.49123769080735, "longitude": -113.49539595798925}, "891226540RR0001": {"name": "J H BRUNS PARENT ASSOCIATION", "designationCode": "C", "categoryCode": "21", "address": "250 LAKEWOOD BLVD", "city": "WINNIPEG", "province": "MB", "country": "CA", "postalCode": "R2J3A2", "twitter": "None", "instagram": "None", "facebook": "None", "youtube": "None", "website": "None", "summary": "None", "logo": "None", "latitude": 49.84719862724344, "longitude": -97.07691602642926}, "888532249RR0001": {"name": "J H STEWART REID MEMORIAL FELLOWSHIP TRUST", "designationCode": "C", "categoryCode": "21", "address": "2705 QUEENSVIEW DR.", "city": "OTTAWA", "province": "ON", "country": "CA", "postalCode": "K2B8K2", "twitter": "None", "instagram": "None", "facebook": "None", "youtube": "None", "website": "None", "summary": "None", "logo": "None", "latitude": 45.352331117981265, "longitude": -75.78924922773955}, "889424461RR0001": {"name": "J J COLLETT FOUNDATION", "designationCode": "C", "categoryCode": "52", "address": "RR4, SITE 5, BOX 55", "city": "LACOMBE", "province": "AB", "country": "CA", "postalCode": "T4L2N4", "twitter": "None", "instagram": "None", "facebook": "None", "youtube": "None", "website": "None", "summary": "None", "logo": "None", "latitude": 52.463094000000055, "longitude": -113.73671149999993}, "136905288RR0001": {"name": "J J FRASER FARRALINE HOME INC", "designationCode": "C", "categoryCode": "09", "address": "776 QUEEN ST.", "city": "FREDERICTON", "province": "NB", "country": "CA", "postalCode": "E3B1C6", "twitter": "None", "instagram": "None", "facebook": "None", "youtube": "None", "website": "None", "summary": "None", "logo": "None", "latitude": 45.95911494448616, "longitude": -66.63515360090014}, "887702462RR0001": {"name": "J KEITH LAWTON PHARMACY FUND", "designationCode": "C", "categoryCode": "21", "address": "170 CROMARTY DRIVE            SUITE 225", "city": "DARTMOUTH", "province": "NS", "country": "CA", "postalCode": "B3B0G1", "twitter": "None", "instagram": "None", "facebook": "None", "youtube": "None", "website": "None", "summary": "None", "logo": "None", "latitude": 44.70209684624041, "longitude": -63.56290244269714}, "891023384RR0001": {"name": "J M CURTAIN RAZORS INC.", "designationCode": "C", "categoryCode": "22", "address": "PO BOX 33070 RPO CATHEDRAL", "city": "REGINA", "province": "SK", "country": "CA", "postalCode": "S4T7X2", "twitter": "None", "instagram": "None", "facebook": "None", "youtube": "None", "website": "None", "summary": "None", "logo": "None", "latitude": 50.444000000000074, "longitude": -104.63077999999996}, "889678298RR0001": {"name": "J STECKLE HERITAGE HOMESTEAD", "designationCode": "C", "categoryCode": "52", "address": "811 BLEAMS RD", "city": "KITCHENER", "province": "ON", "country": "CA", "postalCode": "N2E3X4", "twitter": "None", "instagram": "None", "facebook": "None", "youtube": "None", "website": "None", "summary": "None", "logo": "None", "latitude": 43.40563087365153, "longitude": -80.48000467635197}, "864483128RR0001": {"name": "J. A. CUDDY CHILD CARE CENTRE INC.", "designationCode": "C", "categoryCode": "20", "address": "BOX 366, 5 MAIN STREET", "city": "SANFORD", "province": "MB", "country": "CA", "postalCode": "R0G2J0", "twitter": "None", "instagram": "None", "facebook": "None", "youtube": "None", "website": "None", "summary": "None", "logo": "None", "latitude": 49.6810053570667, "longitude": -97.4432970822905}, "118915305RR0001": {"name": "J. C. FIELDS TRUST", "designationCode": "B", "categoryCode": "25", "address": "130 KING ST WEST, 20TH FLOOR  BOX 430, STN FIRST CANADIAN PL", "city": "TORONTO", "province": "ON", "country": "CA", "postalCode": "M5X1K1", "twitter": "None", "instagram": "None", "facebook": "None", "youtube": "None", "website": "None", "summary": "None", "logo": "None", "latitude": 43.64826932503962, "longitude": -79.38190945606182}, "118974492RR0001": {"name": "J. HARPER KENT CHARITABLE FOUNDATION INC.", "designationCode": "C", "categoryCode": "21", "address": "171 MAIN STREET", "city": "BATHURST", "province": "NB", "country": "CA", "postalCode": "E2A1A6", "twitter": "None", "instagram": "None", "facebook": "None", "youtube": "None", "website": "None", "summary": "None", "logo": "None", "latitude": 47.62080256725021, "longitude": -65.6546843031454}, "806866216RR0001": {"name": "J. HOLLINGDALE FOUNDATION", "designationCode": "B", "categoryCode": "03", "address": "225 - 9600 CAMERON ST", "city": "BURNABY", "province": "BC", "country": "CA", "postalCode": "V3J7N3", "twitter": "None", "instagram": "None", "facebook": "None", "youtube": "None", "website": "None", "summary": "None", "logo": "None", "latitude": 49.25335621227395, "longitude": -122.89844180461633}, "107551426RR0001": {"name": "J. PUDDLEDUCK PRESCHOOL/DAYCARE SOCIETY", "designationCode": "C", "categoryCode": "20", "address": "295 BACK RD", "city": "COURTENAY", "province": "BC", "country": "CA", "postalCode": "V9N3W8", "twitter": "None", "instagram": "None", "facebook": "None", "youtube": "None", "website": "None", "summary": "None", "logo": "None", "latitude": 49.701507958624425, "longitude": -124.98348008425172}, "860769199RR0001": {"name": "J. RUSSELL ST.ELOI UA SCHOLARSHIP FUND SOCIETY", "designationCode": "B", "categoryCode": "21", "address": "C/0 101-1658 FOSTERS WAY      ANNACIS ISLAND", "city": "DELTA", "province": "BC", "country": "CA", "postalCode": "V3M6S6", "twitter": "None", "instagram": "None", "facebook": "None", "youtube": "None", "website": "None", "summary": "None", "logo": "None", "latitude": 49.16330375561243, "longitude": -122.97479122221586}, "807748264RR0001": {"name": "J.(Jesus) C.(Christ) Hope Mission Centre / Dove Street Ministries", "designationCode": "C", "categoryCode": "39", "address": "7551 120 ST", "city": "DELTA", "province": "BC", "country": "CA", "postalCode": "V4C6P6", "twitter": "None", "instagram": "None", "facebook": "None", "youtube": "None", "website": "None", "summary": "None", "logo": "None", "latitude": 49.140792000000005, "longitude": -122.89049396448145}, "118973387RR0001": {"name": "J.B. FLETCHER RESTORATION SOCIETY", "designationCode": "C", "categoryCode": "50", "address": "BOX 1314", "city": "AINSWORTH", "province": "BC", "country": "CA", "postalCode": "V0G1A0", "twitter": "None", "instagram": "None", "facebook": "None", "youtube": "None", "website": "None", "summary": "None", "logo": "None", "latitude": 49.73530000000005, "longitude": -116.91152999999997}, "893410365RR0001": {"name": "J.B.L. CHARITABLE FOUNDATION INC.", "designationCode": "B", "categoryCode": "43", "address": "620 SPADINA CRES E", "city": "SASKATOON", "province": "SK", "country": "CA", "postalCode": "S7K3T5", "twitter": "None", "instagram": "None", "facebook": "None", "youtube": "None", "website": "None", "summary": "None", "logo": "None", "latitude": 52.12655566597868, "longitude": -106.65920827781635}, "118973601RR0001": {"name": "J.E. MCCONNELL MEMORIAL TRUST FUND", "designationCode": "B", "categoryCode": "05", "address": "PO BOX 10085", "city": "VANCOUVER", "province": "BC", "country": "CA", "postalCode": "V7Y1B6", "twitter": "None", "instagram": "None", "facebook": "None", "youtube": "None", "website": "None", "summary": "None", "logo": "None", "latitude": 49.26037200000006, "longitude": -123.11336149999994}, "865404909RR0001": {"name": "J.E. PANNETON FAMILY FOUNDATION", "designationCode": "B", "categoryCode": "03", "address": "141 ADELAIDE STREET WEST      SUITE 1510", "city": "TORONTO", "province": "ON", "country": "CA", "postalCode": "M5H3L5", "twitter": "None", "instagram": "None", "facebook": "None", "youtube": "None", "website": "None", "summary": "None", "logo": "None", "latitude": 43.649088853165296, "longitude": -79.38442797945643}, "795726926RR0001": {"name": "J.F. Driscoll Family Foundation", "designationCode": "B", "categoryCode": "03", "address": "2700-199 BAY STREET           PO BOX 108", "city": "TORONTO", "province": "ON", "country": "CA", "postalCode": "M5L1E2", "twitter": "None", "instagram": "None", "facebook": "None", "youtube": "None", "website": "None", "summary": "None", "logo": "None", "latitude": 43.64868300000006, "longitude": -79.38544399999994}, "118974484RR0001": {"name": "J.F. OF CANADA", "designationCode": "C", "categoryCode": "21", "address": "117 BARSE AVE", "city": "TORONTO", "province": "ON", "country": "CA", "postalCode": "M5M4L3", "twitter": "None", "instagram": "None", "facebook": "None", "youtube": "None", "website": "None", "summary": "None", "logo": "None", "latitude": 43.72956591923939, "longitude": -79.43063744959339}, "886561190RR0001": {"name": "J.G.D. CHIEFS PARENT ASSOCIATION", "designationCode": "C", "categoryCode": "21", "address": "6620 - 4TH STREET N.W.", "city": "CALGARY", "province": "AB", "country": "CA", "postalCode": "T2K1C2", "twitter": "None", "instagram": "None", "facebook": "None", "youtube": "None", "website": "None", "summary": "None", "logo": "None", "latitude": 51.112989838190316, "longitude": -114.0714267564201}, "118974518RR0001": {"name": "J.H. HOLLOWAY SCHOLARSHIP FOUNDATION", "designationCode": "B", "categoryCode": "21", "address": "1000, PHIPPS MCKINNON BUILDING10020-101A AVENUE", "city": "EDMONTON", "province": "AB", "country": "CA", "postalCode": "T5J3G2", "twitter": "None", "instagram": "None", "facebook": "None", "youtube": "None", "website": "None", "summary": "None", "logo": "None", "latitude": 53.54223000000006, "longitude": -113.49181249999992}, "829444157RR0001": {"name": "J.H. Picard Parent Council Society", "designationCode": "C", "categoryCode": "21", "address": "7055-99 STREET", "city": "EDMONTON", "province": "AB", "country": "CA", "postalCode": "T6E3R4", "twitter": "None", "instagram": "None", "facebook": "None", "youtube": "None", "website": "None", "summary": "None", "logo": "None", "latitude": 53.50811621530292, "longitude": -113.4860819986921}, "855795084RR0001": {"name": "J.HOKANSON FAMILY CHARITABLE FOUNDATION", "designationCode": "B", "categoryCode": "53", "address": "200-1281 91ST ST SW", "city": "EDMONTON", "province": "AB", "country": "CA", "postalCode": "T6X1H1", "twitter": "None", "instagram": "None", "facebook": "None", "youtube": "None", "website": "None", "summary": "None", "logo": "None", "latitude": 53.4217147601444, "longitude": -113.47558462142504}, "832183941RR0001": {"name": "J.L. Englehart Estate Re: Charlotte E. Englehart Hospital", "designationCode": "B", "categoryCode": "15", "address": "380 WELLINGTON ST. 12TH FLOOR", "city": "LONDON", "province": "ON", "country": "CA", "postalCode": "N6A5B5", "twitter": "None", "instagram": "None", "facebook": "None", "youtube": "None", "website": "None", "summary": "None", "logo": "None", "latitude": 42.98403487844074, "longitude": -81.24475227780037}, "118974617RR0001": {"name": "J.M. DRAMA ALUMNI", "designationCode": "C", "categoryCode": "22", "address": "122 FREDERICK STREET", "city": "KITCHENER", "province": "ON", "country": "CA", "postalCode": "N2H2L9", "twitter": "None", "instagram": "None", "facebook": "None", "youtube": "None", "website": "None", "summary": "None", "logo": "None", "latitude": 43.451753488775935, "longitude": -80.48548561492284}, "118974625RR0001": {"name": "J.M.J. CHILDRENS FUND OF CANADA", "designationCode": "C", "categoryCode": "09", "address": "390 RIDEAU ST. E.             P.O. BOX 20051", "city": "OTTAWA", "province": "ON", "country": "CA", "postalCode": "K1N9N5", "twitter": "None", "instagram": "None", "facebook": "None", "youtube": "None", "website": "None", "summary": "None", "logo": "None", "latitude": 45.43003370578235, "longitude": -75.68263220217565}, "118975820RR0001": {"name": "J.P. BICKELL FOUNDATION", "designationCode": "B", "categoryCode": "05", "address": "130 KING STREET WEST, 20TH FLOBOX 430, STN FIRST CANADIAN PL", "city": "TORONTO", "province": "ON", "country": "CA", "postalCode": "M5X1K1", "twitter": "None", "instagram": "None", "facebook": "None", "youtube": "None", "website": "None", "summary": "None", "logo": "None", "latitude": 43.64868300000006, "longitude": -79.38544399999994}, "118975838RR0001": {"name": "J.P. CRERAR SCHOLARSHIP FUND", "designationCode": "B", "categoryCode": "21", "address": "155 WELLINGTON ST W           20TH FLOOR", "city": "TORONTO", "province": "ON", "country": "CA", "postalCode": "M5V3K7", "twitter": "None", "instagram": "None", "facebook": "None", "youtube": "None", "website": "None", "summary": "None", "logo": "None", "latitude": 43.64596585316531, "longitude": -79.38574575644876}, "839516960RR0001": {"name": "J.R. ARMSTRONG FAMILY FOUNDATION", "designationCode": "B", "categoryCode": "25", "address": "1811 FOUR MILE CREEK RD       PO BOX 926", "city": "VIRGIL", "province": "ON", "country": "CA", "postalCode": "L0S1T0", "twitter": "None", "instagram": "None", "facebook": "None", "youtube": "None", "website": "None", "summary": "None", "logo": "None", "latitude": 43.22973586372555, "longitude": -79.12449377754058}, "102728177RR0001": {"name": "J.R.H. FOUNDATION - FONDATION J.R.H.", "designationCode": "A", "categoryCode": "03", "address": "3205 PLACE ALTON GOLDBLOOM", "city": "LAVAL", "province": "QC", "country": "CA", "postalCode": "H7V1R2", "twitter": "None", "instagram": "None", "facebook": "None", "youtube": "None", "website": "None", "summary": "None", "logo": "None", "latitude": 45.5479690183792, "longitude": -73.73694658179888}, "118973890RR0001": {"name": "J\u00c9SUS RASSEMBLE SON PEUPLE / JESUS GATHERS HIS PEOPLE", "designationCode": "C", "categoryCode": "38", "address": "1433 LEBLANC DR", "city": "ORLEANS", "province": "ON", "country": "CA", "postalCode": "K1C3W7", "twitter": "None", "instagram": "None", "facebook": "None", "youtube": "None", "website": "None", "summary": "None", "logo": "None", "latitude": 45.467975932021325, "longitude": -75.52267842674121}, "833052947RR0001": {"name": "J'APPRENDS AVEC MON ENFANT", "designationCode": "C", "categoryCode": "21", "address": "1201, RUE ARGYLE              BUREAU 203", "city": "VERDUN", "province": "QC", "country": "CA", "postalCode": "H4H1V4", "twitter": "None", "instagram": "None", "facebook": "None", "youtube": "None", "website": "None", "summary": "None", "logo": "None", "latitude": 45.4534474899011, "longitude": -73.58068066610885}, "873068100RR0001": {"name": "J'ME FAIS UNE PLACE EN GARDERIE", "designationCode": "C", "categoryCode": "09", "address": "3490 RUE DANDURAND", "city": "MONTREAL", "province": "QC", "country": "CA", "postalCode": "H1X1N1", "twitter": "None", "instagram": "None", "facebook": "None", "youtube": "None", "website": "None", "summary": "None", "logo": "None", "latitude": 45.55409282708182, "longitude": -73.57489531790655}, "812290799RR0001": {"name": "Jack and Sylvia Gin Foundation", "designationCode": "B", "categoryCode": "05", "address": "2900 - 550 BURRARD ST", "city": "VANCOUVER", "province": "BC", "country": "CA", "postalCode": "V6C0A3", "twitter": "None", "instagram": "None", "facebook": "None", "youtube": "None", "website": "None", "summary": "None", "logo": "None", "latitude": 49.28596391921073, "longitude": -123.11870289255033}, "846530293RR0001": {"name": "Jack Cohen Family Foundation", "designationCode": "B", "categoryCode": "03", "address": "74 WEST CORDOVA STREET", "city": "VANCOUVER", "province": "BC", "country": "CA", "postalCode": "V6B1C9", "twitter": "None", "instagram": "None", "facebook": "None", "youtube": "None", "website": "None", "summary": "None", "logo": "None", "latitude": 49.28271092602075, "longitude": -123.10613743812199}, "806304812RR0001": {"name": "Jack Millikin Centre, Inc.", "designationCode": "C", "categoryCode": "22", "address": "718-10TH STREET EAST", "city": "SASKATOON", "province": "SK", "country": "CA", "postalCode": "S7H0H2", "twitter": "None", "instagram": "None", "facebook": "None", "youtube": "None", "website": "None", "summary": "None", "logo": "None", "latitude": 52.11775854674261, "longitude": -106.65261063918865}, "848521837RR0001": {"name": "Jack.org", "designationCode": "C", "categoryCode": "19", "address": "505 - 192 SPADINA AVE", "city": "TORONTO", "province": "ON", "country": "CA", "postalCode": "M5T2C2", "twitter": "None", "instagram": "None", "facebook": "None", "youtube": "None", "website": "None", "summary": "None", "logo": "None", "latitude": 43.65006348291888, "longitude": -79.397016124675}, "831661251RR0001": {"name": "Jackie Pennock Family Foundation", "designationCode": "B", "categoryCode": "03", "address": "2201 TD TOWER                 10088-102 AVENUE NW", "city": "EDMONTON", "province": "AB", "country": "CA", "postalCode": "T5J2Z1", "twitter": "None", "instagram": "None", "facebook": "None", "youtube": "None", "website": "None", "summary": "None", "logo": "None", "latitude": 53.54326003447939, "longitude": -113.49252001500362}, "806961249RR0001": {"name": "Jacky Comeau & Friends Cancer Help Fund Association", "designationCode": "C", "categoryCode": "09", "address": "1706 SECOND DIVISION ROAD", "city": "METEGHAN RIVER", "province": "NS", "country": "CA", "postalCode": "B0W2L0", "twitter": "None", "instagram": "None", "facebook": "None", "youtube": "None", "website": "None", "summary": "None", "logo": "None", "latitude": 44.21024271911256, "longitude": -66.08737750441473}, "843598509RR0001": {"name": "Jacma Foundation", "designationCode": "B", "categoryCode": "05", "address": "82 SPRUCE HILL ROAD", "city": "TORONTO", "province": "ON", "country": "CA", "postalCode": "M4E3G3", "twitter": "None", "instagram": "None", "facebook": "None", "youtube": "None", "website": "None", "summary": "None", "logo": "None", "latitude": 43.67463312600268, "longitude": -79.28972529935355}, "804240109RR0001": {"name": "Jacob Bear Community Church Corp.", "designationCode": "C", "categoryCode": "39", "address": "PO BOX 729", "city": "BROADVIEW", "province": "SK", "country": "CA", "postalCode": "S0G0K0", "twitter": "None", "instagram": "None", "facebook": "None", "youtube": "None", "website": "None", "summary": "None", "logo": "None", "latitude": 50.378010000000074, "longitude": -102.58020999999997}, "845455484RR0001": {"name": "Jacob Foundation", "designationCode": "A", "categoryCode": "03", "address": "SUITE 1165                    5328 CALGARY TRAIL NW", "city": "EDMONTON", "province": "AB", "country": "CA", "postalCode": "T6H4J8", "twitter": "None", "instagram": "None", "facebook": "None", "youtube": "None", "website": "None", "summary": "None", "logo": "None", "latitude": 53.49123769080735, "longitude": -113.49539595798925}, "792774291RR0001": {"name": "Jacques Family Foundation Inc.", "designationCode": "B", "categoryCode": "03", "address": "2712 MARQUETTE ST. SW", "city": "CALGARY", "province": "AB", "country": "CA", "postalCode": "T2T3E3", "twitter": "None", "instagram": "None", "facebook": "None", "youtube": "None", "website": "None", "summary": "None", "logo": "None", "latitude": 51.02839593588783, "longitude": -114.08462022049751}, "854957990RR0001": {"name": "Jade's KIDS Foundation (Kids Independent of Drugs)", "designationCode": "C", "categoryCode": "57", "address": "2300 - 1177 HASTINGS ST W", "city": "VANCOUVER", "province": "BC", "country": "CA", "postalCode": "V6E2K3", "twitter": "None", "instagram": "None", "facebook": "None", "youtube": "None", "website": "None", "summary": "None", "logo": "None", "latitude": 49.288649048588965, "longitude": -123.1221220732588}, "797777695RR0001": {"name": "Jael Ministries", "designationCode": "C", "categoryCode": "39", "address": "135 TOWERHILL RD", "city": "PETERBOROUGH", "province": "ON", "country": "CA", "postalCode": "K9H7M7", "twitter": "None", "instagram": "None", "facebook": "None", "youtube": "None", "website": "None", "summary": "None", "logo": "None", "latitude": 44.33255718316132, "longitude": -78.33227042365414}, "896221512RR0001": {"name": "Jafri Islamic Centre of Canada", "designationCode": "C", "categoryCode": "60", "address": "1219 OTTAWA STREET", "city": "WINDSOR", "province": "ON", "country": "CA", "postalCode": "N8X2E5", "twitter": "None", "instagram": "None", "facebook": "None", "youtube": "None", "website": "None", "summary": "None", "logo": "None", "latitude": 42.30954136329286, "longitude": -83.01300466665711}, "862264223RR0001": {"name": "Jake's House for Autistic Children", "designationCode": "C", "categoryCode": "09", "address": "11 KING GEORGES DRIVE", "city": "TORONTO", "province": "ON", "country": "CA", "postalCode": "M6M2H1", "twitter": "None", "instagram": "None", "facebook": "None", "youtube": "None", "website": "None", "summary": "None", "logo": "None", "latitude": 43.69523090034061, "longitude": -79.47755479349651}, "835187402RR0001": {"name": "Jakob and Ester Korman Foundation", "designationCode": "B", "categoryCode": "03", "address": "101 FRONTENAC AVENUE", "city": "TORONTO", "province": "ON", "country": "CA", "postalCode": "M5N1Z8", "twitter": "None", "instagram": "None", "facebook": "None", "youtube": "None", "website": "None", "summary": "None", "logo": "None", "latitude": 43.71724886037865, "longitude": -79.42691812155927}, "806405957RR0001": {"name": "Jalia Africa Foundation", "designationCode": "C", "categoryCode": "09", "address": "1500 WEST GEORGIA STREET      SUITE 1250 BOX 62", "city": "VANCOUVER", "province": "BC", "country": "CA", "postalCode": "V6G2Z6", "twitter": "None", "instagram": "None", "facebook": "None", "youtube": "None", "website": "None", "summary": "None", "logo": "None", "latitude": 49.2900638104334, "longitude": -123.12989899362336}, "840785554RR0001": {"name": "Jam Tse Cho Ling Dharma Centre", "designationCode": "C", "categoryCode": "35", "address": "598 BROWNS LINE", "city": "TORONTO", "province": "ON", "country": "CA", "postalCode": "M8W3V5", "twitter": "None", "instagram": "None", "facebook": "None", "youtube": "None", "website": "None", "summary": "None", "logo": "None", "latitude": 43.60512152677597, "longitude": -79.54675358413614}, "883166506RR0001": {"name": "Jamaal Magloire Charitable Foundation", "designationCode": "A", "categoryCode": "03", "address": "1285 YORK MILLS ROAD          BOX 33502", "city": "TORONTO", "province": "ON", "country": "CA", "postalCode": "M3A1Z5", "twitter": "None", "instagram": "None", "facebook": "None", "youtube": "None", "website": "None", "summary": "None", "logo": "None", "latitude": 43.761158594973956, "longitude": -79.32518961411179}, "812864171RR0001": {"name": "Jamaican Canadian Association of Nurses", "designationCode": "C", "categoryCode": "19", "address": "309-1235 BAYLY STREET", "city": "PICKERING", "province": "ON", "country": "CA", "postalCode": "L1W1L7", "twitter": "None", "instagram": "None", "facebook": "None", "youtube": "None", "website": "None", "summary": "None", "logo": "None", "latitude": 43.82851459468801, "longitude": -79.0891651414583}, "840155279RR0001": {"name": "Jamais lu", "designationCode": "C", "categoryCode": "22", "address": "7285, RUE CHABOT", "city": "MONTR\u00c9AL", "province": "QC", "country": "CA", "postalCode": "H2E2K7", "twitter": "None", "instagram": "None", "facebook": "None", "youtube": "None", "website": "None", "summary": "None", "logo": "None", "latitude": 45.54995223925208, "longitude": -73.60782011933757}, "801035809RR0001": {"name": "Jame John Ministries", "designationCode": "C", "categoryCode": "47", "address": "1610-65 WYNFORD HEIGHTS CRES", "city": "TORONTO", "province": "ON", "country": "CA", "postalCode": "M3C1L7", "twitter": "None", "instagram": "None", "facebook": "None", "youtube": "None", "website": "None", "summary": "None", "logo": "None", "latitude": 43.727519539903696, "longitude": -79.32570698805571}, "843034208RR0001": {"name": "James & Margaret Chim Charitable Foundation", "designationCode": "B", "categoryCode": "03", "address": "7650 BIRCHMOUNT ROAD", "city": "MARKHAM", "province": "ON", "country": "CA", "postalCode": "L3R6B9", "twitter": "None", "instagram": "None", "facebook": "None", "youtube": "None", "website": "None", "summary": "None", "logo": "None", "latitude": 43.83840908130887, "longitude": -79.31984696927063}, "821024395RR0001": {"name": "James & Terry Burns Foundation", "designationCode": "B", "categoryCode": "03", "address": "120 ADELAIDE ST. WEST         SUITE 2150", "city": "TORONTO", "province": "ON", "country": "CA", "postalCode": "M5H1T1", "twitter": "None", "instagram": "None", "facebook": "None", "youtube": "None", "website": "None", "summary": "None", "logo": "None", "latitude": 43.649477136880044, "longitude": -79.38292947726339}, "823715719RR0001": {"name": "James and Penny Rogers Charitable Foundation", "designationCode": "B", "categoryCode": "03", "address": "6333 CEDARHURST ST", "city": "VANCOUVER", "province": "BC", "country": "CA", "postalCode": "V6N1H9", "twitter": "None", "instagram": "None", "facebook": "None", "youtube": "None", "website": "None", "summary": "None", "logo": "None", "latitude": 49.22919150874259, "longitude": -123.17166348006201}, "846574101RR0001": {"name": "James Family Foundation", "designationCode": "B", "categoryCode": "03", "address": "1800 - 510 GEORGIA ST W", "city": "VANCOUVER", "province": "BC", "country": "CA", "postalCode": "V6B0M3", "twitter": "None", "instagram": "None", "facebook": "None", "youtube": "None", "website": "None", "summary": "None", "logo": "None", "latitude": 49.281267759207665, "longitude": -123.11633309804196}, "717629299RR0001": {"name": "Jamia Barkatia Mecca Masjid", "designationCode": "C", "categoryCode": "60", "address": "24 CEDARVIEW DRIVE", "city": "TORONTO", "province": "ON", "country": "CA", "postalCode": "M1C2K6", "twitter": "None", "instagram": "None", "facebook": "None", "youtube": "None", "website": "None", "summary": "None", "logo": "None", "latitude": 43.78810660338165, "longitude": -79.15454729505437}}