{"805654829RR0001": {"name": "Prince Rupert and District Hospice Society, 2009", "designationCode": "C", "categoryCode": "01", "address": "BOX 191", "city": "PRINCE RUPERT", "province": "BC", "country": "CA", "postalCode": "V8J3P6", "twitter": "None", "instagram": "None", "facebook": "None", "youtube": "None", "website": "None", "summary": "None", "logo": "None", "latitude": 54.313233000000054, "longitude": -130.32604249999994}, "107859258RR0001": {"name": "Prince Rupert Association For Community Living", "designationCode": "C", "categoryCode": "11", "address": "PO BOX 442", "city": "PRINCE RUPERT", "province": "BC", "country": "CA", "postalCode": "V8J3R2", "twitter": "None", "instagram": "None", "facebook": "None", "youtube": "None", "website": "None", "summary": "None", "logo": "None", "latitude": 54.313233000000054, "longitude": -130.32604249999994}, "807769823RR0001": {"name": "Prince Rupert Presbytery", "designationCode": "C", "categoryCode": "44", "address": "60 KOOTENAY ST", "city": "KITIMAT", "province": "BC", "country": "CA", "postalCode": "V8C1X3", "twitter": "None", "instagram": "None", "facebook": "None", "youtube": "None", "website": "None", "summary": "None", "logo": "None", "latitude": 54.05280425728549, "longitude": -128.66006773163468}, "832295406RR0001": {"name": "Prince's Charities Canada", "designationCode": "C", "categoryCode": "03", "address": "1400 - 22 ST CLAIR AVE E", "city": "TORONTO", "province": "ON", "country": "CA", "postalCode": "M4T2S5", "twitter": "None", "instagram": "None", "facebook": "None", "youtube": "None", "website": "None", "summary": "None", "logo": "None", "latitude": 43.690058011175346, "longitude": -79.38485244552025}, "119103844RR0001": {"name": "Princess Patricia's Canadian Light Infantry Fund", "designationCode": "C", "categoryCode": "51", "address": "P.O. BOX 10500 STATION FORCES", "city": "EDMONTON", "province": "AB", "country": "CA", "postalCode": "T5J4J5", "twitter": "None", "instagram": "None", "facebook": "None", "youtube": "None", "website": "None", "summary": "None", "logo": "None", "latitude": 53.54623500000005, "longitude": -113.49037249999994}, "890915325RR0001": {"name": "Princeton Community Arts Council Society", "designationCode": "C", "categoryCode": "22", "address": "POST OFFICE BOX 1884", "city": "PRINCETON", "province": "BC", "country": "CA", "postalCode": "V0X1W0", "twitter": "None", "instagram": "None", "facebook": "None", "youtube": "None", "website": "None", "summary": "None", "logo": "None", "latitude": 49.458687000000054, "longitude": -120.50591299999994}, "846090017RR0001": {"name": "Princeton Traditional Music Society", "designationCode": "C", "categoryCode": "22", "address": "154 HALLIFORD AVE             BOX 2451", "city": "PRINCETON", "province": "BC", "country": "CA", "postalCode": "V0X1W0", "twitter": "None", "instagram": "None", "facebook": "None", "youtube": "None", "website": "None", "summary": "None", "logo": "None", "latitude": 49.45878180025722, "longitude": -120.50795032478237}, "852745314RR0001": {"name": "Printemps des po\u00e8tes du Qu\u00e9bec", "designationCode": "C", "categoryCode": "22", "address": "B-001 - 870, AVENUE DE        SALABERRY", "city": "QU\u00c9BEC", "province": "QC", "country": "CA", "postalCode": "G1R2T9", "twitter": "None", "instagram": "None", "facebook": "None", "youtube": "None", "website": "None", "summary": "None", "logo": "None", "latitude": 46.80589182679337, "longitude": -71.22672208246271}, "825242589RR0001": {"name": "Prior Chest Nuts", "designationCode": "C", "categoryCode": "11", "address": "58 WOLFF CRES", "city": "ARNPRIOR", "province": "ON", "country": "CA", "postalCode": "K7S0B9", "twitter": "None", "instagram": "None", "facebook": "None", "youtube": "None", "website": "None", "summary": "None", "logo": "None", "latitude": 45.430228872534926, "longitude": -76.34841416527826}, "845044296RR0001": {"name": "Priority Foundation", "designationCode": "A", "categoryCode": "03", "address": "1500 WEST GEORGIA STREET      SUITE 1250   BOX 62", "city": "VANCOUVER", "province": "BC", "country": "CA", "postalCode": "V6G2Z6", "twitter": "None", "instagram": "None", "facebook": "None", "youtube": "None", "website": "None", "summary": "None", "logo": "None", "latitude": 49.2900638104334, "longitude": -123.12989899362336}, "803492925RR0001": {"name": "Prison Christian Ministries Inc.", "designationCode": "C", "categoryCode": "39", "address": "111 RIVERSIDE DRIVE", "city": "FREDERICTON", "province": "NB", "country": "CA", "postalCode": "E3A3X9", "twitter": "None", "instagram": "None", "facebook": "None", "youtube": "None", "website": "None", "summary": "None", "logo": "None", "latitude": 45.94922067389915, "longitude": -66.62235246803081}, "812187177RR0001": {"name": "Prison Fellowship International Canada", "designationCode": "C", "categoryCode": "01", "address": "873362 FIFTH LINE EHS", "city": "MONO", "province": "ON", "country": "CA", "postalCode": "L9W6A5", "twitter": "None", "instagram": "None", "facebook": "None", "youtube": "None", "website": "None", "summary": "None", "logo": "None", "latitude": 43.969694049562946, "longitude": -80.00824971473224}, "801587437RR0001": {"name": "Prix de la danse de Montr\u00e9al/ Montreal dance awards", "designationCode": "C", "categoryCode": "22", "address": "4499 AV. DE L'ESPLANADE", "city": "MONTR\u00c9AL", "province": "QC", "country": "CA", "postalCode": "H2W1T2", "twitter": "None", "instagram": "None", "facebook": "None", "youtube": "None", "website": "None", "summary": "None", "logo": "None", "latitude": 45.518271243147225, "longitude": -73.58769058269385}, "841319635RR0001": {"name": "Pro Bono Canada", "designationCode": "A", "categoryCode": "59", "address": "900 - 90 EGLINTON AVE E", "city": "TORONTO", "province": "ON", "country": "CA", "postalCode": "M4P2Y3", "twitter": "None", "instagram": "None", "facebook": "None", "youtube": "None", "website": "None", "summary": "None", "logo": "None", "latitude": 43.7089009100495, "longitude": -79.38780176683875}, "851669796RR0001": {"name": "Pro Bono Law Alberta Society", "designationCode": "C", "categoryCode": "09", "address": "401-255 17 AVE SW", "city": "CALGARY", "province": "AB", "country": "CA", "postalCode": "T2S2T8", "twitter": "None", "instagram": "None", "facebook": "None", "youtube": "None", "website": "None", "summary": "None", "logo": "None", "latitude": 51.03779454674262, "longitude": -114.06820058381903}, "814089017RR0001": {"name": "Pro Bono Law Saskatchewan Inc.", "designationCode": "C", "categoryCode": "59", "address": "1100 - 2002 VICTORIA AVENUE", "city": "REGINA", "province": "SK", "country": "CA", "postalCode": "S4P0R7", "twitter": "None", "instagram": "None", "facebook": "None", "youtube": "None", "website": "None", "summary": "None", "logo": "None", "latitude": 50.44725351875454, "longitude": -104.6098125}, "841250509RR0001": {"name": "Pro Labore Dei Inc", "designationCode": "C", "categoryCode": "09", "address": "50 QUEBEC STREET              THE ROYAL CITY CHURCH BUILDING", "city": "GUELPH", "province": "ON", "country": "CA", "postalCode": "N1H2T4", "twitter": "None", "instagram": "None", "facebook": "None", "youtube": "None", "website": "None", "summary": "None", "logo": "None", "latitude": 43.54572723454888, "longitude": -80.25037578157995}, "826475022RR0001": {"name": "Pro Motion Research Institute", "designationCode": "C", "categoryCode": "21", "address": "3713 KENSINGTON AVENUE", "city": "BURNABY", "province": "BC", "country": "CA", "postalCode": "V5B0A7", "twitter": "None", "instagram": "None", "facebook": "None", "youtube": "None", "website": "None", "summary": "None", "logo": "None", "latitude": 49.25303464244902, "longitude": -122.96668061872015}, "841014285RR0001": {"name": "Pro-Ancrage Inc", "designationCode": "C", "categoryCode": "09", "address": "2 - 645, 79 IEME AVENUE", "city": "LAVAL", "province": "QC", "country": "CA", "postalCode": "H7V3H8", "twitter": "None", "instagram": "None", "facebook": "None", "youtube": "None", "website": "None", "summary": "None", "logo": "None", "latitude": 45.53976194477461, "longitude": -73.74213991796998}, "807981840RR0001": {"name": "Pro-Vision Laval", "designationCode": "C", "categoryCode": "09", "address": "34L BOUL CARTIER O", "city": "LAVAL", "province": "QC", "country": "CA", "postalCode": "H7N2H3", "twitter": "None", "instagram": "None", "facebook": "None", "youtube": "None", "website": "None", "summary": "None", "logo": "None", "latitude": 45.55952205008283, "longitude": -73.68596038262753}, "848467106RR0001": {"name": "Proceeding Word Church", "designationCode": "C", "categoryCode": "39", "address": "626 TOMAHAWK CRES", "city": "ANCASTER", "province": "ON", "country": "CA", "postalCode": "L9G3T5", "twitter": "None", "instagram": "None", "facebook": "None", "youtube": "None", "website": "None", "summary": "None", "logo": "None", "latitude": 43.224932366928186, "longitude": -79.9609216999826}, "801913682RR0001": {"name": "Proches aidants des Chenaux", "designationCode": "C", "categoryCode": "11", "address": "44, CHEMIN RIVI\u00c8RE-\u00c0-VEILLET  BUREAU 200", "city": "SAINTE-GENEVI\u00c8VE-DE-BATISCAN", "province": "QC", "country": "CA", "postalCode": "G0X2R0", "twitter": "None", "instagram": "None", "facebook": "None", "youtube": "None", "website": "None", "summary": "None", "logo": "None", "latitude": 46.539452032200316, "longitude": -72.34180426236405}, "825529969RR0001": {"name": "Procure Saint-Fran\u00e7ois-d'Assise", "designationCode": "C", "categoryCode": "39", "address": "3650 BOUL DE LA ROUSSELIERE", "city": "POINTE-AUX-TREMBLES", "province": "QC", "country": "CA", "postalCode": "H1A2X9", "twitter": "None", "instagram": "None", "facebook": "None", "youtube": "None", "website": "None", "summary": "None", "logo": "None", "latitude": 45.67050432283996, "longitude": -73.51178670863827}, "805301660RR0001": {"name": "Productions Art Gospel / Gospel Art Productions", "designationCode": "C", "categoryCode": "47", "address": "13 RUE CENTRE", "city": "STANSTEAD", "province": "QC", "country": "CA", "postalCode": "J0B3E0", "twitter": "None", "instagram": "None", "facebook": "None", "youtube": "None", "website": "None", "summary": "None", "logo": "None", "latitude": 45.01871890980432, "longitude": -72.08990321634258}, "857984462RR0001": {"name": "Productions Quitte ou Double", "designationCode": "C", "categoryCode": "22", "address": "6571 1RE AV", "city": "MONTREAL", "province": "QC", "country": "CA", "postalCode": "H1Y3B2", "twitter": "None", "instagram": "None", "facebook": "None", "youtube": "None", "website": "None", "summary": "None", "logo": "None", "latitude": 45.550825133792976, "longitude": -73.59135774741773}, "768980328RR0001": {"name": "Prof. Dr. SC. Jasna Simunic-Hrvoic Foundation", "designationCode": "B", "categoryCode": "21", "address": "135 SPY COURT,", "city": "MARKHAM", "province": "ON", "country": "CA", "postalCode": "L3R5H6", "twitter": "None", "instagram": "None", "facebook": "None", "youtube": "None", "website": "None", "summary": "None", "logo": "None", "latitude": 43.85599885316529, "longitude": -79.35511518962485}, "104317375RR0001": {"name": "Professional Association of Canadian Theatres / Association professionnelle des theatres canadiens", "designationCode": "C", "categoryCode": "81", "address": "555-215 SPADINA AVE", "city": "TORONTO", "province": "ON", "country": "CA", "postalCode": "M5T2C7", "twitter": "None", "instagram": "None", "facebook": "None", "youtube": "None", "website": "None", "summary": "None", "logo": "None", "latitude": 43.65063316348313, "longitude": -79.39697013165816}, "808967301RR0001": {"name": "Profound Walk With God Ministry (Pentecostal Calgary)", "designationCode": "C", "categoryCode": "39", "address": "31 EVANSBOROUGH WAY NW", "city": "CALGARY", "province": "AB", "country": "CA", "postalCode": "T3P0M2", "twitter": "None", "instagram": "None", "facebook": "None", "youtube": "None", "website": "None", "summary": "None", "logo": "None", "latitude": 51.18054853205609, "longitude": -114.12001577283738}, "134643527RR0001": {"name": "Programme d'Information sur le Travail et la Recherche d'Emploi de Montr\u00e9al (PITREM)", "designationCode": "C", "categoryCode": "01", "address": "7962 RUE HOCHELAGA            2E \u00c9TAGE", "city": "MONTREAL", "province": "QC", "country": "CA", "postalCode": "H1L2K8", "twitter": "None", "instagram": "None", "facebook": "None", "youtube": "None", "website": "None", "summary": "None", "logo": "None", "latitude": 45.594153733827724, "longitude": -73.52389830610556}, "816370837RR0001": {"name": "Programme de bien-\u00eatre cardiaque de L'Ouest de L'\u00cele inc. / West Island Cardiac Wellness Program Inc.", "designationCode": "C", "categoryCode": "11", "address": "120, AVENUE PRINCE-RUPERT", "city": "POINTE-CLAIRE", "province": "QC", "country": "CA", "postalCode": "H9R1M2", "twitter": "None", "instagram": "None", "facebook": "None", "youtube": "None", "website": "None", "summary": "None", "logo": "None", "latitude": 45.45329009915001, "longitude": -73.82641928977151}, "800986069RR0001": {"name": "Progressive Living Christian Centre (Scarborough)", "designationCode": "C", "categoryCode": "39", "address": "3739 LAWRENCE AVENUE EAST,", "city": "SCARBOROUGH", "province": "ON", "country": "CA", "postalCode": "M1G1P7", "twitter": "None", "instagram": "None", "facebook": "None", "youtube": "None", "website": "None", "summary": "None", "logo": "None", "latitude": 43.76152505248849, "longitude": -79.21690179855774}, "807124292RR0001": {"name": "Progressive Living Church International", "designationCode": "C", "categoryCode": "39", "address": "159 PRESSED BRICK DR", "city": "BRAMPTON", "province": "ON", "country": "CA", "postalCode": "L6V4K6", "twitter": "None", "instagram": "None", "facebook": "None", "youtube": "None", "website": "None", "summary": "None", "logo": "None", "latitude": 43.706393014166935, "longitude": -79.777310813232}, "861909356RR0001": {"name": "Project for the Advancement of Childhood Education (Canada)", "designationCode": "C", "categoryCode": "21", "address": "1390 EGLINTON AVE W", "city": "TORONTO", "province": "ON", "country": "CA", "postalCode": "M6C2E4", "twitter": "None", "instagram": "None", "facebook": "None", "youtube": "None", "website": "None", "summary": "None", "logo": "None", "latitude": 43.69837015794321, "longitude": -79.43791898058161}, "808885115RR0001": {"name": "Project Aim Programs", "designationCode": "C", "categoryCode": "21", "address": "30 FAIRHOLME AVE", "city": "TORONTO", "province": "ON", "country": "CA", "postalCode": "M6B2W5", "twitter": "None", "instagram": "None", "facebook": "None", "youtube": "None", "website": "None", "summary": "None", "logo": "None", "latitude": 43.71790511408613, "longitude": -79.4320485133302}, "807839220RR0001": {"name": "Project Aseret", "designationCode": "C", "categoryCode": "47", "address": "8920 WOODBINE AVENUE          SUITE 300", "city": "MARKHAM", "province": "ON", "country": "CA", "postalCode": "L3R9W9", "twitter": "None", "instagram": "None", "facebook": "None", "youtube": "None", "website": "None", "summary": "None", "logo": "None", "latitude": 43.860032717727556, "longitude": -79.36073686184962}, "815192299RR0001": {"name": "Project Blue Blanket", "designationCode": "B", "categoryCode": "05", "address": "546, 102-17750 #10 HWY", "city": "CLOVERDALE", "province": "BC", "country": "CA", "postalCode": "V3S1K4", "twitter": "None", "instagram": "None", "facebook": "None", "youtube": "None", "website": "None", "summary": "None", "logo": "None", "latitude": 49.104070526930414, "longitude": -122.73066407233846}, "827257569RR0001": {"name": "Project Bookmark Canada", "designationCode": "C", "categoryCode": "21", "address": "400 - 215 SPADINA AVE", "city": "TORONTO", "province": "ON", "country": "CA", "postalCode": "M5T2C7", "twitter": "None", "instagram": "None", "facebook": "None", "youtube": "None", "website": "None", "summary": "None", "logo": "None", "latitude": 43.65063316348313, "longitude": -79.39697013165816}, "817850381RR0001": {"name": "Project Change Foundation", "designationCode": "A", "categoryCode": "03", "address": "1335 PARKINSON RD", "city": "WEST KELOWNA", "province": "BC", "country": "CA", "postalCode": "V1Z2R7", "twitter": "None", "instagram": "None", "facebook": "None", "youtube": "None", "website": "None", "summary": "None", "logo": "None", "latitude": 49.89730210851753, "longitude": -119.54898033692092}, "805088861RR0001": {"name": "Project Echo Inc.", "designationCode": "C", "categoryCode": "09", "address": "91 LOWSON CR", "city": "WINNIPEG", "province": "MB", "country": "CA", "postalCode": "R3P0T3", "twitter": "None", "instagram": "None", "facebook": "None", "youtube": "None", "website": "None", "summary": "None", "logo": "None", "latitude": 49.83839062308849, "longitude": -97.20587941274812}, "777176124RR0001": {"name": "Project Echo-Feral Cat Consulting", "designationCode": "C", "categoryCode": "54", "address": "POST OFFICE BOX 282", "city": "OAKVILLE", "province": "MB", "country": "CA", "postalCode": "R0H0Y0", "twitter": "None", "instagram": "None", "facebook": "None", "youtube": "None", "website": "None", "summary": "None", "logo": "None", "latitude": 49.92975000000007, "longitude": -98.00394999999997}, "844903427RR0001": {"name": "Project Give Back for Youth", "designationCode": "C", "categoryCode": "20", "address": "22 ST.CLAIR AVE E             SUITE 1010", "city": "TORONTO", "province": "ON", "country": "CA", "postalCode": "M4T2S3", "twitter": "None", "instagram": "None", "facebook": "None", "youtube": "None", "website": "None", "summary": "None", "logo": "None", "latitude": 43.688336132408, "longitude": -79.39301839967676}, "821453503RR0001": {"name": "Project Harvest - Proyecto Cosecha", "designationCode": "C", "categoryCode": "09", "address": "17 PANCAKE LANE", "city": "FONTHILL", "province": "ON", "country": "CA", "postalCode": "L0S1E2", "twitter": "None", "instagram": "None", "facebook": "None", "youtube": "None", "website": "None", "summary": "None", "logo": "None", "latitude": 43.03450452986305, "longitude": -79.28929311226844}, "851687046RR0001": {"name": "Project Life Initiatives", "designationCode": "C", "categoryCode": "09", "address": "191 HIGHBOURNE RD", "city": "TORONTO", "province": "ON", "country": "CA", "postalCode": "M5P2J8", "twitter": "None", "instagram": "None", "facebook": "None", "youtube": "None", "website": "None", "summary": "None", "logo": "None", "latitude": 43.70451997752319, "longitude": -79.40724800455898}, "813476868RR0001": {"name": "Project Lifesaver Association of Nova Scotia", "designationCode": "C", "categoryCode": "59", "address": "201 - 35 WEBSTER ST", "city": "KENTVILLE", "province": "NS", "country": "CA", "postalCode": "B4N1H4", "twitter": "None", "instagram": "None", "facebook": "None", "youtube": "None", "website": "None", "summary": "None", "logo": "None", "latitude": 45.07849799896582, "longitude": -64.49794558903767}, "825033731RR0001": {"name": "Project Lifesaver P.E.I Inc.", "designationCode": "C", "categoryCode": "59", "address": "222 SHORE ROAD                RURAL ROUTE 1", "city": "CRAPAUD", "province": "PE", "country": "CA", "postalCode": "C0A1J0", "twitter": "None", "instagram": "None", "facebook": "None", "youtube": "None", "website": "None", "summary": "None", "logo": "None", "latitude": 46.205822895107346, "longitude": -63.469984550651255}, "847797685RR0001": {"name": "Project Limelight Society", "designationCode": "C", "categoryCode": "22", "address": "717 HASTINGS ST E", "city": "VANCOUVER", "province": "BC", "country": "CA", "postalCode": "V6A1R3", "twitter": "None", "instagram": "None", "facebook": "None", "youtube": "None", "website": "None", "summary": "None", "logo": "None", "latitude": 49.28116445325739, "longitude": -123.08863097155057}, "869885137RR0001": {"name": "Project Linus Canada", "designationCode": "C", "categoryCode": "09", "address": "PO BOX 4468", "city": "STONEWALL", "province": "MB", "country": "CA", "postalCode": "R0C2Z0", "twitter": "None", "instagram": "None", "facebook": "None", "youtube": "None", "website": "None", "summary": "None", "logo": "None", "latitude": 50.36947800000006, "longitude": -96.84479599999993}, "859128654RR0001": {"name": "Project Tanzania", "designationCode": "B", "categoryCode": "09", "address": "438 BRAE GLEN CRESCENT SW", "city": "CALGARY", "province": "AB", "country": "CA", "postalCode": "T2W1B6", "twitter": "None", "instagram": "None", "facebook": "None", "youtube": "None", "website": "None", "summary": "None", "logo": "None", "latitude": 50.957435536211044, "longitude": -114.10579311226844}, "848243606RR0001": {"name": "Project Terra Firma of Canada/Projet Terra Firma du Canada", "designationCode": "C", "categoryCode": "09", "address": "3800-200 BAY STREET P O BOX 84ROYAL BANK PLAZA, SOUTH TOWER", "city": "TORONTO", "province": "ON", "country": "CA", "postalCode": "M5J2Z4", "twitter": "None", "instagram": "None", "facebook": "None", "youtube": "None", "website": "None", "summary": "None", "logo": "None", "latitude": 43.64868300000006, "longitude": -79.38544399999994}, "802872564RR0001": {"name": "Project Triple Play Inc.", "designationCode": "C", "categoryCode": "56", "address": "32 GUY DRIVE", "city": "PRINCE ALBERT", "province": "SK", "country": "CA", "postalCode": "S6X0A3", "twitter": "None", "instagram": "None", "facebook": "None", "youtube": "None", "website": "None", "summary": "None", "logo": "None", "latitude": 53.197045344711206, "longitude": -105.70240169980973}, "857807044RR0001": {"name": "Project: Steps to Christ, Inc.", "designationCode": "C", "categoryCode": "39", "address": "16593 CEDARVALE ROAD", "city": "NEWINGTON", "province": "ON", "country": "CA", "postalCode": "K0C1Y0", "twitter": "None", "instagram": "None", "facebook": "None", "youtube": "None", "website": "None", "summary": "None", "logo": "None", "latitude": 45.15402643963871, "longitude": -74.9256706305903}, "821299773RR0001": {"name": "Projections lib\u00e9rantes", "designationCode": "C", "categoryCode": "22", "address": "42 - 3509 RUE HUTCHISON", "city": "MONTREAL", "province": "QC", "country": "CA", "postalCode": "H2X2H1", "twitter": "None", "instagram": "None", "facebook": "None", "youtube": "None", "website": "None", "summary": "None", "logo": "None", "latitude": 45.508995166541546, "longitude": -73.574468440591}, "847627569RR0001": {"name": "Projects for Educational Advancement Relief and Literacy", "designationCode": "C", "categoryCode": "21", "address": "355 HESPELER ROAD             PO BOX 20014", "city": "CAMBRIDGE", "province": "ON", "country": "CA", "postalCode": "N1R8C8", "twitter": "None", "instagram": "None", "facebook": "None", "youtube": "None", "website": "None", "summary": "None", "logo": "None", "latitude": 43.39171119347944, "longitude": -80.32271260910449}, "131248015RR0001": {"name": "Projet ado communautaire en travail de rue", "designationCode": "C", "categoryCode": "09", "address": "200-8105 DE GASP\u00c9", "city": "MONTR\u00c9AL", "province": "QC", "country": "CA", "postalCode": "H2P2J9", "twitter": "None", "instagram": "None", "facebook": "None", "youtube": "None", "website": "None", "summary": "None", "logo": "None", "latitude": 45.540834768031175, "longitude": -73.63041410746828}, "817956709RR0001": {"name": "Projet d' Engagement Communautaire au Kenya (PECK)", "designationCode": "C", "categoryCode": "09", "address": "2615 RUE CLEMENT", "city": "QUEBEC", "province": "QC", "country": "CA", "postalCode": "G2N0A2", "twitter": "None", "instagram": "None", "facebook": "None", "youtube": "None", "website": "None", "summary": "None", "logo": "None", "latitude": 46.943259348606325, "longitude": -71.35705490328345}, "831268354RR0001": {"name": "Projet de la r\u00e9alit\u00e9 climatique Canada/ The Climate Reality Project Canada", "designationCode": "C", "categoryCode": "59", "address": "50 STE CATHERINE STREET WEST  OFFICE 540", "city": "MONTREAL", "province": "QC", "country": "CA", "postalCode": "H2X3V4", "twitter": "None", "instagram": "None", "facebook": "None", "youtube": "None", "website": "None", "summary": "None", "logo": "None", "latitude": 45.50894347293556, "longitude": -73.56455956090953}, "783995095RR0001": {"name": "Projet Brion", "designationCode": "B", "categoryCode": "52", "address": "84 CH DES ECHOUERIES", "city": "HAVRE-AUX-MAISONS", "province": "QC", "country": "CA", "postalCode": "G4T5J6", "twitter": "None", "instagram": "None", "facebook": "None", "youtube": "None", "website": "None", "summary": "None", "logo": "None", "latitude": 47.3922790798249, "longitude": -61.77729581124742}, "801749813RR0001": {"name": "Projet F.E.L.I.X.", "designationCode": "C", "categoryCode": "56", "address": "838 RUE DE L'ESCUMINAC", "city": "TERREBONNE", "province": "QC", "country": "CA", "postalCode": "J6W5H2", "twitter": "None", "instagram": "None", "facebook": "None", "youtube": "None", "website": "None", "summary": "None", "logo": "None", "latitude": 45.71320854258767, "longitude": -73.64340003999061}, "800795981RR0001": {"name": "Projet F\u00e9es Marraines", "designationCode": "C", "categoryCode": "09", "address": "4 RUE D'ECHENAY", "city": "LORRAINE", "province": "QC", "country": "CA", "postalCode": "J6Z2V1", "twitter": "None", "instagram": "None", "facebook": "None", "youtube": "None", "website": "None", "summary": "None", "logo": "None", "latitude": 45.66492716734962, "longitude": -73.77292027159662}, "851296319RR0001": {"name": "Projet Int\u00e9gration Autismopolis", "designationCode": "C", "categoryCode": "11", "address": "137 RUE SAINT-JACQUES", "city": "SAINT-JEAN-SUR-RICHELIEU", "province": "QC", "country": "CA", "postalCode": "J3B2K2", "twitter": "None", "instagram": "None", "facebook": "None", "youtube": "None", "website": "None", "summary": "None", "logo": "None", "latitude": 45.306147518754564, "longitude": -73.25551333236193}, "814358834RR0001": {"name": "Projet L.U.N.E", "designationCode": "C", "categoryCode": "09", "address": "535 AV DES OBLATS", "city": "QUEBEC", "province": "QC", "country": "CA", "postalCode": "G1N1V5", "twitter": "None", "instagram": "None", "facebook": "None", "youtube": "None", "website": "None", "summary": "None", "logo": "None", "latitude": 46.80907938744309, "longitude": -71.23953954258768}, "140349838RR0001": {"name": "Projet T.R.I.P.", "designationCode": "C", "categoryCode": "09", "address": "2000 RUE PARTHENAIS", "city": "MONTREAL", "province": "QC", "country": "CA", "postalCode": "H2K3S9", "twitter": "None", "instagram": "None", "facebook": "None", "youtube": "None", "website": "None", "summary": "None", "logo": "None", "latitude": 45.5298618978018, "longitude": -73.55705636309037}, "858121809RR0001": {"name": "Projets autochtones du Qu\u00e9bec", "designationCode": "C", "categoryCode": "01", "address": "169 RUE DE LA GAUCHETIERE E", "city": "MONTREAL", "province": "QC", "country": "CA", "postalCode": "H2X1P7", "twitter": "None", "instagram": "None", "facebook": "None", "youtube": "None", "website": "None", "summary": "None", "logo": "None", "latitude": 45.50988734998583, "longitude": -73.55875569398907}, "811468495RR0001": {"name": "Projets Bourlamaque", "designationCode": "C", "categoryCode": "09", "address": "1-210, REN\u00c9-L\u00c9VESQUE OUEST", "city": "QU\u00c9BEC", "province": "QC", "country": "CA", "postalCode": "G1R2A8", "twitter": "None", "instagram": "None", "facebook": "None", "youtube": "None", "website": "None", "summary": "None", "logo": "None"}, "840496350RR0001": {"name": "Prominent Homes Charitable Organization Ltd.", "designationCode": "B", "categoryCode": "11", "address": "1638 10 AVE SW", "city": "CALGARY", "province": "AB", "country": "CA", "postalCode": "T3C0J5", "twitter": "None", "instagram": "None", "facebook": "None", "youtube": "None", "website": "None", "summary": "None", "logo": "None", "latitude": 51.04433753318127, "longitude": -114.09848130391252}, "816151658RR0001": {"name": "Promise Worship Centre International", "designationCode": "C", "categoryCode": "39", "address": "1-30 APPALACHIAN CRES", "city": "KITCHENER", "province": "ON", "country": "CA", "postalCode": "N2E1A4", "twitter": "None", "instagram": "None", "facebook": "None", "youtube": "None", "website": "None", "summary": "None", "logo": "None", "latitude": 43.42222800972352, "longitude": -80.48184588470178}, "807737952RR0001": {"name": "Promisedland Ministries Inc.", "designationCode": "C", "categoryCode": "47", "address": "210-1600 KENASTON BLVD        SUITE 351", "city": "WINNIPEG", "province": "MB", "country": "CA", "postalCode": "R3P0Y4", "twitter": "None", "instagram": "None", "facebook": "None", "youtube": "None", "website": "None", "summary": "None", "logo": "None", "latitude": 49.82358641122515, "longitude": -97.20329655042795}, "857100556RR0001": {"name": "Propeller Dance", "designationCode": "C", "categoryCode": "22", "address": "PO BOX 67115 WESTBORO         421 RICHMONDS RD", "city": "OTTAWA", "province": "ON", "country": "CA", "postalCode": "K2A4E4", "twitter": "None", "instagram": "None", "facebook": "None", "youtube": "None", "website": "None", "summary": "None", "logo": "None", "latitude": 45.390392579808314, "longitude": -75.75740450848276}, "801026618RR0001": {"name": "Prophet Mustafa's Congregation", "designationCode": "C", "categoryCode": "60", "address": "1851 DUNDAS ST-EAST", "city": "LONDON", "province": "ON", "country": "CA", "postalCode": "N5W3E6", "twitter": "None", "instagram": "None", "facebook": "None", "youtube": "None", "website": "None", "summary": "None", "logo": "None", "latitude": 43.00383615901106, "longitude": -81.179034098794}, "819868530RR0001": {"name": "Proset Autism / Autisme proset", "designationCode": "C", "categoryCode": "11", "address": "69 MOUNT VICTORIA STREET", "city": "HUDSON", "province": "QC", "country": "CA", "postalCode": "J0P1H0", "twitter": "None", "instagram": "None", "facebook": "None", "youtube": "None", "website": "None", "summary": "None", "logo": "None", "latitude": 45.46583091782576, "longitude": -74.16716500856968}, "857936025RR0001": {"name": "Prosserman Jewish Community Centre", "designationCode": "C", "categoryCode": "56", "address": "4588 BATHURST STREET          2ND FLOOR", "city": "TORONTO", "province": "ON", "country": "CA", "postalCode": "M2R1W6", "twitter": "None", "instagram": "None", "facebook": "None", "youtube": "None", "website": "None", "summary": "None", "logo": "None", "latitude": 43.7629662933523, "longitude": -79.44034911835568}, "889638342RR0001": {"name": "Prostate Cancer Canada Network Ottawa", "designationCode": "C", "categoryCode": "11", "address": "PO BOX 23122", "city": "OTTAWA", "province": "ON", "country": "CA", "postalCode": "K2A4E2", "twitter": "None", "instagram": "None", "facebook": "None", "youtube": "None", "website": "None", "summary": "None", "logo": "None", "latitude": 45.42177300000006, "longitude": -75.69115999999994}, "871057840RR0001": {"name": "Prostate Cancer Foundation BC", "designationCode": "A", "categoryCode": "11", "address": "4-17918 55TH AVENUE", "city": "SURREY", "province": "BC", "country": "CA", "postalCode": "V3S6C8", "twitter": "None", "instagram": "None", "facebook": "None", "youtube": "None", "website": "None", "summary": "None", "logo": "None", "latitude": 49.10223853621104, "longitude": -122.72606282183035}, "805140951RR0001": {"name": "Prostate Cure Foundation", "designationCode": "A", "categoryCode": "13", "address": "1802 - 5444 YONGE ST", "city": "NORTH YORK", "province": "ON", "country": "CA", "postalCode": "M2N6J4", "twitter": "None", "instagram": "None", "facebook": "None", "youtube": "None", "website": "None", "summary": "None", "logo": "None", "latitude": 43.776479976398036, "longitude": -79.41477694624557}, "811725522RR0001": {"name": "Protection Chats Errants", "designationCode": "C", "categoryCode": "54", "address": "57 CH DE LA PULPE", "city": "RIMOUSKI", "province": "QC", "country": "CA", "postalCode": "G5N1Y3", "twitter": "None", "instagram": "None", "facebook": "None", "youtube": "None", "website": "None", "summary": "None", "logo": "None", "latitude": 48.41273869802071, "longitude": -68.55238214622912}, "815709290RR0001": {"name": "Protego Foster Houses", "designationCode": "C", "categoryCode": "01", "address": "240 GEORGE STREET", "city": "TORONTO", "province": "ON", "country": "CA", "postalCode": "M5A2N1", "twitter": "None", "instagram": "None", "facebook": "None", "youtube": "None", "website": "None", "summary": "None", "logo": "None", "latitude": 43.65620800943507, "longitude": -79.37307572996124}, "810907212RR0001": {"name": "Protestant Reformed School in Wingham", "designationCode": "C", "categoryCode": "20", "address": "292 EDWARD ST.                PO BOX 570", "city": "WINGHAM", "province": "ON", "country": "CA", "postalCode": "N0G2W0", "twitter": "None", "instagram": "None", "facebook": "None", "youtube": "None", "website": "None", "summary": "None", "logo": "None", "latitude": 43.88790639745509, "longitude": -81.31313549988442}, "119288918RR1700": {"name": "Provencher French Congregation of Jehovah's Witnesses, Winnipeg, Manitoba", "designationCode": "C", "categoryCode": "61", "address": "227 LAKEWOOD BLVD", "city": "WINNIPEG", "province": "MB", "country": "CA", "postalCode": "R2J2N2", "twitter": "None", "instagram": "None", "facebook": "None", "youtube": "None", "website": "None", "summary": "None", "logo": "None", "latitude": 49.848209999999995, "longitude": -97.07698035097319}, "107373227RR0001": {"name": "Providence Baptist Church", "designationCode": "C", "categoryCode": "39", "address": "2210 STILLINGFLEET ROAD", "city": "KELOWNA", "province": "BC", "country": "CA", "postalCode": "V1Y7Y9", "twitter": "None", "instagram": "None", "facebook": "None", "youtube": "None", "website": "None", "summary": "None", "logo": "None", "latitude": 49.874652, "longitude": -119.47343611786569}, "822784252RR0001": {"name": "Providence Baptist Church", "designationCode": "C", "categoryCode": "31", "address": "32 ALICE CRES", "city": "PETERSBURG", "province": "ON", "country": "CA", "postalCode": "N0B2H0", "twitter": "None", "instagram": "None", "facebook": "None", "youtube": "None", "website": "None", "summary": "None", "logo": "None", "latitude": 43.41706611521131, "longitude": -80.60785671276456}, "819851411RR0001": {"name": "Providence Canadian Reformed Church", "designationCode": "C", "categoryCode": "39", "address": "PO BOX 90006                  RPO GOLF LINKS", "city": "ANCASTER", "province": "ON", "country": "CA", "postalCode": "L9K0B4", "twitter": "None", "instagram": "None", "facebook": "None", "youtube": "None", "website": "None", "summary": "None", "logo": "None", "latitude": 43.22631842416734, "longitude": -79.94881727743706}, "107862385RR0001": {"name": "Providence Child Development Society", "designationCode": "C", "categoryCode": "01", "address": "5232 - 4TH STREET SW", "city": "CALGARY", "province": "AB", "country": "CA", "postalCode": "T2V0Z4", "twitter": "None", "instagram": "None", "facebook": "None", "youtube": "None", "website": "None", "summary": "None", "logo": "None", "latitude": 51.00769858673323, "longitude": -114.07148036245613}, "118889351RR0001": {"name": "Providence Christian School", "designationCode": "C", "categoryCode": "20", "address": "542 OFIELD ROAD", "city": "DUNDAS", "province": "ON", "country": "CA", "postalCode": "L9H5E2", "twitter": "None", "instagram": "None", "facebook": "None", "youtube": "None", "website": "None", "summary": "None", "logo": "None", "latitude": 43.303007933117854, "longitude": -79.97873683772897}, "801409764RR0001": {"name": "Providence Evangelical International Church Inc.", "designationCode": "C", "categoryCode": "31", "address": "162 SHERWOOD RD", "city": "CHARLOTTETOWN", "province": "PE", "country": "CA", "postalCode": "C1E0E4", "twitter": "None", "instagram": "None", "facebook": "None", "youtube": "None", "website": "None", "summary": "None", "logo": "None", "latitude": 46.28065982041673, "longitude": -63.15336481473257}, "108216714RR0001": {"name": "Providence University College and Theological Seminary", "designationCode": "C", "categoryCode": "20", "address": "GENERAL DELIVERY", "city": "OTTERBURNE", "province": "MB", "country": "CA", "postalCode": "R0A1G0", "twitter": "None", "instagram": "None", "facebook": "None", "youtube": "None", "website": "None", "summary": "None", "logo": "None", "latitude": 49.50267900000006, "longitude": -97.04178349999994}, "851763060RR0001": {"name": "Providing Animals with Safety for Life Foundation", "designationCode": "C", "categoryCode": "54", "address": "12215 WILLIAM SHORT ROAD", "city": "EDMONTON", "province": "AB", "country": "CA", "postalCode": "T5B2B7", "twitter": "None", "instagram": "None", "facebook": "None", "youtube": "None", "website": "None", "summary": "None", "logo": "None", "latitude": 53.57707667496701, "longitude": -113.45725495553734}, "802293019RR0001": {"name": "Province canadienne de la Congr\u00e9gation de Sainte-Croix", "designationCode": "C", "categoryCode": "39", "address": "4901, RUE PIEDMONT", "city": "MONTR\u00c9AL", "province": "QC", "country": "CA", "postalCode": "H3V1E3", "twitter": "None", "instagram": "None", "facebook": "None", "youtube": "None", "website": "None", "summary": "None", "logo": "None", "latitude": 45.49437641078528, "longitude": -73.61616300470321}, "863530135RR0001": {"name": "Provincial Health Services Authority", "designationCode": "C", "categoryCode": "19", "address": "260-1770 7TH AVE W", "city": "VANCOUVER", "province": "BC", "country": "CA", "postalCode": "V6J4Y6", "twitter": "None", "instagram": "None", "facebook": "None", "youtube": "None", "website": "None", "summary": "None", "logo": "None", "latitude": 49.26545048845881, "longitude": -123.1450229701656}, "805954252RR0001": {"name": "Provision for the Vision", "designationCode": "C", "categoryCode": "43", "address": "1399 EIGHTH LINE", "city": "LAKEFIELD", "province": "ON", "country": "CA", "postalCode": "K0L2H0", "twitter": "None", "instagram": "None", "facebook": "None", "youtube": "None", "website": "None", "summary": "None", "logo": "None", "latitude": 44.32165191409437, "longitude": -77.96281817210685}, "843218249RR0001": {"name": "Provision Charitable Foundation", "designationCode": "C", "categoryCode": "21", "address": "120 - 10451 SHELLBRIDGE WAY", "city": "RICHMOND", "province": "BC", "country": "CA", "postalCode": "V6X2W8", "twitter": "None", "instagram": "None", "facebook": "None", "youtube": "None", "website": "None", "summary": "None", "logo": "None", "latitude": 49.186189885654095, "longitude": -123.10740255805266}, "899717961RR0001": {"name": "Psychiatric Survivors of Ottawa (PSO)", "designationCode": "C", "categoryCode": "11", "address": "211 BRONSON AVENUE            SUITE 313", "city": "OTTAWA", "province": "ON", "country": "CA", "postalCode": "K1R6H5", "twitter": "None", "instagram": "None", "facebook": "None", "youtube": "None", "website": "None", "summary": "None", "logo": "None", "latitude": 45.41349725618897, "longitude": -75.7068905103587}, "864480512RR0001": {"name": "Psychosocial Rehabilitation Canada / R\u00e9adaptation psychosociale Canada", "designationCode": "C", "categoryCode": "11", "address": "323 VICTORIA ST", "city": "KINGSTON", "province": "ON", "country": "CA", "postalCode": "K7L3Z2", "twitter": "None", "instagram": "None", "facebook": "None", "youtube": "None", "website": "None", "summary": "None", "logo": "None", "latitude": 44.231014121011015, "longitude": -76.50273324130087}, "851520908RR0001": {"name": "Ptarmigan Foundation Inc.", "designationCode": "B", "categoryCode": "03", "address": "PO BOX 20059, BRUNSWICK SQUARE", "city": "SAINT JOHN", "province": "NB", "country": "CA", "postalCode": "E2L5B2", "twitter": "None", "instagram": "None", "facebook": "None", "youtube": "None", "website": "None", "summary": "None", "logo": "None", "latitude": 45.27306008050087, "longitude": -66.06129006939226}, "128369782RR0001": {"name": "Ptarmigan Music and Theatre Society", "designationCode": "C", "categoryCode": "22", "address": "12 - 4301 BEDWELL HARBOUR RD", "city": "PENDER ISLAND", "province": "BC", "country": "CA", "postalCode": "V0N2M1", "twitter": "None", "instagram": "None", "facebook": "None", "youtube": "None", "website": "None", "summary": "None", "logo": "None", "latitude": 48.80311433907703, "longitude": -123.27641942298135}, "835055039RR0001": {"name": "PtH Housing First Inc.", "designationCode": "C", "categoryCode": "01", "address": "101 LYNDHURST AVENUE", "city": "TORONTO", "province": "ON", "country": "CA", "postalCode": "M5R2Z8", "twitter": "None", "instagram": "None", "facebook": "None", "youtube": "None", "website": "None", "summary": "None", "logo": "None", "latitude": 43.68047975160134, "longitude": -79.41276035856099}, "817951668RR0001": {"name": "Public Foundation for Art and Life", "designationCode": "C", "categoryCode": "22", "address": "2000 OXFORD TOWER             10235 101 STREET", "city": "EDMONTON", "province": "AB", "country": "CA", "postalCode": "T5J3G1", "twitter": "None", "instagram": "None", "facebook": "None", "youtube": "None", "website": "None", "summary": "None", "logo": "None", "latitude": 53.54505002553526, "longitude": -113.49364995224775}, "801945056RR0001": {"name": "Public Juridic Person of the Diocese of Hamilton", "designationCode": "C", "categoryCode": "19", "address": "50 CHARLTON AVENUE EAST       M146", "city": "HAMILTON", "province": "ON", "country": "CA", "postalCode": "L8N4A6", "twitter": "None", "instagram": "None", "facebook": "None", "youtube": "None", "website": "None", "summary": "None", "logo": "None", "latitude": 43.24918190034062, "longitude": -79.8696584834958}, "845493113RR0001": {"name": "Pueblo Science", "designationCode": "C", "categoryCode": "21", "address": "60 ST. GEORGE STREET          SUITE 331", "city": "TORONTO", "province": "ON", "country": "CA", "postalCode": "M5S1A7", "twitter": "None", "instagram": "None", "facebook": "None", "youtube": "None", "website": "None", "summary": "None", "logo": "None", "latitude": 43.660757209013646, "longitude": -79.39816661977025}, "806860789RR0001": {"name": "Puertas Abiertas International Christian Ministries", "designationCode": "C", "categoryCode": "39", "address": "1402-135 17TH E ST", "city": "NORTH VANCOUVER", "province": "BC", "country": "CA", "postalCode": "V7L0C4", "twitter": "None", "instagram": "None", "facebook": "None", "youtube": "None", "website": "None", "summary": "None", "logo": "None", "latitude": 49.323995214584976, "longitude": -123.05928003813173}, "811899426RR0001": {"name": "Pug Awards Inc.", "designationCode": "C", "categoryCode": "21", "address": "1335 DUNDAS STREET", "city": "TORONTO", "province": "ON", "country": "CA", "postalCode": "M6J1Y3", "twitter": "None", "instagram": "None", "facebook": "None", "youtube": "None", "website": "None", "summary": "None", "logo": "None", "latitude": 43.64947049956733, "longitude": -79.42684388926077}}