{"860798461RR0001": {"name": "NORTH COUNTY INTERFAITH OUTREACH SOCIETY", "designationCode": "C", "categoryCode": "09", "address": "PO BOX 326", "city": "PICTURE BUTTE", "province": "AB", "country": "CA", "postalCode": "T0K1V0", "twitter": "None", "instagram": "None", "facebook": "None", "youtube": "None", "website": "None", "summary": "None", "logo": "None", "latitude": 49.87851001832194, "longitude": -112.77815001110848}, "130565963RR0005": {"name": "NORTH COWICHAN ALLIANCE CHURCH", "designationCode": "C", "categoryCode": "39", "address": "PO BOX 944", "city": "DUNCAN", "province": "BC", "country": "CA", "postalCode": "V9L3Y2", "twitter": "None", "instagram": "None", "facebook": "None", "youtube": "None", "website": "None", "summary": "None", "logo": "None", "latitude": 48.77908800000006, "longitude": -123.70739299999994}, "889676227RR0001": {"name": "NORTH COWICHAN FIREFIGHTERS SOCIETY", "designationCode": "C", "categoryCode": "59", "address": "5851 DUNCAN STREET", "city": "DUNCAN", "province": "BC", "country": "CA", "postalCode": "V9L3W7", "twitter": "None", "instagram": "None", "facebook": "None", "youtube": "None", "website": "None", "summary": "None", "logo": "None", "latitude": 48.783161786571625, "longitude": -123.70790296511663}, "892960964RR0001": {"name": "NORTH CUMBERLAND COMMUNITY HEALTH FOUNDATION", "designationCode": "A", "categoryCode": "13", "address": "P.O. BOX 175", "city": "PUGWASH", "province": "NS", "country": "CA", "postalCode": "B0K1L0", "twitter": "None", "instagram": "None", "facebook": "None", "youtube": "None", "website": "None", "summary": "None", "logo": "None", "latitude": 45.80128373751312, "longitude": -63.63643739508734}, "894003110RR0001": {"name": "NORTH CUMBERLAND MEMORIAL HOSPITAL AUXILIARY", "designationCode": "A", "categoryCode": "13", "address": "PO BOX 171", "city": "PUGWASH", "province": "NS", "country": "CA", "postalCode": "B0K1L0", "twitter": "None", "instagram": "None", "facebook": "None", "youtube": "None", "website": "None", "summary": "None", "logo": "None", "latitude": 45.80128373751312, "longitude": -63.63643739508734}, "889537130RR0001": {"name": "NORTH DARTMOUTH OUTREACH RESOURCE CENTRE", "designationCode": "C", "categoryCode": "09", "address": "44 HESTER ST", "city": "DARTMOUTH", "province": "NS", "country": "CA", "postalCode": "B3A1K2", "twitter": "None", "instagram": "None", "facebook": "None", "youtube": "None", "website": "None", "summary": "None", "logo": "None", "latitude": 44.672528733019654, "longitude": -63.58633772756665}, "107780736RR0001": {"name": "NORTH DELTA EVANGELICAL FREE CHURCH", "designationCode": "C", "categoryCode": "39", "address": "11300 84 AVE", "city": "DELTA", "province": "BC", "country": "CA", "postalCode": "V4C2L8", "twitter": "None", "instagram": "None", "facebook": "None", "youtube": "None", "website": "None", "summary": "None", "logo": "None", "latitude": 49.15601248066854, "longitude": -122.90981327699231}, "119059541RR0001": {"name": "NORTH DERBY UNITED CHURCH", "designationCode": "C", "categoryCode": "44", "address": "137977 CONC 7, R.R. 5", "city": "OWEN SOUND", "province": "ON", "country": "CA", "postalCode": "N4K5N7", "twitter": "None", "instagram": "None", "facebook": "None", "youtube": "None", "website": "None", "summary": "None", "logo": "None"}, "119059566RR0001": {"name": "NORTH DRESDEN BAPTIST CHURCH", "designationCode": "C", "categoryCode": "31", "address": "BOX 398", "city": "DRESDEN", "province": "ON", "country": "CA", "postalCode": "N0P1M0", "twitter": "None", "instagram": "None", "facebook": "None", "youtube": "None", "website": "None", "summary": "None", "logo": "None", "latitude": 42.58952000000005, "longitude": -82.17963999999995}, "119998698RR0001": {"name": "NORTH DUMFRIES PRE-SCHOOL CO-OPERATIVE INC.", "designationCode": "C", "categoryCode": "20", "address": "92 NOTHUMBERLAND STREET", "city": "AYR", "province": "ON", "country": "CA", "postalCode": "N0B1E0", "twitter": "None", "instagram": "None", "facebook": "None", "youtube": "None", "website": "None", "summary": "None", "logo": "None", "latitude": 43.28813391702223, "longitude": -80.4536021331679}, "867160996RR0001": {"name": "NORTH EAST CALGARY ADOPT A FAMILY SOCIETY", "designationCode": "C", "categoryCode": "09", "address": "P.O. BOX 54027, 2640-52 ST NE", "city": "CALGARY", "province": "AB", "country": "CA", "postalCode": "T1Y3R6", "twitter": "None", "instagram": "None", "facebook": "None", "youtube": "None", "website": "None", "summary": "None", "logo": "None", "latitude": 51.075503999999995, "longitude": -113.95830028195533}, "119059582RR0001": {"name": "NORTH EAST CHILD CARE SOCIETY", "designationCode": "C", "categoryCode": "01", "address": "13915 61 ST", "city": "EDMONTON", "province": "AB", "country": "CA", "postalCode": "T5A1P3", "twitter": "None", "instagram": "None", "facebook": "None", "youtube": "None", "website": "None", "summary": "None", "logo": "None", "latitude": 53.601471073547266, "longitude": -113.43555542160625}, "890702384RR0001": {"name": "NORTH EAST CHURCH HERITAGE ASSOCIATION INC.", "designationCode": "C", "categoryCode": "52", "address": "P O BOX 640 15 MAIN ST", "city": "TWILLINGATE", "province": "NL", "country": "CA", "postalCode": "A0G4M0", "twitter": "None", "instagram": "None", "facebook": "None", "youtube": "None", "website": "None", "summary": "None", "logo": "None", "latitude": 49.65584940379009, "longitude": -54.76181150966381}, "119059616RR0001": {"name": "NORTH EAST EARLY CHILDHOOD INTERVENTION PROGRAM INC.", "designationCode": "C", "categoryCode": "09", "address": "PO BOX 1675", "city": "TISDALE", "province": "SK", "country": "CA", "postalCode": "S0E1T0", "twitter": "None", "instagram": "None", "facebook": "None", "youtube": "None", "website": "None", "summary": "None", "logo": "None", "latitude": 52.84785000000005, "longitude": -104.04749999999996}, "869033654RR0001": {"name": "NORTH EAST MARGAREE VOLUNTEER FIRE DEPARTMENT SOCIETY", "designationCode": "C", "categoryCode": "59", "address": "65 CROWDIS CROSSROAD          P.O. BOX 93", "city": "MARGAREE VALLEY INVERNESS CO", "province": "NS", "country": "CA", "postalCode": "B0E2C0", "twitter": "None", "instagram": "None", "facebook": "None", "youtube": "None", "website": "None", "summary": "None", "logo": "None", "latitude": 46.35575000000006, "longitude": -60.971749999999986}, "128140647RR0001": {"name": "NORTH EAST NATIVE ADVANCING SOCIETY", "designationCode": "C", "categoryCode": "59", "address": "BOX 6847", "city": "FORT ST. JOHN", "province": "BC", "country": "CA", "postalCode": "V1J4J3", "twitter": "None", "instagram": "None", "facebook": "None", "youtube": "None", "website": "None", "summary": "None", "logo": "None", "latitude": 56.25253500000005, "longitude": -120.84748099999993}, "103920930RR0001": {"name": "NORTH EAST OUTREACH AND SUPPORT SERVICES, INC.", "designationCode": "C", "categoryCode": "59", "address": "PO BOX 2066", "city": "MELFORT", "province": "SK", "country": "CA", "postalCode": "S0E1A0", "twitter": "None", "instagram": "None", "facebook": "None", "youtube": "None", "website": "None", "summary": "None", "logo": "None", "latitude": 52.85637, "longitude": -104.63436225000001}, "816324073RR0001": {"name": "NORTH EAST SCHOOL DIVISION NO. 200", "designationCode": "C", "categoryCode": "20", "address": "BOX 6000", "city": "MELFORT", "province": "SK", "country": "CA", "postalCode": "S0E1A0", "twitter": "None", "instagram": "None", "facebook": "None", "youtube": "None", "website": "None", "summary": "None", "logo": "None", "latitude": 52.85637, "longitude": -104.63436225000001}, "107781007RR0001": {"name": "NORTH EDMONTON ALLIANCE CHURCH", "designationCode": "C", "categoryCode": "39", "address": "5108 MCLEOD ROAD", "city": "EDMONTON", "province": "AB", "country": "CA", "postalCode": "T5A3J2", "twitter": "None", "instagram": "None", "facebook": "None", "youtube": "None", "website": "None", "summary": "None", "logo": "None", "latitude": 53.61367250432783, "longitude": -113.42073327560733}, "129468468RR0001": {"name": "NORTH EDMONTON CHRISTIAN FELLOWSHIP", "designationCode": "C", "categoryCode": "36", "address": "9004-153 AVE", "city": "EDMONTON", "province": "AB", "country": "CA", "postalCode": "T5Z3L6", "twitter": "None", "instagram": "None", "facebook": "None", "youtube": "None", "website": "None", "summary": "None", "logo": "None", "latitude": 53.61523242498086, "longitude": -113.48041343715721}, "119060317RR0001": {"name": "NORTH EDMONTON SENIORS ASSOCIATION", "designationCode": "C", "categoryCode": "09", "address": "7524 139 AVE NW", "city": "EDMONTON", "province": "AB", "country": "CA", "postalCode": "T5C3H7", "twitter": "None", "instagram": "None", "facebook": "None", "youtube": "None", "website": "None", "summary": "None", "logo": "None", "latitude": 53.60171123826463, "longitude": -113.45730075}, "119059665RR0001": {"name": "NORTH EKFRID UNITED CHURCH", "designationCode": "C", "categoryCode": "44", "address": "5783 OLDE DR                  RR 3", "city": "APPIN", "province": "ON", "country": "CA", "postalCode": "N0L1A0", "twitter": "None", "instagram": "None", "facebook": "None", "youtube": "None", "website": "None", "summary": "None", "logo": "None", "latitude": 42.84318451719219, "longitude": -81.65699231839812}, "103921649RR0001": {"name": "NORTH END CO-OPERATIVE PRESCHOOL (ST. CATHARINES) CORPORATION", "designationCode": "C", "categoryCode": "20", "address": "677 NIAGARA ST", "city": "ST CATHARINES", "province": "ON", "country": "CA", "postalCode": "L2M3R4", "twitter": "None", "instagram": "None", "facebook": "None", "youtube": "None", "website": "None", "summary": "None", "logo": "None", "latitude": 43.20653201806207, "longitude": -79.21963472796975}, "119059681RR0001": {"name": "NORTH END COMMUNITY DAY CARE CENTRE", "designationCode": "C", "categoryCode": "01", "address": "5540 RUSSELL ST", "city": "HALIFAX", "province": "NS", "country": "CA", "postalCode": "B3K1X2", "twitter": "None", "instagram": "None", "facebook": "None", "youtube": "None", "website": "None", "summary": "None", "logo": "None", "latitude": 44.66091458644476, "longitude": -63.59794316429118}, "129847174RR0001": {"name": "NORTH END COMMUNITY MINISTRY", "designationCode": "C", "categoryCode": "09", "address": "470 STELLA AVE", "city": "WINNIPEG", "province": "MB", "country": "CA", "postalCode": "R2W2V1", "twitter": "None", "instagram": "None", "facebook": "None", "youtube": "None", "website": "None", "summary": "None", "logo": "None", "latitude": 49.91350602801672, "longitude": -97.14506184583637}, "892893439RR0001": {"name": "NORTH END HOUSING PROJECT INC.", "designationCode": "C", "categoryCode": "09", "address": "PO BOX 3987 STN B", "city": "WINNIPEG", "province": "MB", "country": "CA", "postalCode": "R2W5H9", "twitter": "None", "instagram": "None", "facebook": "None", "youtube": "None", "website": "None", "summary": "None", "logo": "None", "latitude": 49.899525000000054, "longitude": -97.14112999999993}, "890641145RR0001": {"name": "NORTH END PARENT CENTRE ASSOCIATION", "designationCode": "C", "categoryCode": "09", "address": "5475 UNIACK STREET", "city": "HALIFAX", "province": "NS", "country": "CA", "postalCode": "B3K5V5", "twitter": "None", "instagram": "None", "facebook": "None", "youtube": "None", "website": "None", "summary": "None", "logo": "None", "latitude": 44.65538647905241, "longitude": -63.587679091465084}, "799598321RR0001": {"name": "NORTH END SPONSORSHIP TEAM (N.E.S.T.) INC.", "designationCode": "C", "categoryCode": "09", "address": "211 KIMBERLY AVE", "city": "WINNIPEG", "province": "MB", "country": "CA", "postalCode": "R2K0X3", "twitter": "None", "instagram": "None", "facebook": "None", "youtube": "None", "website": "None", "summary": "None", "logo": "None", "latitude": 49.927090859310816, "longitude": -97.10246128654295}, "839695368RR0001": {"name": "NORTH END WELLNESS CENTRE INC.", "designationCode": "A", "categoryCode": "53", "address": "3550 PORTAGE AVE", "city": "WINNIPEG", "province": "MB", "country": "CA", "postalCode": "R3K0Z8", "twitter": "None", "instagram": "None", "facebook": "None", "youtube": "None", "website": "None", "summary": "None", "logo": "None", "latitude": 49.88255554558878, "longitude": -97.30792689090553}, "119059715RR0001": {"name": "NORTH END WOMEN'S CENTRE INC.", "designationCode": "C", "categoryCode": "09", "address": "394 SELKIRK AVE", "city": "WINNIPEG", "province": "MB", "country": "CA", "postalCode": "R2W2M2", "twitter": "None", "instagram": "None", "facebook": "None", "youtube": "None", "website": "None", "summary": "None", "logo": "None", "latitude": 49.91425709351389, "longitude": -97.14067961561533}, "107781106RR0001": {"name": "NORTH ERIE SHORE HISTORICAL SOCIETY", "designationCode": "C", "categoryCode": "52", "address": "P.O BOX 127", "city": "SELKIRK", "province": "ON", "country": "CA", "postalCode": "N0A1P0", "twitter": "None", "instagram": "None", "facebook": "None", "youtube": "None", "website": "None", "summary": "None", "logo": "None", "latitude": 42.834250000000054, "longitude": -79.93206999999995}, "896122967RR0001": {"name": "NORTH FLATS NEIGHBORHOOD ASSOCIATION", "designationCode": "C", "categoryCode": "01", "address": "861 4 ST SE", "city": "MEDICINE HAT", "province": "AB", "country": "CA", "postalCode": "T1A0L5", "twitter": "None", "instagram": "None", "facebook": "None", "youtube": "None", "website": "None", "summary": "None", "logo": "None", "latitude": 50.04125314847948, "longitude": -110.66825246918465}, "119060259RR0001": {"name": "NORTH FORTY MILE COUNTY HANDIBUS SOCIETY", "designationCode": "C", "categoryCode": "59", "address": "PO BAG 6700", "city": "BOW ISLAND", "province": "AB", "country": "CA", "postalCode": "T0K0G0", "twitter": "None", "instagram": "None", "facebook": "None", "youtube": "None", "website": "None", "summary": "None", "logo": "None", "latitude": 49.87089600000006, "longitude": -111.35965399999994}, "895298214RR0001": {"name": "NORTH FRASER COMMUNITY CHURCH", "designationCode": "C", "categoryCode": "34", "address": "BOX 62", "city": "LAKE ERROCK", "province": "BC", "country": "CA", "postalCode": "V0M1N0", "twitter": "None", "instagram": "None", "facebook": "None", "youtube": "None", "website": "None", "summary": "None", "logo": "None", "latitude": 49.22013000000004, "longitude": -122.01116999999999}, "877179762RR0001": {"name": "NORTH FRASER METIS ASSOCIATION", "designationCode": "C", "categoryCode": "53", "address": "8271 DEMOREST PLACE", "city": "RICHMOND", "province": "BC", "country": "CA", "postalCode": "V7A4N4", "twitter": "None", "instagram": "None", "facebook": "None", "youtube": "None", "website": "None", "summary": "None", "logo": "None", "latitude": 49.14669251096427, "longitude": -123.12973303194052}, "886700400RR0001": {"name": "NORTH FRASER THERAPEUTIC RIDING ASSOCIATION", "designationCode": "C", "categoryCode": "20", "address": "PO BOX 31601                  MEADOWVALE SHOPPING CENTRE", "city": "PITT MEADOWS", "province": "BC", "country": "CA", "postalCode": "V3Y2G7", "twitter": "None", "instagram": "None", "facebook": "None", "youtube": "None", "website": "None", "summary": "None", "logo": "None", "latitude": 49.22196900000006, "longitude": -122.68960999999993}, "880442801RR0001": {"name": "NORTH FRONTENAC / SNOW ROAD STATION VOLUNTEER FIREFIGHTERS LADIES AUXILIARY GROUP SERVICES \"FLAGS\"", "designationCode": "C", "categoryCode": "55", "address": "P.O. BOX 1511", "city": "MISSISSIPPI STN", "province": "ON", "country": "CA", "postalCode": "K0H2C0", "twitter": "None", "instagram": "None", "facebook": "None", "youtube": "None", "website": "None", "summary": "None", "logo": "None", "latitude": 45.43855583288331, "longitude": -76.279025619946}, "888749942RR0001": {"name": "NORTH GALIANO COMMUNITY ASSOCIATION", "designationCode": "C", "categoryCode": "56", "address": "SITE 50, C5                   RR2", "city": "GALIANO ISLAND", "province": "BC", "country": "CA", "postalCode": "V0N1P0", "twitter": "None", "instagram": "None", "facebook": "None", "youtube": "None", "website": "None", "summary": "None", "logo": "None", "latitude": 48.90217438271622, "longitude": -123.36977755047218}, "862597507RR0001": {"name": "NORTH GALIANO FIRE PROTECTION SOCIETY", "designationCode": "C", "categoryCode": "59", "address": "222 VINEYARD WAY", "city": "GALIANO", "province": "BC", "country": "CA", "postalCode": "V0N1P0", "twitter": "None", "instagram": "None", "facebook": "None", "youtube": "None", "website": "None", "summary": "None", "logo": "None", "latitude": 48.94549135792499, "longitude": -123.5050138407452}, "135732055RR0001": {"name": "NORTH GLENMORE PARK COMMUNITY ASSOCIATION", "designationCode": "C", "categoryCode": "56", "address": "2231 LONGRIDGE DRIVE SW", "city": "CALGARY", "province": "AB", "country": "CA", "postalCode": "T3E5N5", "twitter": "None", "instagram": "None", "facebook": "None", "youtube": "None", "website": "None", "summary": "None", "logo": "None", "latitude": 50.998048615807676, "longitude": -114.11341264704994}, "107782534RR0001": {"name": "NORTH GOWER CO-OPERATIVE NURSERY SCHOOL", "designationCode": "C", "categoryCode": "20", "address": "BOX 292", "city": "NORTH GOWER", "province": "ON", "country": "CA", "postalCode": "K0A2T0", "twitter": "None", "instagram": "None", "facebook": "None", "youtube": "None", "website": "None", "summary": "None", "logo": "None", "latitude": 45.136780000000044, "longitude": -75.70325999999994}, "119060325RR0001": {"name": "NORTH GOWER UNITED CHURCH", "designationCode": "C", "categoryCode": "44", "address": "P.O. BOX 307", "city": "NORTH GOWER", "province": "ON", "country": "CA", "postalCode": "K0A2T0", "twitter": "None", "instagram": "None", "facebook": "None", "youtube": "None", "website": "None", "summary": "None", "logo": "None", "latitude": 45.3567173236206, "longitude": -75.0434798516718}, "891639924RR0001": {"name": "NORTH GRENVILLE ACCESSIBLE TRANSPORTATION", "designationCode": "C", "categoryCode": "09", "address": "POST OFFICE BOX 1696", "city": "KEMPTVILLE", "province": "ON", "country": "CA", "postalCode": "K0G1J0", "twitter": "None", "instagram": "None", "facebook": "None", "youtube": "None", "website": "None", "summary": "None", "logo": "None", "latitude": 44.98774800000005, "longitude": -75.69332899999993}, "804413532RR0001": {"name": "NORTH GRENVILLE COMMUNITY CHURCH", "designationCode": "C", "categoryCode": "39", "address": "P.O. BOX 1685", "city": "KEMPTVILLE", "province": "ON", "country": "CA", "postalCode": "K0G1J0", "twitter": "None", "instagram": "None", "facebook": "None", "youtube": "None", "website": "None", "summary": "None", "logo": "None", "latitude": 44.98774800000005, "longitude": -75.69332899999993}, "865145098RR0001": {"name": "NORTH GRENVILLE PUBLIC LIBRARY BOARD", "designationCode": "C", "categoryCode": "50", "address": "P.O. BOX 538                  1 WATER STREET", "city": "KEMPTVILLE", "province": "ON", "country": "CA", "postalCode": "K0G1J0", "twitter": "None", "instagram": "None", "facebook": "None", "youtube": "None", "website": "None", "summary": "None", "logo": "None", "latitude": 44.965447030526896, "longitude": -75.67838314224706}, "891048795RR0001": {"name": "NORTH GROWTH FOUNDATION", "designationCode": "B", "categoryCode": "03", "address": "SUITE 830, ONE BENTALL CENTRE 505 BURRARD STREET, BOX 56", "city": "VANCOUVER", "province": "BC", "country": "CA", "postalCode": "V7X1M4", "twitter": "None", "instagram": "None", "facebook": "None", "youtube": "None", "website": "None", "summary": "None", "logo": "None", "latitude": 49.28600000000006, "longitude": -123.11872999999997}, "119060341RR0001": {"name": "NORTH HALTON DISTRESS CENTRE", "designationCode": "C", "categoryCode": "09", "address": "BOX 85", "city": "GEORGETOWN", "province": "ON", "country": "CA", "postalCode": "L7G4T1", "twitter": "None", "instagram": "None", "facebook": "None", "youtube": "None", "website": "None", "summary": "None", "logo": "None", "latitude": 43.65006000000005, "longitude": -79.89909199999994}, "103929162RR0001": {"name": "NORTH HAMILTON COMMUNITY HEALTH CENTRE", "designationCode": "C", "categoryCode": "11", "address": "438 HUGHSON ST N", "city": "HAMILTON", "province": "ON", "country": "CA", "postalCode": "L8L4N5", "twitter": "None", "instagram": "None", "facebook": "None", "youtube": "None", "website": "None", "summary": "None", "logo": "None", "latitude": 43.26986784901037, "longitude": -79.86177812695497}, "123569527RR0001": {"name": "NORTH HASTINGS CHILDREN'S SERVICES", "designationCode": "C", "categoryCode": "20", "address": "P O BOX 1232", "city": "BANCROFT", "province": "ON", "country": "CA", "postalCode": "K0L1C0", "twitter": "None", "instagram": "None", "facebook": "None", "youtube": "None", "website": "None", "summary": "None", "logo": "None", "latitude": 45.03567300000006, "longitude": -77.98000849999994}, "831770722RR0001": {"name": "NORTH HASTINGS COMMUNITY FISH HATCHERY", "designationCode": "C", "categoryCode": "54", "address": "200 HYSERT RD                 RR 4", "city": "BANCROFT", "province": "ON", "country": "CA", "postalCode": "K0L1C0", "twitter": "None", "instagram": "None", "facebook": "None", "youtube": "None", "website": "None", "summary": "None", "logo": "None", "latitude": 45.07722189329734, "longitude": -77.77346173524136}, "106720485RR0001": {"name": "NORTH HASTINGS COMMUNITY INTEGRATION ASSOCIATION", "designationCode": "C", "categoryCode": "11", "address": "PO BOX 1508", "city": "BANCROFT", "province": "ON", "country": "CA", "postalCode": "K0L1C0", "twitter": "None", "instagram": "None", "facebook": "None", "youtube": "None", "website": "None", "summary": "None", "logo": "None", "latitude": 45.03567300000006, "longitude": -77.98000849999994}, "860219864RR0001": {"name": "NORTH HASTINGS COMMUNITY TRUST", "designationCode": "C", "categoryCode": "09", "address": "PO BOX 1615", "city": "BANCROFT", "province": "ON", "country": "CA", "postalCode": "K0L1C0", "twitter": "None", "instagram": "None", "facebook": "None", "youtube": "None", "website": "None", "summary": "None", "logo": "None", "latitude": 45.03567300000006, "longitude": -77.98000849999994}, "890223241RR0001": {"name": "NORTH HASTINGS HIGH SCHOOL SCHOLARSHIP FUND", "designationCode": "C", "categoryCode": "21", "address": "PO BOX 190", "city": "BANCROFT", "province": "ON", "country": "CA", "postalCode": "K0L1C0", "twitter": "None", "instagram": "None", "facebook": "None", "youtube": "None", "website": "None", "summary": "None", "logo": "None", "latitude": 45.03567300000006, "longitude": -77.98000849999994}, "119060374RR0001": {"name": "NORTH HASTINGS MUSIC FESTIVAL ASSOCIATION", "designationCode": "C", "categoryCode": "22", "address": "94 FRASER LAKE ROAD", "city": "BOULTER", "province": "ON", "country": "CA", "postalCode": "K0L1G0", "twitter": "None", "instagram": "None", "facebook": "None", "youtube": "None", "website": "None", "summary": "None", "logo": "None", "latitude": 45.19481975661804, "longitude": -77.63394371018124}, "119060390RR0001": {"name": "NORTH HATLEY CEMETERY ASSOCIATION", "designationCode": "C", "categoryCode": "59", "address": "50 RUE STEWART", "city": "NORTH HATLEY", "province": "QC", "country": "CA", "postalCode": "J0B2C0", "twitter": "None", "instagram": "None", "facebook": "None", "youtube": "None", "website": "None", "summary": "None", "logo": "None", "latitude": 45.276014922297804, "longitude": -71.96868488259565}, "108151598RR0001": {"name": "NORTH HEAD UNITED BAPTIST CHURCH", "designationCode": "C", "categoryCode": "31", "address": "20 WHALE COVE ROAD", "city": "GRAND MANAN", "province": "NB", "country": "CA", "postalCode": "E5G4A4", "twitter": "None", "instagram": "None", "facebook": "None", "youtube": "None", "website": "None", "summary": "None", "logo": "None", "latitude": 44.76755764891218, "longitude": -66.760744776935}, "107782674RR0001": {"name": "NORTH HIGHLANDS COMMUNITY ORGANIZATION", "designationCode": "C", "categoryCode": "50", "address": "COMP 1 UNIT 3", "city": "CAPE NORTH", "province": "NS", "country": "CA", "postalCode": "B0C1G0", "twitter": "None", "instagram": "None", "facebook": "None", "youtube": "None", "website": "None", "summary": "None", "logo": "None", "latitude": 46.87899000000006, "longitude": -60.485722999999936}, "119060440RR0001": {"name": "NORTH HIGHLANDS PASTORAL CHARGE", "designationCode": "C", "categoryCode": "44", "address": "RR 1", "city": "DINGWALL", "province": "NS", "country": "CA", "postalCode": "B0C1G0", "twitter": "None", "instagram": "None", "facebook": "None", "youtube": "None", "website": "None", "summary": "None", "logo": "None", "latitude": 46.895580088122614, "longitude": -60.471314408045956}, "119060473RR0001": {"name": "NORTH HILL CONGREGATION OF JEHOVAH'S WITNESSES SWIFT CURRENT SASKATCHEWAN", "designationCode": "C", "categoryCode": "61", "address": "F1-291 JACKSON DRIVE", "city": "SWIFT CURRENT", "province": "SK", "country": "CA", "postalCode": "S9H4M8", "twitter": "None", "instagram": "None", "facebook": "None", "youtube": "None", "website": "None", "summary": "None", "logo": "None", "latitude": 50.29744500000001, "longitude": -107.80461897357074}, "856822077RR0001": {"name": "NORTH HOUSE SHELTER", "designationCode": "C", "categoryCode": "01", "address": "1 - 24 TORONTO ST N", "city": "UXBRIDGE", "province": "ON", "country": "CA", "postalCode": "L9P1E6", "twitter": "None", "instagram": "None", "facebook": "None", "youtube": "None", "website": "None", "summary": "None", "logo": "None", "latitude": 44.10992079652497, "longitude": -79.12252245571108}, "871974929RR0001": {"name": "NORTH HURON COMMUNITY FOODSHARE", "designationCode": "C", "categoryCode": "09", "address": "PO BOX 354", "city": "WINGHAM", "province": "ON", "country": "CA", "postalCode": "N0G2W0", "twitter": "None", "instagram": "None", "facebook": "None", "youtube": "None", "website": "None", "summary": "None", "logo": "None", "latitude": 43.88924000000003, "longitude": -81.31057999999996}, "133175752RR0001": {"name": "NORTH ISLAND ALCOHOL AND DRUG EDUCATION AND INFORMATION SOCIETY", "designationCode": "C", "categoryCode": "57", "address": "910C ISLAND HIGHWAY", "city": "CAMPBELL RIVER", "province": "BC", "country": "CA", "postalCode": "V9W2C3", "twitter": "None", "instagram": "None", "facebook": "None", "youtube": "None", "website": "None", "summary": "None", "logo": "None", "latitude": 50.02369864265662, "longitude": -125.24033647024194}, "107782765RR0001": {"name": "NORTH ISLAND COLLEGE", "designationCode": "C", "categoryCode": "20", "address": "2300 RYAN ROAD", "city": "COURTENAY", "province": "BC", "country": "CA", "postalCode": "V9N8N6", "twitter": "None", "instagram": "None", "facebook": "None", "youtube": "None", "website": "None", "summary": "None", "logo": "None", "latitude": 49.707981017802254, "longitude": -124.97031430633577}, "890505043RR0001": {"name": "NORTH ISLAND COLLEGE FOUNDATION TRUST FUND", "designationCode": "A", "categoryCode": "21", "address": "2300 RYAN ROAD", "city": "COURTENAY", "province": "BC", "country": "CA", "postalCode": "V9N8N6", "twitter": "None", "instagram": "None", "facebook": "None", "youtube": "None", "website": "None", "summary": "None", "logo": "None", "latitude": 49.707981017802254, "longitude": -124.97031430633577}, "119048262RR0001": {"name": "NORTH ISLAND COMMUNITY SOCIETY", "designationCode": "C", "categoryCode": "09", "address": "375 SHELLEY CRESCENT", "city": "PORT MCNEILL", "province": "BC", "country": "CA", "postalCode": "V0N2R0", "twitter": "None", "instagram": "None", "facebook": "None", "youtube": "None", "website": "None", "summary": "None", "logo": "None", "latitude": 50.5880811674218, "longitude": -127.08925982925312}, "107782781RR0001": {"name": "NORTH ISLAND CRISIS AND COUNSELLING CENTRE SOCIETY", "designationCode": "C", "categoryCode": "09", "address": "BOX 2446", "city": "PORT HARDY", "province": "BC", "country": "CA", "postalCode": "V0N2P0", "twitter": "None", "instagram": "None", "facebook": "None", "youtube": "None", "website": "None", "summary": "None", "logo": "None", "latitude": 50.72153001889881, "longitude": -127.5011199316182}, "131134496RR0001": {"name": "NORTH ISLAND EARLY CHILD DEVELOPMENT SOCIETY", "designationCode": "C", "categoryCode": "20", "address": "6855 MARKET STREET PO BOX 42", "city": "PORT HARDY", "province": "BC", "country": "CA", "postalCode": "V0N2P0", "twitter": "None", "instagram": "None", "facebook": "None", "youtube": "None", "website": "None", "summary": "None", "logo": "None", "latitude": 50.71765375407981, "longitude": -127.49461427052154}, "140913740RR0001": {"name": "NORTH ISLAND EMPLOYMENT FOUNDATIONS SOCIETY", "designationCode": "C", "categoryCode": "59", "address": "920 ALDER ST", "city": "CAMPBELL RIVER", "province": "BC", "country": "CA", "postalCode": "V9W2P8", "twitter": "None", "instagram": "None", "facebook": "None", "youtube": "None", "website": "None", "summary": "None", "logo": "None", "latitude": 50.02426973267388, "longitude": -125.24311777332738}, "888932662RR0001": {"name": "NORTH ISLAND FESTIVAL OF PERFORMING ARTS", "designationCode": "C", "categoryCode": "22", "address": "PO BOX 3193", "city": "COURTENAY", "province": "BC", "country": "CA", "postalCode": "V9N5N3", "twitter": "None", "instagram": "None", "facebook": "None", "youtube": "None", "website": "None", "summary": "None", "logo": "None", "latitude": 49.68669300000006, "longitude": -124.99317349999993}, "134770494RR0001": {"name": "NORTH ISLAND SUPPORTIVE RECOVERY SOCIETY", "designationCode": "C", "categoryCode": "57", "address": "702 ISLAND HWY", "city": "CAMPBELL RIVER", "province": "BC", "country": "CA", "postalCode": "V9W2C3", "twitter": "None", "instagram": "None", "facebook": "None", "youtube": "None", "website": "None", "summary": "None", "logo": "None", "latitude": 50.02164800608817, "longitude": -125.23913814645933}, "119060549RR0001": {"name": "NORTH ISLAND WILDLIFE RECOVERY ASSOCIATION", "designationCode": "C", "categoryCode": "54", "address": "P.O. BOX 364", "city": "ERRINGTON", "province": "BC", "country": "CA", "postalCode": "V0R1V0", "twitter": "None", "instagram": "None", "facebook": "None", "youtube": "None", "website": "None", "summary": "None", "logo": "None", "latitude": 49.28217572514915, "longitude": -124.37907975417973}, "862172681RR0001": {"name": "NORTH ISLAND YOUNG MUSICIANS' SOCIETY", "designationCode": "C", "categoryCode": "22", "address": "475 - 13TH AVENUE             SUITE 200", "city": "CAMPBELL RIVER", "province": "BC", "country": "CA", "postalCode": "V9W8C3", "twitter": "None", "instagram": "None", "facebook": "None", "youtube": "None", "website": "None", "summary": "None", "logo": "None", "latitude": 50.02784451067583, "longitude": -125.24648358090484}, "875080921RR0001": {"name": "NORTH KAMLOOPS BUILDING SOCIETY", "designationCode": "B", "categoryCode": "09", "address": "101-1835 GREENFIELD AVE", "city": "KAMLOOPS", "province": "BC", "country": "CA", "postalCode": "V2B8R5", "twitter": "None", "instagram": "None", "facebook": "None", "youtube": "None", "website": "None", "summary": "None", "logo": "None", "latitude": 50.70453051788917, "longitude": -120.39442110935425}, "119060564RR0001": {"name": "NORTH KAMLOOPS PASTORAL CHARGE", "designationCode": "C", "categoryCode": "44", "address": "140 LABURNUM ST", "city": "KAMLOOPS", "province": "BC", "country": "CA", "postalCode": "V2B1G4", "twitter": "None", "instagram": "None", "facebook": "None", "youtube": "None", "website": "None", "summary": "None", "logo": "None", "latitude": 50.688807161521225, "longitude": -120.35564501413826}, "870526514RR0001": {"name": "NORTH KAWARTHA FOOD BANK INC.", "designationCode": "C", "categoryCode": "09", "address": "BOX 641", "city": "APSLEY", "province": "ON", "country": "CA", "postalCode": "K0L1A0", "twitter": "None", "instagram": "None", "facebook": "None", "youtube": "None", "website": "None", "summary": "None", "logo": "None", "latitude": 44.74924000000004, "longitude": -78.09319999999997}, "106818800RR0001": {"name": "NORTH KAWARTHA PUBLIC LIBRARY BOARD", "designationCode": "C", "categoryCode": "50", "address": "BOX 550", "city": "APSLEY", "province": "ON", "country": "CA", "postalCode": "K0L1A0", "twitter": "None", "instagram": "None", "facebook": "None", "youtube": "None", "website": "None", "summary": "None", "logo": "None", "latitude": 44.74924000000004, "longitude": -78.09319999999997}, "864498944RR0001": {"name": "NORTH KILDONAN LITTLE THINKERS INC.", "designationCode": "C", "categoryCode": "01", "address": "71B BURNETT AVENUE", "city": "WINNIPEG", "province": "MB", "country": "CA", "postalCode": "R2G1C2", "twitter": "None", "instagram": "None", "facebook": "None", "youtube": "None", "website": "None", "summary": "None", "logo": "None", "latitude": 49.93159232150935, "longitude": -97.06305874741304}, "107782856RR0001": {"name": "NORTH KILDONAN MENNONITE BRETHREN CHURCH", "designationCode": "C", "categoryCode": "34", "address": "1315 GATEWAY RD", "city": "WINNIPEG", "province": "MB", "country": "CA", "postalCode": "R2G1G5", "twitter": "None", "instagram": "None", "facebook": "None", "youtube": "None", "website": "None", "summary": "None", "logo": "None", "latitude": 49.93502144708324, "longitude": -97.06342121931502}, "119060598RR0001": {"name": "NORTH KILDONAN MENNONITE CHURCH INC.", "designationCode": "C", "categoryCode": "34", "address": "1131 ROCH ST", "city": "WINNIPEG", "province": "MB", "country": "CA", "postalCode": "R2G1S1", "twitter": "None", "instagram": "None", "facebook": "None", "youtube": "None", "website": "None", "summary": "None", "logo": "None", "latitude": 49.93676057118133, "longitude": -97.08632462236733}, "119060606RR0001": {"name": "NORTH KILDONAN UNITED CHURCH", "designationCode": "C", "categoryCode": "44", "address": "174 PENTLAND ST", "city": "WINNIPEG", "province": "MB", "country": "CA", "postalCode": "R2G2S3", "twitter": "None", "instagram": "None", "facebook": "None", "youtube": "None", "website": "None", "summary": "None", "logo": "None", "latitude": 49.95044847181039, "longitude": -97.07457146165417}, "860454131RR0001": {"name": "NORTH KINGSTON PUBLIC CEMETERY INC.", "designationCode": "C", "categoryCode": "59", "address": "P.O. BOX 215", "city": "KINGSTON", "province": "NS", "country": "CA", "postalCode": "B0P1R0", "twitter": "None", "instagram": "None", "facebook": "None", "youtube": "None", "website": "None", "summary": "None", "logo": "None", "latitude": 44.98742000000004, "longitude": -64.94941999999998}, "107558264RR0001": {"name": "NORTH KOOTENAY LAKE COMMUNITY SERVICES SOCIETY", "designationCode": "C", "categoryCode": "09", "address": "BOX 546", "city": "KASLO", "province": "BC", "country": "CA", "postalCode": "V0G1M0", "twitter": "None", "instagram": "None", "facebook": "None", "youtube": "None", "website": "None", "summary": "None", "logo": "None", "latitude": 49.91053000000005, "longitude": -116.90458999999998}, "134420488RR0001": {"name": "NORTH LAMBTON CHILDCARE CENTRE", "designationCode": "C", "categoryCode": "20", "address": "37 MORRIS ST", "city": "FOREST", "province": "ON", "country": "CA", "postalCode": "N0N1J0", "twitter": "None", "instagram": "None", "facebook": "None", "youtube": "None", "website": "None", "summary": "None", "logo": "None", "latitude": 43.092077652441276, "longitude": -81.99294184755873}, "895057867RR0001": {"name": "NORTH LAMBTON COMMUNITY HEALTH CENTRE", "designationCode": "C", "categoryCode": "11", "address": "3-59 KING ST W", "city": "FOREST", "province": "ON", "country": "CA", "postalCode": "N0N1J0", "twitter": "None", "instagram": "None", "facebook": "None", "youtube": "None", "website": "None", "summary": "None", "logo": "None", "latitude": 43.09599290029786, "longitude": -82.00310147905306}, "119060648RR0001": {"name": "NORTH LANARK AGRICULTURAL SOCIETY", "designationCode": "C", "categoryCode": "56", "address": "195 WATER ST. P.O. BOX 1608", "city": "ALMONTE", "province": "ON", "country": "CA", "postalCode": "K0A1A0", "twitter": "None", "instagram": "None", "facebook": "None", "youtube": "None", "website": "None", "summary": "None", "logo": "None", "latitude": 45.22501894079288, "longitude": -76.19132289121208}, "107782948RR0001": {"name": "NORTH LANARK HISTORICAL SOCIETY", "designationCode": "C", "categoryCode": "52", "address": "P.O. BOX 218", "city": "ALMONTE", "province": "ON", "country": "CA", "postalCode": "K0A1A0", "twitter": "None", "instagram": "None", "facebook": "None", "youtube": "None", "website": "None", "summary": "None", "logo": "None", "latitude": 45.223665000000054, "longitude": -76.20363799999993}, "808945893RR0001": {"name": "NORTH LANGLEY COMMUNITY CHURCH", "designationCode": "C", "categoryCode": "34", "address": "21015 96TH AVENUE", "city": "LANGLEY", "province": "BC", "country": "CA", "postalCode": "V1M2Z3", "twitter": "None", "instagram": "None", "facebook": "None", "youtube": "None", "website": "None", "summary": "None", "logo": "None", "latitude": 49.17699349437318, "longitude": -122.64032152553523}, "107783144RR0001": {"name": "NORTH LEAMINGTON UNITED MENNONITE CHURCH", "designationCode": "C", "categoryCode": "34", "address": "625 RD 6 RR# 5", "city": "LEAMINGTON", "province": "ON", "country": "CA", "postalCode": "N8H3V8", "twitter": "None", "instagram": "None", "facebook": "None", "youtube": "None", "website": "None", "summary": "None", "logo": "None", "latitude": 42.09591300000005, "longitude": -82.59702199999994}, "119288918RR0839": {"name": "NORTH LISTOWEL CONGREGATION OF JEHOVAH'S WITNESSES", "designationCode": "C", "categoryCode": "61", "address": "P.O. BOX 888", "city": "PALMERSTON", "province": "ON", "country": "CA", "postalCode": "N0G2P0", "twitter": "None", "instagram": "None", "facebook": "None", "youtube": "None", "website": "None", "summary": "None", "logo": "None", "latitude": 43.95818406650932, "longitude": -81.52001207957518}, "107797383RR0118": {"name": "NORTH LONDON SEVENTH-DAY ADVENTIST CHURCH", "designationCode": "C", "categoryCode": "41", "address": "800 FLEET STREET", "city": "LONDON", "province": "ON", "country": "CA", "postalCode": "N5Y1R9", "twitter": "None", "instagram": "None", "facebook": "None", "youtube": "None", "website": "None", "summary": "None", "logo": "None", "latitude": 43.003698828826295, "longitude": -81.2203754506615}, "119060754RR0001": {"name": "NORTH LONSDALE UNITED CHURCH", "designationCode": "C", "categoryCode": "44", "address": "3380 LONSDALE AVENUE,", "city": "NORTH VANCOUVER", "province": "BC", "country": "CA", "postalCode": "V7N3K2", "twitter": "None", "instagram": "None", "facebook": "None", "youtube": "None", "website": "None", "summary": "None", "logo": "None", "latitude": 49.339862413266786, "longitude": -123.0719013267647}, "878828300RR0001": {"name": "NORTH MIDDLESEX COMMUNITY MEDICAL CENTRE INC.", "designationCode": "C", "categoryCode": "11", "address": "268 MAIN STREET", "city": "PARKHILL", "province": "ON", "country": "CA", "postalCode": "N0M2K0", "twitter": "None", "instagram": "None", "facebook": "None", "youtube": "None", "website": "None", "summary": "None", "logo": "None", "latitude": 43.165251086568716, "longitude": -81.8435105892945}, "897888269RR0001": {"name": "NORTH MOUNTAIN HANDI-VAN SERVICE INC", "designationCode": "C", "categoryCode": "09", "address": "PO BOX 155", "city": "BIRCH RIVER", "province": "MB", "country": "CA", "postalCode": "R0L0E0", "twitter": "None", "instagram": "None", "facebook": "None", "youtube": "None", "website": "None", "summary": "None", "logo": "None", "latitude": 51.99323480715113, "longitude": -100.14777643531698}, "119060853RR0001": {"name": "NORTH NEWMARKET LIONS FOUNDATION", "designationCode": "A", "categoryCode": "65", "address": "23-1111 DAVIS DR.             P.O. BOX 506", "city": "NEWMARKET", "province": "ON", "country": "CA", "postalCode": "L3Y9E5", "twitter": "None", "instagram": "None", "facebook": "None", "youtube": "None", "website": "None", "summary": "None", "logo": "None", "latitude": 44.06604516573349, "longitude": -79.43088971097555}, "119243517RR0001": {"name": "NORTH NORFOLK MacGREGOR ARCHIVES INC.", "designationCode": "C", "categoryCode": "50", "address": "PO BOX 435", "city": "MACGREGOR", "province": "MB", "country": "CA", "postalCode": "R0H0R0", "twitter": "None", "instagram": "None", "facebook": "None", "youtube": "None", "website": "None", "summary": "None", "logo": "None", "latitude": 49.965220000000045, "longitude": -98.77929999999998}, "898285648RR0001": {"name": "NORTH NORFOLK-MACGREGOR FOUNDATION INC.", "designationCode": "A", "categoryCode": "03", "address": "PO BOX 696", "city": "MACGREGOR", "province": "MB", "country": "CA", "postalCode": "R0H0R0", "twitter": "None", "instagram": "None", "facebook": "None", "youtube": "None", "website": "None", "summary": "None", "logo": "None", "latitude": 49.965220000000045, "longitude": -98.77929999999998}, "894678523RR0001": {"name": "NORTH OF SMOKEY PALLIATIVE CARE/HOSPICE SOCIETY", "designationCode": "C", "categoryCode": "11", "address": "BUCHANAN MEMORIAL HOSPITAL    PO BOX 154", "city": "NEIL'S HARBOUR", "province": "NS", "country": "CA", "postalCode": "B0C1N0", "twitter": "None", "instagram": "None", "facebook": "None", "youtube": "None", "website": "None", "summary": "None", "logo": "None", "latitude": 46.80841200000006, "longitude": -60.32178349999994}, "130506165RR0001": {"name": "NORTH OF SUPERIOR COMMUNITY MENTAL HEALTH PROGRAM CORPORATION", "designationCode": "C", "categoryCode": "11", "address": "79 COURT STREET NORTH, STE 103", "city": "THUNDER BAY", "province": "ON", "country": "CA", "postalCode": "P7A4T7", "twitter": "None", "instagram": "None", "facebook": "None", "youtube": "None", "website": "None", "summary": "None", "logo": "None", "latitude": 48.43819271994927, "longitude": -89.21946050608818}, "139969653RR0001": {"name": "NORTH OKANAGAN CHILD CARE AND MONTESSORI PRESCHOOL SOCIETY", "designationCode": "C", "categoryCode": "20", "address": "2711 38TH ST", "city": "VERNON", "province": "BC", "country": "CA", "postalCode": "V1T6H5", "twitter": "None", "instagram": "None", "facebook": "None", "youtube": "None", "website": "None", "summary": "None", "logo": "None", "latitude": 50.26275088037398, "longitude": -119.2856713149064}, "107783433RR0001": {"name": "NORTH OKANAGAN COMMUNITY LIFE SOCIETY", "designationCode": "C", "categoryCode": "01", "address": "2400-46 AVENUE", "city": "VERNON", "province": "BC", "country": "CA", "postalCode": "V1T9N5", "twitter": "None", "instagram": "None", "facebook": "None", "youtube": "None", "website": "None", "summary": "None", "logo": "None", "latitude": 50.27874151399405, "longitude": -119.26313991618096}}