{"751652496RR0001": {"name": "Moncton Hope Korean Church", "designationCode": "C", "categoryCode": "39", "address": "85 ELMWOOD DR", "city": "MONCTON", "province": "NB", "country": "CA", "postalCode": "E1A3W8", "twitter": "None", "instagram": "None", "facebook": "None", "youtube": "None", "website": "None", "summary": "None", "logo": "None", "latitude": 46.10511031418431, "longitude": -64.77428856229453}, "819889494RR0001": {"name": "Moncton Korean Church", "designationCode": "C", "categoryCode": "39", "address": "157 QUEEN ST", "city": "MONCTON", "province": "NB", "country": "CA", "postalCode": "E1C1K9", "twitter": "None", "instagram": "None", "facebook": "None", "youtube": "None", "website": "None", "summary": "None", "logo": "None", "latitude": 46.08947217958328, "longitude": -64.77939682015692}, "826565442RR0001": {"name": "Moncton Korean Methodist Church Inc.", "designationCode": "C", "categoryCode": "39", "address": "204 - 53 SPRING GARDEN AVE", "city": "NORTH YORK", "province": "ON", "country": "CA", "postalCode": "M2N3G1", "twitter": "None", "instagram": "None", "facebook": "None", "youtube": "None", "website": "None", "summary": "None", "logo": "None", "latitude": 43.76472483484345, "longitude": -79.40953559602404}, "825466592RR0001": {"name": "Moncton Little Korean Church", "designationCode": "C", "categoryCode": "39", "address": "155 CHARLES LUTES RD", "city": "MONCTON", "province": "NB", "country": "CA", "postalCode": "E1G2R8", "twitter": "None", "instagram": "None", "facebook": "None", "youtube": "None", "website": "None", "summary": "None", "logo": "None", "latitude": 46.1283124585375, "longitude": -64.88975484987573}, "803095512RR0001": {"name": "Moncton Lord's Garden Church", "designationCode": "C", "categoryCode": "39", "address": "55 DICKSON ST", "city": "CAMBRIDGE", "province": "ON", "country": "CA", "postalCode": "N1R7A5", "twitter": "None", "instagram": "None", "facebook": "None", "youtube": "None", "website": "None", "summary": "None", "logo": "None", "latitude": 43.359804503462456, "longitude": -80.31234203427779}, "814755930RR0001": {"name": "Moncton Muslim Cemetery Trust Inc.", "designationCode": "C", "categoryCode": "59", "address": "172 ALEXANDER AVENUE", "city": "MONCTON", "province": "NB", "country": "CA", "postalCode": "E1E4N5", "twitter": "None", "instagram": "None", "facebook": "None", "youtube": "None", "website": "None", "summary": "None", "logo": "None", "latitude": 46.08170258338636, "longitude": -64.81486977101972}, "806333217RR0001": {"name": "Moncur Gallery - Peoples of the Plains Inc.", "designationCode": "C", "categoryCode": "50", "address": "298 MOUNTAIN STREET           PO BOX 1241", "city": "BOISSEVAIN", "province": "MB", "country": "CA", "postalCode": "R0K0E0", "twitter": "None", "instagram": "None", "facebook": "None", "youtube": "None", "website": "None", "summary": "None", "logo": "None", "latitude": 49.22544735054123, "longitude": -100.05295108520659}, "836146761RR0001": {"name": "Monde par la main / Give a Hand", "designationCode": "C", "categoryCode": "09", "address": "260 RUE ROY-AUDY", "city": "BOUCHERVILLE", "province": "QC", "country": "CA", "postalCode": "J4B1C8", "twitter": "None", "instagram": "None", "facebook": "None", "youtube": "None", "website": "None", "summary": "None", "logo": "None", "latitude": 45.59008488591389, "longitude": -73.44033918720068}, "841207889RR0001": {"name": "Moniteur Un Watch Canada", "designationCode": "C", "categoryCode": "59", "address": "3800-200 BAY STREET, BOX 84   ROYAL PLAZA SOUTH TOWER", "city": "TORONTO", "province": "ON", "country": "CA", "postalCode": "M5J2Z4", "twitter": "None", "instagram": "None", "facebook": "None", "youtube": "None", "website": "None", "summary": "None", "logo": "None", "latitude": 43.64868300000006, "longitude": -79.38544399999994}, "827961772RR0001": {"name": "Monks Family Charitable Trust", "designationCode": "B", "categoryCode": "05", "address": "4048 WOODCHUCK LANE", "city": "MISSISSAUGA", "province": "ON", "country": "CA", "postalCode": "L5L2T5", "twitter": "None", "instagram": "None", "facebook": "None", "youtube": "None", "website": "None", "summary": "None", "logo": "None", "latitude": 43.55570311350919, "longitude": -79.68053497423362}, "791841091RR0001": {"name": "Mont-V\u00e9lo Mont\u00e9r\u00e9gien", "designationCode": "C", "categoryCode": "59", "address": "1797 RUE PONTGRAVE", "city": "SAINT-BRUNO", "province": "QC", "country": "CA", "postalCode": "J3V4Y3", "twitter": "None", "instagram": "None", "facebook": "None", "youtube": "None", "website": "None", "summary": "None", "logo": "None", "latitude": 45.525570444341916, "longitude": -73.33268980296023}, "743890121RR0001": {"name": "Montague Community Park Cemetery Inc.", "designationCode": "C", "categoryCode": "59", "address": "PO BOX 1162", "city": "MONTAGUE", "province": "PE", "country": "CA", "postalCode": "C0A1R0", "twitter": "None", "instagram": "None", "facebook": "None", "youtube": "None", "website": "None", "summary": "None", "logo": "None", "latitude": 46.14343222329997, "longitude": -62.75594020244682}, "119288918RR0094": {"name": "Montague Congregation of Jehovah's Witnesses, Montague, Prince Edward Island", "designationCode": "C", "categoryCode": "61", "address": "323 ALBION RD.                RR#2", "city": "ST. PETER'S", "province": "PE", "country": "CA", "postalCode": "C0A2A0", "twitter": "None", "instagram": "None", "facebook": "None", "youtube": "None", "website": "None", "summary": "None", "logo": "None", "latitude": 46.336252389530614, "longitude": -62.4874755666808}, "820688331RR0001": {"name": "Montague Toy Project Inc.", "designationCode": "C", "categoryCode": "09", "address": "PO BOX 98", "city": "MONTAGUE", "province": "PE", "country": "CA", "postalCode": "C0A1R0", "twitter": "None", "instagram": "None", "facebook": "None", "youtube": "None", "website": "None", "summary": "None", "logo": "None", "latitude": 46.14343222329997, "longitude": -62.75594020244682}, "119248086RR0001": {"name": "Monterey Recreation Activity Association", "designationCode": "C", "categoryCode": "56", "address": "1442 MONTEREY AVENUE", "city": "VICTORIA", "province": "BC", "country": "CA", "postalCode": "V8S4W1", "twitter": "None", "instagram": "None", "facebook": "None", "youtube": "None", "website": "None", "summary": "None", "logo": "None", "latitude": 48.426012000000014, "longitude": -123.31413289058749}, "138876065RR0001": {"name": "Montessori School of Calgary", "designationCode": "C", "categoryCode": "20", "address": "2201 CLIFF ST SW", "city": "CALGARY", "province": "AB", "country": "CA", "postalCode": "T2S2G4", "twitter": "None", "instagram": "None", "facebook": "None", "youtube": "None", "website": "None", "summary": "None", "logo": "None", "latitude": 51.033133508742566, "longitude": -114.07585565918394}, "828357442RR0001": {"name": "Montr\u00e9al Foundation For Helping People In Need / Fondation De Montr\u00e9al Aidant Les Personnes Dans Le Besoin", "designationCode": "A", "categoryCode": "03", "address": "133 HASTING AVENUE", "city": "POINTE-CLAIRE", "province": "QC", "country": "CA", "postalCode": "H9R3P7", "twitter": "None", "instagram": "None", "facebook": "None", "youtube": "None", "website": "None", "summary": "None", "logo": "None", "latitude": 45.46000218347843, "longitude": -73.81320729641071}, "822876611RR0001": {"name": "Montr\u00e9al School of Theology / \u00c9cole th\u00e9ologique de Montr\u00e9al", "designationCode": "C", "categoryCode": "20", "address": "3475, RUE UNIVERSITY", "city": "MONTR\u00c9AL", "province": "QC", "country": "CA", "postalCode": "H3A2A8", "twitter": "None", "instagram": "None", "facebook": "None", "youtube": "None", "website": "None", "summary": "None", "logo": "None", "latitude": 45.50614803222899, "longitude": -73.57579848817035}, "842145880RR0001": {"name": "Montreal Assembly of God Mission International", "designationCode": "C", "categoryCode": "39", "address": "4081-7 BARCLAY AVENUE", "city": "MONTREAL", "province": "QC", "country": "CA", "postalCode": "H3S1K9", "twitter": "None", "instagram": "None", "facebook": "None", "youtube": "None", "website": "None", "summary": "None", "logo": "None", "latitude": 45.49955353817293, "longitude": -73.63839587748843}, "844192658RR0001": {"name": "Montreal Buddhist Monastery and Cultural Center", "designationCode": "C", "categoryCode": "35", "address": "253 CASTLE RD", "city": "BEACONSFIELD", "province": "QC", "country": "CA", "postalCode": "H9W2W4", "twitter": "None", "instagram": "None", "facebook": "None", "youtube": "None", "website": "None", "summary": "None", "logo": "None", "latitude": 45.441218472610984, "longitude": -73.85409686174195}, "897905626RR0001": {"name": "Montreal Church of God", "designationCode": "C", "categoryCode": "39", "address": "617 - 335 BOUL DEGUIRE", "city": "SAINT-LAURENT", "province": "QC", "country": "CA", "postalCode": "H4N1P7", "twitter": "None", "instagram": "None", "facebook": "None", "youtube": "None", "website": "None", "summary": "None", "logo": "None", "latitude": 45.53007842330742, "longitude": -73.67870266564657}, "835900887RR0001": {"name": "Montreal Grace Church of the Nazarene", "designationCode": "C", "categoryCode": "39", "address": "8120 AV.BLOOMFIELD", "city": "MONTREAL", "province": "QC", "country": "CA", "postalCode": "H3N2H9", "twitter": "None", "instagram": "None", "facebook": "None", "youtube": "None", "website": "None", "summary": "None", "logo": "None", "latitude": 45.53101303523009, "longitude": -73.63644759867844}, "890837941RR0001": {"name": "Montreal Holocaust Museum / Mus\u00e9e de l'Holocauste Montr\u00e9al", "designationCode": "C", "categoryCode": "50", "address": "5151 COTE-ST. CATHERINE ROAD", "city": "MONTREAL", "province": "QC", "country": "CA", "postalCode": "H3W1M6", "twitter": "None", "instagram": "None", "facebook": "None", "youtube": "None", "website": "None", "summary": "None", "logo": "None", "latitude": 45.488925385538515, "longitude": -73.63610869559653}, "842531709RR0001": {"name": "Montreal Jiuding Club", "designationCode": "C", "categoryCode": "21", "address": "190 - 3755 PLACE JAVA", "city": "BROSSARD", "province": "QC", "country": "CA", "postalCode": "J4Y0E4", "twitter": "None", "instagram": "None", "facebook": "None", "youtube": "None", "website": "None", "summary": "None", "logo": "None", "latitude": 45.43266517051106, "longitude": -73.45773887462367}, "828809152RR0001": {"name": "Montreal School of Ministry", "designationCode": "C", "categoryCode": "39", "address": "11961 BOUL O'BRIEN", "city": "MONTREAL", "province": "QC", "country": "CA", "postalCode": "H4J1Z1", "twitter": "None", "instagram": "None", "facebook": "None", "youtube": "None", "website": "None", "summary": "None", "logo": "None", "latitude": 45.531944244532205, "longitude": -73.70620835079936}, "831607197RR0001": {"name": "Montreal Special Needs Family Organization/Organisation Familiale des Besoins Sp\u00e9ciaux de Montr\u00e9al", "designationCode": "C", "categoryCode": "09", "address": "7491 RUE CORDNER", "city": "LASALLE", "province": "QC", "country": "CA", "postalCode": "H8N2R5", "twitter": "None", "instagram": "None", "facebook": "None", "youtube": "None", "website": "None", "summary": "None", "logo": "None", "latitude": 45.44321263808915, "longitude": -73.6279573016549}, "894647486RR0001": {"name": "Montreal Workers Circle/Cercle des Ouvriers de Montr\u00e9al", "designationCode": "C", "categoryCode": "09", "address": "5165 AV ISABELLA", "city": "MONTREAL", "province": "QC", "country": "CA", "postalCode": "H3W1S9", "twitter": "None", "instagram": "None", "facebook": "None", "youtube": "None", "website": "None", "summary": "None", "logo": "None", "latitude": 45.486536185411666, "longitude": -73.63114192884733}, "838248573RR0001": {"name": "Monts et Cahiers", "designationCode": "C", "categoryCode": "09", "address": "1280 RUE ST-LOUIS", "city": "TERREBONNE", "province": "QC", "country": "CA", "postalCode": "J6W1K4", "twitter": "None", "instagram": "None", "facebook": "None", "youtube": "None", "website": "None", "summary": "None", "logo": "None", "latitude": 45.698957575019136, "longitude": -73.64734918330552}, "833245582RR0001": {"name": "Mood Disorders Support Group of Guelph", "designationCode": "C", "categoryCode": "11", "address": "407 - 401 EDINBURGH RD N", "city": "GUELPH", "province": "ON", "country": "CA", "postalCode": "N1H0A5", "twitter": "None", "instagram": "None", "facebook": "None", "youtube": "None", "website": "None", "summary": "None", "logo": "None", "latitude": 43.54787171788031, "longitude": -80.27260335812761}, "891127540RR0001": {"name": "Mood Menders Support Services", "designationCode": "C", "categoryCode": "59", "address": "200 MAIN STREET EAST", "city": "HAMILTON", "province": "ON", "country": "CA", "postalCode": "L8N1H3", "twitter": "None", "instagram": "None", "facebook": "None", "youtube": "None", "website": "None", "summary": "None", "logo": "None", "latitude": 43.25331306797866, "longitude": -79.8616474565756}, "829705623RR0001": {"name": "Moondance Ranch Inc.", "designationCode": "C", "categoryCode": "56", "address": "BOX 55", "city": "PERDUE", "province": "SK", "country": "CA", "postalCode": "S0K3C0", "twitter": "None", "instagram": "None", "facebook": "None", "youtube": "None", "website": "None", "summary": "None", "logo": "None", "latitude": 52.13422819405385, "longitude": -107.23358805782026}, "836710293RR0001": {"name": "Mooney Rogers Charitable Foundation", "designationCode": "B", "categoryCode": "05", "address": "600-1000 CENTRE STREET NORTH", "city": "CALGARY", "province": "AB", "country": "CA", "postalCode": "T2E7W6", "twitter": "None", "instagram": "None", "facebook": "None", "youtube": "None", "website": "None", "summary": "None", "logo": "None", "latitude": 51.06074358090484, "longitude": -114.06251976363346}, "107723421RR0001": {"name": "Moose Jaw Family Services Inc.", "designationCode": "C", "categoryCode": "59", "address": "200 MAIN STREET SOUTH", "city": "MOOSE JAW", "province": "SK", "country": "CA", "postalCode": "S6H5S7", "twitter": "None", "instagram": "None", "facebook": "None", "youtube": "None", "website": "None", "summary": "None", "logo": "None", "latitude": 50.385329129272264, "longitude": -105.53462721719282}, "128078235RR0001": {"name": "Moose Jaw Multicultural Council Inc.", "designationCode": "C", "categoryCode": "09", "address": "60 ATHABASCA ST E", "city": "MOOSE JAW", "province": "SK", "country": "CA", "postalCode": "S6H0L2", "twitter": "None", "instagram": "None", "facebook": "None", "youtube": "None", "website": "None", "summary": "None", "logo": "None", "latitude": 50.39540959844703, "longitude": -105.53249290155297}, "751178492RR0001": {"name": "Moose Jaw New Life Tabernacle - (UPCI)", "designationCode": "C", "categoryCode": "39", "address": "1120 CHESTNUT AVE", "city": "MOOSE JAW", "province": "SK", "country": "CA", "postalCode": "S6H1B1", "twitter": "None", "instagram": "None", "facebook": "None", "youtube": "None", "website": "None", "summary": "None", "logo": "None", "latitude": 50.401274426704056, "longitude": -105.53044217117555}, "815047592RR0001": {"name": "Moose Mountain R N R Wildlife Rehabilitation Inc.", "designationCode": "C", "categoryCode": "54", "address": "PO BOX 516", "city": "CARLYLE", "province": "SK", "country": "CA", "postalCode": "S0C0R0", "twitter": "None", "instagram": "None", "facebook": "None", "youtube": "None", "website": "None", "summary": "None", "logo": "None", "latitude": 49.628016, "longitude": -102.26315694795335}, "119288918RR0988": {"name": "Moosomin Congregation of Jehovah's Witnesses, Moosomin, Saskatchewan", "designationCode": "C", "categoryCode": "61", "address": "BOX 966", "city": "MOOSOMIN", "province": "SK", "country": "CA", "postalCode": "S0G3N0", "twitter": "None", "instagram": "None", "facebook": "None", "youtube": "None", "website": "None", "summary": "None", "logo": "None", "latitude": 50.14728000000008, "longitude": -101.66300999999999}, "119045854RR0001": {"name": "Moosomin Organization for Transportation of Handicapped", "designationCode": "C", "categoryCode": "09", "address": "PO BOX 1801", "city": "MOOSOMIN", "province": "SK", "country": "CA", "postalCode": "S0G3N0", "twitter": "None", "instagram": "None", "facebook": "None", "youtube": "None", "website": "None", "summary": "None", "logo": "None", "latitude": 50.14728000000008, "longitude": -101.66300999999999}, "107723843RR0001": {"name": "Moosonee Community Church", "designationCode": "C", "categoryCode": "31", "address": "PO BOX 244", "city": "MOOSONEE", "province": "ON", "country": "CA", "postalCode": "P0L1Y0", "twitter": "None", "instagram": "None", "facebook": "None", "youtube": "None", "website": "None", "summary": "None", "logo": "None", "latitude": 51.273540000000025, "longitude": -80.64088999999996}, "842018988RR0001": {"name": "Moosonee Puppy Rescue", "designationCode": "C", "categoryCode": "54", "address": "1490 FALKENBURG ROAD,", "city": "BRACEBRIDGE", "province": "ON", "country": "CA", "postalCode": "P1L1X4", "twitter": "None", "instagram": "None", "facebook": "None", "youtube": "None", "website": "None", "summary": "None", "logo": "None", "latitude": 45.095420064605094, "longitude": -79.36143892596868}, "872564778RR0001": {"name": "Morden Community Handi-Van", "designationCode": "C", "categoryCode": "19", "address": "400 LOREN DR", "city": "MORDEN", "province": "MB", "country": "CA", "postalCode": "R6M0E2", "twitter": "None", "instagram": "None", "facebook": "None", "youtube": "None", "website": "None", "summary": "None", "logo": "None", "latitude": 49.19406047908878, "longitude": -98.08083002640419}, "825033889RR0001": {"name": "More Than 12", "designationCode": "C", "categoryCode": "36", "address": "12983 68 AVE", "city": "SURREY", "province": "BC", "country": "CA", "postalCode": "V3W6H7", "twitter": "None", "instagram": "None", "facebook": "None", "youtube": "None", "website": "None", "summary": "None", "logo": "None", "latitude": 49.12654951485942, "longitude": -122.86275185789717}, "842139354RR0001": {"name": "Morell Community Rink Inc.", "designationCode": "C", "categoryCode": "56", "address": "59 QUEEN ELIZABETH DR         PO BOX 114", "city": "MORELL", "province": "PE", "country": "CA", "postalCode": "C0A1S0", "twitter": "None", "instagram": "None", "facebook": "None", "youtube": "None", "website": "None", "summary": "None", "logo": "None", "latitude": 46.41446649653754, "longitude": -62.702314836805336}, "802504936RR0001": {"name": "Morguard Foundation / Fondation Morguard", "designationCode": "B", "categoryCode": "03", "address": "55 CITY CENTRE DRIVE          SUITE 1000", "city": "MISSISSAUGA", "province": "ON", "country": "CA", "postalCode": "L5B1M3", "twitter": "None", "instagram": "None", "facebook": "None", "youtube": "None", "website": "None", "summary": "None", "logo": "None", "latitude": 43.59359437996995, "longitude": -79.63882394927626}, "836342139RR0001": {"name": "Morinville Food Bank Society", "designationCode": "C", "categoryCode": "09", "address": "9916 104 ST                   PO BOX 3151", "city": "MORINVILLE", "province": "AB", "country": "CA", "postalCode": "T8R1S1", "twitter": "None", "instagram": "None", "facebook": "None", "youtube": "None", "website": "None", "summary": "None", "logo": "None", "latitude": 53.800928497085806, "longitude": -113.65295705014681}, "119046290RR0001": {"name": "Morley and Rita Cohen Foundation Fondation Morley et Rita C ohen", "designationCode": "B", "categoryCode": "03", "address": "400-1310 GREENE AVENUE", "city": "WESTMOUNT", "province": "QC", "country": "CA", "postalCode": "H3Z2B2", "twitter": "None", "instagram": "None", "facebook": "None", "youtube": "None", "website": "None", "summary": "None", "logo": "None", "latitude": 45.48707077127952, "longitude": -73.59001220249277}, "800594079RR0001": {"name": "Morley United Church", "designationCode": "B", "categoryCode": "44", "address": "9310 - 70 PANAMOUNT DR NW", "city": "CALGARY", "province": "AB", "country": "CA", "postalCode": "T3K6K6", "twitter": "None", "instagram": "None", "facebook": "None", "youtube": "None", "website": "None", "summary": "None", "logo": "None", "latitude": 51.15493835225171, "longitude": -114.07291539959459}, "106693047RR0046": {"name": "Morning Star Seventh-day Adventist Church", "designationCode": "C", "categoryCode": "41", "address": "5816 HIGHWAY, 2A", "city": "LACOMBE", "province": "AB", "country": "CA", "postalCode": "T4L2G5", "twitter": "None", "instagram": "None", "facebook": "None", "youtube": "None", "website": "None", "summary": "None", "logo": "None", "latitude": 52.474063600197404, "longitude": -113.71692568401835}, "790988299RR0001": {"name": "Morningside Music Bridge Foundation", "designationCode": "C", "categoryCode": "22", "address": "69 SCANDIA HILL NW", "city": "CALGARY", "province": "AB", "country": "CA", "postalCode": "T3L1T9", "twitter": "None", "instagram": "None", "facebook": "None", "youtube": "None", "website": "None", "summary": "None", "logo": "None", "latitude": 51.11376999916329, "longitude": -114.21680557715393}, "840682413RR0001": {"name": "Morningstar Relief Mission Inc.", "designationCode": "C", "categoryCode": "01", "address": "59 WATER STREET WEST", "city": "NAPANEE", "province": "ON", "country": "CA", "postalCode": "K7R1V5", "twitter": "None", "instagram": "None", "facebook": "None", "youtube": "None", "website": "None", "summary": "None", "logo": "None", "latitude": 44.24498726698035, "longitude": -76.951598088378}, "132516089RR0001": {"name": "Morris-Emerson Area Health Foundation Inc.", "designationCode": "A", "categoryCode": "13", "address": "BOX 128", "city": "MORRIS", "province": "MB", "country": "CA", "postalCode": "R0G1K0", "twitter": "None", "instagram": "None", "facebook": "None", "youtube": "None", "website": "None", "summary": "None", "logo": "None", "latitude": 49.35468000000003, "longitude": -97.36605999999995}, "831810239RR0001": {"name": "Morrison Family Foundation", "designationCode": "B", "categoryCode": "03", "address": "8 SWANSDOWN DR", "city": "NORTH YORK", "province": "ON", "country": "CA", "postalCode": "M2L2N1", "twitter": "None", "instagram": "None", "facebook": "None", "youtube": "None", "website": "None", "summary": "None", "logo": "None", "latitude": 43.75984225193239, "longitude": -79.37203371182255}, "801885930RR0001": {"name": "Morrison Gardens Emergency Food Outlet", "designationCode": "C", "categoryCode": "09", "address": "25 CANFIELD ROAD", "city": "OTTAWA", "province": "ON", "country": "CA", "postalCode": "K2H5G7", "twitter": "None", "instagram": "None", "facebook": "None", "youtube": "None", "website": "None", "summary": "None", "logo": "None", "latitude": 45.32917648600596, "longitude": -75.78460513933287}, "873914600RR0001": {"name": "Morton Community Healthcare Centre", "designationCode": "C", "categoryCode": "11", "address": "150 STRICKLAND ST", "city": "LAKEFIELD", "province": "ON", "country": "CA", "postalCode": "K0L2H0", "twitter": "None", "instagram": "None", "facebook": "None", "youtube": "None", "website": "None", "summary": "None", "logo": "None", "latitude": 44.431356662477626, "longitude": -78.25727658088455}, "860250950RR0001": {"name": "Morweena Christian School Incorporated", "designationCode": "C", "categoryCode": "20", "address": "PO BOX 1030", "city": "ARBORG", "province": "MB", "country": "CA", "postalCode": "R0C0A0", "twitter": "None", "instagram": "None", "facebook": "None", "youtube": "None", "website": "None", "summary": "None", "logo": "None", "latitude": 50.91022850109325, "longitude": -97.2043884534773}, "841227796RR0001": {"name": "Mosaic Church", "designationCode": "C", "categoryCode": "45", "address": "POST OFFICE BOX 1505", "city": "LLOYDMINSTER", "province": "AB", "country": "CA", "postalCode": "T9V3B8", "twitter": "None", "instagram": "None", "facebook": "None", "youtube": "None", "website": "None", "summary": "None", "logo": "None", "latitude": 53.27803500000006, "longitude": -110.00671099999994}, "820503712RR0001": {"name": "Mosaic Ministries of Calgary", "designationCode": "C", "categoryCode": "39", "address": "7719 BOWCLIFFE CRESCENT NW", "city": "CALGARY", "province": "AB", "country": "CA", "postalCode": "T3B2S6", "twitter": "None", "instagram": "None", "facebook": "None", "youtube": "None", "website": "None", "summary": "None", "logo": "None", "latitude": 51.08286423980033, "longitude": -114.1972468591379}, "858956659RR0001": {"name": "Mosaic-Newcomer Family Resources Network Incorporated", "designationCode": "C", "categoryCode": "09", "address": "397 CARLTON STREET", "city": "WINNIPEG", "province": "MB", "country": "CA", "postalCode": "R3B2K9", "twitter": "None", "instagram": "None", "facebook": "None", "youtube": "None", "website": "None", "summary": "None", "logo": "None", "latitude": 49.89615577629984, "longitude": -97.14766654688684}, "805736733RR0001": {"name": "Mosaic's Care Connexion", "designationCode": "C", "categoryCode": "01", "address": "2900 STEELES AVENUE EAST      SUITE 218", "city": "THORNHILL", "province": "ON", "country": "CA", "postalCode": "L3T4X1", "twitter": "None", "instagram": "None", "facebook": "None", "youtube": "None", "website": "None", "summary": "None", "logo": "None", "latitude": 43.81179887663566, "longitude": -79.3587265211524}, "826460008RR0001": {"name": "Mosaichouse Christian Reformed Church of Edmonton, Alberta", "designationCode": "C", "categoryCode": "39", "address": "#47 MEADOWVIEW DR.", "city": "SHERWOOD PARK", "province": "AB", "country": "CA", "postalCode": "T8H1G7", "twitter": "None", "instagram": "None", "facebook": "None", "youtube": "None", "website": "None", "summary": "None", "logo": "None", "latitude": 53.544672566737916, "longitude": -113.25913325748702}, "849399282RR0001": {"name": "Mosam Charitable Foundation", "designationCode": "A", "categoryCode": "03", "address": "610 - 700 PENDER ST W", "city": "VANCOUVER", "province": "BC", "country": "CA", "postalCode": "V6C1G8", "twitter": "None", "instagram": "None", "facebook": "None", "youtube": "None", "website": "None", "summary": "None", "logo": "None", "latitude": 49.28475671218765, "longitude": -123.11502780979822}, "786797928RR0001": {"name": "Moses-Mueller Compassionate Patient Support Foundation", "designationCode": "B", "categoryCode": "01", "address": "700 - 350 7 AVE SW", "city": "CALGARY", "province": "AB", "country": "CA", "postalCode": "T2P3N9", "twitter": "None", "instagram": "None", "facebook": "None", "youtube": "None", "website": "None", "summary": "None", "logo": "None", "latitude": 51.046676474897474, "longitude": -114.06982963627445}, "839145414RR0001": {"name": "Mosqoy: Sacred Valley Youth Fund", "designationCode": "C", "categoryCode": "21", "address": "414 - 620 VIEW ST", "city": "VICTORIA", "province": "BC", "country": "CA", "postalCode": "V8W1J6", "twitter": "None", "instagram": "None", "facebook": "None", "youtube": "None", "website": "None", "summary": "None", "logo": "None", "latitude": 48.42565545657561, "longitude": -123.36678018872988}, "805833514RR0001": {"name": "Mosqu\u00e9e de la capitale", "designationCode": "C", "categoryCode": "60", "address": "2724 RUE DE L'AUBIER", "city": "QU\u00c9BEC", "province": "QC", "country": "CA", "postalCode": "G1M3V1", "twitter": "None", "instagram": "None", "facebook": "None", "youtube": "None", "website": "None", "summary": "None", "logo": "None", "latitude": 46.8154110483005, "longitude": -71.27959746889618}, "831472022RR0001": {"name": "Mosqu\u00e9e Baitul Mukkarram / Masjid Baitul Mukkarram", "designationCode": "C", "categoryCode": "60", "address": "4225 DE COURTRAI", "city": "MONTREAL", "province": "QC", "country": "CA", "postalCode": "H3S1B8", "twitter": "None", "instagram": "None", "facebook": "None", "youtube": "None", "website": "None", "summary": "None", "logo": "None", "latitude": 45.50051843464707, "longitude": -73.6427866572507}, "829512441RR0001": {"name": "Mosqu\u00e9e Markaz-Ul-Imane/Markaz-Ul-Imane Mosque", "designationCode": "C", "categoryCode": "60", "address": "12080 BOULEVARD LAURENTIEN", "city": "MONTR\u00c9AL", "province": "QC", "country": "CA", "postalCode": "H4K1M9", "twitter": "None", "instagram": "None", "facebook": "None", "youtube": "None", "website": "None", "summary": "None", "logo": "None", "latitude": 45.527002293900544, "longitude": -73.7177113117028}, "832303044RR0001": {"name": "Mosque Aisha", "designationCode": "C", "categoryCode": "60", "address": "5550 STANLEY AVE", "city": "NIAGARA FALLS", "province": "ON", "country": "CA", "postalCode": "L2G3X2", "twitter": "None", "instagram": "None", "facebook": "None", "youtube": "None", "website": "None", "summary": "None", "logo": "None", "latitude": 43.09400689508916, "longitude": -79.08511293349322}, "811565613RR0001": {"name": "Moss Rock Park Foundation", "designationCode": "B", "categoryCode": "05", "address": "2910-200 BAY STREET           P.O. BOX 62", "city": "TORONTO", "province": "ON", "country": "CA", "postalCode": "M5J2J2", "twitter": "None", "instagram": "None", "facebook": "None", "youtube": "None", "website": "None", "summary": "None", "logo": "None", "latitude": 43.64635885622373, "longitude": -79.37932458843532}, "836802488RR0001": {"name": "Motek Cultural Initiative", "designationCode": "C", "categoryCode": "22", "address": "216 - 1 ATLANTIC AVE", "city": "TORONTO", "province": "ON", "country": "CA", "postalCode": "M6K3E7", "twitter": "None", "instagram": "None", "facebook": "None", "youtube": "None", "website": "None", "summary": "None", "logo": "None", "latitude": 43.63648862060699, "longitude": -79.41981779190998}, "859902462RR0001": {"name": "Mother Earth's Children's Charter School Society", "designationCode": "C", "categoryCode": "20", "address": "SITE 2 BOX 42                 RR 1", "city": "WARBURG", "province": "AB", "country": "CA", "postalCode": "T0C2T0", "twitter": "None", "instagram": "None", "facebook": "None", "youtube": "None", "website": "None", "summary": "None", "logo": "None", "latitude": 53.18105000000003, "longitude": -114.31863999999996}, "803766971RR0001": {"name": "Mother Nature Partnership", "designationCode": "C", "categoryCode": "09", "address": "26 WATER STREET               POST OFFICE BOX 478", "city": "SUNDERLAND", "province": "ON", "country": "CA", "postalCode": "L0C1H0", "twitter": "None", "instagram": "None", "facebook": "None", "youtube": "None", "website": "None", "summary": "None", "logo": "None", "latitude": 44.26183908855091, "longitude": -79.06554740689013}, "821193604RR0001": {"name": "Mother Teresa Middle School Inc.", "designationCode": "C", "categoryCode": "20", "address": "2000-1874 SCARTH ST", "city": "REGINA", "province": "SK", "country": "CA", "postalCode": "S4P4B3", "twitter": "None", "instagram": "None", "facebook": "None", "youtube": "None", "website": "None", "summary": "None", "logo": "None", "latitude": 50.44907700000002, "longitude": -104.61085314963331}, "139072060RR0001": {"name": "Mothers Against Drunk Driving (MADD Canada) - Les m\u00e8res contre l'alcool au volant (MADD Canada)", "designationCode": "C", "categoryCode": "59", "address": "500-2010 WINSTON PARK DR", "city": "OAKVILLE", "province": "ON", "country": "CA", "postalCode": "L6H5R7", "twitter": "None", "instagram": "None", "facebook": "None", "youtube": "None", "website": "None", "summary": "None", "logo": "None", "latitude": 43.507509890559774, "longitude": -79.66799833429424}, "863188538RR0001": {"name": "Mothers Matter Centre", "designationCode": "C", "categoryCode": "20", "address": "508-1190 MELVILLE ST", "city": "VANCOUVER", "province": "BC", "country": "CA", "postalCode": "V6E3W1", "twitter": "None", "instagram": "None", "facebook": "None", "youtube": "None", "website": "None", "summary": "None", "logo": "None", "latitude": 49.28770276268118, "longitude": -123.12398074274317}, "832377790RR0001": {"name": "Motor Vehicle Education Foundation of Manitoba Inc.", "designationCode": "A", "categoryCode": "21", "address": "112-1790 WELLINGTON AVENUE", "city": "WINNIPEG", "province": "MB", "country": "CA", "postalCode": "R3H1B2", "twitter": "None", "instagram": "None", "facebook": "None", "youtube": "None", "website": "None", "summary": "None", "logo": "None", "latitude": 49.90130042679317, "longitude": -97.20320036144201}, "810113357RR0001": {"name": "Moulin la Lorraine", "designationCode": "C", "categoryCode": "22", "address": "1286, ROUTE 277", "city": "LAC-ETCHEMIN", "province": "QC", "country": "CA", "postalCode": "G0R1S0", "twitter": "None", "instagram": "None", "facebook": "None", "youtube": "None", "website": "None", "summary": "None", "logo": "None", "latitude": 46.39295491546444, "longitude": -70.47225135522615}, "846023042RR0001": {"name": "Mount of Glory House of Prayer", "designationCode": "C", "categoryCode": "39", "address": "1608, PENNEL DRIVE", "city": "OSHAWA", "province": "ON", "country": "CA", "postalCode": "L1K0K1", "twitter": "None", "instagram": "None", "facebook": "None", "youtube": "None", "website": "None", "summary": "None", "logo": "None", "latitude": 43.94193170162739, "longitude": -78.8564138652834}, "806204764RR0001": {"name": "Mount of Transformation Christian Ministries", "designationCode": "C", "categoryCode": "39", "address": "62 LANGTRY PL", "city": "THORNHILL", "province": "ON", "country": "CA", "postalCode": "L4J8K8", "twitter": "None", "instagram": "None", "facebook": "None", "youtube": "None", "website": "None", "summary": "None", "logo": "None", "latitude": 43.82147791118933, "longitude": -79.44659920180028}, "811989623RR0001": {"name": "Mount of Zion Pentecostal Temple", "designationCode": "C", "categoryCode": "39", "address": "305 THALER AVE", "city": "KITCHENER", "province": "ON", "country": "CA", "postalCode": "N2A1R8", "twitter": "None", "instagram": "None", "facebook": "None", "youtube": "None", "website": "None", "summary": "None", "logo": "None", "latitude": 43.43141730500904, "longitude": -80.42715946531817}, "837695626RR0001": {"name": "Mount Albert Bible Fellowship", "designationCode": "C", "categoryCode": "39", "address": "87 MAINPRIZE CRES", "city": "MOUNT ALBERT", "province": "ON", "country": "CA", "postalCode": "L0G1M0", "twitter": "None", "instagram": "None", "facebook": "None", "youtube": "None", "website": "None", "summary": "None", "logo": "None", "latitude": 44.140478867332234, "longitude": -79.31380463096568}, "119288918RR1586": {"name": "Mount Baker Congregation of Jehovah's Witnesses, Cranbrook, British Columbia", "designationCode": "C", "categoryCode": "61", "address": "4008 17TH ST S", "city": "CRANBROOK", "province": "BC", "country": "CA", "postalCode": "V1C7A6", "twitter": "None", "instagram": "None", "facebook": "None", "youtube": "None", "website": "None", "summary": "None", "logo": "None", "latitude": 49.49243153318127, "longitude": -115.7246415}, "821021425RR0001": {"name": "Mount Brydges Sonshine Day Care", "designationCode": "C", "categoryCode": "01", "address": "22243 ALLEN ROAD", "city": "MOUNT BRYDGES", "province": "ON", "country": "CA", "postalCode": "N0L1W0", "twitter": "None", "instagram": "None", "facebook": "None", "youtube": "None", "website": "None", "summary": "None", "logo": "None", "latitude": 42.90103293525359, "longitude": -81.46406980492213}, "850695404RR0001": {"name": "Mount Carmel Pentecostal Church", "designationCode": "C", "categoryCode": "39", "address": "PO BOX 46031 RPO FOREST GLEN", "city": "KITCHENER", "province": "ON", "country": "CA", "postalCode": "N2E4J3", "twitter": "None", "instagram": "None", "facebook": "None", "youtube": "None", "website": "None", "summary": "None", "logo": "None", "latitude": 43.42115505419964, "longitude": -80.51889798600118}, "890483241RR0001": {"name": "Mount Douglas Seniors Housing Society", "designationCode": "C", "categoryCode": "09", "address": "22-1550 ARROW RD", "city": "VICTORIA", "province": "BC", "country": "CA", "postalCode": "V8N1C6", "twitter": "None", "instagram": "None", "facebook": "None", "youtube": "None", "website": "None", "summary": "None", "logo": "None", "latitude": 48.470620638545064, "longitude": -123.33786182654802}, "811678499RR0001": {"name": "Mount Hamilton Baptist Church", "designationCode": "C", "categoryCode": "31", "address": "626 UPPER WENTWORTH", "city": "HAMILTON", "province": "ON", "country": "CA", "postalCode": "L9A4V3", "twitter": "None", "instagram": "None", "facebook": "None", "youtube": "None", "website": "None", "summary": "None", "logo": "None", "latitude": 43.2318001110277, "longitude": -79.85836343911912}, "819579756RR0001": {"name": "Mount Lorne Volunteer Fire Department Society", "designationCode": "C", "categoryCode": "59", "address": "PO BOX 10009", "city": "WHITEHORSE", "province": "YT", "country": "CA", "postalCode": "Y1A7A1", "twitter": "None", "instagram": "None", "facebook": "None", "youtube": "None", "website": "None", "summary": "None", "logo": "None", "latitude": 60.72084600000005, "longitude": -135.05323399999992}, "119288918RR0061": {"name": "Mount McKay Congregation of Jehovah's Witnesses, Thunder Bay, Ontario", "designationCode": "C", "categoryCode": "61", "address": "1038 DEEPWOOD DR", "city": "THUNDER BAY", "province": "ON", "country": "CA", "postalCode": "P7J1H7", "twitter": "None", "instagram": "None", "facebook": "None", "youtube": "None", "website": "None", "summary": "None", "logo": "None", "latitude": 48.32494250291418, "longitude": -89.36382333504498}, "801171315RR0001": {"name": "Mount Meru Education Society of Canada", "designationCode": "C", "categoryCode": "21", "address": "5937 WATERTON DR", "city": "NANAIMO", "province": "BC", "country": "CA", "postalCode": "V9T6A9", "twitter": "None", "instagram": "None", "facebook": "None", "youtube": "None", "website": "None", "summary": "None", "logo": "None", "latitude": 49.232004539529264, "longitude": -124.03632052553522}, "836436691RR0001": {"name": "Mount Olivet Chinese Christian Fellowship", "designationCode": "C", "categoryCode": "39", "address": "2306 19TH AVE W", "city": "VANCOUVER", "province": "BC", "country": "CA", "postalCode": "V6L1C6", "twitter": "None", "instagram": "None", "facebook": "None", "youtube": "None", "website": "None", "summary": "None", "logo": "None", "latitude": 49.25535248845881, "longitude": -123.15823063780367}, "119047835RR0001": {"name": "Mount Olivet Lutheran Church of Sherwood Park, Alberta", "designationCode": "C", "categoryCode": "32", "address": "205 FIR STREET", "city": "SHERWOOD PARK", "province": "AB", "country": "CA", "postalCode": "T8A2G6", "twitter": "None", "instagram": "None", "facebook": "None", "youtube": "None", "website": "None", "summary": "None", "logo": "None", "latitude": 53.517315049397, "longitude": -113.31040986828451}, "119288918RR0353": {"name": "Mount Pearl Congregation of Jehovah's Witnesses, St. John's, Newfoundland", "designationCode": "C", "categoryCode": "61", "address": "12 WOODFORD DR", "city": "MOUNT PEARL", "province": "NL", "country": "CA", "postalCode": "A1N2R5", "twitter": "None", "instagram": "None", "facebook": "None", "youtube": "None", "website": "None", "summary": "None", "logo": "None", "latitude": 47.511611406136346, "longitude": -52.804893239446564}, "125892091RR0001": {"name": "Mount Pleasant Cemetery (London) Inc.", "designationCode": "C", "categoryCode": "59", "address": "303 RIVERSIDE DRIVE", "city": "LONDON", "province": "ON", "country": "CA", "postalCode": "N6H1G2", "twitter": "None", "instagram": "None", "facebook": "None", "youtube": "None", "website": "None", "summary": "None", "logo": "None", "latitude": 42.9817724952384, "longitude": -81.27482319692604}, "872845490RR0001": {"name": "Mount Pleasant Cemetery Board", "designationCode": "C", "categoryCode": "59", "address": "11669 CONCESSION ROAD 3", "city": "ZEPHYR", "province": "ON", "country": "CA", "postalCode": "L0E1T0", "twitter": "None", "instagram": "None", "facebook": "None", "youtube": "None", "website": "None", "summary": "None", "logo": "None", "latitude": 44.20926290722035, "longitude": -79.26868833693909}, "839179611RR0001": {"name": "Mount Pleasant Cemetery Ltd.", "designationCode": "B", "categoryCode": "59", "address": "719 ROUTE 570", "city": "MOUNT PLEASANT", "province": "NB", "country": "CA", "postalCode": "E7L2Y7", "twitter": "None", "instagram": "None", "facebook": "None", "youtube": "None", "website": "None", "summary": "None", "logo": "None", "latitude": 46.40815491180305, "longitude": -67.47582298435978}, "119047918RR0001": {"name": "Mount Pleasant United Church", "designationCode": "C", "categoryCode": "44", "address": "473 HOARDS RD", "city": "STIRLING", "province": "ON", "country": "CA", "postalCode": "K0K3E0", "twitter": "None", "instagram": "None", "facebook": "None", "youtube": "None", "website": "None", "summary": "None", "logo": "None", "latitude": 44.29889442906054, "longitude": -77.59225310442064}, "820554160RR0001": {"name": "Mount Rocher Church", "designationCode": "C", "categoryCode": "39", "address": "2060 BROADWAY AVE", "city": "SOUTH HAZELTON", "province": "BC", "country": "CA", "postalCode": "V0J2J1", "twitter": "None", "instagram": "None", "facebook": "None", "youtube": "None", "website": "None", "summary": "None", "logo": "None", "latitude": 55.23654480746391, "longitude": -127.658682}, "119047959RR0001": {"name": "Mount Royal University", "designationCode": "C", "categoryCode": "20", "address": "4825 MOUNT ROYAL GATE SW", "city": "CALGARY", "province": "AB", "country": "CA", "postalCode": "T3E6K6", "twitter": "None", "instagram": "None", "facebook": "None", "youtube": "None", "website": "None", "summary": "None", "logo": "None", "latitude": 51.01023541326677, "longitude": -114.13256418140095}, "899663587RR0001": {"name": "Mount Shannon United Church", "designationCode": "C", "categoryCode": "44", "address": "46875 YALE ROAD", "city": "CHILLIWACK", "province": "BC", "country": "CA", "postalCode": "V2P2S5", "twitter": "None", "instagram": "None", "facebook": "None", "youtube": "None", "website": "None", "summary": "None", "logo": "None", "latitude": 49.18048629812086, "longitude": -121.92669737793491}, "823654355RR0001": {"name": "Mount St. Joseph Foundation Inc.", "designationCode": "A", "categoryCode": "03", "address": "51 LOBBAN AVENUE", "city": "MIRAMICHI", "province": "NB", "country": "CA", "postalCode": "E1N2W8", "twitter": "None", "instagram": "None", "facebook": "None", "youtube": "None", "website": "None", "summary": "None", "logo": "None", "latitude": 47.02476852429448, "longitude": -65.46946067955462}, "828782821RR0001": {"name": "Mount Waddington Family Literacy Society", "designationCode": "C", "categoryCode": "21", "address": "BOX 46", "city": "PORT MCNEILL", "province": "BC", "country": "CA", "postalCode": "V0N2R0", "twitter": "None", "instagram": "None", "facebook": "None", "youtube": "None", "website": "None", "summary": "None", "logo": "None", "latitude": 50.58438000000007, "longitude": -127.08205999999996}}