{"897088878RR0001": {"name": "LA MAISON GABRIELLE-ROY INC.", "designationCode": "C", "categoryCode": "52", "address": "C.P 133", "city": "WINNIPEG", "province": "MB", "country": "CA", "postalCode": "R2H3B4", "twitter": "None", "instagram": "None", "facebook": "None", "youtube": "None", "website": "None", "summary": "None", "logo": "None", "latitude": 49.88521500000006, "longitude": -97.11847699999993}, "119004281RR0001": {"name": "LA MAISON GRISE DE MONTREAL", "designationCode": "C", "categoryCode": "57", "address": "C.P.123, SUCCURSALE ROSEMONT", "city": "MONTREAL", "province": "QC", "country": "CA", "postalCode": "H1X3B6", "twitter": "None", "instagram": "None", "facebook": "None", "youtube": "None", "website": "None", "summary": "None", "logo": "None", "latitude": 45.55697407537291, "longitude": -73.57715938598749}, "131966533RR0001": {"name": "LA MAISON ISA, CENTRE D'AIDE ET DE LUTTE CONTRE LES AGRESSIONS A CARACTERE SEXUEL", "designationCode": "C", "categoryCode": "09", "address": "C.P. 8351", "city": "CHICOUTIMI", "province": "QC", "country": "CA", "postalCode": "G7H5C2", "twitter": "None", "instagram": "None", "facebook": "None", "youtube": "None", "website": "None", "summary": "None", "logo": "None", "latitude": 48.42928500000005, "longitude": -71.06546149999993}, "119004299RR0001": {"name": "LA MAISON JEAN LAPOINTE INC.", "designationCode": "C", "categoryCode": "03", "address": "111 RUE NORMAND", "city": "MONTREAL", "province": "QC", "country": "CA", "postalCode": "H2Y2K6", "twitter": "None", "instagram": "None", "facebook": "None", "youtube": "None", "website": "None", "summary": "None", "logo": "None", "latitude": 45.499826512926184, "longitude": -73.55432123353927}, "854197977RR0001": {"name": "LA MAISON JEAN-MONBOURQUETTE", "designationCode": "C", "categoryCode": "09", "address": "185 AVENUE BLOOMFIELD", "city": "OUTREMONT", "province": "QC", "country": "CA", "postalCode": "H2V3R5", "twitter": "None", "instagram": "None", "facebook": "None", "youtube": "None", "website": "None", "summary": "None", "logo": "None", "latitude": 45.51676320318527, "longitude": -73.59931895501772}, "121155105RR0001": {"name": "LA MAISON JOHN HOWARD INC/THE JOHN HOWARD HOUSE INC", "designationCode": "C", "categoryCode": "59", "address": "1857 DE MAISONNEUVE           BLVD. OUEST", "city": "MONTREAL", "province": "QC", "country": "CA", "postalCode": "H3H1J9", "twitter": "None", "instagram": "None", "facebook": "None", "youtube": "None", "website": "None", "summary": "None", "logo": "None", "latitude": 45.49389958979164, "longitude": -73.58138263878462}, "107593402RR0001": {"name": "LA MAISON LA MONTEE", "designationCode": "C", "categoryCode": "09", "address": "1045 RUE RICHELIEU", "city": "LA MALBAIE", "province": "QC", "country": "CA", "postalCode": "G5A2X8", "twitter": "None", "instagram": "None", "facebook": "None", "youtube": "None", "website": "None", "summary": "None", "logo": "None", "latitude": 47.63470869885744, "longitude": -70.14322715852012}, "894971092RR0001": {"name": "LA MAISON LA NACELLE", "designationCode": "C", "categoryCode": "09", "address": "CP 161", "city": "NICOLET", "province": "QC", "country": "CA", "postalCode": "J3T1A1", "twitter": "None", "instagram": "None", "facebook": "None", "youtube": "None", "website": "None", "summary": "None", "logo": "None", "latitude": 46.228533000000056, "longitude": -72.61600399999993}, "866058928RR0001": {"name": "LA MAISON LE CH\u00caNE", "designationCode": "C", "categoryCode": "11", "address": "2954 STE-EMILIE", "city": "JONQUIERE", "province": "QC", "country": "CA", "postalCode": "G7S1S1", "twitter": "None", "instagram": "None", "facebook": "None", "youtube": "None", "website": "None", "summary": "None", "logo": "None", "latitude": 48.41508934837518, "longitude": -71.18981869190387}, "879584522RR0001": {"name": "LA MAISON LE COUDRIER", "designationCode": "C", "categoryCode": "09", "address": "320 RUE BLAIS", "city": "VICTORIAVILLE", "province": "QC", "country": "CA", "postalCode": "G6P1H8", "twitter": "None", "instagram": "None", "facebook": "None", "youtube": "None", "website": "None", "summary": "None", "logo": "None", "latitude": 46.063451160944304, "longitude": -71.96119611979893}, "102951373RR0001": {"name": "LA MAISON LE PETIT PATRO DES BASSES LAURENTIDES INC.", "designationCode": "C", "categoryCode": "09", "address": "48 BOUL DESJARDINS E", "city": "STE-THERESE-DE-BLAINVILLE", "province": "QC", "country": "CA", "postalCode": "J7E1C1", "twitter": "None", "instagram": "None", "facebook": "None", "youtube": "None", "website": "None", "summary": "None", "logo": "None", "latitude": 45.63440620869652, "longitude": -73.83102881138569}, "863821690RR0001": {"name": "LA MAISON LE REVERBERE INC.", "designationCode": "C", "categoryCode": "09", "address": "115 RUE LARIVIERE", "city": "VICTORIAVILLE", "province": "QC", "country": "CA", "postalCode": "G6P3G5", "twitter": "None", "instagram": "None", "facebook": "None", "youtube": "None", "website": "None", "summary": "None", "logo": "None", "latitude": 46.05759800279861, "longitude": -71.9742637593916}, "858863137RR0001": {"name": "LA MAISON LE TRAIT D'UNION, VALLEE DE LA MATAPEDIA", "designationCode": "C", "categoryCode": "11", "address": "120 RUE DU PONT, APP 100", "city": "AMQUI", "province": "QC", "country": "CA", "postalCode": "G5J2R1", "twitter": "None", "instagram": "None", "facebook": "None", "youtube": "None", "website": "None", "summary": "None", "logo": "None", "latitude": 48.470235452968915, "longitude": -67.42487652057221}, "136327178RR0001": {"name": "LA MAISON LEON-PROVANCHER", "designationCode": "C", "categoryCode": "52", "address": "1435 RUE PROVANCHER", "city": "QU\u00c9BEC", "province": "QC", "country": "CA", "postalCode": "G1Y1R9", "twitter": "None", "instagram": "None", "facebook": "None", "youtube": "None", "website": "None", "summary": "None", "logo": "None", "latitude": 46.75090137468981, "longitude": -71.34378181790655}, "865910020RR0001": {"name": "LA MAISON LES 4 SAISONS DU TEMISCAMINGUE", "designationCode": "C", "categoryCode": "09", "address": "15 RUE CHARTIER", "city": "VILLE-MARIE", "province": "QC", "country": "CA", "postalCode": "J9V1C8", "twitter": "None", "instagram": "None", "facebook": "None", "youtube": "None", "website": "None", "summary": "None", "logo": "None", "latitude": 47.33316136164807, "longitude": -79.4312695234291}, "118924018RR0001": {"name": "LA MAISON MAGUIRE POUR PERSONNES HANDICAPEES INC.", "designationCode": "C", "categoryCode": "56", "address": "303A RTE 132 OUEST", "city": "SAINT-OMER", "province": "QC", "country": "CA", "postalCode": "G0C2Z0", "twitter": "None", "instagram": "None", "facebook": "None", "youtube": "None", "website": "None", "summary": "None", "logo": "None", "latitude": 48.10867518764066, "longitude": -66.2559486503707}, "890254246RR0001": {"name": "LA MAISON MARGUERITE DE MONTREAL INC", "designationCode": "C", "categoryCode": "09", "address": "CP 60116 CSP SAINT-DENIS", "city": "MONTREAL", "province": "QC", "country": "CA", "postalCode": "H2J4E1", "twitter": "None", "instagram": "None", "facebook": "None", "youtube": "None", "website": "None", "summary": "None", "logo": "None", "latitude": 45.5263118591819, "longitude": -73.58805745076155}, "119004315RR0001": {"name": "LA MAISON MICHEL SARRAZIN", "designationCode": "C", "categoryCode": "01", "address": "2101, CH. SAINT-LOUIS", "city": "QU\u00c9BEC", "province": "QC", "country": "CA", "postalCode": "G1T1P5", "twitter": "None", "instagram": "None", "facebook": "None", "youtube": "None", "website": "None", "summary": "None", "logo": "None", "latitude": 46.77402480653825, "longitude": -71.25543530792324}, "119004323RR0001": {"name": "LA MAISON MIKANA INC.", "designationCode": "C", "categoryCode": "09", "address": "CP 65 SUCC BUREAU-CHEF", "city": "AMOS", "province": "QC", "country": "CA", "postalCode": "J9T3A5", "twitter": "None", "instagram": "None", "facebook": "None", "youtube": "None", "website": "None", "summary": "None", "logo": "None", "latitude": 48.66054900000006, "longitude": -78.01768249999994}, "897620191RR0001": {"name": "LA MAISON NOTRE-DAME DU SAGUENAY", "designationCode": "C", "categoryCode": "10", "address": "1176 RUE NOTRE DAME", "city": "CHICOUTIMI", "province": "QC", "country": "CA", "postalCode": "G7H1X6", "twitter": "None", "instagram": "None", "facebook": "None", "youtube": "None", "website": "None", "summary": "None", "logo": "None", "latitude": 48.4233806705236, "longitude": -71.03276646015362}, "121459812RR0001": {"name": "LA MAISON NOTRE-DAME HOUSE INC", "designationCode": "C", "categoryCode": "01", "address": "CP 158", "city": "CAMPBELLTON", "province": "NB", "country": "CA", "postalCode": "E3N3G4", "twitter": "None", "instagram": "None", "facebook": "None", "youtube": "None", "website": "None", "summary": "None", "logo": "None", "latitude": 47.98575134268244, "longitude": -66.69430541082114}, "893206557RR0001": {"name": "LA MAISON OUVERTE INC.", "designationCode": "C", "categoryCode": "01", "address": "111 58 RUE EST", "city": "QUEBEC", "province": "QC", "country": "CA", "postalCode": "G1H2E7", "twitter": "None", "instagram": "None", "facebook": "None", "youtube": "None", "website": "None", "summary": "None", "logo": "None", "latitude": 46.8506913511165, "longitude": -71.25635781141435}, "877623272RR0001": {"name": "LA MAISON PARENT-ROBACK", "designationCode": "C", "categoryCode": "22", "address": "110 RUE SAINTE-THERESE        PORTE 103", "city": "MONTREAL", "province": "QC", "country": "CA", "postalCode": "H2Y1E6", "twitter": "None", "instagram": "None", "facebook": "None", "youtube": "None", "website": "None", "summary": "None", "logo": "None", "latitude": 45.5070284007733, "longitude": -73.55364246681872}, "119004356RR0001": {"name": "LA MAISON SLOVAQUE INC.", "designationCode": "C", "categoryCode": "59", "address": "430-110 BOUL CREMAZIE O", "city": "MONTREAL", "province": "QC", "country": "CA", "postalCode": "H2P1B9", "twitter": "None", "instagram": "None", "facebook": "None", "youtube": "None", "website": "None", "summary": "None", "logo": "None", "latitude": 45.537068641573946, "longitude": -73.6442563274472}, "130636392RR0001": {"name": "LA MAISON TANGENTE INC", "designationCode": "C", "categoryCode": "01", "address": "1481 AVE DESJARDINS", "city": "MONTREAL", "province": "QC", "country": "CA", "postalCode": "H1V2G5", "twitter": "None", "instagram": "None", "facebook": "None", "youtube": "None", "website": "None", "summary": "None", "logo": "None", "latitude": 45.54969099751851, "longitude": -73.53617275921872}, "132806506RR0001": {"name": "LA MAISON TREMPLIN DE LONGUEUIL", "designationCode": "C", "categoryCode": "09", "address": "267 RUE TOULOUSE", "city": "LONGUEUIL", "province": "QC", "country": "CA", "postalCode": "J4L4X1", "twitter": "None", "instagram": "None", "facebook": "None", "youtube": "None", "website": "None", "summary": "None", "logo": "None", "latitude": 45.525426768798, "longitude": -73.45950746534683}, "119004372RR0001": {"name": "LA MAISON VICTOR GADBOIS", "designationCode": "C", "categoryCode": "11", "address": "1000 RUE CHABOT", "city": "SAINT-MATHIEU-DE-BELOEIL", "province": "QC", "country": "CA", "postalCode": "J3G4S5", "twitter": "None", "instagram": "None", "facebook": "None", "youtube": "None", "website": "None", "summary": "None", "logo": "None", "latitude": 45.59087805883208, "longitude": -73.28003181851213}, "873485312RR0001": {"name": "LA MAISONNEE D'EVELYNE", "designationCode": "C", "categoryCode": "09", "address": "546, BOULEVARD TALBOT", "city": "CHICOUTIMI", "province": "QC", "country": "CA", "postalCode": "G7H4A5", "twitter": "None", "instagram": "None", "facebook": "None", "youtube": "None", "website": "None", "summary": "None", "logo": "None", "latitude": 48.42129208104906, "longitude": -71.0433077023772}, "120595079RR0001": {"name": "LA MAISONNETTE DES PARENTS", "designationCode": "C", "categoryCode": "09", "address": "6651 BOUL SAINT-LAURENT", "city": "MONTREAL", "province": "QC", "country": "CA", "postalCode": "H2S3C5", "twitter": "None", "instagram": "None", "facebook": "None", "youtube": "None", "website": "None", "summary": "None", "logo": "None", "latitude": 45.53169519929014, "longitude": -73.61164893337765}, "890273444RR0001": {"name": "LA MANNE QUOTIDIENNE", "designationCode": "C", "categoryCode": "09", "address": "160, RUE HELENE BOULLE        C.P. 630", "city": "JOLIETTE", "province": "QC", "country": "CA", "postalCode": "J6E7N3", "twitter": "None", "instagram": "None", "facebook": "None", "youtube": "None", "website": "None", "summary": "None", "logo": "None", "latitude": 46.03144212796459, "longitude": -73.4407165355472}, "895895845RR0001": {"name": "LA MAREE DES MOTS", "designationCode": "C", "categoryCode": "21", "address": "1305 BOULEVARD LEBOURGNEUF    BUREAU 501", "city": "QU\u00c9BEC", "province": "QC", "country": "CA", "postalCode": "G2K2E4", "twitter": "None", "instagram": "None", "facebook": "None", "youtube": "None", "website": "None", "summary": "None", "logo": "None", "latitude": 46.83573280013297, "longitude": -71.29666775073595}, "140835471RR0001": {"name": "LA MAREE REGROUPEMENT DES PARENTS & AMIS DE LA PERSONNE ATTEINTE DE MALADIE MENTALE", "designationCode": "C", "categoryCode": "09", "address": "367 RUE ST-ETIENNE            SUITE 326", "city": "LA MALBAIE", "province": "QC", "country": "CA", "postalCode": "G5A1M3", "twitter": "None", "instagram": "None", "facebook": "None", "youtube": "None", "website": "None", "summary": "None", "logo": "None", "latitude": 47.65423718847008, "longitude": -70.14977797108924}, "119004398RR0001": {"name": "LA MARIE DEBOUT, CENTRE D'EDUCATION DES FEMMES", "designationCode": "C", "categoryCode": "09", "address": "4001 RUE SAINTE-CATHERINE EST", "city": "MONTREAL", "province": "QC", "country": "CA", "postalCode": "H1W2G7", "twitter": "None", "instagram": "None", "facebook": "None", "youtube": "None", "website": "None", "summary": "None", "logo": "None", "latitude": 45.54755916126142, "longitude": -73.536021605632}, "140980228RR0001": {"name": "LA MARMITE FUMANTE INC", "designationCode": "C", "categoryCode": "01", "address": "70,RUE ST-JOSEPH", "city": "ALMA", "province": "QC", "country": "CA", "postalCode": "G8B3E4", "twitter": "None", "instagram": "None", "facebook": "None", "youtube": "None", "website": "None", "summary": "None", "logo": "None", "latitude": 48.55041613933288, "longitude": -71.65166813226375}, "119004406RR0001": {"name": "LA MASQUEREVERIE", "designationCode": "C", "categoryCode": "22", "address": "4270 RUE BERRI", "city": "MONTREAL", "province": "QC", "country": "CA", "postalCode": "H2J2P8", "twitter": "None", "instagram": "None", "facebook": "None", "youtube": "None", "website": "None", "summary": "None", "logo": "None", "latitude": 45.52339280070987, "longitude": -73.57856545005474}, "862311750RR0001": {"name": "LA MIE DE L'ENTRAIDE", "designationCode": "C", "categoryCode": "09", "address": "422 RUE DES PINS", "city": "GATINEAU", "province": "QC", "country": "CA", "postalCode": "J8L2K9", "twitter": "None", "instagram": "None", "facebook": "None", "youtube": "None", "website": "None", "summary": "None", "logo": "None", "latitude": 45.589396840412036, "longitude": -75.4145659711179}, "865502454RR0001": {"name": "LA MINE D'OR ENTREPRISE D'INSERTION SOCIALE", "designationCode": "C", "categoryCode": "09", "address": "542 3IEME RUE", "city": "CHIBOUGAMAU", "province": "QC", "country": "CA", "postalCode": "G8P1N9", "twitter": "None", "instagram": "None", "facebook": "None", "youtube": "None", "website": "None", "summary": "None", "logo": "None", "latitude": 49.91360647403208, "longitude": -74.36434058381903}, "845029560RR0001": {"name": "LA MISSION CATHOLIQUE NOTRE-DAME-DE-L'AMOUR-DIVIN (MONTREAL)", "designationCode": "C", "categoryCode": "38", "address": "765 ROLAND FORGET", "city": "LAVAL", "province": "QC", "country": "CA", "postalCode": "H7E4C1", "twitter": "None", "instagram": "None", "facebook": "None", "youtube": "None", "website": "None", "summary": "None", "logo": "None", "latitude": 45.58498588649079, "longitude": -73.6706322830805}, "890163975RR0001": {"name": "LA MISSION DE L'ESPRIT-SAINT D'EUGENE RICHER DIT LAFLECHE", "designationCode": "C", "categoryCode": "47", "address": "100 RUE DES TREMBLES", "city": "LAVALTRIE", "province": "QC", "country": "CA", "postalCode": "J5T0G2", "twitter": "None", "instagram": "None", "facebook": "None", "youtube": "None", "website": "None", "summary": "None", "logo": "None", "latitude": 45.87150867303377, "longitude": -73.28936493992717}, "887335792RR0001": {"name": "LA MISSION DE SAINT-WOJCIECH ET DE SAINT-MAKSYMILIAN (MONTR\u00c9AL) - THE MISSION OF SAINT WOJCIECH AND OF SAINT MAKSYMILIAN (MONTR\u00c9AL)", "designationCode": "C", "categoryCode": "38", "address": "34 34E AVENUE", "city": "LACHINE", "province": "QC", "country": "CA", "postalCode": "H8T1Z2", "twitter": "None", "instagram": "None", "facebook": "None", "youtube": "None", "website": "None", "summary": "None", "logo": "None", "latitude": 45.43347653317741, "longitude": -73.69390467603145}, "119004703RR0001": {"name": "LA MISSION HINDU DU CANADA (QUEBEC)- HINDU MISSION OF CANADA (QUEBEC)", "designationCode": "C", "categoryCode": "48", "address": "955 BELLECHASSE STREET EAST", "city": "MONTREAL", "province": "QC", "country": "CA", "postalCode": "H2S1Y2", "twitter": "None", "instagram": "None", "facebook": "None", "youtube": "None", "website": "None", "summary": "None", "logo": "None", "latitude": 45.535468106584304, "longitude": -73.59925389330013}, "861227023RR0001": {"name": "LA MOISSON MASKOUTAINE", "designationCode": "C", "categoryCode": "09", "address": "2540 RUE SAINT-CHARLES", "city": "SAINTE-HYACYNTHE", "province": "QC", "country": "CA", "postalCode": "J2T1W2", "twitter": "None", "instagram": "None", "facebook": "None", "youtube": "None", "website": "None", "summary": "None", "logo": "None", "latitude": 45.6165670735759, "longitude": -72.95060764158323}, "868276171RR0001": {"name": "LA MONTAGNE D'ESPOIR", "designationCode": "C", "categoryCode": "09", "address": "C.P.90042", "city": "SAINTE-SOPHIE", "province": "QC", "country": "CA", "postalCode": "J5J2V8", "twitter": "None", "instagram": "None", "facebook": "None", "youtube": "None", "website": "None", "summary": "None", "logo": "None", "latitude": 45.81935700000005, "longitude": -73.89660049999993}, "107594434RR0001": {"name": "LA MONTAGNE DE L'HOREB INC.", "designationCode": "C", "categoryCode": "49", "address": "217, CHEMIN TOUR DU LAC", "city": "STE-AGATHE-DES-MONTS", "province": "QC", "country": "CA", "postalCode": "J8C2Z7", "twitter": "None", "instagram": "None", "facebook": "None", "youtube": "None", "website": "None", "summary": "None", "logo": "None", "latitude": 46.05154210312091, "longitude": -74.31680490541918}, "133503235RR0001": {"name": "LA MONTEE, CENTRE DE PREVENTION ET DE TRAITEMENT DES DEPENDANCES AU BAS-SAINT-LAURENT", "designationCode": "C", "categoryCode": "57", "address": "100, CHEMIN DE LA PETITE ANSE", "city": "RIVI\u00c8RE-OUELLE", "province": "QC", "country": "CA", "postalCode": "G0L2C0", "twitter": "None", "instagram": "None", "facebook": "None", "youtube": "None", "website": "None", "summary": "None", "logo": "None", "latitude": 47.4532734049448, "longitude": -70.00066736773886}, "130174873RR0001": {"name": "LA MOSA\u00cfQUE, CENTRE D'ACTION B\u00c9N\u00c9VOLE ET COMMUNAUTAIRE", "designationCode": "C", "categoryCode": "09", "address": "1650 AVENUE DE L'EGLISE", "city": "LEMOYNE", "province": "QC", "country": "CA", "postalCode": "J4P2C8", "twitter": "None", "instagram": "None", "facebook": "None", "youtube": "None", "website": "None", "summary": "None", "logo": "None", "latitude": 45.50640185954196, "longitude": -73.49406125281341}, "129277810RR0001": {"name": "LA MOUVANCE CENTRE DE FEMMES", "designationCode": "C", "categoryCode": "59", "address": "83 RUE CHENIER", "city": "SAINT-EUSTACHE", "province": "QC", "country": "CA", "postalCode": "J7R1W9", "twitter": "None", "instagram": "None", "facebook": "None", "youtube": "None", "website": "None", "summary": "None", "logo": "None", "latitude": 45.555861424663746, "longitude": -73.88997596722275}, "846985364RR0001": {"name": "LA MOUVEE", "designationCode": "C", "categoryCode": "56", "address": "5238 9E AV", "city": "MONTREAL", "province": "QC", "country": "CA", "postalCode": "H1Y2J6", "twitter": "None", "instagram": "None", "facebook": "None", "youtube": "None", "website": "None", "summary": "None", "logo": "None", "latitude": 45.54945509351389, "longitude": -73.57278817819831}, "131968042RR0001": {"name": "LA MUSIQUETTERIE INC", "designationCode": "C", "categoryCode": "22", "address": "228-250 RUE DU DU D\u00c9P\u00d4T", "city": "SHERBROOKE", "province": "QC", "country": "CA", "postalCode": "J1H5G1", "twitter": "None", "instagram": "None", "facebook": "None", "youtube": "None", "website": "None", "summary": "None", "logo": "None", "latitude": 45.399988597814996, "longitude": -71.88830013833454}, "107597486RR0001": {"name": "LA P'TITE ACAD\u00c9MIE SOCI\u00c9T\u00c9", "designationCode": "C", "categoryCode": "01", "address": "450 PATRICE RD                SITE 18, BOX 4", "city": "CHURCH POINT", "province": "NS", "country": "CA", "postalCode": "B0W1M0", "twitter": "None", "instagram": "None", "facebook": "None", "youtube": "None", "website": "None", "summary": "None", "logo": "None", "latitude": 44.32707392169225, "longitude": -66.10337336658148}, "127980621RR0001": {"name": "LA PARENTELE DE LAVAL", "designationCode": "C", "categoryCode": "09", "address": "695 AVENUE L\u00c9O-LACOMBE", "city": "LAVAL", "province": "QC", "country": "CA", "postalCode": "H7N3Y7", "twitter": "None", "instagram": "None", "facebook": "None", "youtube": "None", "website": "None", "summary": "None", "logo": "None", "latitude": 45.55464636193653, "longitude": -73.70466006907519}, "899718944RR0001": {"name": "LA PARENTRIE DU NORD DE MONTREAL", "designationCode": "C", "categoryCode": "11", "address": "10780 RUE LAVERDURE           LOCAL 203", "city": "MONTREAL", "province": "QC", "country": "CA", "postalCode": "H3L2L9", "twitter": "None", "instagram": "None", "facebook": "None", "youtube": "None", "website": "None", "summary": "None", "logo": "None", "latitude": 45.55253309351391, "longitude": -73.67173931738695}, "133771402RR0001": {"name": "LA PAROISSE C R DE NOTRE DAME DE L'ASSOMPTION", "designationCode": "C", "categoryCode": "38", "address": "P.O. BOX 3", "city": "MARIAPOLIS", "province": "MB", "country": "CA", "postalCode": "R0K1K0", "twitter": "None", "instagram": "None", "facebook": "None", "youtube": "None", "website": "None", "summary": "None", "logo": "None", "latitude": 49.361950000000036, "longitude": -98.98887999999994}, "132523135RR0001": {"name": "LA PAROISSE C R DE NOTRE DAME DE LORETTE", "designationCode": "C", "categoryCode": "38", "address": "C.P. 40, BOX 40               1282 DAWSON RD", "city": "LORETTE", "province": "MB", "country": "CA", "postalCode": "R0A0Y0", "twitter": "None", "instagram": "None", "facebook": "None", "youtube": "None", "website": "None", "summary": "None", "logo": "None", "latitude": 49.75378832137463, "longitude": -96.89746566426562}, "130091739RR0001": {"name": "LA PAROISSE C R DE NOTRE DAME DU LAC", "designationCode": "C", "categoryCode": "38", "address": "PO BOX 399", "city": "LAC DU BONNET", "province": "MB", "country": "CA", "postalCode": "R0E1A0", "twitter": "None", "instagram": "None", "facebook": "None", "youtube": "None", "website": "None", "summary": "None", "logo": "None", "latitude": 50.25160000000005, "longitude": -96.06180999999998}, "129370649RR0001": {"name": "LA PAROISSE C R DE ST BONIFACE", "designationCode": "C", "categoryCode": "38", "address": "190 AVE DE LA CATHEDRALE", "city": "WINNIPEG", "province": "MB", "country": "CA", "postalCode": "R2H0H7", "twitter": "None", "instagram": "None", "facebook": "None", "youtube": "None", "website": "None", "summary": "None", "logo": "None", "latitude": 49.88967454284747, "longitude": -97.12132939203073}, "131807075RR0001": {"name": "LA PAROISSE C R DE ST CLAUDE", "designationCode": "C", "categoryCode": "38", "address": "1, RUE GAGN\u00c9                  C.P. 186", "city": "ST-CLAUDE", "province": "MB", "country": "CA", "postalCode": "R0G1Z0", "twitter": "None", "instagram": "None", "facebook": "None", "youtube": "None", "website": "None", "summary": "None", "logo": "None", "latitude": 49.654818, "longitude": -98.34548175}, "132001835RR0001": {"name": "LA PAROISSE C R DE ST DENIS", "designationCode": "C", "categoryCode": "38", "address": "C.P. 58", "city": "HAYWOOD", "province": "MB", "country": "CA", "postalCode": "R0G0W0", "twitter": "None", "instagram": "None", "facebook": "None", "youtube": "None", "website": "None", "summary": "None", "logo": "None", "latitude": 49.66698000000008, "longitude": -98.19660999999996}, "130004740RR0001": {"name": "LA PAROISSE C R DE ST EMILE", "designationCode": "C", "categoryCode": "38", "address": "556 ST. ANNE'S RD.            ST. EMILE R.C.PARISH", "city": "WINNIPEG", "province": "MB", "country": "CA", "postalCode": "R2M3G4", "twitter": "None", "instagram": "None", "facebook": "None", "youtube": "None", "website": "None", "summary": "None", "logo": "None", "latitude": 49.836237000000054, "longitude": -97.09198549999994}, "129521522RR0001": {"name": "LA PAROISSE C R DE ST EUGENE", "designationCode": "C", "categoryCode": "38", "address": "1007 ST MARY'S RD", "city": "WINNIPEG", "province": "MB", "country": "CA", "postalCode": "R2M3S5", "twitter": "None", "instagram": "None", "facebook": "None", "youtube": "None", "website": "None", "summary": "None", "logo": "None", "latitude": 49.840256074383966, "longitude": -97.1121188378732}, "131369498RR0001": {"name": "LA PAROISSE C R DE ST GERARD", "designationCode": "C", "categoryCode": "38", "address": "PO BOX 130", "city": "HOLLAND", "province": "MB", "country": "CA", "postalCode": "R0G0X0", "twitter": "None", "instagram": "None", "facebook": "None", "youtube": "None", "website": "None", "summary": "None", "logo": "None", "latitude": 49.7686281543147, "longitude": -97.632704369717}, "890330244RR0001": {"name": "LA PAROISSE C R DE ST JOSEPH", "designationCode": "C", "categoryCode": "38", "address": "C.P. 40                       102 RUE MORIN", "city": "ST-JOSEPH", "province": "MB", "country": "CA", "postalCode": "R0G2C0", "twitter": "None", "instagram": "None", "facebook": "None", "youtube": "None", "website": "None", "summary": "None", "logo": "None", "latitude": 49.13622899770221, "longitude": -97.39208777583565}, "132974171RR0001": {"name": "LA PAROISSE C R DE ST LEON", "designationCode": "C", "categoryCode": "38", "address": "C.P. 5014", "city": "ST LEON", "province": "MB", "country": "CA", "postalCode": "R0G2E0", "twitter": "None", "instagram": "None", "facebook": "None", "youtube": "None", "website": "None", "summary": "None", "logo": "None", "latitude": 49.36352100000006, "longitude": -98.58827149999993}, "131917635RR0001": {"name": "LA PAROISSE C R DE ST-ALEXANDRE", "designationCode": "C", "categoryCode": "38", "address": "CP 129", "city": "LA BROQUERIE", "province": "MB", "country": "CA", "postalCode": "R0A0W0", "twitter": "None", "instagram": "None", "facebook": "None", "youtube": "None", "website": "None", "summary": "None", "logo": "None", "latitude": 49.52402700000006, "longitude": -96.51053149999993}, "130168750RR0001": {"name": "LA PAROISSE C R DES SS MARTYRES CANADIENS", "designationCode": "C", "categoryCode": "38", "address": "289 AVENUE DUSSAULT", "city": "SAINT-BONIFACE", "province": "MB", "country": "CA", "postalCode": "R2J1N5", "twitter": "None", "instagram": "None", "facebook": "None", "youtube": "None", "website": "None", "summary": "None", "logo": "None", "latitude": 49.863001420768605, "longitude": -97.06858786808202}, "891598732RR0001": {"name": "LA PAROISSE C R DU SACRE COEUR DE JESUS", "designationCode": "C", "categoryCode": "38", "address": "BOX 67", "city": "FANNYSTELLE", "province": "MB", "country": "CA", "postalCode": "R0G0P0", "twitter": "None", "instagram": "None", "facebook": "None", "youtube": "None", "website": "None", "summary": "None", "logo": "None", "latitude": 49.744470000000035, "longitude": -97.77893999999998}, "131900730RR0001": {"name": "LA PAROISSE C.R. DE NOTRE-DAME-DE-LA-MISERICORDE", "designationCode": "C", "categoryCode": "38", "address": "BOX 40", "city": "ILE-DE-CHENES", "province": "MB", "country": "CA", "postalCode": "R0A0T0", "twitter": "None", "instagram": "None", "facebook": "None", "youtube": "None", "website": "None", "summary": "None", "logo": "None", "latitude": 49.398162000000056, "longitude": -96.17067349999994}, "137009296RR0001": {"name": "LA PAROISSE CATHOLIQUE DE ST VITAL", "designationCode": "C", "categoryCode": "38", "address": "4905-50 ST.", "city": "BEAUMONT", "province": "AB", "country": "CA", "postalCode": "T4X1J9", "twitter": "None", "instagram": "None", "facebook": "None", "youtube": "None", "website": "None", "summary": "None", "logo": "None", "latitude": 53.35142906189405, "longitude": -113.41528243872243}, "119005916RR0001": {"name": "LA PAROISSE CATHOLIQUE DE ST. ALBERT", "designationCode": "C", "categoryCode": "38", "address": "7 ST VITAL AVE", "city": "ST ALBERT", "province": "AB", "country": "CA", "postalCode": "T8N1K1", "twitter": "None", "instagram": "None", "facebook": "None", "youtube": "None", "website": "None", "summary": "None", "logo": "None", "latitude": 53.63800510979928, "longitude": -113.63165962356823}, "119005940RR0001": {"name": "LA PAROISSE CATHOLIQUE DE ST. THOMAS D'AQUIN", "designationCode": "C", "categoryCode": "38", "address": "8410 89 RUE NW", "city": "EDMONTON", "province": "AB", "country": "CA", "postalCode": "T6C4N3", "twitter": "None", "instagram": "None", "facebook": "None", "youtube": "None", "website": "None", "summary": "None", "logo": "None", "latitude": 53.52049749708581, "longitude": -113.46444868601723}, "119006021RR0001": {"name": "LA PAROISSE CATHOLIQUE ROMAINE DE NOTRE-DAME-DE-L'ASSOMPTION", "designationCode": "C", "categoryCode": "38", "address": "C.P. 39", "city": "SOUTH JUNCTION", "province": "MB", "country": "CA", "postalCode": "R0A1Y0", "twitter": "None", "instagram": "None", "facebook": "None", "youtube": "None", "website": "None", "summary": "None", "logo": "None", "latitude": 49.00470504591054, "longitude": -97.20074632623003}, "131805723RR0001": {"name": "LA PAROISSE CATHOLIQUE ROMAINE DE NOTRE-DAME-DE-LOURDES", "designationCode": "C", "categoryCode": "38", "address": "CP 98", "city": "NOTRE-DAME-DE-LOURDES", "province": "MB", "country": "CA", "postalCode": "R0G1M0", "twitter": "None", "instagram": "None", "facebook": "None", "youtube": "None", "website": "None", "summary": "None", "logo": "None", "latitude": 49.532714999999996, "longitude": -98.55774300638083}, "119006096RR0001": {"name": "LA PAROISSE CATHOLIQUE ROMAINE DE SAINT-HYACINTHE", "designationCode": "C", "categoryCode": "38", "address": "27 RUE BEAUDRY", "city": "LA SALLE", "province": "MB", "country": "CA", "postalCode": "R0G0A1", "twitter": "None", "instagram": "None", "facebook": "None", "youtube": "None", "website": "None", "summary": "None", "logo": "None", "latitude": 49.69399735538186, "longitude": -97.26794435757164}, "107596892RR0001": {"name": "LA PAROISSE CATHOLIQUE ROMAINE DE SAINT-NORBERT", "designationCode": "C", "categoryCode": "38", "address": "110 - 80 ST PIERRE ST", "city": "WINNIPEG", "province": "MB", "country": "CA", "postalCode": "R3V1J8", "twitter": "None", "instagram": "None", "facebook": "None", "youtube": "None", "website": "None", "summary": "None", "logo": "None", "latitude": 49.764634519248084, "longitude": -97.14418543583977}, "119006138RR0001": {"name": "LA PAROISSE CATHOLIQUE ROMAINE DE SAINTE-AGATHE", "designationCode": "C", "categoryCode": "38", "address": "CASE POSTALE 130              233 PEMBINA TRAIL", "city": "SAINTE AGATHE", "province": "MB", "country": "CA", "postalCode": "R0G1Y0", "twitter": "None", "instagram": "None", "facebook": "None", "youtube": "None", "website": "None", "summary": "None", "logo": "None", "latitude": 49.565525171796146, "longitude": -97.18352327603951}, "119006120RR0001": {"name": "LA PAROISSE CATHOLIQUE ROMAINE DE ST-ADOLPHE", "designationCode": "C", "categoryCode": "38", "address": "C.P. 10", "city": "SAINT ADOLPHE", "province": "MB", "country": "CA", "postalCode": "R5A1A1", "twitter": "None", "instagram": "None", "facebook": "None", "youtube": "None", "website": "None", "summary": "None", "logo": "None", "latitude": 49.674977600490465, "longitude": -97.10658509643498}, "107596843RR0001": {"name": "LA PAROISSE CATHOLIQUE ROMAINE DE ST-JEAN-BAPTISTE", "designationCode": "C", "categoryCode": "38", "address": "CP 70", "city": "ST JEAN BAPTISTE", "province": "MB", "country": "CA", "postalCode": "R0G2B0", "twitter": "None", "instagram": "None", "facebook": "None", "youtube": "None", "website": "None", "summary": "None", "logo": "None", "latitude": 49.534549955252906, "longitude": -98.55938926459514}, "119006286RR0001": {"name": "LA PAROISSE CATHOLIQUE ROMAINE DE ST-LAURENT", "designationCode": "C", "categoryCode": "38", "address": "PO BOX 132", "city": "ST LAURENT", "province": "MB", "country": "CA", "postalCode": "R0C2S0", "twitter": "None", "instagram": "None", "facebook": "None", "youtube": "None", "website": "None", "summary": "None", "logo": "None", "latitude": 50.40907368314322, "longitude": -97.93736167557958}, "107819948RR0001": {"name": "LA PAROISSE CATHOLIQUE ROMAINE DE ST-PIE DE LETELLIER", "designationCode": "C", "categoryCode": "38", "address": "CP 330", "city": "LETELLIER", "province": "MB", "country": "CA", "postalCode": "R0G1C0", "twitter": "None", "instagram": "None", "facebook": "None", "youtube": "None", "website": "None", "summary": "None", "logo": "None", "latitude": 49.13476000000003, "longitude": -97.30428999999998}, "119006328RR0001": {"name": "LA PAROISSE CATHOLIQUE ROMAINE DE ST-PIERRE", "designationCode": "C", "categoryCode": "38", "address": "C.P. 290", "city": "ST-PIERRE-JOLYS", "province": "MB", "country": "CA", "postalCode": "R0A1V0", "twitter": "None", "instagram": "None", "facebook": "None", "youtube": "None", "website": "None", "summary": "None", "logo": "None", "latitude": 49.44079000000005, "longitude": -96.98512999999997}, "119006336RR0001": {"name": "LA PAROISSE CATHOLIQUE ROMAINE DE ST-VIATEUR", "designationCode": "C", "categoryCode": "38", "address": "C.P 290", "city": "ST-PIERRE JOLYS", "province": "MB", "country": "CA", "postalCode": "R0A1V0", "twitter": "None", "instagram": "None", "facebook": "None", "youtube": "None", "website": "None", "summary": "None", "logo": "None", "latitude": 49.44079000000005, "longitude": -96.98512999999997}, "119006153RR0001": {"name": "LA PAROISSE CATHOLIQUE ROMAINE DE STE-ANNE", "designationCode": "C", "categoryCode": "38", "address": "162 CENTRALE AVE", "city": "STE ANNE", "province": "MB", "country": "CA", "postalCode": "R5H1C3", "twitter": "None", "instagram": "None", "facebook": "None", "youtube": "None", "website": "None", "summary": "None", "logo": "None", "latitude": 49.669242405371264, "longitude": -96.64611115829383}, "131109167RR0001": {"name": "LA PAROISSE CATHOLIQUE ROMAINE DU PRECIEUX SANG", "designationCode": "C", "categoryCode": "38", "address": "200, RUE KENNY", "city": "WINNIPEG", "province": "MB", "country": "CA", "postalCode": "R2H2E4", "twitter": "None", "instagram": "None", "facebook": "None", "youtube": "None", "website": "None", "summary": "None", "logo": "None", "latitude": 49.877687828755256, "longitude": -97.11991101604283}, "106880370RR0001": {"name": "LA PAROISSE CATHOLIQUE ROMAINE ST-MARTIN DE TOURS", "designationCode": "C", "categoryCode": "38", "address": "BOX 85", "city": "SWAN LAKE", "province": "MB", "country": "CA", "postalCode": "R0G2S0", "twitter": "None", "instagram": "None", "facebook": "None", "youtube": "None", "website": "None", "summary": "None", "logo": "None", "latitude": 49.41136000000006, "longitude": -98.79357999999996}, "107817439RR0001": {"name": "LA PAROISSE CATOLIQUE ROMAINE DE L'ASSOMPTION", "designationCode": "C", "categoryCode": "38", "address": "451 - 601 AULNEAU ST", "city": "WINNIPEG", "province": "MB", "country": "CA", "postalCode": "R2H2V5", "twitter": "None", "instagram": "None", "facebook": "None", "youtube": "None", "website": "None", "summary": "None", "logo": "None", "latitude": 49.89073399618391, "longitude": -97.11959176054579}, "107819120RR0001": {"name": "LA PAROISSE CATOLIQUE ROMAINE DE LA STE-FAMILLE", "designationCode": "C", "categoryCode": "38", "address": "778 ARCHIBALD ST", "city": "WINNIPEG", "province": "MB", "country": "CA", "postalCode": "R2J0Y4", "twitter": "None", "instagram": "None", "facebook": "None", "youtube": "None", "website": "None", "summary": "None", "logo": "None", "latitude": 49.87688007022903, "longitude": -97.0961606022278}, "119006013RR0001": {"name": "LA PAROISSE CATOLIQUE ROMAINE DE NOTRE-DAME-DE-LA-NATIVITE", "designationCode": "C", "categoryCode": "38", "address": "BOX 310", "city": "SOMERSET", "province": "MB", "country": "CA", "postalCode": "R0G2L0", "twitter": "None", "instagram": "None", "facebook": "None", "youtube": "None", "website": "None", "summary": "None", "logo": "None", "latitude": 49.411550000000034, "longitude": -98.65896999999995}, "107817454RR0001": {"name": "LA PAROISSE CATOLIQUE ROMAINE DE NOTRE-DAME-DU-LAUS", "designationCode": "C", "categoryCode": "38", "address": "PO BOX 265", "city": "POWERVIEW", "province": "MB", "country": "CA", "postalCode": "R0E1P0", "twitter": "None", "instagram": "None", "facebook": "None", "youtube": "None", "website": "None", "summary": "None", "logo": "None", "latitude": 50.567270000000065, "longitude": -96.19834999999995}, "131167272RR0001": {"name": "LA PAROISSE CR DE SAINT-MALO", "designationCode": "C", "categoryCode": "38", "address": "CP 69", "city": "SAINT-MALO", "province": "MB", "country": "CA", "postalCode": "R0A1T0", "twitter": "None", "instagram": "None", "facebook": "None", "youtube": "None", "website": "None", "summary": "None", "logo": "None", "latitude": 49.31380157685065, "longitude": -96.95277278028621}, "130720345RR0001": {"name": "LA PAROISSE DE LA NATIVITE DE LA SAINTE-VIERGE", "designationCode": "C", "categoryCode": "38", "address": "155 CHEMIN DE SAINT-JEAN", "city": "LA PRAIRIE", "province": "QC", "country": "CA", "postalCode": "J5R2J9", "twitter": "None", "instagram": "None", "facebook": "None", "youtube": "None", "website": "None", "summary": "None", "logo": "None", "latitude": 45.4202067494083, "longitude": -73.49470443972562}, "118991744RR0001": {"name": "LA PAROISSE DE NOTRE-DAME-DE-LORETTE", "designationCode": "C", "categoryCode": "38", "address": "22 PRINCIPALE                 LOCAL 204", "city": "NOTRE-DAME-DE-LORETTE", "province": "QC", "country": "CA", "postalCode": "G0W1B0", "twitter": "None", "instagram": "None", "facebook": "None", "youtube": "None", "website": "None", "summary": "None", "logo": "None", "latitude": 49.07785211714455, "longitude": -72.35723017894811}, "848523569RR0001": {"name": "LA PAROISSE DE SAINT JEAN BAPTISTE", "designationCode": "C", "categoryCode": "38", "address": "C.P. 86", "city": "FERLAND", "province": "SK", "country": "CA", "postalCode": "S0H1M0", "twitter": "None", "instagram": "None", "facebook": "None", "youtube": "None", "website": "None", "summary": "None", "logo": "None", "latitude": 49.44855730219597, "longitude": -106.9515342322429}, "129354338RR0001": {"name": "LA PAROISSE DE SAINT-ANTOINE-DE-PADOUE", "designationCode": "C", "categoryCode": "38", "address": "55 RUE SAINTE-ELIZABETH", "city": "LONGUEUIL", "province": "QC", "country": "CA", "postalCode": "J4H1J3", "twitter": "None", "instagram": "None", "facebook": "None", "youtube": "None", "website": "None", "summary": "None", "logo": "None", "latitude": 45.5399665237462, "longitude": -73.50739589970543}, "119006450RR0001": {"name": "LA PAROISSE DE SAINT-LAURENT-DU-FLEUVE", "designationCode": "C", "categoryCode": "38", "address": "8749 MARIE VICTORIN", "city": "CONTRECOEUR", "province": "QC", "country": "CA", "postalCode": "J0L1C0", "twitter": "None", "instagram": "None", "facebook": "None", "youtube": "None", "website": "None", "summary": "None", "logo": "None", "latitude": 45.937627994171635, "longitude": -73.20541533014023}, "119006500RR0001": {"name": "LA PAROISSE GRECQUE ORTHODOXE DE LA RIVE-SUD DE MONTREAL - EGLISE ST-JEAN BAPTISTE", "designationCode": "C", "categoryCode": "39", "address": "4350 MONTEE ST HUBERT", "city": "ST HUBERT", "province": "QC", "country": "CA", "postalCode": "J3Y1V1", "twitter": "None", "instagram": "None", "facebook": "None", "youtube": "None", "website": "None", "summary": "None", "logo": "None", "latitude": 45.487197386635046, "longitude": -73.43563917903502}, "136824695RR0001": {"name": "LA PAROISSE SAINT LEOPOLD", "designationCode": "C", "categoryCode": "38", "address": "3827 BOUL SAINTE-ROSE", "city": "LAVAL", "province": "QC", "country": "CA", "postalCode": "H7P4G1", "twitter": "None", "instagram": "None", "facebook": "None", "youtube": "None", "website": "None", "summary": "None", "logo": "None", "latitude": 45.579252850741135, "longitude": -73.8239473289568}, "119018737RR0032": {"name": "LA PAROISSE SAINTE-BERNADETTE-SOUBIROUS DE SAINT-SAUVEUR", "designationCode": "C", "categoryCode": "39", "address": "4 CENTRAL ST", "city": "CAMPBELLTON", "province": "NB", "country": "CA", "postalCode": "E3N1Z5", "twitter": "None", "instagram": "None", "facebook": "None", "youtube": "None", "website": "None", "summary": "None", "logo": "None", "latitude": 48.00584310750667, "longitude": -66.67064434014542}, "107813503RR0001": {"name": "LA PAROISSE ST-JEAN-BAPTISTE", "designationCode": "C", "categoryCode": "38", "address": "2517-25TH AVENUE", "city": "REGINA", "province": "SK", "country": "CA", "postalCode": "S4S4E8", "twitter": "None", "instagram": "None", "facebook": "None", "youtube": "None", "website": "None", "summary": "None", "logo": "None", "latitude": 50.41873151731227, "longitude": -104.61542294171619}, "888382264RR0001": {"name": "LA PASSERELLE - CENTRE D'ENTRAIDE PROFESSIONNELLE ET SPIRITUELLE", "designationCode": "C", "categoryCode": "09", "address": "1255 PHILLIPS SQ # 903", "city": "MONTREAL", "province": "QC", "country": "CA", "postalCode": "H3B3G1", "twitter": "None", "instagram": "None", "facebook": "None", "youtube": "None", "website": "None", "summary": "None", "logo": "None", "latitude": 45.50406397336826, "longitude": -73.56850068621972}, "107597106RR0001": {"name": "LA PASSERELLE D'ALMA INC.", "designationCode": "C", "categoryCode": "09", "address": "1060 AV. ROBERT-JEAN", "city": "ALMA", "province": "QC", "country": "CA", "postalCode": "G8B7T5", "twitter": "None", "instagram": "None", "facebook": "None", "youtube": "None", "website": "None", "summary": "None", "logo": "None", "latitude": 48.536496157366294, "longitude": -71.65173724995655}}