{"137467692RR0001": {"name": "CALGARY CHURCH OF GOD", "designationCode": "C", "categoryCode": "39", "address": "79 - 6724 17 AVE SE", "city": "CALGARY", "province": "AB", "country": "CA", "postalCode": "T2A0W5", "twitter": "None", "instagram": "None", "facebook": "None", "youtube": "None", "website": "None", "summary": "None", "logo": "None", "latitude": 51.037933493219334, "longitude": -113.93753061073923}, "140265612RR0001": {"name": "CALGARY COMMUNITIES AGAINST SEXUAL ABUSE SOCIETY", "designationCode": "C", "categoryCode": "09", "address": "SUITE 700-910-7TH AVENUE SW", "city": "CALGARY", "province": "AB", "country": "CA", "postalCode": "T2P3N8", "twitter": "None", "instagram": "None", "facebook": "None", "youtube": "None", "website": "None", "summary": "None", "logo": "None", "latitude": 51.04707150043269, "longitude": -114.08207019164406}, "118823376RR0001": {"name": "CALGARY COMMUNITY CHURCH", "designationCode": "C", "categoryCode": "39", "address": "5136-17 AVENUE NW", "city": "CALGARY", "province": "AB", "country": "CA", "postalCode": "T3B0P7", "twitter": "None", "instagram": "None", "facebook": "None", "youtube": "None", "website": "None", "summary": "None", "logo": "None", "latitude": 51.076691883720855, "longitude": -114.16765402259237}, "884987504RR0001": {"name": "CALGARY COMMUNITY LAND TRUST SOCIETY", "designationCode": "C", "categoryCode": "09", "address": "308 - 925 7 AVE SW", "city": "CALGARY", "province": "AB", "country": "CA", "postalCode": "T2P1A5", "twitter": "None", "instagram": "None", "facebook": "None", "youtube": "None", "website": "None", "summary": "None", "logo": "None", "latitude": 51.04694940462076, "longitude": -114.08185718382735}, "118823392RR0001": {"name": "CALGARY COMMUNITY LIVING SOCIETY", "designationCode": "C", "categoryCode": "09", "address": "7 11 ST NE", "city": "CALGARY", "province": "AB", "country": "CA", "postalCode": "T2E4Z2", "twitter": "None", "instagram": "None", "facebook": "None", "youtube": "None", "website": "None", "summary": "None", "logo": "None", "latitude": 51.04877274271453, "longitude": -114.03671561200865}, "889282067RR0001": {"name": "CALGARY COMMUNITY NETWORK ASSOCIATION", "designationCode": "C", "categoryCode": "59", "address": "302, 223 - 12TH AVE SW", "city": "CALGARY", "province": "AB", "country": "CA", "postalCode": "T2R0G9", "twitter": "None", "instagram": "None", "facebook": "None", "youtube": "None", "website": "None", "summary": "None", "logo": "None", "latitude": 51.04147448845882, "longitude": -114.0671642216227}, "891574543RR0001": {"name": "CALGARY CONCERTS OF PRAYER ASSOCIATION", "designationCode": "C", "categoryCode": "47", "address": "3352-46 AVE SE", "city": "CALGARY", "province": "AB", "country": "CA", "postalCode": "T2B3J2", "twitter": "None", "instagram": "None", "facebook": "None", "youtube": "None", "website": "None", "summary": "None", "logo": "None", "latitude": 51.01236053318129, "longitude": -113.98532369608748}, "108091950RR0001": {"name": "CALGARY COUNSELLING CENTRE", "designationCode": "C", "categoryCode": "09", "address": "1000 - 105 12 AVE SE", "city": "CALGARY", "province": "AB", "country": "CA", "postalCode": "T2G1A1", "twitter": "None", "instagram": "None", "facebook": "None", "youtube": "None", "website": "None", "summary": "None", "logo": "None", "latitude": 51.04112640495218, "longitude": -114.05409219389539}, "118823434RR0001": {"name": "CALGARY CRIME STOPPERS ASSOCIATION", "designationCode": "C", "categoryCode": "59", "address": "PO BOX 5, STATION M", "city": "CALGARY", "province": "AB", "country": "CA", "postalCode": "T2P2G9", "twitter": "None", "instagram": "None", "facebook": "None", "youtube": "None", "website": "None", "summary": "None", "logo": "None", "latitude": 51.04531500000006, "longitude": -114.06301099999993}, "833216898RR0001": {"name": "CALGARY CROSSNATIONS FELLOWSHIP", "designationCode": "C", "categoryCode": "39", "address": "4018 CENTRE B STREET", "city": "CALGARY", "province": "AB", "country": "CA", "postalCode": "T2K0W2", "twitter": "None", "instagram": "None", "facebook": "None", "youtube": "None", "website": "None", "summary": "None", "logo": "None", "latitude": 51.08841888481737, "longitude": -114.06386731802212}, "882361587RR0001": {"name": "CALGARY DM ST. GABRIEL EOTC CHURCH", "designationCode": "C", "categoryCode": "39", "address": "2515 EDMONTON TRAIL NE", "city": "CALGARY", "province": "AB", "country": "CA", "postalCode": "T2E3M9", "twitter": "None", "instagram": "None", "facebook": "None", "youtube": "None", "website": "None", "summary": "None", "logo": "None", "latitude": 51.07483867055225, "longitude": -114.05615422981701}, "839164274RR0001": {"name": "CALGARY DOLPHNS SWIM CLUB", "designationCode": "C", "categoryCode": "56", "address": "PO BOX 30095 RPO CHINOOK", "city": "CALGARY", "province": "AB", "country": "CA", "postalCode": "T2H2V8", "twitter": "None", "instagram": "None", "facebook": "None", "youtube": "None", "website": "None", "summary": "None", "logo": "None", "latitude": 50.98129139699782, "longitude": -114.08479083842305}, "861400059RR0001": {"name": "CALGARY DREAM CENTRE", "designationCode": "C", "categoryCode": "01", "address": "4510 MACLEOD TRAIL SOUTH", "city": "CALGARY", "province": "AB", "country": "CA", "postalCode": "T2G0A4", "twitter": "None", "instagram": "None", "facebook": "None", "youtube": "None", "website": "None", "summary": "None", "logo": "None", "latitude": 51.01596000000001, "longitude": -114.06430799999998}, "118823459RR0001": {"name": "CALGARY DROP-IN & REHAB CENTRE SOCIETY", "designationCode": "C", "categoryCode": "09", "address": "1 DERMOT BALDWIN WAY S.E.", "city": "CALGARY", "province": "AB", "country": "CA", "postalCode": "T2G0P8", "twitter": "None", "instagram": "None", "facebook": "None", "youtube": "None", "website": "None", "summary": "None", "logo": "None", "latitude": 51.048875933666125, "longitude": -114.05293424147378}, "855557336RR0001": {"name": "CALGARY DRUZE COMMUNITY ASSOCIATION", "designationCode": "C", "categoryCode": "39", "address": "206 BRIDLECREEK GREEN W", "city": "CALGARY", "province": "AB", "country": "CA", "postalCode": "T2Y3N9", "twitter": "None", "instagram": "None", "facebook": "None", "youtube": "None", "website": "None", "summary": "None", "logo": "None", "latitude": 50.89602596629913, "longitude": -114.09800617967373}, "876882804RR0001": {"name": "CALGARY EAST CHURCH OF THE NAZARENE", "designationCode": "C", "categoryCode": "39", "address": "5420 - 8TH AVENUE S.E.", "city": "CALGARY", "province": "AB", "country": "CA", "postalCode": "T2A3P6", "twitter": "None", "instagram": "None", "facebook": "None", "youtube": "None", "website": "None", "summary": "None", "logo": "None", "latitude": 51.045197467684105, "longitude": -113.95519191618096}, "129831566RR0001": {"name": "CALGARY FIELD NATURALISTS' SOCIETY", "designationCode": "C", "categoryCode": "52", "address": "PO BOX 981 STN M", "city": "CALGARY", "province": "AB", "country": "CA", "postalCode": "T2P2K4", "twitter": "None", "instagram": "None", "facebook": "None", "youtube": "None", "website": "None", "summary": "None", "logo": "None", "latitude": 51.04531500000006, "longitude": -114.06301099999993}, "891264392RR0001": {"name": "CALGARY FINNISH CHURCH", "designationCode": "C", "categoryCode": "36", "address": "1148 FONDA COURT SE", "city": "CALGARY", "province": "AB", "country": "CA", "postalCode": "T2A5S2", "twitter": "None", "instagram": "None", "facebook": "None", "youtube": "None", "website": "None", "summary": "None", "logo": "None", "latitude": 51.04704951875457, "longitude": -113.97807292339432}, "890554249RR0001": {"name": "CALGARY FIRE DEPARTMENT CAPPY SMART BAND ASSOCIATION", "designationCode": "C", "categoryCode": "22", "address": "320 18 AVE NW", "city": "CALGARY", "province": "AB", "country": "CA", "postalCode": "T2M0T3", "twitter": "None", "instagram": "None", "facebook": "None", "youtube": "None", "website": "None", "summary": "None", "logo": "None", "latitude": 51.068826449362255, "longitude": -114.06854130544174}, "887999639RR0001": {"name": "CALGARY FIREFIGHTERS TOY ASSOCIATION", "designationCode": "C", "categoryCode": "09", "address": "4124-11 STREET SE", "city": "CALGARY", "province": "AB", "country": "CA", "postalCode": "T2G3H2", "twitter": "None", "instagram": "None", "facebook": "None", "youtube": "None", "website": "None", "summary": "None", "logo": "None", "latitude": 51.018452528449416, "longitude": -114.0371368618792}, "118823525RR0001": {"name": "CALGARY FLAMES FOUNDATION", "designationCode": "A", "categoryCode": "23", "address": "P.O.BOX 1540,STATION \"M\"", "city": "CALGARY", "province": "AB", "country": "CA", "postalCode": "T2P3B9", "twitter": "None", "instagram": "None", "facebook": "None", "youtube": "None", "website": "None", "summary": "None", "logo": "None", "latitude": 51.04531500000006, "longitude": -114.06301099999993}, "119218022RR0001": {"name": "CALGARY FRENCH & INTERNATIONAL SCHOOL SOCIETY", "designationCode": "C", "categoryCode": "20", "address": "700 - 77TH ST SW", "city": "CALGARY", "province": "AB", "country": "CA", "postalCode": "T3H5R1", "twitter": "None", "instagram": "None", "facebook": "None", "youtube": "None", "website": "None", "summary": "None", "logo": "None", "latitude": 51.06813998834323, "longitude": -114.19925786245612}, "885665158RR0001": {"name": "CALGARY GIRLS CHOIR SOCIETY", "designationCode": "C", "categoryCode": "22", "address": "300 - 5 RICHARD WAY SW", "city": "CALGARY", "province": "AB", "country": "CA", "postalCode": "T3E7M8", "twitter": "None", "instagram": "None", "facebook": "None", "youtube": "None", "website": "None", "summary": "None", "logo": "None", "latitude": 51.00563700000001, "longitude": -114.131306353512}, "864007646RR0001": {"name": "CALGARY GIRLS' SCHOOL SOCIETY", "designationCode": "C", "categoryCode": "20", "address": "C - 7239 FLINT RD SE", "city": "CALGARY", "province": "AB", "country": "CA", "postalCode": "T2H1G2", "twitter": "None", "instagram": "None", "facebook": "None", "youtube": "None", "website": "None", "summary": "None", "logo": "None", "latitude": 50.987884839863746, "longitude": -114.06502114115055}, "893834697RR0001": {"name": "CALGARY HEALTH TRUST", "designationCode": "A", "categoryCode": "15", "address": "800, 11012 MACLEOD TRAIL SE", "city": "CALGARY", "province": "AB", "country": "CA", "postalCode": "T2J6A5", "twitter": "None", "instagram": "None", "facebook": "None", "youtube": "None", "website": "None", "summary": "None", "logo": "None", "latitude": 50.965291064212074, "longitude": -114.071487466579}, "118823590RR0001": {"name": "CALGARY HIGHLANDERS REGIMENTAL FUNDS FOUNDATION", "designationCode": "C", "categoryCode": "22", "address": "801-11 STREET SW", "city": "CALGARY", "province": "AB", "country": "CA", "postalCode": "T2P2C4", "twitter": "None", "instagram": "None", "facebook": "None", "youtube": "None", "website": "None", "summary": "None", "logo": "None", "latitude": 51.047158921086655, "longitude": -114.08861521083132}, "880846829RR0001": {"name": "CALGARY HOMELESS FOUNDATION", "designationCode": "A", "categoryCode": "05", "address": "1500 - 615 MACLEOD TRAIL SE", "city": "CALGARY", "province": "AB", "country": "CA", "postalCode": "T2G4T8", "twitter": "None", "instagram": "None", "facebook": "None", "youtube": "None", "website": "None", "summary": "None", "logo": "None", "latitude": 51.04717927555003, "longitude": -114.05805283989243}, "118823616RR0001": {"name": "CALGARY HOPAK ENSEMBLE SOCIETY", "designationCode": "C", "categoryCode": "22", "address": "3316 - 28 AVENUE S.W.", "city": "CALGARY", "province": "AB", "country": "CA", "postalCode": "T3E0R8", "twitter": "None", "instagram": "None", "facebook": "None", "youtube": "None", "website": "None", "summary": "None", "logo": "None", "latitude": 51.028525486005975, "longitude": -114.13494}, "118823624RR0001": {"name": "CALGARY HORTICULTURAL SOCIETY", "designationCode": "C", "categoryCode": "56", "address": "208-50 AVE SW", "city": "CALGARY", "province": "AB", "country": "CA", "postalCode": "T2S2S1", "twitter": "None", "instagram": "None", "facebook": "None", "youtube": "None", "website": "None", "summary": "None", "logo": "None", "latitude": 51.00877258090502, "longitude": -114.06803173209845}, "118823632RR0001": {"name": "CALGARY HUMANE SOCIETY FOR PREVENTION OF CRUELTY TO ANIMALS", "designationCode": "C", "categoryCode": "54", "address": "4455 110 AVE  SE", "city": "CALGARY", "province": "AB", "country": "CA", "postalCode": "T2C2T7", "twitter": "None", "instagram": "None", "facebook": "None", "youtube": "None", "website": "None", "summary": "None", "logo": "None", "latitude": 50.95604151067581, "longitude": -113.97174306272721}, "855210969RR0001": {"name": "CALGARY IGLESIA LA GRACIA DE DIOS FELLOWSHIP", "designationCode": "C", "categoryCode": "39", "address": "1227 48TH AVENUE NE", "city": "CALGARY", "province": "AB", "country": "CA", "postalCode": "T2E5T1", "twitter": "None", "instagram": "None", "facebook": "None", "youtube": "None", "website": "None", "summary": "None", "logo": "None", "latitude": 51.095785485140595, "longitude": -114.035733}, "130143373RR0001": {"name": "CALGARY IMMIGRANT EDUCATIONAL SOCIETY", "designationCode": "C", "categoryCode": "20", "address": "1723-40 STREET S.E.", "city": "CALGARY", "province": "AB", "country": "CA", "postalCode": "T2A7Y3", "twitter": "None", "instagram": "None", "facebook": "None", "youtube": "None", "website": "None", "summary": "None", "logo": "None", "latitude": 51.03847478351318, "longitude": -113.97577673287543}, "118823665RR0001": {"name": "CALGARY INDO-CANADIAN CENTRE ASSOCIATION", "designationCode": "C", "categoryCode": "56", "address": "826 EDMONTON TRAIL NE", "city": "CALGARY", "province": "AB", "country": "CA", "postalCode": "T2E3J6", "twitter": "None", "instagram": "None", "facebook": "None", "youtube": "None", "website": "None", "summary": "None", "logo": "None", "latitude": 51.059394785734895, "longitude": -114.05431985134763}, "130167349RR0001": {"name": "CALGARY INTER - FAITH FOOD BANK SOCIETY", "designationCode": "C", "categoryCode": "01", "address": "5000 11 ST SE", "city": "CALGARY", "province": "AB", "country": "CA", "postalCode": "T2H2Y5", "twitter": "None", "instagram": "None", "facebook": "None", "youtube": "None", "website": "None", "summary": "None", "logo": "None", "latitude": 51.009258846460824, "longitude": -114.03722160483642}, "878852268RR0001": {"name": "CALGARY INTER-FAITH FURNITURE SOCIETY", "designationCode": "C", "categoryCode": "03", "address": "635-35 AVE N.E.", "city": "CALGARY", "province": "AB", "country": "CA", "postalCode": "T2E2L2", "twitter": "None", "instagram": "None", "facebook": "None", "youtube": "None", "website": "None", "summary": "None", "logo": "None", "latitude": 51.08405452510252, "longitude": -114.04874266763807}, "131908386RR0001": {"name": "CALGARY INTER-MENNONITE CHURCH", "designationCode": "C", "categoryCode": "34", "address": "1308 EDMONTON TRAIL NE", "city": "CALGARY", "province": "AB", "country": "CA", "postalCode": "T2E3K7", "twitter": "None", "instagram": "None", "facebook": "None", "youtube": "None", "website": "None", "summary": "None", "logo": "None", "latitude": 51.06361615237463, "longitude": -114.05618263584176}, "136669629RR0001": {"name": "CALGARY INTERNATIONAL CHILDREN'S FESTIVAL SOCIETY", "designationCode": "C", "categoryCode": "22", "address": "205-8TH AVENUE S.E.", "city": "CALGARY", "province": "AB", "country": "CA", "postalCode": "T2G0K9", "twitter": "None", "instagram": "None", "facebook": "None", "youtube": "None", "website": "None", "summary": "None", "logo": "None", "latitude": 51.04534220984015, "longitude": -114.05999708058519}, "864856927RR0001": {"name": "CALGARY INTERNATIONAL FILM FESTIVAL SOCIETY", "designationCode": "C", "categoryCode": "22", "address": "1320 15TH AVENUE SW", "city": "CALGARY", "province": "AB", "country": "CA", "postalCode": "T3C0X7", "twitter": "None", "instagram": "None", "facebook": "None", "youtube": "None", "website": "None", "summary": "None", "logo": "None", "latitude": 51.03935945325739, "longitude": -114.0927717783773}, "861797520RR0001": {"name": "CALGARY INTERNATIONAL LANGUAGE FOUNDATION", "designationCode": "C", "categoryCode": "23", "address": "700 77 ST SW", "city": "CALGARY", "province": "AB", "country": "CA", "postalCode": "T3H5R1", "twitter": "None", "instagram": "None", "facebook": "None", "youtube": "None", "website": "None", "summary": "None", "logo": "None", "latitude": 51.06813998834323, "longitude": -114.19925786245612}, "118823673RR0001": {"name": "CALGARY JAPANESE GOSPEL CHURCH", "designationCode": "C", "categoryCode": "39", "address": "2203 15A STREET S.E.", "city": "CALGARY", "province": "AB", "country": "CA", "postalCode": "T2G3N2", "twitter": "None", "instagram": "None", "facebook": "None", "youtube": "None", "website": "None", "summary": "None", "logo": "None", "latitude": 51.03484367638063, "longitude": -114.023655119222}, "118823681RR0001": {"name": "CALGARY JEWISH CENTRE", "designationCode": "C", "categoryCode": "56", "address": "1607 90TH AVENUE S.W.", "city": "CALGARY", "province": "AB", "country": "CA", "postalCode": "T2V4V7", "twitter": "None", "instagram": "None", "facebook": "None", "youtube": "None", "website": "None", "summary": "None", "logo": "None", "latitude": 50.97216051067581, "longitude": -114.0993315}, "118823699RR0001": {"name": "CALGARY KASOTA CAMP SOCIETY", "designationCode": "C", "categoryCode": "49", "address": "3623 2ND ST NW", "city": "CALGARY", "province": "AB", "country": "CA", "postalCode": "T2K0Y3", "twitter": "None", "instagram": "None", "facebook": "None", "youtube": "None", "website": "None", "summary": "None", "logo": "None", "latitude": 51.08481849708582, "longitude": -114.0667751991459}, "118823707RR0001": {"name": "CALGARY KOREAN BAPTIST CHURCH", "designationCode": "C", "categoryCode": "39", "address": "805 77 AVE SW", "city": "CALGARY", "province": "AB", "country": "CA", "postalCode": "T2V0T2", "twitter": "None", "instagram": "None", "facebook": "None", "youtube": "None", "website": "None", "summary": "None", "logo": "None", "latitude": 50.98441455063776, "longitude": -114.08199205689883}, "875852303RR0001": {"name": "CALGARY KOREAN EVANGELICAL CHURCH", "designationCode": "C", "categoryCode": "39", "address": "1102 23 AVE NW", "city": "CALGARY", "province": "AB", "country": "CA", "postalCode": "T2M1T7", "twitter": "None", "instagram": "None", "facebook": "None", "youtube": "None", "website": "None", "summary": "None", "logo": "None", "latitude": 51.07323445715252, "longitude": -114.08488342492353}, "875808206RR0001": {"name": "CALGARY KOREAN GLOBAL MISSION BAPTIST CHURCH", "designationCode": "C", "categoryCode": "39", "address": "7251 SIERRA MORENA BLVD SW", "city": "CALGARY", "province": "AB", "country": "CA", "postalCode": "T3H3N5", "twitter": "None", "instagram": "None", "facebook": "None", "youtube": "None", "website": "None", "summary": "None", "logo": "None", "latitude": 51.01424273910785, "longitude": -114.17592972269055}, "836710749RR0001": {"name": "CALGARY KOREAN OPEN COMMUNITY CHURCH", "designationCode": "C", "categoryCode": "39", "address": "96 SIERRA VISTA CLOSE SW", "city": "CALGARY", "province": "AB", "country": "CA", "postalCode": "T3H3B8", "twitter": "None", "instagram": "None", "facebook": "None", "youtube": "None", "website": "None", "summary": "None", "logo": "None", "latitude": 51.02202241358391, "longitude": -114.17810585429048}, "888568391RR0001": {"name": "CALGARY KOREAN PRESBYTERIAN CHURCH", "designationCode": "C", "categoryCode": "31", "address": "1112 19 AVE NW", "city": "CALGARY", "province": "AB", "country": "CA", "postalCode": "T2M0Z9", "twitter": "None", "instagram": "None", "facebook": "None", "youtube": "None", "website": "None", "summary": "None", "logo": "None", "latitude": 51.06965646047076, "longitude": -114.085593}, "134624550RR0001": {"name": "CALGARY KOTOBUKI SOCIETY", "designationCode": "C", "categoryCode": "56", "address": "2236 29 ST SW", "city": "CALGARY", "province": "AB", "country": "CA", "postalCode": "T3E2K2", "twitter": "None", "instagram": "None", "facebook": "None", "youtube": "None", "website": "None", "summary": "None", "logo": "None", "latitude": 51.033483754371275, "longitude": -114.12953882249418}, "139605000RR0001": {"name": "CALGARY LEARNS ASSOCIATION", "designationCode": "C", "categoryCode": "21", "address": "108, 1330-15TH AVE SW", "city": "CALGARY", "province": "AB", "country": "CA", "postalCode": "T3C3N6", "twitter": "None", "instagram": "None", "facebook": "None", "youtube": "None", "website": "None", "summary": "None", "logo": "None", "latitude": 51.03939447879261, "longitude": -114.0938922783773}, "118823715RR0001": {"name": "CALGARY LEGAL GUIDANCE SOCIETY", "designationCode": "C", "categoryCode": "59", "address": "100 840 7TH AVE SW", "city": "CALGARY", "province": "AB", "country": "CA", "postalCode": "T2P3G2", "twitter": "None", "instagram": "None", "facebook": "None", "youtube": "None", "website": "None", "summary": "None", "logo": "None", "latitude": 51.04682342625144, "longitude": -114.07570373231476}, "886095793RR0001": {"name": "CALGARY LIVE-IN RETREAT SOCIETY", "designationCode": "C", "categoryCode": "49", "address": "123 DOVERTHORN CLOSE SE", "city": "CALGARY", "province": "AB", "country": "CA", "postalCode": "T2B2G4", "twitter": "None", "instagram": "None", "facebook": "None", "youtube": "None", "website": "None", "summary": "None", "logo": "None", "latitude": 51.01956253621105, "longitude": -113.99282088481736}, "854150372RR0001": {"name": "CALGARY LIVING WORD ASSEMBLY", "designationCode": "C", "categoryCode": "39", "address": "11447 85 ST SE", "city": "CALGARY", "province": "AB", "country": "CA", "postalCode": "T3S0A3", "twitter": "None", "instagram": "None", "facebook": "None", "youtube": "None", "website": "None", "summary": "None", "logo": "None", "latitude": 50.95117982457185, "longitude": -113.910618268779}, "888938461RR0001": {"name": "CALGARY LODGE MENORAH CHARITABLE FOUNDATION", "designationCode": "C", "categoryCode": "43", "address": "1607 - 90 AVENUE S.W.", "city": "CALGARY", "province": "AB", "country": "CA", "postalCode": "T2V4V7", "twitter": "None", "instagram": "None", "facebook": "None", "youtube": "None", "website": "None", "summary": "None", "logo": "None", "latitude": 50.97216051067581, "longitude": -114.0993315}, "118823731RR0001": {"name": "CALGARY MARCHING SHOW BAND ASSOCIATION", "designationCode": "C", "categoryCode": "22", "address": "421 LAKE SIMCOE CRES SE", "city": "CALGARY", "province": "AB", "country": "CA", "postalCode": "T2J5L3", "twitter": "None", "instagram": "None", "facebook": "None", "youtube": "None", "website": "None", "summary": "None", "logo": "None", "latitude": 50.9330881784581, "longitude": -114.06088133720937}, "118823749RR0001": {"name": "CALGARY MEALS ON WHEELS", "designationCode": "C", "categoryCode": "09", "address": "5759 80 AVE SE.", "city": "CALGARY", "province": "AB", "country": "CA", "postalCode": "T2C4S6", "twitter": "None", "instagram": "None", "facebook": "None", "youtube": "None", "website": "None", "summary": "None", "logo": "None", "latitude": 50.980629510675804, "longitude": -113.9491305}, "868312349RR0001": {"name": "CALGARY MEN'S CHORUS SOCIETY", "designationCode": "C", "categoryCode": "22", "address": "P.O. BOX 23127 CONNAUGHT RPO", "city": "CALGARY", "province": "AB", "country": "CA", "postalCode": "T2S3B1", "twitter": "None", "instagram": "None", "facebook": "None", "youtube": "None", "website": "None", "summary": "None", "logo": "None", "latitude": 51.05001000000004, "longitude": -114.07004999999998}, "129175667RR0001": {"name": "CALGARY MILITARY FAMILY RESOURCE CENTRE/CENTRE DE RESSOURCESPOUR LES FAMILLES DES MILITAIRES", "designationCode": "C", "categoryCode": "09", "address": "203, 4225 CROWCHILD TRAIL SW", "city": "CALGARY", "province": "AB", "country": "CA", "postalCode": "T3E1T8", "twitter": "None", "instagram": "None", "facebook": "None", "youtube": "None", "website": "None", "summary": "None", "logo": "None", "latitude": 50.98703943129895, "longitude": -114.11817952695618}, "891252546RR0001": {"name": "CALGARY MULTICULTURAL CHOIR SOCIETY", "designationCode": "C", "categoryCode": "22", "address": "P.O. BOX 34072 WESTBROOK PO   1610-37 STREET SW", "city": "CALGARY", "province": "AB", "country": "CA", "postalCode": "T3C3W2", "twitter": "None", "instagram": "None", "facebook": "None", "youtube": "None", "website": "None", "summary": "None", "logo": "None", "latitude": 51.03908447326274, "longitude": -114.14115573208471}, "892211442RR0001": {"name": "CALGARY NORTH ACADEMIC AWARDS FUND", "designationCode": "C", "categoryCode": "21", "address": "608 TAVENDER RD NW", "city": "CALGARY", "province": "AB", "country": "CA", "postalCode": "T2K3M4", "twitter": "None", "instagram": "None", "facebook": "None", "youtube": "None", "website": "None", "summary": "None", "logo": "None", "latitude": 51.107038742714536, "longitude": -114.0728682897456}, "118823830RR0001": {"name": "CALGARY OPERA ASSOCIATION", "designationCode": "C", "categoryCode": "22", "address": "1315-7 STREET SW", "city": "CALGARY", "province": "AB", "country": "CA", "postalCode": "T2R1A5", "twitter": "None", "instagram": "None", "facebook": "None", "youtube": "None", "website": "None", "summary": "None", "logo": "None", "latitude": 51.040145682209015, "longitude": -114.0792340170811}, "865693089RR0001": {"name": "CALGARY OPERATION AMIGO BUILDING AND FAMILY SUPPORT SOCIETY", "designationCode": "C", "categoryCode": "09", "address": "98 WASKATENAU CRES SW", "city": "CALGARY", "province": "AB", "country": "CA", "postalCode": "T3C2X6", "twitter": "None", "instagram": "None", "facebook": "None", "youtube": "None", "website": "None", "summary": "None", "logo": "None", "latitude": 51.039473826245114, "longitude": -114.15910470012685}, "896951035RR0001": {"name": "CALGARY OUTLINK: CENTRE FOR GENDER AND SEXUAL DIVERSITY", "designationCode": "C", "categoryCode": "09", "address": "103 - 223 12 AVE SW", "city": "CALGARY", "province": "AB", "country": "CA", "postalCode": "T2R0G9", "twitter": "None", "instagram": "None", "facebook": "None", "youtube": "None", "website": "None", "summary": "None", "logo": "None", "latitude": 51.04147448845882, "longitude": -114.0671642216227}, "118823855RR0001": {"name": "CALGARY PARKLAND COMMUNITY ASSOCIATION", "designationCode": "C", "categoryCode": "56", "address": "505 PARKVALLEY RD SE", "city": "CALGARY", "province": "AB", "country": "CA", "postalCode": "T2J6M4", "twitter": "None", "instagram": "None", "facebook": "None", "youtube": "None", "website": "None", "summary": "None", "logo": "None", "latitude": 50.918368223638865, "longitude": -114.02610968280726}, "118823863RR0001": {"name": "CALGARY PHILHARMONIC SOCIETY", "designationCode": "C", "categoryCode": "22", "address": "205 8 AVE SE", "city": "CALGARY", "province": "AB", "country": "CA", "postalCode": "T2G0K9", "twitter": "None", "instagram": "None", "facebook": "None", "youtube": "None", "website": "None", "summary": "None", "logo": "None", "latitude": 51.04534220984015, "longitude": -114.05999708058519}, "107848715RR0001": {"name": "CALGARY PLAY COMMUNITY CHILD DEVELOPMENT CENTRE", "designationCode": "C", "categoryCode": "01", "address": "1227 KENSINTON CLOSE NW", "city": "CALGARY", "province": "AB", "country": "CA", "postalCode": "T2N3J6", "twitter": "None", "instagram": "None", "facebook": "None", "youtube": "None", "website": "None", "summary": "None", "logo": "None", "latitude": 51.05160869663574, "longitude": -114.09195495253624}, "898490081RR0001": {"name": "CALGARY POWERHOCKEY LEAGUE", "designationCode": "C", "categoryCode": "56", "address": "P.O. BOX 38046", "city": "CALGARY", "province": "AB", "country": "CA", "postalCode": "T3K5G9", "twitter": "None", "instagram": "None", "facebook": "None", "youtube": "None", "website": "None", "summary": "None", "logo": "None", "latitude": 51.15301800000006, "longitude": -114.06035599999993}, "118823442RR0001": {"name": "CALGARY PREGNANCY CARE CENTRE ASSOCIATION", "designationCode": "C", "categoryCode": "09", "address": "205, 925 7TH AVENUE S.W.", "city": "CALGARY", "province": "AB", "country": "CA", "postalCode": "T2P1A5", "twitter": "None", "instagram": "None", "facebook": "None", "youtube": "None", "website": "None", "summary": "None", "logo": "None", "latitude": 51.04682342625144, "longitude": -114.07570373231476}, "106830995RR0001": {"name": "CALGARY PRO LIFE ASSOCIATION", "designationCode": "C", "categoryCode": "09", "address": "311 - 4014 MACLEOD TRAIL SE", "city": "CALGARY", "province": "AB", "country": "CA", "postalCode": "T2G2R7", "twitter": "None", "instagram": "None", "facebook": "None", "youtube": "None", "website": "None", "summary": "None", "logo": "None", "latitude": 51.017816336661106, "longitude": -114.06315217678466}, "118823913RR0001": {"name": "CALGARY PRO MUSICA SOCIETY", "designationCode": "C", "categoryCode": "22", "address": "PO BOX 67146 RPO NORTHLAND VLG", "city": "CALGARY", "province": "AB", "country": "CA", "postalCode": "T2L2L2", "twitter": "None", "instagram": "None", "facebook": "None", "youtube": "None", "website": "None", "summary": "None", "logo": "None", "latitude": 51.102111190598386, "longitude": -114.14194633346696}, "140844846RR0001": {"name": "CALGARY PROGRESSIVE LIFESTYLES FOUNDATION", "designationCode": "C", "categoryCode": "59", "address": "140-1935 32 AVE NE", "city": "CALGARY", "province": "AB", "country": "CA", "postalCode": "T2E7C8", "twitter": "None", "instagram": "None", "facebook": "None", "youtube": "None", "website": "None", "summary": "None", "logo": "None", "latitude": 51.08138453231591, "longitude": -114.01310152553522}, "106831027RR0001": {"name": "CALGARY PUBLIC LIBRARY BOARD", "designationCode": "C", "categoryCode": "50", "address": "616 MACLEOD TRAIL SE          6TH FLOOR", "city": "CALGARY", "province": "AB", "country": "CA", "postalCode": "T2G2M2", "twitter": "None", "instagram": "None", "facebook": "None", "youtube": "None", "website": "None", "summary": "None", "logo": "None", "latitude": 51.046594878989, "longitude": -114.0580094168448}, "872923537RR0001": {"name": "CALGARY PUBLIC LIBRARY FOUNDATION", "designationCode": "A", "categoryCode": "53", "address": "429 8TH AVENUE SE", "city": "CALGARY", "province": "AB", "country": "CA", "postalCode": "T2G0L6", "twitter": "None", "instagram": "None", "facebook": "None", "youtube": "None", "website": "None", "summary": "None", "logo": "None", "latitude": 51.04525749567217, "longitude": -114.05401127699231}, "106831043RR0001": {"name": "CALGARY QUEST CHILDREN'S SOCIETY", "designationCode": "C", "categoryCode": "11", "address": "3405 SPRUCE DR SW", "city": "CALGARY", "province": "AB", "country": "CA", "postalCode": "T3C0A5", "twitter": "None", "instagram": "None", "facebook": "None", "youtube": "None", "website": "None", "summary": "None", "logo": "None", "latitude": 51.049511057447106, "longitude": -114.13590594688074}, "849102165RR0001": {"name": "CALGARY RAINBOW CHRISTIAN CHURCH", "designationCode": "C", "categoryCode": "31", "address": "5336 LAKESVIEW DR. SW", "city": "CALGARY", "province": "AB", "country": "CA", "postalCode": "T3E5R9", "twitter": "None", "instagram": "None", "facebook": "None", "youtube": "None", "website": "None", "summary": "None", "logo": "None", "latitude": 51.00671721954522, "longitude": -114.13738641825844}, "861127538RR0001": {"name": "CALGARY READS (AN EARLY LITERACY INITIATIVE) SOCIETY", "designationCode": "C", "categoryCode": "21", "address": "105, 105 12 AVENUE SE", "city": "CALGARY", "province": "AB", "country": "CA", "postalCode": "T2G1A1", "twitter": "None", "instagram": "None", "facebook": "None", "youtube": "None", "website": "None", "summary": "None", "logo": "None", "latitude": 51.04136053621104, "longitude": -114.06274186372553}, "118823954RR0001": {"name": "CALGARY REAL ESTATE BOARD CHARITABLE FOUNDATION", "designationCode": "A", "categoryCode": "03", "address": "300 MANNING RD NE", "city": "CALGARY", "province": "AB", "country": "CA", "postalCode": "T2E8K4", "twitter": "None", "instagram": "None", "facebook": "None", "youtube": "None", "website": "None", "summary": "None", "logo": "None", "latitude": 51.05402602859364, "longitude": -114.01759613653425}, "118823962RR0001": {"name": "CALGARY REFORMED CHURCH", "designationCode": "C", "categoryCode": "39", "address": "1638-30 AVE SW", "city": "CALGARY", "province": "AB", "country": "CA", "postalCode": "T2T1P4", "twitter": "None", "instagram": "None", "facebook": "None", "youtube": "None", "website": "None", "summary": "None", "logo": "None", "latitude": 51.02686710217672, "longitude": -114.09808360878019}, "136792520RR0001": {"name": "CALGARY REGIONAL 4-H COUNCIL", "designationCode": "C", "categoryCode": "29", "address": "BOX 10575 STN M", "city": "AIRDRIE", "province": "AB", "country": "CA", "postalCode": "T4A0H8", "twitter": "None", "instagram": "None", "facebook": "None", "youtube": "None", "website": "None", "summary": "None", "logo": "None", "latitude": 51.28868400000006, "longitude": -114.01344349999994}, "106831118RR0004": {"name": "CALGARY ROMAN CATHOLIC SEPARATE SCHOOL DISTRICT NO. 1", "designationCode": "C", "categoryCode": "20", "address": "1000 5 AVE SW", "city": "CALGARY", "province": "AB", "country": "CA", "postalCode": "T2P4T9", "twitter": "None", "instagram": "None", "facebook": "None", "youtube": "None", "website": "None", "summary": "None", "logo": "None", "latitude": 51.0490155004327, "longitude": -114.0838930269202}, "890243520RR0001": {"name": "CALGARY ROTARY CHALLENGER PARK SOCIETY", "designationCode": "C", "categoryCode": "56", "address": "3688 - 48TH AVENUE N.E.", "city": "CALGARY", "province": "AB", "country": "CA", "postalCode": "T3J5C8", "twitter": "None", "instagram": "None", "facebook": "None", "youtube": "None", "website": "None", "summary": "None", "logo": "None", "latitude": 51.098339043646824, "longitude": -113.98714950484688}, "118823996RR0001": {"name": "CALGARY ROUND-UP BAND ASSOCIATION", "designationCode": "C", "categoryCode": "22", "address": "3 - 2451 DIEPPE AVE SW", "city": "CALGARY", "province": "AB", "country": "CA", "postalCode": "T3E7K1", "twitter": "None", "instagram": "None", "facebook": "None", "youtube": "None", "website": "None", "summary": "None", "logo": "None", "latitude": 51.019592502885544, "longitude": -114.1201436575401}, "118824002RR0001": {"name": "CALGARY SAFETY COUNCIL", "designationCode": "C", "categoryCode": "59", "address": "PO BOX 30761 839-19 ST. NE    RPO MAYLAND HEIGHTS", "city": "CALGARY", "province": "AB", "country": "CA", "postalCode": "T2E8V1", "twitter": "None", "instagram": "None", "facebook": "None", "youtube": "None", "website": "None", "summary": "None", "logo": "None"}, "118781079RR0001": {"name": "CALGARY SCIENCE CENTRE SOCIETY", "designationCode": "C", "categoryCode": "50", "address": "220 ST GEORGE'S DR NE", "city": "CALGARY", "province": "AB", "country": "CA", "postalCode": "T2E5T2", "twitter": "None", "instagram": "None", "facebook": "None", "youtube": "None", "website": "None", "summary": "None", "logo": "None", "latitude": 51.05365787760402, "longitude": -114.02635116651288}, "118824135RR0001": {"name": "CALGARY SCOPE SOCIETY", "designationCode": "C", "categoryCode": "11", "address": "219-18TH ST SE", "city": "CALGARY", "province": "AB", "country": "CA", "postalCode": "T2E6J5", "twitter": "None", "instagram": "None", "facebook": "None", "youtube": "None", "website": "None", "summary": "None", "logo": "None", "latitude": 51.05177974854291, "longitude": -114.0113372102544}, "891284747RR0001": {"name": "CALGARY SEARCH AND RESCUE ASSOCIATION", "designationCode": "C", "categoryCode": "59", "address": "PO BOX 85129 RPO ALBERT PARK", "city": "CALGARY", "province": "AB", "country": "CA", "postalCode": "T2A7R7", "twitter": "None", "instagram": "None", "facebook": "None", "youtube": "None", "website": "None", "summary": "None", "logo": "None", "latitude": 51.045150000000035, "longitude": -113.98388999999997}, "886737352RR0001": {"name": "CALGARY SENIORS' RESOURCE SOCIETY", "designationCode": "C", "categoryCode": "09", "address": "3639-26 ST. NE", "city": "CALGARY", "province": "AB", "country": "CA", "postalCode": "T1Y5E1", "twitter": "None", "instagram": "None", "facebook": "None", "youtube": "None", "website": "None", "summary": "None", "logo": "None", "latitude": 51.08535928282072, "longitude": -113.99780718140096}, "867301251RR0001": {"name": "CALGARY SEPARATE SCHOOL TEACHERS' CHARITIES", "designationCode": "A", "categoryCode": "05", "address": "214 - 3016 5TH AVENUE N.E.", "city": "CALGARY", "province": "AB", "country": "CA", "postalCode": "T2A6K4", "twitter": "None", "instagram": "None", "facebook": "None", "youtube": "None", "website": "None", "summary": "None", "logo": "None", "latitude": 51.05670817129351, "longitude": -113.991285919768}, "129209219RR0001": {"name": "CALGARY SEXUAL HEALTH CENTRE SOCIETY", "designationCode": "C", "categoryCode": "09", "address": "304 301 14 ST NW", "city": "CALGARY", "province": "AB", "country": "CA", "postalCode": "T2N2A1", "twitter": "None", "instagram": "None", "facebook": "None", "youtube": "None", "website": "None", "summary": "None", "logo": "None", "latitude": 51.054849167638054, "longitude": -114.09477471472646}, "887787869RR0001": {"name": "CALGARY SINAWIK YOUTH FOUNDATION", "designationCode": "C", "categoryCode": "59", "address": "PO BOX 34264 RPO WESTBROOK", "city": "CALGARY", "province": "AB", "country": "CA", "postalCode": "T3C3W2", "twitter": "None", "instagram": "None", "facebook": "None", "youtube": "None", "website": "None", "summary": "None", "logo": "None", "latitude": 51.04149007501829, "longitude": -114.14100994835258}, "889948626RR0001": {"name": "CALGARY SOCIETY FOR HEALTHY CHILD DEVELOPMENT", "designationCode": "C", "categoryCode": "01", "address": "400 - 1010 8 AVE SW", "city": "CALGARY", "province": "AB", "country": "CA", "postalCode": "T2P1J2", "twitter": "None", "instagram": "None", "facebook": "None", "youtube": "None", "website": "None", "summary": "None", "logo": "None", "latitude": 51.04617044214889, "longitude": -114.08467169455827}, "106831092RR0001": {"name": "CALGARY SOCIETY FOR PERSONS WITH DISABILITIES", "designationCode": "C", "categoryCode": "09", "address": "3410 SPRUCE DR., S.W.", "city": "CALGARY", "province": "AB", "country": "CA", "postalCode": "T3C3A4", "twitter": "None", "instagram": "None", "facebook": "None", "youtube": "None", "website": "None", "summary": "None", "logo": "None", "latitude": 51.050189933666104, "longitude": -114.13600073299101}, "108074477RR0001": {"name": "CALGARY SOCIETY OF INDEPENDENT FILMMAKERS", "designationCode": "C", "categoryCode": "22", "address": "SUITE 103, 223 12TH AVENUE NW", "city": "CALGARY", "province": "AB", "country": "CA", "postalCode": "T2R0G9", "twitter": "None", "instagram": "None", "facebook": "None", "youtube": "None", "website": "None", "summary": "None", "logo": "None", "latitude": 51.06331748845881, "longitude": -114.06633261226844}, "857721484RR0001": {"name": "CALGARY SOUTH WEST COMMUNITIES RESOURCE CENTRE SOCIETY", "designationCode": "C", "categoryCode": "59", "address": "42 2580 SOUTHLAND DRIVE SW", "city": "CALGARY", "province": "AB", "country": "CA", "postalCode": "T2V4J8", "twitter": "None", "instagram": "None", "facebook": "None", "youtube": "None", "website": "None", "summary": "None", "logo": "None", "latitude": 50.961366, "longitude": -114.12199349999999}, "106693047RR0039": {"name": "CALGARY SOUTHSIDE SEVENTH-DAY ADVENTIST CHURCH", "designationCode": "C", "categoryCode": "41", "address": "5816 HIGHWAY, 2A", "city": "LACOMBE", "province": "AB", "country": "CA", "postalCode": "T4L2G5", "twitter": "None", "instagram": "None", "facebook": "None", "youtube": "None", "website": "None", "summary": "None", "logo": "None", "latitude": 52.474063600197404, "longitude": -113.71692568401835}, "865617005RR0001": {"name": "CALGARY SPOKEN WORD SOCIETY", "designationCode": "C", "categoryCode": "22", "address": "1428A 44TH ST SW", "city": "CALGARY", "province": "AB", "country": "CA", "postalCode": "T3C2A6", "twitter": "None", "instagram": "None", "facebook": "None", "youtube": "None", "website": "None", "summary": "None", "logo": "None", "latitude": 51.041199476655564, "longitude": -114.15110582474362}, "893125070RR0001": {"name": "CALGARY STAMPEDE FOUNDATION", "designationCode": "C", "categoryCode": "29", "address": "PO BOX 1060 STATION M", "city": "CALGARY", "province": "AB", "country": "CA", "postalCode": "T2P2K8", "twitter": "None", "instagram": "None", "facebook": "None", "youtube": "None", "website": "None", "summary": "None", "logo": "None", "latitude": 51.04531500000006, "longitude": -114.06301099999993}, "132932104RR0001": {"name": "CALGARY STETSON SHOW BAND ASSOCIATION", "designationCode": "C", "categoryCode": "22", "address": "3 - 2451 DIEPPE AVE SW", "city": "CALGARY", "province": "AB", "country": "CA", "postalCode": "T3E7K1", "twitter": "None", "instagram": "None", "facebook": "None", "youtube": "None", "website": "None", "summary": "None", "logo": "None", "latitude": 51.019592502885544, "longitude": -114.1201436575401}, "862051380RR0001": {"name": "CALGARY SURGICAL EDUCATION AND RESEARCH TRUST", "designationCode": "C", "categoryCode": "21", "address": "TRAUMA SERVICES ROOM EG23     1403 29 STREET NW", "city": "CALGARY", "province": "AB", "country": "CA", "postalCode": "T2N2T9", "twitter": "None", "instagram": "None", "facebook": "None", "youtube": "None", "website": "None", "summary": "None", "logo": "None", "latitude": 51.06459220705175, "longitude": -114.1308253065669}, "875447724RR0001": {"name": "CALGARY TRUTH BAPTIST CHURCH", "designationCode": "C", "categoryCode": "31", "address": "211 EDGEHILL DR NW", "city": "CALGARY", "province": "AB", "country": "CA", "postalCode": "T3A2W6", "twitter": "None", "instagram": "None", "facebook": "None", "youtube": "None", "website": "None", "summary": "None", "logo": "None", "latitude": 51.123129496249085, "longitude": -114.16101316763806}, "134112515RR0001": {"name": "CALGARY URBAN PROJECT SOCIETY", "designationCode": "C", "categoryCode": "09", "address": "1001 10 AVE SW", "city": "CALGARY", "province": "AB", "country": "CA", "postalCode": "T2R0B7", "twitter": "None", "instagram": "None", "facebook": "None", "youtube": "None", "website": "None", "summary": "None", "logo": "None", "latitude": 51.043876513994036, "longitude": -114.08431380544174}}