{"884556911RR0001": {"name": "FOOD BANK ON THE EDGE", "designationCode": "C", "categoryCode": "09", "address": "PO BOX 1146", "city": "UCLUELET", "province": "BC", "country": "CA", "postalCode": "V0R3A0", "twitter": "None", "instagram": "None", "facebook": "None", "youtube": "None", "website": "None", "summary": "None", "logo": "None", "latitude": 48.938210000000026, "longitude": -125.54276999999996}, "868896994RR0001": {"name": "FOOD BANKS ALBERTA ASSOCIATION", "designationCode": "C", "categoryCode": "03", "address": "30-50 BELLEROSE DRIVE", "city": "ST. ALBERT", "province": "AB", "country": "CA", "postalCode": "T8N3L5", "twitter": "None", "instagram": "None", "facebook": "None", "youtube": "None", "website": "None", "summary": "None", "logo": "None", "latitude": 53.64663365110521, "longitude": -113.6215818181377}, "861331130RR0001": {"name": "FOOD BANKS BRITISH COLUMBIA", "designationCode": "C", "categoryCode": "09", "address": "100 - 12761 16 AVE", "city": "SURREY", "province": "BC", "country": "CA", "postalCode": "V4A1N2", "twitter": "None", "instagram": "None", "facebook": "None", "youtube": "None", "website": "None", "summary": "None", "logo": "None", "latitude": 49.03133745657561, "longitude": -122.86840402553523}, "130643737RR0001": {"name": "FOOD BANKS CANADA / BANQUES ALIMENTAIRES CANADA", "designationCode": "C", "categoryCode": "09", "address": "5025 ORBITOR DR               BUILDING 2, SUITE 400", "city": "MISSISSAUGA", "province": "ON", "country": "CA", "postalCode": "L4W4Y5", "twitter": "None", "instagram": "None", "facebook": "None", "youtube": "None", "website": "None", "summary": "None", "logo": "None", "latitude": 43.65635742951932, "longitude": -79.59918061647305}, "129191250RR0001": {"name": "FOOD DEPOT ALIMENTAIRE INC.", "designationCode": "C", "categoryCode": "09", "address": "330 MACNAUGHTON AVE", "city": "MONCTON", "province": "NB", "country": "CA", "postalCode": "E1H2K1", "twitter": "None", "instagram": "None", "facebook": "None", "youtube": "None", "website": "None", "summary": "None", "logo": "None", "latitude": 46.131245510098886, "longitude": -64.7474127485429}, "860151687RR0001": {"name": "FOOD FOR ALL FOODBANK, SERVING SOUTH GRENVILLE AREA INC.", "designationCode": "C", "categoryCode": "09", "address": "136 HENRY STREET WEST         P. O. BOX 1692", "city": "PRESCOTT", "province": "ON", "country": "CA", "postalCode": "K0E1T0", "twitter": "None", "instagram": "None", "facebook": "None", "youtube": "None", "website": "None", "summary": "None", "logo": "None", "latitude": 44.71077317124474, "longitude": -75.51439638995325}, "890943772RR0001": {"name": "FOOD FOR LIFE CANADA", "designationCode": "C", "categoryCode": "05", "address": "2258 MOUNTAINSIDE DR", "city": "BURLINGTON", "province": "ON", "country": "CA", "postalCode": "L7P1B7", "twitter": "None", "instagram": "None", "facebook": "None", "youtube": "None", "website": "None", "summary": "None", "logo": "None", "latitude": 43.35001094336098, "longitude": -79.81611422297902}, "817508070RR0001": {"name": "FOOD FOR PEACE SOCIETY OF CALGARY", "designationCode": "C", "categoryCode": "09", "address": "PO BOX 90008 MADIGAN R.P.O.", "city": "CALGARY", "province": "AB", "country": "CA", "postalCode": "T2A7Y8", "twitter": "None", "instagram": "None", "facebook": "None", "youtube": "None", "website": "None", "summary": "None", "logo": "None", "latitude": 51.0600285, "longitude": -113.939244}, "890759970RR0001": {"name": "FOOD FOR THE POOR OF CANADA, INC", "designationCode": "C", "categoryCode": "09", "address": "164 MELROSE AVENUE", "city": "TORONTO", "province": "ON", "country": "CA", "postalCode": "M5M1Y7", "twitter": "None", "instagram": "None", "facebook": "None", "youtube": "None", "website": "None", "summary": "None", "logo": "None", "latitude": 43.73136415794321, "longitude": -79.41160731294354}, "748078524RR0001": {"name": "FOOD STASH FOUNDATION", "designationCode": "C", "categoryCode": "09", "address": "4653 DRUMMOND DR", "city": "VANCOUVER", "province": "BC", "country": "CA", "postalCode": "V6R1E8", "twitter": "None", "instagram": "None", "facebook": "None", "youtube": "None", "website": "None", "summary": "None", "logo": "None", "latitude": 49.271879775751565, "longitude": -123.21390928599469}, "107392359RR0001": {"name": "FOODSHARE TORONTO", "designationCode": "C", "categoryCode": "09", "address": "90 CROATIA STREET", "city": "TORONTO", "province": "ON", "country": "CA", "postalCode": "M6H1K9", "twitter": "None", "instagram": "None", "facebook": "None", "youtube": "None", "website": "None", "summary": "None", "logo": "None", "latitude": 43.65773113298489, "longitude": -79.4378966265796}, "732918495RR0001": {"name": "FOOD4KIDS BRANT HALDIMAND", "designationCode": "C", "categoryCode": "09", "address": "2-134 CHARING CROSS STREET", "city": "BRANTFORD", "province": "ON", "country": "CA", "postalCode": "N3R2J1", "twitter": "None", "instagram": "None", "facebook": "None", "youtube": "None", "website": "None", "summary": "None", "logo": "None", "latitude": 43.158705487073824, "longitude": -80.26327188011416}, "710008921RR0001": {"name": "FOOD4KIDS NIAGARA", "designationCode": "C", "categoryCode": "09", "address": "405 WHITNEY AVE,", "city": "HAMILTON", "province": "ON", "country": "CA", "postalCode": "L8S2H6", "twitter": "None", "instagram": "None", "facebook": "None", "youtube": "None", "website": "None", "summary": "None", "logo": "None", "latitude": 43.25135971106246, "longitude": -79.93755862308849}, "107392391RR0001": {"name": "FOOTE COPELAND UNITED CHURCH", "designationCode": "C", "categoryCode": "44", "address": "BOX 1694", "city": "WYNYARD", "province": "SK", "country": "CA", "postalCode": "S0A4T0", "twitter": "None", "instagram": "None", "facebook": "None", "youtube": "None", "website": "None", "summary": "None", "logo": "None", "latitude": 51.76523000000003, "longitude": -104.18008999999995}, "118927060RR0001": {"name": "FOOTHILLS ACADEMY SOCIETY", "designationCode": "C", "categoryCode": "20", "address": "745 37 ST NW", "city": "CALGARY", "province": "AB", "country": "CA", "postalCode": "T2N4T1", "twitter": "None", "instagram": "None", "facebook": "None", "youtube": "None", "website": "None", "summary": "None", "logo": "None", "latitude": 51.0638958440187, "longitude": -114.14127614086209}, "866726680RR0001": {"name": "FOOTHILLS ACOUSTIC MUSIC INSTITUTE", "designationCode": "C", "categoryCode": "22", "address": "PO BOX 65031 RPO NORTH HILL", "city": "CALGARY", "province": "AB", "country": "CA", "postalCode": "T2N4T6", "twitter": "None", "instagram": "None", "facebook": "None", "youtube": "None", "website": "None", "summary": "None", "logo": "None", "latitude": 51.065150000000074, "longitude": -114.10340999999994}, "124929464RR0001": {"name": "FOOTHILLS ADVOCACY IN MOTION SOCIETY", "designationCode": "C", "categoryCode": "09", "address": "126 - 9TH AVE SE", "city": "HIGH RIVER", "province": "AB", "country": "CA", "postalCode": "T1V1E7", "twitter": "None", "instagram": "None", "facebook": "None", "youtube": "None", "website": "None", "summary": "None", "logo": "None", "latitude": 50.57490748600597, "longitude": -113.86681136081135}, "118927078RR0001": {"name": "FOOTHILLS ALCOHOL ACTION SOCIETY", "designationCode": "C", "categoryCode": "09", "address": "BOX 1573", "city": "FORT MACLEOD", "province": "AB", "country": "CA", "postalCode": "T0L0Z0", "twitter": "None", "instagram": "None", "facebook": "None", "youtube": "None", "website": "None", "summary": "None", "logo": "None", "latitude": 49.72081000000003, "longitude": -113.42989999999998}, "123699795RR0001": {"name": "FOOTHILLS BRASS SOCIETY", "designationCode": "C", "categoryCode": "22", "address": "3119-33 ST SW", "city": "CALGARY", "province": "AB", "country": "CA", "postalCode": "T3E2V1", "twitter": "None", "instagram": "None", "facebook": "None", "youtube": "None", "website": "None", "summary": "None", "logo": "None", "latitude": 51.02618249125743, "longitude": -114.13552715197059}, "897445656RR0001": {"name": "FOOTHILLS COMMUNITY CENTRE FOUNDATION", "designationCode": "C", "categoryCode": "56", "address": "4-204 COMMUNITY WAY", "city": "OKOTOKS", "province": "AB", "country": "CA", "postalCode": "T1S2N3", "twitter": "None", "instagram": "None", "facebook": "None", "youtube": "None", "website": "None", "summary": "None", "logo": "None", "latitude": 50.71634034779829, "longitude": -113.97704442218317}, "861441053RR0001": {"name": "FOOTHILLS COUNTRY HOSPICE SOCIETY", "designationCode": "C", "categoryCode": "01", "address": "BOX 274", "city": "OKOTOKS", "province": "AB", "country": "CA", "postalCode": "T1S1A5", "twitter": "None", "instagram": "None", "facebook": "None", "youtube": "None", "website": "None", "summary": "None", "logo": "None", "latitude": 50.72589600000006, "longitude": -113.97494149999994}, "859973513RR0001": {"name": "FOOTHILLS FETAL ALCOHOL SOCIETY", "designationCode": "C", "categoryCode": "09", "address": "PO BOX 5146 STN MAIN", "city": "HIGH RIVER", "province": "AB", "country": "CA", "postalCode": "T1V1M3", "twitter": "None", "instagram": "None", "facebook": "None", "youtube": "None", "website": "None", "summary": "None", "logo": "None", "latitude": 50.57803500000006, "longitude": -113.85914299999993}, "883913006RR0001": {"name": "FOOTHILLS LAND TRUST", "designationCode": "C", "categoryCode": "52", "address": "PO BOX 18066                  RPO SHAWHESSY", "city": "CALGARY", "province": "AB", "country": "CA", "postalCode": "T2Y0K3", "twitter": "None", "instagram": "None", "facebook": "None", "youtube": "None", "website": "None", "summary": "None", "logo": "None", "latitude": 50.914087943142, "longitude": -114.09993986782452}, "107392516RR0001": {"name": "FOOTHILLS LUTHERAN CHURCH OF CALGARY", "designationCode": "C", "categoryCode": "32", "address": "3104 34 AVE NW", "city": "CALGARY", "province": "AB", "country": "CA", "postalCode": "T2L2A3", "twitter": "None", "instagram": "None", "facebook": "None", "youtube": "None", "website": "None", "summary": "None", "logo": "None", "latitude": 51.08303747100233, "longitude": -114.12806450291419}, "107392524RR0001": {"name": "FOOTHILLS MENNONITE CHURCH", "designationCode": "C", "categoryCode": "34", "address": "2115 URBANA RD NW", "city": "CALGARY", "province": "AB", "country": "CA", "postalCode": "T2N4B9", "twitter": "None", "instagram": "None", "facebook": "None", "youtube": "None", "website": "None", "summary": "None", "logo": "None", "latitude": 51.07104000000001, "longitude": -114.13538618082404}, "894185339RR0001": {"name": "FOOTHILLS REGIONAL VICTIM SERVICES ASSOCIATION", "designationCode": "C", "categoryCode": "59", "address": "1104-14 STREET S.E.", "city": "HIGH RIVER", "province": "AB", "country": "CA", "postalCode": "T1V1W2", "twitter": "None", "instagram": "None", "facebook": "None", "youtube": "None", "website": "None", "summary": "None", "logo": "None", "latitude": 50.57254370413755, "longitude": -113.8477168536849}, "107392565RR0001": {"name": "FOOTHILLS SCHOOL DIVISION #38", "designationCode": "C", "categoryCode": "20", "address": "BOX 5700", "city": "HIGH RIVER", "province": "AB", "country": "CA", "postalCode": "T1V1M7", "twitter": "None", "instagram": "None", "facebook": "None", "youtube": "None", "website": "None", "summary": "None", "logo": "None", "latitude": 50.57803500000006, "longitude": -113.85914299999993}, "135649200RR0001": {"name": "FOOTHILLS SEARCH AND RESCUE SOCIETY", "designationCode": "C", "categoryCode": "59", "address": "BOX 549", "city": "TURNER VALLEY", "province": "AB", "country": "CA", "postalCode": "T0L2A0", "twitter": "None", "instagram": "None", "facebook": "None", "youtube": "None", "website": "None", "summary": "None", "logo": "None", "latitude": 50.663565, "longitude": -114.28559999999999}, "867987927RR0001": {"name": "FOOTHILLS SPECIAL NEEDS ASSOCIATION FOR PARENTS AND SIBLINGS", "designationCode": "C", "categoryCode": "11", "address": "BOX 5146                      335B MACLEOD TRAIL SW", "city": "HIGH RIVER", "province": "AB", "country": "CA", "postalCode": "T1V1M3", "twitter": "None", "instagram": "None", "facebook": "None", "youtube": "None", "website": "None", "summary": "None", "logo": "None", "latitude": 50.57862984357919, "longitude": -113.87477434488625}, "889405577RR0001": {"name": "FOOTHILLS THERAPEUTIC RIDING ASSOCIATION", "designationCode": "C", "categoryCode": "56", "address": "PO BOX 855 STN MAIN", "city": "OKOTOKS", "province": "AB", "country": "CA", "postalCode": "T1S1A9", "twitter": "None", "instagram": "None", "facebook": "None", "youtube": "None", "website": "None", "summary": "None", "logo": "None", "latitude": 50.72589600000006, "longitude": -113.97494149999994}, "118927193RR0001": {"name": "FOOTHILLS UNITED CHURCH", "designationCode": "C", "categoryCode": "44", "address": "BOX 2", "city": "COWLEY", "province": "AB", "country": "CA", "postalCode": "T0K0P0", "twitter": "None", "instagram": "None", "facebook": "None", "youtube": "None", "website": "None", "summary": "None", "logo": "None", "latitude": 49.56706350000001, "longitude": -114.07130774999999}, "131903700RR0001": {"name": "FOOTHILLS UNITED CHURCH", "designationCode": "C", "categoryCode": "44", "address": "3803 - 69 STREET N W", "city": "CALGARY", "province": "AB", "country": "CA", "postalCode": "T3B2J9", "twitter": "None", "instagram": "None", "facebook": "None", "youtube": "None", "website": "None", "summary": "None", "logo": "None", "latitude": 51.0867573738531, "longitude": -114.1878536759766}, "866599384RR0001": {"name": "FOOTHILLS YOUTH FOUNDATION", "designationCode": "C", "categoryCode": "09", "address": "1001-17 STREET SE", "city": "HIGH RIVER", "province": "AB", "country": "CA", "postalCode": "T1V1P9", "twitter": "None", "instagram": "None", "facebook": "None", "youtube": "None", "website": "None", "summary": "None", "logo": "None", "latitude": 50.574735586733226, "longitude": -113.84138375509242}, "856001201RR0001": {"name": "FOOTPRINTS", "designationCode": "C", "categoryCode": "11", "address": "1066 DUNBARTON ROAD", "city": "PICKERING", "province": "ON", "country": "CA", "postalCode": "L1V1G8", "twitter": "None", "instagram": "None", "facebook": "None", "youtube": "None", "website": "None", "summary": "None", "logo": "None", "latitude": 43.82784775079328, "longitude": -79.10052176510442}, "886887728RR0001": {"name": "FOOTPRINTS DANCE PROJECT SOCIETY OF ALBERTA", "designationCode": "C", "categoryCode": "22", "address": "PO BOX 16106                  RPO LOWER MT ROYAL", "city": "CALGARY", "province": "AB", "country": "CA", "postalCode": "T2T5H7", "twitter": "None", "instagram": "None", "facebook": "None", "youtube": "None", "website": "None", "summary": "None", "logo": "None", "latitude": 51.03564816198212, "longitude": -114.08555006027512}, "820086411RR0001": {"name": "FOR \"THE LEAST OF THESE\" MINISTRY", "designationCode": "C", "categoryCode": "09", "address": "37-6778 TUCELNUIT DRIVE", "city": "OLIVER", "province": "BC", "country": "CA", "postalCode": "V0H1T3", "twitter": "None", "instagram": "None", "facebook": "None", "youtube": "None", "website": "None", "summary": "None", "logo": "None", "latitude": 49.192039332065505, "longitude": -119.53743479630985}, "883010993RR0001": {"name": "FOR THE LOVE OF A CHILD", "designationCode": "C", "categoryCode": "11", "address": "784 TAUNTON ROAD EAST         P.O. BOX 78039", "city": "OSHAWA", "province": "ON", "country": "CA", "postalCode": "L1H7K5", "twitter": "None", "instagram": "None", "facebook": "None", "youtube": "None", "website": "None", "summary": "None", "logo": "None", "latitude": 43.93915014077518, "longitude": -78.85126990729417}, "859171431RR0001": {"name": "FOR THE LOVE OF AFRICA SOCIETY", "designationCode": "C", "categoryCode": "09", "address": "813 CLAREMONT AVE", "city": "VICTORIA", "province": "BC", "country": "CA", "postalCode": "V8Y1J9", "twitter": "None", "instagram": "None", "facebook": "None", "youtube": "None", "website": "None", "summary": "None", "logo": "None", "latitude": 48.51795652784384, "longitude": -123.37727247016561}, "892536368RR0001": {"name": "FOR THE LOVE OF CHILDREN SOCIETY OF ALBERTA", "designationCode": "C", "categoryCode": "09", "address": "PO BOX 62001 RPO HAWKWOOD", "city": "CALGARY", "province": "AB", "country": "CA", "postalCode": "T3G5S7", "twitter": "None", "instagram": "None", "facebook": "None", "youtube": "None", "website": "None", "summary": "None", "logo": "None", "latitude": 51.130109168324275, "longitude": -114.183603}, "794307322RR0001": {"name": "FOR THE LOVE OF GRACE", "designationCode": "C", "categoryCode": "54", "address": "1556 HURON CHURCH RD", "city": "WINDSOR", "province": "ON", "country": "CA", "postalCode": "N9C3Z3", "twitter": "None", "instagram": "None", "facebook": "None", "youtube": "None", "website": "None", "summary": "None", "logo": "None", "latitude": 42.28823112146097, "longitude": -83.05833465086687}, "854552148RR0001": {"name": "FOR WE CARE OUTREACH NETWORK SOCIETY", "designationCode": "C", "categoryCode": "09", "address": "PO BOX 44091 RPO SOUTHCENTRE", "city": "CALGARY", "province": "AB", "country": "CA", "postalCode": "T2J7C5", "twitter": "None", "instagram": "None", "facebook": "None", "youtube": "None", "website": "None", "summary": "None", "logo": "None", "latitude": 50.95135000000005, "longitude": -114.06508999999994}, "887720217RR0001": {"name": "FOR YOU TELECARE FAMILY SERVICE INC.", "designationCode": "C", "categoryCode": "09", "address": "1133 LESLIE ST STE 211", "city": "NORTH YORK", "province": "ON", "country": "CA", "postalCode": "M3C2J6", "twitter": "None", "instagram": "None", "facebook": "None", "youtube": "None", "website": "None", "summary": "None", "logo": "None", "latitude": 43.72587836779358, "longitude": -79.34959002487231}, "876026725RR0001": {"name": "FOR YOUTH INITIATIVE IN TORONTO", "designationCode": "C", "categoryCode": "09", "address": "1652 KEELE ST", "city": "TORONTO", "province": "ON", "country": "CA", "postalCode": "M6M3W3", "twitter": "None", "instagram": "None", "facebook": "None", "youtube": "None", "website": "None", "summary": "None", "logo": "None", "latitude": 43.683982502625724, "longitude": -79.47243628258956}, "107392623RR0001": {"name": "FORBES MEMORIAL PASTORAL CHARGE", "designationCode": "C", "categoryCode": "44", "address": "1772 HIGHWAY 7", "city": "NORTH LOCHABER", "province": "NS", "country": "CA", "postalCode": "B2G2L3", "twitter": "None", "instagram": "None", "facebook": "None", "youtube": "None", "website": "None", "summary": "None", "logo": "None", "latitude": 45.464192725830785, "longitude": -62.01115884343347}, "887778660RR0001": {"name": "FORBES POINT CEMETERY ASSOCIATION", "designationCode": "C", "categoryCode": "59", "address": "824 FORBES POINT ROAD         RR 1 LOWER EAST PUBNICO", "city": "YARMOUTH", "province": "NS", "country": "CA", "postalCode": "B0W2A0", "twitter": "None", "instagram": "None", "facebook": "None", "youtube": "None", "website": "None", "summary": "None", "logo": "None", "latitude": 43.54313094142773, "longitude": -65.74989429410209}, "107392631RR0001": {"name": "FORBES PRESBYTERIAN CHURCH", "designationCode": "C", "categoryCode": "37", "address": "9635-76 AVE.", "city": "GRAND PRAIRIE", "province": "AB", "country": "CA", "postalCode": "T8V5B3", "twitter": "None", "instagram": "None", "facebook": "None", "youtube": "None", "website": "None", "summary": "None", "logo": "None", "latitude": 55.14898050678067, "longitude": -118.78473149999999}, "118927227RR0001": {"name": "FORBES UNITED CHURCH", "designationCode": "C", "categoryCode": "44", "address": "1540 NORTHSIDE RIVER DENYS RD RR#1", "city": "RIVER DENYS", "province": "NS", "country": "CA", "postalCode": "B0E2Y0", "twitter": "None", "instagram": "None", "facebook": "None", "youtube": "None", "website": "None", "summary": "None", "logo": "None", "latitude": 45.83712656838269, "longitude": -61.17931649584505}, "891332348RR0001": {"name": "FORCE OUTREACH MINISTRIES DREAM CENTRE", "designationCode": "C", "categoryCode": "49", "address": "1714 SAAMIS DRIVE NW", "city": "MEDICINE HAT", "province": "AB", "country": "CA", "postalCode": "T1C1W7", "twitter": "None", "instagram": "None", "facebook": "None", "youtube": "None", "website": "None", "summary": "None", "logo": "None", "latitude": 50.05054217485142, "longitude": -110.72584065419228}, "142617141RR0001": {"name": "FORCES AVENIR", "designationCode": "C", "categoryCode": "21", "address": "40 RUE RACINE BUREAU 101", "city": "LORETTEVILLE", "province": "QC", "country": "CA", "postalCode": "G2B1C6", "twitter": "None", "instagram": "None", "facebook": "None", "youtube": "None", "website": "None", "summary": "None", "logo": "None", "latitude": 46.85577945022605, "longitude": -71.35602935274358}, "889261863RR0001": {"name": "FORD MOTOR COMPANY OF CANADA LIMITED - EMPLOYEES' CHARITY TRUST,", "designationCode": "B", "categoryCode": "75", "address": "PO BOX 2000", "city": "OAKVILLE", "province": "ON", "country": "CA", "postalCode": "L6J5E4", "twitter": "None", "instagram": "None", "facebook": "None", "youtube": "None", "website": "None", "summary": "None", "logo": "None", "latitude": 43.46642400000006, "longitude": -79.69001299999994}, "893259374RR0001": {"name": "FORDWICH BRETHREN IN CHRIST", "designationCode": "C", "categoryCode": "39", "address": "PO BOX 166                    3073 PATRICK STREET", "city": "FORDWICH", "province": "ON", "country": "CA", "postalCode": "N0G1V0", "twitter": "None", "instagram": "None", "facebook": "None", "youtube": "None", "website": "None", "summary": "None", "logo": "None", "latitude": 43.87104239884006, "longitude": -81.03130418258438}, "107392763RR0001": {"name": "FORDWICH PASTORAL CHARGE", "designationCode": "C", "categoryCode": "44", "address": "BOX 552", "city": "BRUSSELS", "province": "ON", "country": "CA", "postalCode": "N0G1H0", "twitter": "None", "instagram": "None", "facebook": "None", "youtube": "None", "website": "None", "summary": "None", "logo": "None", "latitude": 43.714084384656786, "longitude": -81.27334948961246}, "106811912RR0001": {"name": "FORED BC SOCIETY", "designationCode": "C", "categoryCode": "52", "address": "213 4438 WEST 10 AVE", "city": "VANCOUVER", "province": "BC", "country": "CA", "postalCode": "V6R4R8", "twitter": "None", "instagram": "None", "facebook": "None", "youtube": "None", "website": "None", "summary": "None", "logo": "None", "latitude": 49.26371978491995, "longitude": -123.20726121770718}, "890513187RR0001": {"name": "FOREIGN GHOSTS SOCIETY INC / LA SOCI\u00c9T\u00c9 FANTOME \u00c9TRANGERS INC.", "designationCode": "C", "categoryCode": "22", "address": "4148A RUE SAINTE-CATHERINE O  BUREAU 321", "city": "MONTREAL", "province": "QC", "country": "CA", "postalCode": "H3Z0A2", "twitter": "None", "instagram": "None", "facebook": "None", "youtube": "None", "website": "None", "summary": "None", "logo": "None", "latitude": 45.48677707770294, "longitude": -73.58718333697568}, "107392813RR0001": {"name": "FOREMOST EVANGELICAL FREE CHURCH", "designationCode": "C", "categoryCode": "39", "address": "BOX 312", "city": "FOREMOST", "province": "AB", "country": "CA", "postalCode": "T0K0X0", "twitter": "None", "instagram": "None", "facebook": "None", "youtube": "None", "website": "None", "summary": "None", "logo": "None", "latitude": 49.48335000000003, "longitude": -111.41839999999996}, "107392854RR0001": {"name": "FOREMOST MUNICIPAL LIBRARY BOARD", "designationCode": "C", "categoryCode": "50", "address": "P.O. BOX 397", "city": "FOREMOST", "province": "AB", "country": "CA", "postalCode": "T0K0X0", "twitter": "None", "instagram": "None", "facebook": "None", "youtube": "None", "website": "None", "summary": "None", "logo": "None", "latitude": 49.48335000000003, "longitude": -111.41839999999996}, "118927292RR0001": {"name": "FOREMOST PASTORAL CHARGE", "designationCode": "C", "categoryCode": "44", "address": "BOX 74", "city": "FOREMOST", "province": "AB", "country": "CA", "postalCode": "T0K0X0", "twitter": "None", "instagram": "None", "facebook": "None", "youtube": "None", "website": "None", "summary": "None", "logo": "None", "latitude": 49.48335000000003, "longitude": -111.41839999999996}, "890146061RR0001": {"name": "FOREMOST SENIOR CITIZENS SOCIETY", "designationCode": "C", "categoryCode": "09", "address": "BOX 81", "city": "FOREMOST", "province": "AB", "country": "CA", "postalCode": "T0K0X0", "twitter": "None", "instagram": "None", "facebook": "None", "youtube": "None", "website": "None", "summary": "None", "logo": "None", "latitude": 49.48335000000003, "longitude": -111.41839999999996}, "870172731RR0001": {"name": "FORENSIC PSYCHIATRIC SERVICES COMMISSION", "designationCode": "C", "categoryCode": "59", "address": "260-1770 WEST 7TH AV", "city": "VANCOUVER", "province": "BC", "country": "CA", "postalCode": "V6J4J6", "twitter": "None", "instagram": "None", "facebook": "None", "youtube": "None", "website": "None", "summary": "None", "logo": "None", "latitude": 49.26545048845881, "longitude": -123.1450229701656}, "879157121RR0001": {"name": "FOREST - LAMBTON MUSEUM SOCIETY", "designationCode": "C", "categoryCode": "50", "address": "LOWER-8 MAIN ST N", "city": "FOREST", "province": "ON", "country": "CA", "postalCode": "N0N1J0", "twitter": "None", "instagram": "None", "facebook": "None", "youtube": "None", "website": "None", "summary": "None", "logo": "None", "latitude": 43.10033657309654, "longitude": -82.00034958737025}, "118927300RR0001": {"name": "FOREST BAPTIST CHURCH", "designationCode": "C", "categoryCode": "31", "address": "19 PRINCE ST.", "city": "FOREST", "province": "ON", "country": "CA", "postalCode": "N0N1J0", "twitter": "None", "instagram": "None", "facebook": "None", "youtube": "None", "website": "None", "summary": "None", "logo": "None", "latitude": 43.10006561927728, "longitude": -81.99888578599426}, "889171872RR0001": {"name": "FOREST BIBLE CHAPEL", "designationCode": "C", "categoryCode": "39", "address": "33 MAIN ST. NORTH", "city": "FOREST", "province": "ON", "country": "CA", "postalCode": "N0N1J0", "twitter": "None", "instagram": "None", "facebook": "None", "youtube": "None", "website": "None", "summary": "None", "logo": "None", "latitude": 43.09989745542519, "longitude": -82.0003053105107}, "131898827RR0001": {"name": "FOREST BROOK BIBLE CHAPEL", "designationCode": "C", "categoryCode": "39", "address": "32 CARLISLE CRES", "city": "TORONTO", "province": "ON", "country": "CA", "postalCode": "M1B4X5", "twitter": "None", "instagram": "None", "facebook": "None", "youtube": "None", "website": "None", "summary": "None", "logo": "None", "latitude": 43.79917484098894, "longitude": -79.15428128755256}, "888200060RR0001": {"name": "FOREST CITY BAPTIST CHURCH", "designationCode": "C", "categoryCode": "31", "address": "1832 HAMILTON ROAD", "city": "LONDON", "province": "ON", "country": "CA", "postalCode": "N6M1G4", "twitter": "None", "instagram": "None", "facebook": "None", "youtube": "None", "website": "None", "summary": "None", "logo": "None", "latitude": 42.96413468611253, "longitude": -81.14104092290629}, "107392961RR0001": {"name": "FOREST CITY BIBLE CHURCH", "designationCode": "C", "categoryCode": "31", "address": "1889 WONDERLAND RD N", "city": "LONDON", "province": "ON", "country": "CA", "postalCode": "N6G5C1", "twitter": "None", "instagram": "None", "facebook": "None", "youtube": "None", "website": "None", "summary": "None", "logo": "None", "latitude": 43.02282510072726, "longitude": -81.31282014481454}, "865125678RR0001": {"name": "FOREST CITY COMMUNITY CHURCH", "designationCode": "C", "categoryCode": "39", "address": "3725 BOSTWICK RD", "city": "LONDON", "province": "ON", "country": "CA", "postalCode": "N6P1G9", "twitter": "None", "instagram": "None", "facebook": "None", "youtube": "None", "website": "None", "summary": "None", "logo": "None", "latitude": 42.92492419031634, "longitude": -81.28954931786843}, "891704249RR0001": {"name": "FOREST CITY GALLERY", "designationCode": "C", "categoryCode": "22", "address": "258 RICHMOND STREET", "city": "LONDON", "province": "ON", "country": "CA", "postalCode": "N6B2H7", "twitter": "None", "instagram": "None", "facebook": "None", "youtube": "None", "website": "None", "summary": "None", "logo": "None", "latitude": 42.97928182015691, "longitude": -81.24742925947852}, "838189470RR0001": {"name": "FOREST CITY INTERNATIONAL CEMETERY ASSOCIATION INC.", "designationCode": "C", "categoryCode": "59", "address": "399 BURNHAM ROAD", "city": "OAKLAND", "province": "NB", "country": "CA", "postalCode": "E7L2W1", "twitter": "None", "instagram": "None", "facebook": "None", "youtube": "None", "website": "None", "summary": "None", "logo": "None", "latitude": 46.43590049047803, "longitude": -67.58362341049681}, "140984865RR0001": {"name": "FOREST CITY SCHOOL FOR TALENT EDUCATION", "designationCode": "C", "categoryCode": "22", "address": "648 CRANBROOK ROAD", "city": "LONDON", "province": "ON", "country": "CA", "postalCode": "N6K1W6", "twitter": "None", "instagram": "None", "facebook": "None", "youtube": "None", "website": "None", "summary": "None", "logo": "None", "latitude": 42.94626790313924, "longitude": -81.30346544904512}, "118927391RR0001": {"name": "FOREST CITY UNITED BAPTIST CHURCH", "designationCode": "C", "categoryCode": "31", "address": "1670 FOREST CITY ROAD", "city": "FOREST CITY", "province": "NB", "country": "CA", "postalCode": "E6H1Z4", "twitter": "None", "instagram": "None", "facebook": "None", "youtube": "None", "website": "None", "summary": "None", "logo": "None", "latitude": 45.664721727451074, "longitude": -67.72826095715251}, "118927417RR0001": {"name": "FOREST CLIFF CAMPS INC.", "designationCode": "C", "categoryCode": "56", "address": "254 ADELAIDE STREET SOUTH", "city": "LONDON", "province": "ON", "country": "CA", "postalCode": "N5Z3L1", "twitter": "None", "instagram": "None", "facebook": "None", "youtube": "None", "website": "None", "summary": "None", "logo": "None", "latitude": 42.961967275347554, "longitude": -81.21922478417702}, "865366728RR0001": {"name": "FOREST COMMUNITY FOUNDATION", "designationCode": "A", "categoryCode": "53", "address": "7883                          AMTELECOM PARKWAY", "city": "FOREST", "province": "ON", "country": "CA", "postalCode": "N0N1J0", "twitter": "None", "instagram": "None", "facebook": "None", "youtube": "None", "website": "None", "summary": "None", "logo": "None", "latitude": 43.105308787951365, "longitude": -81.98834381001684}, "118927425RR0001": {"name": "FOREST DALE HOME INC.", "designationCode": "C", "categoryCode": "01", "address": "5836 KING STREET", "city": "RIVERSIDE-ALBERT", "province": "NB", "country": "CA", "postalCode": "E4H4B9", "twitter": "None", "instagram": "None", "facebook": "None", "youtube": "None", "website": "None", "summary": "None", "logo": "None", "latitude": 45.74881027411782, "longitude": -64.74083327761164}, "119288918RR0506": {"name": "FOREST GLADE CONGREGATION OF JEHOVAH'S WITNESSES", "designationCode": "C", "categoryCode": "61", "address": "12127 GOUIN ST", "city": "WINDSOR", "province": "ON", "country": "CA", "postalCode": "N8N4L8", "twitter": "None", "instagram": "None", "facebook": "None", "youtube": "None", "website": "None", "summary": "None", "logo": "None", "latitude": 42.299385274368646, "longitude": -82.88600022459262}, "888200862RR0001": {"name": "FOREST GLEN BIBLE CAMP SOCIETY", "designationCode": "C", "categoryCode": "56", "address": "POST OFFICE BOX 161", "city": "BROOKFIELD COLCHERSTER COUNT", "province": "NS", "country": "CA", "postalCode": "B0N1C0", "twitter": "None", "instagram": "None", "facebook": "None", "youtube": "None", "website": "None", "summary": "None", "logo": "None", "latitude": 45.258150183855356, "longitude": -63.2817954722186}, "107393134RR0001": {"name": "FOREST GROVE COMMUNITY CHURCH", "designationCode": "C", "categoryCode": "34", "address": "502 WEBSTER STREET", "city": "SASKATOON", "province": "SK", "country": "CA", "postalCode": "S7N3P9", "twitter": "None", "instagram": "None", "facebook": "None", "youtube": "None", "website": "None", "summary": "None", "logo": "None", "latitude": 52.14513547215616, "longitude": -106.5846105}, "119288918RR1237": {"name": "FOREST GROVE CONGREGATION OF JEHOVAH'S WITNESSES", "designationCode": "C", "categoryCode": "61", "address": "802-9380 CARDSTON COURT", "city": "BURNABY", "province": "BC", "country": "CA", "postalCode": "V3N4R5", "twitter": "None", "instagram": "None", "facebook": "None", "youtube": "None", "website": "None", "summary": "None", "logo": "None", "latitude": 49.248046542847476, "longitude": -122.9016915}, "107393159RR0001": {"name": "FOREST GROVE UNITED CHURCH", "designationCode": "C", "categoryCode": "44", "address": "43 FOREST GROVE DRIVE", "city": "WILLOWDALE", "province": "ON", "country": "CA", "postalCode": "M2K1Z4", "twitter": "None", "instagram": "None", "facebook": "None", "youtube": "None", "website": "None", "summary": "None", "logo": "None", "latitude": 43.77963713347583, "longitude": -79.37905981308778}, "118927540RR0001": {"name": "FOREST GROVE VOLUNTEER FIRE DEPARTMENT SOCIETY", "designationCode": "C", "categoryCode": "59", "address": "BOX 152", "city": "FOREST GROVE", "province": "BC", "country": "CA", "postalCode": "V0K1M0", "twitter": "None", "instagram": "None", "facebook": "None", "youtube": "None", "website": "None", "summary": "None", "logo": "None", "latitude": 51.769582460158865, "longitude": -121.10220684336852}, "887385193RR0001": {"name": "FOREST HEIGHTS COMMUNITY SCHOOL SCHOLARSHIP BURSARY PRIZE FUND", "designationCode": "C", "categoryCode": "21", "address": "PO BOX 29", "city": "CHESTER BASIN", "province": "NS", "country": "CA", "postalCode": "B0J1K0", "twitter": "None", "instagram": "None", "facebook": "None", "youtube": "None", "website": "None", "summary": "None", "logo": "None", "latitude": 44.56600000000003, "longitude": -64.30903999999998}, "119288918RR0782": {"name": "FOREST HEIGHTS CONGREGATION OF JEHOVAH'S WITNESSES, KITCHENER, ONTARIO", "designationCode": "C", "categoryCode": "61", "address": "16 CAPTAIN MCCALLUM DR", "city": "NEW HAMBURG", "province": "ON", "country": "CA", "postalCode": "N3A0B7", "twitter": "None", "instagram": "None", "facebook": "None", "youtube": "None", "website": "None", "summary": "None", "logo": "None", "latitude": 43.382925302816005, "longitude": -80.6996569020427}, "886132851RR0001": {"name": "FOREST HILL CEMETERY ASSOCIATION", "designationCode": "C", "categoryCode": "59", "address": "P.O. BOX 447", "city": "BARRINGTON PASSAGE", "province": "NS", "country": "CA", "postalCode": "B0W1G0", "twitter": "None", "instagram": "None", "facebook": "None", "youtube": "None", "website": "None", "summary": "None", "logo": "None", "latitude": 43.52570000000003, "longitude": -65.61060999999995}, "118927573RR0001": {"name": "FOREST HILL CEMETERY COMPANY", "designationCode": "C", "categoryCode": "59", "address": "631 PLEASANT VALLEY ROAD      RR#1", "city": "WESTVILLE", "province": "NS", "country": "CA", "postalCode": "B0K2A0", "twitter": "None", "instagram": "None", "facebook": "None", "youtube": "None", "website": "None", "summary": "None", "logo": "None", "latitude": 45.54561679216884, "longitude": -62.781679644871865}, "888532264RR0001": {"name": "FOREST HILL CEMETERY CORPORATION TRUST", "designationCode": "C", "categoryCode": "55", "address": "641 YORK ST", "city": "FREDERICTON", "province": "NB", "country": "CA", "postalCode": "E3B3R4", "twitter": "None", "instagram": "None", "facebook": "None", "youtube": "None", "website": "None", "summary": "None", "logo": "None", "latitude": 45.951468359426364, "longitude": -66.65312900028846}, "131162067RR0001": {"name": "FOREST HILL PASTORAL CHARGE", "designationCode": "C", "categoryCode": "44", "address": "45 KIMBLE COURT", "city": "FREDERICTON", "province": "NB", "country": "CA", "postalCode": "E3B6X5", "twitter": "None", "instagram": "None", "facebook": "None", "youtube": "None", "website": "None", "summary": "None", "logo": "None", "latitude": 45.93115273994458, "longitude": -66.63018749169011}, "891178741RR0001": {"name": "FOREST HILL PUBLIC SCHOOL HOME AND SCHOOL EDUCATION FUND", "designationCode": "C", "categoryCode": "21", "address": "78 DUNLOE ROAD", "city": "TORONTO", "province": "ON", "country": "CA", "postalCode": "M5P2T6", "twitter": "None", "instagram": "None", "facebook": "None", "youtube": "None", "website": "None", "summary": "None", "logo": "None", "latitude": 43.695502450170316, "longitude": -79.4135761463151}, "890154669RR0001": {"name": "FOREST HILL REHABILITATION CENTRE FOUNDATION INC.", "designationCode": "A", "categoryCode": "13", "address": "800 PRIESTMAN STREET", "city": "FREDERICTON", "province": "NB", "country": "CA", "postalCode": "E3B0C7", "twitter": "None", "instagram": "None", "facebook": "None", "youtube": "None", "website": "None", "summary": "None", "logo": "None", "latitude": 45.938683614749955, "longitude": -66.65071472121868}, "118927631RR0001": {"name": "FOREST HILL UNITED BAPTIST CHURCH", "designationCode": "C", "categoryCode": "31", "address": "2416 GREENFIELD RD", "city": "FOREST-HILL", "province": "NS", "country": "CA", "postalCode": "B4P2R1", "twitter": "None", "instagram": "None", "facebook": "None", "youtube": "None", "website": "None", "summary": "None", "logo": "None", "latitude": 45.05045054123135, "longitude": -64.34765507227783}, "107393316RR0001": {"name": "FOREST HILL UNITED CHURCH", "designationCode": "C", "categoryCode": "44", "address": "121 WESTMOUNT RD", "city": "KITCHENER", "province": "ON", "country": "CA", "postalCode": "N2M4Y8", "twitter": "None", "instagram": "None", "facebook": "None", "youtube": "None", "website": "None", "summary": "None", "logo": "None", "latitude": 43.43026691811422, "longitude": -80.50846930394118}, "132351206RR0001": {"name": "FOREST HILL UNITED CHURCH,", "designationCode": "C", "categoryCode": "44", "address": "2 WEMBLEY ROAD", "city": "TORONTO", "province": "ON", "country": "CA", "postalCode": "M6C2E9", "twitter": "None", "instagram": "None", "facebook": "None", "youtube": "None", "website": "None", "summary": "None", "logo": "None", "latitude": 43.70160244604403, "longitude": -79.42602921135092}, "107393274RR0001": {"name": "FOREST HILLS FELLOWSHIP BAPTIST CHURCH", "designationCode": "C", "categoryCode": "31", "address": "915 COLE HARBOUR ROAD", "city": "DARTMOUTH", "province": "NS", "country": "CA", "postalCode": "B2V1E5", "twitter": "None", "instagram": "None", "facebook": "None", "youtube": "None", "website": "None", "summary": "None", "logo": "None", "latitude": 44.67124044272579, "longitude": -63.49944310796928}, "786084723RR0001": {"name": "FOREST HILLS UNITED BAPTIST CHURCH INC.", "designationCode": "C", "categoryCode": "31", "address": "36 MOUNTAIN RD", "city": "SAINT JOHN", "province": "NB", "country": "CA", "postalCode": "E2J2X1", "twitter": "None", "instagram": "None", "facebook": "None", "youtube": "None", "website": "None", "summary": "None", "logo": "None", "latitude": 45.309256554532894, "longitude": -66.01088147307979}, "899314108RR0001": {"name": "FOREST HISTORY ASSOCIATION OF ALBERTA", "designationCode": "C", "categoryCode": "50", "address": "22 HUTCHINSON PLACE", "city": "ST ALBERT", "province": "AB", "country": "CA", "postalCode": "T8N6R3", "twitter": "None", "instagram": "None", "facebook": "None", "youtube": "None", "website": "None", "summary": "None", "logo": "None", "latitude": 53.60662789618567, "longitude": -113.62875517655353}, "853022333RR0001": {"name": "FOREST HISTORY ASSOCIATION OF BRITISH COLUMBIA", "designationCode": "C", "categoryCode": "50", "address": "564 OLIVER STREET", "city": "VICTORIA", "province": "BC", "country": "CA", "postalCode": "V8S4W3", "twitter": "None", "instagram": "None", "facebook": "None", "youtube": "None", "website": "None", "summary": "None", "logo": "None", "latitude": 48.414835959201326, "longitude": -123.31325269626036}, "118927664RR0001": {"name": "FOREST LAWN UNITED CHURCH", "designationCode": "C", "categoryCode": "44", "address": "2236 35 ST SE", "city": "CALGARY", "province": "AB", "country": "CA", "postalCode": "T2B0X1", "twitter": "None", "instagram": "None", "facebook": "None", "youtube": "None", "website": "None", "summary": "None", "logo": "None", "latitude": 51.03352799999999, "longitude": -113.98303779695897}, "119288918RR0210": {"name": "FOREST ONTARIO CONGREGATION OF JEHOVAH'S WITNESSES,", "designationCode": "C", "categoryCode": "61", "address": "48 ANN ST.UNIT 1", "city": "FOREST", "province": "ON", "country": "CA", "postalCode": "N0N1J0", "twitter": "None", "instagram": "None", "facebook": "None", "youtube": "None", "website": "None", "summary": "None", "logo": "None", "latitude": 43.09759525637531, "longitude": -82.00695207643771}, "119288918RR0717": {"name": "FOREST PARK CONGREGATON OF JEHOVAH'S WITNESSES", "designationCode": "C", "categoryCode": "61", "address": "1610 ROUTE 600W", "city": "ST ALBERT", "province": "ON", "country": "CA", "postalCode": "K0A3C0", "twitter": "None", "instagram": "None", "facebook": "None", "youtube": "None", "website": "None", "summary": "None", "logo": "None", "latitude": 45.2941822286307, "longitude": -75.07478158305207}, "131712184RR0001": {"name": "FOREST PENTECOSTAL CHURCH", "designationCode": "C", "categoryCode": "36", "address": "24 PRINCE STREET              P.O. BOX 39", "city": "FOREST", "province": "ON", "country": "CA", "postalCode": "N0N1J0", "twitter": "None", "instagram": "None", "facebook": "None", "youtube": "None", "website": "None", "summary": "None", "logo": "None", "latitude": 43.100360734843086, "longitude": -81.998996127278}, "107393506RR0001": {"name": "FOREST UNITED CHURCH", "designationCode": "C", "categoryCode": "44", "address": "21 JAMES STREET N", "city": "FOREST", "province": "ON", "country": "CA", "postalCode": "N0N1J0", "twitter": "None", "instagram": "None", "facebook": "None", "youtube": "None", "website": "None", "summary": "None", "logo": "None", "latitude": 43.09858985433333, "longitude": -82.00185267994985}, "888592441RR0001": {"name": "FORESTBURG LIONS CLUB CHARITABLE (TRUST)", "designationCode": "C", "categoryCode": "65", "address": "BOX 98", "city": "FORESTBURG", "province": "AB", "country": "CA", "postalCode": "T0B1N0", "twitter": "None", "instagram": "None", "facebook": "None", "youtube": "None", "website": "None", "summary": "None", "logo": "None", "latitude": 52.58134386913628, "longitude": -112.05738493950088}}