{"118973528RR0001": {"name": "JEAN TWEED TREATMENT CENTRE", "designationCode": "C", "categoryCode": "57", "address": "215 EVANS AVE", "city": "TORONTO", "province": "ON", "country": "CA", "postalCode": "M8Z1J5", "twitter": "None", "instagram": "None", "facebook": "None", "youtube": "None", "website": "None", "summary": "None", "logo": "None", "latitude": 43.61763489529162, "longitude": -79.51582443502242}, "128368636RR0001": {"name": "JEANETTE LAKE CAMPING ASSOCIATION", "designationCode": "C", "categoryCode": "49", "address": "830 KLOPPENBURG CRT", "city": "SASKATOON", "province": "SK", "country": "CA", "postalCode": "S7W0P3", "twitter": "None", "instagram": "None", "facebook": "None", "youtube": "None", "website": "None", "summary": "None", "logo": "None", "latitude": 52.17368731254962, "longitude": -106.56277978775039}, "118973510RR0001": {"name": "JEANNETTES CREEK SUNDAY SCHOOL", "designationCode": "C", "categoryCode": "49", "address": "21900 TECUMSEH RD             R.R.#5", "city": "TILBURY", "province": "ON", "country": "CA", "postalCode": "N0P2L0", "twitter": "None", "instagram": "None", "facebook": "None", "youtube": "None", "website": "None", "summary": "None", "logo": "None", "latitude": 42.3036712417909, "longitude": -82.43648627436659}, "801685173RR0001": {"name": "JECO FOUNDATION", "designationCode": "B", "categoryCode": "03", "address": "PH 9-7071 BAYVIEW AVENUE", "city": "THORNHILL", "province": "ON", "country": "CA", "postalCode": "L3T7Y8", "twitter": "None", "instagram": "None", "facebook": "None", "youtube": "None", "website": "None", "summary": "None", "logo": "None", "latitude": 43.804960615067074, "longitude": -79.39771011524088}, "118973536RR0001": {"name": "JEDDORE UNITED BAPTIST CHURCH", "designationCode": "C", "categoryCode": "31", "address": "1392 JEDDORE, OYSTER POND", "city": "HALIFAX", "province": "NS", "country": "CA", "postalCode": "B0J1W0", "twitter": "None", "instagram": "None", "facebook": "None", "youtube": "None", "website": "None", "summary": "None", "logo": "None", "latitude": 44.77710007328752, "longitude": -63.006449932772036}, "118973544RR0001": {"name": "JEFFERY HALE'S HOSPITAL", "designationCode": "C", "categoryCode": "10", "address": "1250 CH SAINTE-FOY", "city": "QUEBEC", "province": "QC", "country": "CA", "postalCode": "G1S2M6", "twitter": "None", "instagram": "None", "facebook": "None", "youtube": "None", "website": "None", "summary": "None", "logo": "None", "latitude": 46.79571318096826, "longitude": -71.25227324147377}, "864267638RR0001": {"name": "JEFFREY RUBINOFF FOUNDATION", "designationCode": "B", "categoryCode": "23", "address": "2900 - 550 BURRARD ST", "city": "VANCOUVER", "province": "BC", "country": "CA", "postalCode": "V6C0A3", "twitter": "None", "instagram": "None", "facebook": "None", "youtube": "None", "website": "None", "summary": "None", "logo": "None", "latitude": 49.28596391921073, "longitude": -123.11870289255033}, "861599173RR0001": {"name": "JEFFREY RUBINOFF SCULPTURE PARK", "designationCode": "B", "categoryCode": "22", "address": "2900 - 550 BURRARD ST", "city": "VANCOUVER", "province": "BC", "country": "CA", "postalCode": "V6C0A3", "twitter": "None", "instagram": "None", "facebook": "None", "youtube": "None", "website": "None", "summary": "None", "logo": "None", "latitude": 49.28596391921073, "longitude": -123.11870289255033}, "137954780RR0001": {"name": "JEHOVAH JIREH CHRISTIAN MINISTRIES", "designationCode": "C", "categoryCode": "39", "address": "20554 HURONTARIO ST", "city": "CALEDON", "province": "ON", "country": "CA", "postalCode": "L7K1W9", "twitter": "None", "instagram": "None", "facebook": "None", "youtube": "None", "website": "None", "summary": "None", "logo": "None", "latitude": 43.902270589619704, "longitude": -80.05324804616382}, "893205963RR0001": {"name": "JEHOVAH-JIREH CHILDREN'S MINISTRY", "designationCode": "C", "categoryCode": "09", "address": "70 MARTELL CRES", "city": "WINNIPEG", "province": "MB", "country": "CA", "postalCode": "R2P0M6", "twitter": "None", "instagram": "None", "facebook": "None", "youtube": "None", "website": "None", "summary": "None", "logo": "None", "latitude": 49.95216242048014, "longitude": -97.16855245770077}, "118973577RR0001": {"name": "JELLINEK MEMORIAL FUND", "designationCode": "B", "categoryCode": "53", "address": "1091 WESTMOUNT AVENUE", "city": "MISSISSAUGA", "province": "ON", "country": "CA", "postalCode": "L5E1X6", "twitter": "None", "instagram": "None", "facebook": "None", "youtube": "None", "website": "None", "summary": "None", "logo": "None", "latitude": 43.57498179268847, "longitude": -79.56539456367949}, "107532590RR0001": {"name": "JELLINEK SOCIETY", "designationCode": "C", "categoryCode": "57", "address": "11229-100 AVENUE", "city": "EDMONTON", "province": "AB", "country": "CA", "postalCode": "T5K0J1", "twitter": "None", "instagram": "None", "facebook": "None", "youtube": "None", "website": "None", "summary": "None", "logo": "None", "latitude": 53.538806474032086, "longitude": -113.51548341618097}, "899303929RR0001": {"name": "JEMINI FOUNDATION", "designationCode": "B", "categoryCode": "05", "address": "2900-550 BURRARD STREET", "city": "VANCOUVER", "province": "BC", "country": "CA", "postalCode": "V6C0A3", "twitter": "None", "instagram": "None", "facebook": "None", "youtube": "None", "website": "None", "summary": "None", "logo": "None", "latitude": 49.28596391921073, "longitude": -123.11870289255033}, "107532731RR0001": {"name": "JEMSEG BAPTIST CHURCH", "designationCode": "C", "categoryCode": "31", "address": "5293 ROUTE 105", "city": "WHITES COVE", "province": "NB", "country": "CA", "postalCode": "E4C3H1", "twitter": "None", "instagram": "None", "facebook": "None", "youtube": "None", "website": "None", "summary": "None", "logo": "None", "latitude": 45.86801070582358, "longitude": -66.05624362308798}, "872411301RR0001": {"name": "JEMSEG CEMETERY LTD.", "designationCode": "C", "categoryCode": "59", "address": "65 ROUTE 715", "city": "JEMSEG", "province": "NB", "country": "CA", "postalCode": "E4C3M9", "twitter": "None", "instagram": "None", "facebook": "None", "youtube": "None", "website": "None", "summary": "None", "logo": "None", "latitude": 45.92404446754047, "longitude": -65.80255323306696}, "141048603RR0001": {"name": "JENNER CHARITABLE TRUST", "designationCode": "B", "categoryCode": "39", "address": "3425-2 AVENUE SOUTH", "city": "LETHBRIDGE", "province": "AB", "country": "CA", "postalCode": "T1J4V1", "twitter": "None", "instagram": "None", "facebook": "None", "youtube": "None", "website": "None", "summary": "None", "logo": "None", "latitude": 49.696839530439966, "longitude": -112.78914308381903}, "139423875RR0001": {"name": "JENNIFER ASHLEIGH CHILDREN'S CHARITY", "designationCode": "C", "categoryCode": "09", "address": "10800 CONCESSION 5", "city": "UXBRIDGE", "province": "ON", "country": "CA", "postalCode": "L9P1R1", "twitter": "None", "instagram": "None", "facebook": "None", "youtube": "None", "website": "None", "summary": "None", "logo": "None", "latitude": 44.170631207055266, "longitude": -79.20038439879514}, "869701169RR0001": {"name": "JEONG HYE BUDDHISM TEMPLE", "designationCode": "C", "categoryCode": "35", "address": "305-100 SHEPPARD AVE WEST", "city": "TORONTO", "province": "ON", "country": "CA", "postalCode": "M2N1M6", "twitter": "None", "instagram": "None", "facebook": "None", "youtube": "None", "website": "None", "summary": "None", "logo": "None", "latitude": 43.76039718347844, "longitude": -79.41611753886542}, "853925931RR0001": {"name": "JEREMIAH ABEL MINISTRIES", "designationCode": "C", "categoryCode": "39", "address": "1183 LAKEWOOD ROAD NORTH", "city": "EDMONTON", "province": "AB", "country": "CA", "postalCode": "T6K4C6", "twitter": "None", "instagram": "None", "facebook": "None", "youtube": "None", "website": "None", "summary": "None", "logo": "None", "latitude": 53.463520800531924, "longitude": -113.4576749813373}, "875957813RR0001": {"name": "JEREMY'S MEMORIAL FOUNDATION AGAINST DOMESTIC VIOLENCE", "designationCode": "A", "categoryCode": "03", "address": "#30, 9880 PARSONS RD.", "city": "RICHMOND", "province": "BC", "country": "CA", "postalCode": "V7E1K9", "twitter": "None", "instagram": "None", "facebook": "None", "youtube": "None", "website": "None", "summary": "None", "logo": "None", "latitude": 49.14209700247737, "longitude": -123.15744850521719}, "842194524RR0001": {"name": "JERICHO FOUNDATION", "designationCode": "B", "categoryCode": "03", "address": "2 PARAMOUNT RD", "city": "MARKHAM", "province": "ON", "country": "CA", "postalCode": "L3P2V6", "twitter": "None", "instagram": "None", "facebook": "None", "youtube": "None", "website": "None", "summary": "None", "logo": "None", "latitude": 43.8831494321369, "longitude": -79.25579773982899}, "853519361RR0001": {"name": "JERICHO HILL LEGACY TRUST FUND", "designationCode": "C", "categoryCode": "25", "address": "PO BOX 50051 RPO SOUTH SLOPE", "city": "BURNABY", "province": "BC", "country": "CA", "postalCode": "V5J5G3", "twitter": "None", "instagram": "None", "facebook": "None", "youtube": "None", "website": "None", "summary": "None", "logo": "None", "latitude": 49.21896000000004, "longitude": -122.99946999999997}, "891199424RR0001": {"name": "JERICHO HOUSE, YOUTH LEADERSHIP, JUSTICE & SPIRITUALITY CENTRE", "designationCode": "C", "categoryCode": "49", "address": "10845 RATHFON RD.", "city": "PORT COLBORNE", "province": "ON", "country": "CA", "postalCode": "L3K5V4", "twitter": "None", "instagram": "None", "facebook": "None", "youtube": "None", "website": "None", "summary": "None", "logo": "None", "latitude": 42.883767000000006, "longitude": -79.31515252611308}, "885020719RR0001": {"name": "JERICHO ROAD CHURCH", "designationCode": "C", "categoryCode": "39", "address": "5100 TEBO AVE", "city": "PORT ALBERNI", "province": "BC", "country": "CA", "postalCode": "V9Y7Y6", "twitter": "None", "instagram": "None", "facebook": "None", "youtube": "None", "website": "None", "summary": "None", "logo": "None", "latitude": 49.26736936309687, "longitude": -124.79439181144019}, "894761436RR0001": {"name": "JERICHO ROAD MINISTRIES - MINISTERE ROUTE DE JERICHO", "designationCode": "C", "categoryCode": "01", "address": "2089 WALKLEY RD", "city": "OTTAWA", "province": "ON", "country": "CA", "postalCode": "K1G3G7", "twitter": "None", "instagram": "None", "facebook": "None", "youtube": "None", "website": "None", "summary": "None", "logo": "None", "latitude": 45.385430520139536, "longitude": -75.62642296684739}, "107533325RR0001": {"name": "JERICHO YOUTH SERVICES", "designationCode": "C", "categoryCode": "49", "address": "PO BOX 991", "city": "SUTTON WEST", "province": "ON", "country": "CA", "postalCode": "L0E1R0", "twitter": "None", "instagram": "None", "facebook": "None", "youtube": "None", "website": "None", "summary": "None", "logo": "None", "latitude": 44.33123400000005, "longitude": -79.33264549999993}, "890180490RR0001": {"name": "JERRAHI SUFI ORDER OF CANADA", "designationCode": "C", "categoryCode": "60", "address": "55-4950 ALBINA WAY", "city": "MISSISSAUGA", "province": "ON", "country": "CA", "postalCode": "L4Z4J4", "twitter": "None", "instagram": "None", "facebook": "None", "youtube": "None", "website": "None", "summary": "None", "logo": "None", "latitude": 43.61055062444481, "longitude": -79.64700399062225}, "858982408RR0001": {"name": "JERRY BERENGUER MINISTRIES INC.", "designationCode": "C", "categoryCode": "39", "address": "PO BOX 51060                  RPO CITY CENTRE", "city": "BRAMPTON", "province": "ON", "country": "CA", "postalCode": "L6T5M2", "twitter": "None", "instagram": "None", "facebook": "None", "youtube": "None", "website": "None", "summary": "None", "logo": "None", "latitude": 43.68815049793295, "longitude": -79.75036075680674}, "851431031RR0001": {"name": "JERRY SAVELLE MINISTRIES INC. -- CANADA", "designationCode": "C", "categoryCode": "49", "address": "4056 MEADOWBROOK DRIVE APT 119", "city": "LONDON", "province": "ON", "country": "CA", "postalCode": "N6L1E3", "twitter": "None", "instagram": "None", "facebook": "None", "youtube": "None", "website": "None", "summary": "None", "logo": "None", "latitude": 42.919968739396296, "longitude": -81.26658445063259}, "118973684RR0001": {"name": "JERSEYVILLE BAPTIST CHURCH", "designationCode": "C", "categoryCode": "31", "address": "3203 JERSEYVILLE RD W RR1", "city": "JERSEYVILLE", "province": "ON", "country": "CA", "postalCode": "L0R1R0", "twitter": "None", "instagram": "None", "facebook": "None", "youtube": "None", "website": "None", "summary": "None", "logo": "None", "latitude": 43.195691271192615, "longitude": -80.13321705565806}, "118973692RR0001": {"name": "JERSEYVILLE UNITED CHURCH", "designationCode": "C", "categoryCode": "44", "address": "2513 WILSON ST. W. B3C9", "city": "ALBERTON", "province": "ON", "country": "CA", "postalCode": "L0R1A0", "twitter": "None", "instagram": "None", "facebook": "None", "youtube": "None", "website": "None", "summary": "None", "logo": "None", "latitude": 43.18445266305044, "longitude": -80.07898469464423}, "118973718RR0001": {"name": "JERUSALEM DENTAL CENTRE FOR CHILDREN INC.", "designationCode": "C", "categoryCode": "11", "address": "115-1701 KILBORNE AVE", "city": "OTTAWA", "province": "ON", "country": "CA", "postalCode": "K1H6M8", "twitter": "None", "instagram": "None", "facebook": "None", "youtube": "None", "website": "None", "summary": "None", "logo": "None", "latitude": 45.38754316650584, "longitude": -75.64956964959465}, "841680366RR0001": {"name": "JERUSALEM EVANGELICAL MINISTRIES", "designationCode": "C", "categoryCode": "47", "address": "1003 PINE ST", "city": "WHITEHORSE", "province": "YT", "country": "CA", "postalCode": "Y1A5J3", "twitter": "None", "instagram": "None", "facebook": "None", "youtube": "None", "website": "None", "summary": "None", "logo": "None", "latitude": 60.76289210713256, "longitude": -135.1225469006577}, "872514112RR0001": {"name": "JERUSALEM TEMPLE CHURCH", "designationCode": "C", "categoryCode": "39", "address": "15 LONSDALE COURT", "city": "MARKHAM", "province": "ON", "country": "CA", "postalCode": "L3R7T6", "twitter": "None", "instagram": "None", "facebook": "None", "youtube": "None", "website": "None", "summary": "None", "logo": "None", "latitude": 43.86882229251556, "longitude": -79.33967279450611}, "835766239RR0001": {"name": "JERUSALEM U", "designationCode": "C", "categoryCode": "20", "address": "155 WELLINGTON STREET WEST", "city": "TORONTO", "province": "ON", "country": "CA", "postalCode": "M5V3J7", "twitter": "None", "instagram": "None", "facebook": "None", "youtube": "None", "website": "None", "summary": "None", "logo": "None", "latitude": 43.64596585316531, "longitude": -79.38574575644876}, "889485975RR0001": {"name": "JERUSALEM VISTAS CANADA SOCIETY", "designationCode": "C", "categoryCode": "49", "address": "1291 ARBUTUS RD", "city": "PARKSVILLE", "province": "BC", "country": "CA", "postalCode": "V9P2E5", "twitter": "None", "instagram": "None", "facebook": "None", "youtube": "None", "website": "None", "summary": "None", "logo": "None", "latitude": 49.30763046768412, "longitude": -124.2578819177102}, "872854211RR0001": {"name": "JESSE & JULIE RASCH FOUNDATION", "designationCode": "B", "categoryCode": "03", "address": "502 - 111 PETER ST", "city": "TORONTO", "province": "ON", "country": "CA", "postalCode": "M5V2H1", "twitter": "None", "instagram": "None", "facebook": "None", "youtube": "None", "website": "None", "summary": "None", "logo": "None", "latitude": 43.64786027283737, "longitude": -79.3930082043687}, "888953148RR0001": {"name": "JESSICA CHARITABLE FOUNDATION", "designationCode": "B", "categoryCode": "03", "address": "2300 125 9 AVE SE", "city": "CALGARY", "province": "AB", "country": "CA", "postalCode": "T2G0P6", "twitter": "None", "instagram": "None", "facebook": "None", "youtube": "None", "website": "None", "summary": "None", "logo": "None", "latitude": 51.0445575, "longitude": -114.06165974999999}, "866309453RR0001": {"name": "JESSIE ALLAN FORSYTH FOUNDATION SOCIETY", "designationCode": "B", "categoryCode": "21", "address": "418-650 WEST GEORGIA STREET   PO BOX 11602", "city": "VANCOUVER", "province": "BC", "country": "CA", "postalCode": "V6B4N9", "twitter": "None", "instagram": "None", "facebook": "None", "youtube": "None", "website": "None", "summary": "None", "logo": "None", "latitude": 49.28012307167682, "longitude": -123.11442679241839}, "102634235RR0001": {"name": "JESSIE HOME INC.", "designationCode": "C", "categoryCode": "01", "address": "BOX 26061 RPO MARYLAND", "city": "WINNIPEG", "province": "MB", "country": "CA", "postalCode": "R3G3R3", "twitter": "None", "instagram": "None", "facebook": "None", "youtube": "None", "website": "None", "summary": "None", "logo": "None", "latitude": 49.878383414298455, "longitude": -97.1620873191405}, "892420548RR0001": {"name": "JESSOMA FOUNDATION", "designationCode": "B", "categoryCode": "53", "address": "1200 LOUGHEED HWY", "city": "COQUITLAM", "province": "BC", "country": "CA", "postalCode": "V3K6S4", "twitter": "None", "instagram": "None", "facebook": "None", "youtube": "None", "website": "None", "summary": "None", "logo": "None", "latitude": 49.233511710485544, "longitude": -122.85752851431114}, "118973742RR0001": {"name": "JESUIT CENTRE FOR SOCIAL FAITH AND JUSTICE", "designationCode": "C", "categoryCode": "49", "address": "70 ST. MARY STREET            (LOWER LEVEL)", "city": "TORONTO", "province": "ON", "country": "CA", "postalCode": "M5S1J3", "twitter": "None", "instagram": "None", "facebook": "None", "youtube": "None", "website": "None", "summary": "None", "logo": "None", "latitude": 43.66715620901366, "longitude": -79.38988539384839}, "118973759RR0001": {"name": "JESUIT COMMUNICATION PROJECT", "designationCode": "C", "categoryCode": "21", "address": "SUITE 1804 77 ST. CLAIR AVE E", "city": "TORONTO", "province": "ON", "country": "CA", "postalCode": "M4T1M5", "twitter": "None", "instagram": "None", "facebook": "None", "youtube": "None", "website": "None", "summary": "None", "logo": "None", "latitude": 43.68871977266449, "longitude": -79.39094616443542}, "131588915RR0001": {"name": "JESUIT COMMUNITY OTTAWA CORP", "designationCode": "C", "categoryCode": "38", "address": "167 SUNNYSIDE AVE.", "city": "OTTAWA", "province": "ON", "country": "CA", "postalCode": "K1S0R2", "twitter": "None", "instagram": "None", "facebook": "None", "youtube": "None", "website": "None", "summary": "None", "logo": "None", "latitude": 45.39648341078528, "longitude": -75.67826496254821}, "118973783RR0001": {"name": "JESUIT FATHERS", "designationCode": "C", "categoryCode": "46", "address": "16 SMITHVILLE CRESCENT", "city": "ST. JOHN'S", "province": "NL", "country": "CA", "postalCode": "A1B2V2", "twitter": "None", "instagram": "None", "facebook": "None", "youtube": "None", "website": "None", "summary": "None", "logo": "None", "latitude": 47.57855793730146, "longitude": -52.72374982191726}, "118973791RR0001": {"name": "JESUIT FATHERS LOURDES PARISH TORONTO", "designationCode": "C", "categoryCode": "38", "address": "41 EARL STREET", "city": "TORONTO", "province": "ON", "country": "CA", "postalCode": "M4Y1M4", "twitter": "None", "instagram": "None", "facebook": "None", "youtube": "None", "website": "None", "summary": "None", "logo": "None", "latitude": 43.66845983873857, "longitude": -79.37650513988113}, "118973825RR0001": {"name": "JESUIT FATHERS OF THUNDER BAY (SUBSIDIARY OF JESUIT FATHERS OF UPPER CANADA)", "designationCode": "C", "categoryCode": "09", "address": "126 MISSION RD", "city": "FORT WILLIAM FIRST NATION", "province": "ON", "country": "CA", "postalCode": "P7J1K6", "twitter": "None", "instagram": "None", "facebook": "None", "youtube": "None", "website": "None", "summary": "None", "logo": "None", "latitude": 48.352820620146325, "longitude": -89.26640223482597}, "877563767RR0001": {"name": "JESUITS OF WINNIPEG INC.", "designationCode": "C", "categoryCode": "46", "address": "255 STRAFFORD STREET", "city": "WINNIPEG", "province": "MB", "country": "CA", "postalCode": "R3M2X2", "twitter": "None", "instagram": "None", "facebook": "None", "youtube": "None", "website": "None", "summary": "None", "logo": "None", "latitude": 49.86759250178901, "longitude": -97.16105801739823}, "838751345RR0001": {"name": "JESUS BAPTIST VANCOUVER CHURCH", "designationCode": "C", "categoryCode": "31", "address": "4010 VICTORIA DR", "city": "VANCOUVER", "province": "BC", "country": "CA", "postalCode": "V5N4N2", "twitter": "None", "instagram": "None", "facebook": "None", "youtube": "None", "website": "None", "summary": "None", "logo": "None", "latitude": 49.24910557507647, "longitude": -123.06501045833596}, "864188560RR0001": {"name": "JESUS BITNAERI PRESBYTERIAN CHURCH", "designationCode": "C", "categoryCode": "37", "address": "15 OLIVE AVENUE", "city": "NORTH YORK", "province": "ON", "country": "CA", "postalCode": "M2M4N4", "twitter": "None", "instagram": "None", "facebook": "None", "youtube": "None", "website": "None", "summary": "None", "logo": "None", "latitude": 43.77888289586856, "longitude": -79.41447576406614}, "840490015RR0001": {"name": "JESUS BLESSED REDEEMER CHURCH", "designationCode": "C", "categoryCode": "39", "address": "44 MURELLEN CRESCENT", "city": "TORONTO", "province": "ON", "country": "CA", "postalCode": "M4A2K5", "twitter": "None", "instagram": "None", "facebook": "None", "youtube": "None", "website": "None", "summary": "None", "logo": "None", "latitude": 43.739291660568945, "longitude": -79.31498254206808}, "861126530RR0001": {"name": "JESUS CALLS CANADA", "designationCode": "C", "categoryCode": "47", "address": "208-50 JERVIS DRIVE", "city": "TORONTO", "province": "ON", "country": "CA", "postalCode": "M3C1Z3", "twitter": "None", "instagram": "None", "facebook": "None", "youtube": "None", "website": "None", "summary": "None", "logo": "None", "latitude": 43.72446300000006, "longitude": -79.33723099999993}, "834988941RR0001": {"name": "JESUS CHRIST CHRISTIAN MINISTRIES", "designationCode": "C", "categoryCode": "39", "address": "72 SNYDERS RD. EAST #12", "city": "BADEN", "province": "ON", "country": "CA", "postalCode": "N3A2V8", "twitter": "None", "instagram": "None", "facebook": "None", "youtube": "None", "website": "None", "summary": "None", "logo": "None", "latitude": 43.40416426397923, "longitude": -80.66629597183903}, "887263424RR0001": {"name": "JESUS CHRIST IS ALIVE MINISTRIES INTERNATIONAL", "designationCode": "C", "categoryCode": "39", "address": "720 PROGRESS AVE", "city": "SCARBOROUGH", "province": "ON", "country": "CA", "postalCode": "M1H2X3", "twitter": "None", "instagram": "None", "facebook": "None", "youtube": "None", "website": "None", "summary": "None", "logo": "None", "latitude": 43.77900885902234, "longitude": -79.24608556581428}, "873952501RR0001": {"name": "JESUS CHRIST THE GIVER OF LIFE MINISTRIES", "designationCode": "C", "categoryCode": "39", "address": "663 SHEPPARD AVE W", "city": "NORTH YORK", "province": "ON", "country": "CA", "postalCode": "M3H2S4", "twitter": "None", "instagram": "None", "facebook": "None", "youtube": "None", "website": "None", "summary": "None", "logo": "None", "latitude": 43.75461084595195, "longitude": -79.44275678025322}, "860040328RR0001": {"name": "JESUS CHRIST THE GREAT I AM FELLOWSHIP UNITED PENTECOSTAL CHURCH INTERNATIONAL", "designationCode": "C", "categoryCode": "39", "address": "6957 LANARK ST", "city": "VANCOUVER", "province": "BC", "country": "CA", "postalCode": "V5P2Z6", "twitter": "None", "instagram": "None", "facebook": "None", "youtube": "None", "website": "None", "summary": "None", "logo": "None", "latitude": 49.221036838190315, "longitude": -123.07606355277254}, "854347408RR0001": {"name": "JESUS CHRIST TO GOD BE THE GLORY CANADA EXTENSION CHURCH", "designationCode": "C", "categoryCode": "39", "address": "119 BAYCLIFFE DR", "city": "WHITBY", "province": "ON", "country": "CA", "postalCode": "L1P1V5", "twitter": "None", "instagram": "None", "facebook": "None", "youtube": "None", "website": "None", "summary": "None", "logo": "None", "latitude": 43.9081990088868, "longitude": -78.97987063125413}, "837660927RR0001": {"name": "JESUS DISCIPLE MOVEMENT SOCIETY", "designationCode": "C", "categoryCode": "39", "address": "C103 - 8350 11TH AVE", "city": "BURNABY", "province": "BC", "country": "CA", "postalCode": "V3N2P4", "twitter": "None", "instagram": "None", "facebook": "None", "youtube": "None", "website": "None", "summary": "None", "logo": "None", "latitude": 49.226057190442184, "longitude": -122.91661619549743}, "875147829RR0001": {"name": "JESUS ENDTIMES MINISTRIES", "designationCode": "C", "categoryCode": "39", "address": "13470 55A AVE", "city": "SURREY", "province": "BC", "country": "CA", "postalCode": "V3X3B5", "twitter": "None", "instagram": "None", "facebook": "None", "youtube": "None", "website": "None", "summary": "None", "logo": "None", "latitude": 49.10358555063775, "longitude": -122.84945096863639}, "839350766RR0001": {"name": "JESUS EST LA SOLUTION", "designationCode": "C", "categoryCode": "47", "address": "1104-1, PLACE BELLERIVE", "city": "LAVAL", "province": "QC", "country": "CA", "postalCode": "H7V1B1", "twitter": "None", "instagram": "None", "facebook": "None", "youtube": "None", "website": "None", "summary": "None", "logo": "None", "latitude": 45.53748600000006, "longitude": -73.72661299999993}, "862300902RR0001": {"name": "JESUS EST LE MINISTRE DE DIEU", "designationCode": "C", "categoryCode": "39", "address": "7177 RUE DE NANCY", "city": "MONTREAL", "province": "QC", "country": "CA", "postalCode": "H3R2L8", "twitter": "None", "instagram": "None", "facebook": "None", "youtube": "None", "website": "None", "summary": "None", "logo": "None", "latitude": 45.5039923086444, "longitude": -73.64157116221371}, "895501393RR0001": {"name": "JESUS FIRST ASSEMBLY - SCARBOROUGH", "designationCode": "C", "categoryCode": "39", "address": "61 CURLEW DR", "city": "NORTH YORK", "province": "ON", "country": "CA", "postalCode": "M3A2P8", "twitter": "None", "instagram": "None", "facebook": "None", "youtube": "None", "website": "None", "summary": "None", "logo": "None", "latitude": 43.74409139597294, "longitude": -79.31479752983856}, "869978916RR0001": {"name": "JESUS GLORIOUS CHURCH", "designationCode": "C", "categoryCode": "39", "address": "11 SIRIUS CRESCENT", "city": "SCARBOROUGH", "province": "ON", "country": "CA", "postalCode": "M1X2A6", "twitter": "None", "instagram": "None", "facebook": "None", "youtube": "None", "website": "None", "summary": "None", "logo": "None", "latitude": 43.83155169995395, "longitude": -79.22505732056095}, "892150848RR0001": {"name": "JESUS IS ALIVE COMMUNITY, INC", "designationCode": "C", "categoryCode": "49", "address": "437 OTTAWA STREET NORTH", "city": "HAMILTON", "province": "ON", "country": "CA", "postalCode": "L8H4A2", "twitter": "None", "instagram": "None", "facebook": "None", "youtube": "None", "website": "None", "summary": "None", "logo": "None", "latitude": 43.25197080850016, "longitude": -79.81597468668107}, "132824822RR0001": {"name": "JESUS IS ALIVE OUTREACH MINISTRIES INC", "designationCode": "C", "categoryCode": "49", "address": "PO BOX 5748 MERIVALE DEPOT", "city": "OTTAWA", "province": "ON", "country": "CA", "postalCode": "K2C3M1", "twitter": "None", "instagram": "None", "facebook": "None", "youtube": "None", "website": "None", "summary": "None", "logo": "None", "latitude": 45.32581000000005, "longitude": -75.72397999999998}, "886105998RR0001": {"name": "JESUS IS LORD CHURCH CANADA WEST", "designationCode": "C", "categoryCode": "47", "address": "9711 137 ST", "city": "SURREY", "province": "BC", "country": "CA", "postalCode": "V3T4G8", "twitter": "None", "instagram": "None", "facebook": "None", "youtube": "None", "website": "None", "summary": "None", "logo": "None", "latitude": 49.17907045628715, "longitude": -122.8433343773442}, "896106366RR0001": {"name": "JESUS IS LORD FELLOWSHIP ALBERTA CHAPTER", "designationCode": "C", "categoryCode": "39", "address": "9711 137 ST", "city": "SURREY", "province": "BC", "country": "CA", "postalCode": "V3T4G8", "twitter": "None", "instagram": "None", "facebook": "None", "youtube": "None", "website": "None", "summary": "None", "logo": "None", "latitude": 49.17907045628715, "longitude": -122.8433343773442}, "136223955RR0001": {"name": "JESUS IS LORD FELLOWSHIP, BRITISH COLUMBIA CHAPTER", "designationCode": "C", "categoryCode": "39", "address": "9711 137 ST", "city": "SURREY", "province": "BC", "country": "CA", "postalCode": "V3T4G8", "twitter": "None", "instagram": "None", "facebook": "None", "youtube": "None", "website": "None", "summary": "None", "logo": "None", "latitude": 49.17907045628715, "longitude": -122.8433343773442}, "890210354RR0001": {"name": "JESUS IS LORD MINISTRY INTERNATIONAL INC", "designationCode": "C", "categoryCode": "39", "address": "116 HEARTLEAF CRESCENT", "city": "BRAMPTON", "province": "ON", "country": "CA", "postalCode": "L7A2C1", "twitter": "None", "instagram": "None", "facebook": "None", "youtube": "None", "website": "None", "summary": "None", "logo": "None", "latitude": 43.698365349991306, "longitude": -79.81977812738765}, "853427342RR0001": {"name": "JESUS IS THE ANSWER MINISTRY", "designationCode": "C", "categoryCode": "39", "address": "23 GATEFORTH DRIVE", "city": "SCARBOROUGH", "province": "ON", "country": "CA", "postalCode": "M1B3W8", "twitter": "None", "instagram": "None", "facebook": "None", "youtube": "None", "website": "None", "summary": "None", "logo": "None", "latitude": 43.79651746378898, "longitude": -79.2306530750478}, "897155750RR0001": {"name": "JESUS LOVES YOU SOCIETY OF CALGARY", "designationCode": "C", "categoryCode": "09", "address": "240 15 AVE SW", "city": "CALGARY", "province": "AB", "country": "CA", "postalCode": "T2R0P7", "twitter": "None", "instagram": "None", "facebook": "None", "youtube": "None", "website": "None", "summary": "None", "logo": "None", "latitude": 51.038702474897484, "longitude": -114.06805222009349}, "889961611RR0001": {"name": "JESUS MISSION CHURCH OF LOVE TORONTO", "designationCode": "C", "categoryCode": "36", "address": "7 LORRAINE DR #211", "city": "NORTH YORK", "province": "ON", "country": "CA", "postalCode": "M2N7H2", "twitter": "None", "instagram": "None", "facebook": "None", "youtube": "None", "website": "None", "summary": "None", "logo": "None", "latitude": 43.77871641771019, "longitude": -79.4173683055573}, "119118008RR0001": {"name": "JESUS NEW COVENANT CHURCH INC.", "designationCode": "C", "categoryCode": "39", "address": "BOX 19, SITE 4, RR 3", "city": "LACOMBE", "province": "AB", "country": "CA", "postalCode": "T4L2N3", "twitter": "None", "instagram": "None", "facebook": "None", "youtube": "None", "website": "None", "summary": "None", "logo": "None", "latitude": 52.463094000000055, "longitude": -113.73671149999993}, "870527116RR0001": {"name": "JESUS NEW COVENANT INTERNATIONAL MINISTRIES (TORONTO)", "designationCode": "C", "categoryCode": "39", "address": "3-124 BELFIELD ROAD", "city": "TORONTO", "province": "ON", "country": "CA", "postalCode": "M9W1G1", "twitter": "None", "instagram": "None", "facebook": "None", "youtube": "None", "website": "None", "summary": "None", "logo": "None", "latitude": 43.70234315577882, "longitude": -79.57424675093749}, "841184674RR0001": {"name": "JESUS OUR BLESSED HOPE CHRISTIAN FELLOWSHIP", "designationCode": "C", "categoryCode": "39", "address": "3-23 ELWAY CRT.", "city": "NORTH YORK", "province": "ON", "country": "CA", "postalCode": "M6B2N7", "twitter": "None", "instagram": "None", "facebook": "None", "youtube": "None", "website": "None", "summary": "None", "logo": "None", "latitude": 43.71269058560805, "longitude": -79.44399867260107}, "837061969RR0001": {"name": "JESUS REIGNS MINISTRIES - PEEL REGION", "designationCode": "C", "categoryCode": "39", "address": "1575 TRINITY DR               UNIT 5", "city": "MISSISSAUGA", "province": "ON", "country": "CA", "postalCode": "L5T1K4", "twitter": "None", "instagram": "None", "facebook": "None", "youtube": "None", "website": "None", "summary": "None", "logo": "None", "latitude": 43.659752320589604, "longitude": -79.64943411772146}, "890485378RR0001": {"name": "JESUS RESTORATION MINISTRIES INC", "designationCode": "C", "categoryCode": "39", "address": "SUITE 304- 99 DALHOUSIE STREET", "city": "TORONTO", "province": "ON", "country": "CA", "postalCode": "M5B2N2", "twitter": "None", "instagram": "None", "facebook": "None", "youtube": "None", "website": "None", "summary": "None", "logo": "None", "latitude": 43.6563638798257, "longitude": -79.37640155715863}, "842919367RR0001": {"name": "JESUS THE FIRST AND THE LAST CHURCH", "designationCode": "C", "categoryCode": "39", "address": "28 STANBRIDGE COURT", "city": "SCARBOROUGH", "province": "ON", "country": "CA", "postalCode": "M1B2S5", "twitter": "None", "instagram": "None", "facebook": "None", "youtube": "None", "website": "None", "summary": "None", "logo": "None", "latitude": 43.80383773327946, "longitude": -79.20632525411148}, "891029241RR0001": {"name": "JESUS THE KING MELKITE CATHOLIC CHURCH", "designationCode": "C", "categoryCode": "39", "address": "1 LYNDHURST DR.", "city": "THORNHILL", "province": "ON", "country": "CA", "postalCode": "L3T6T5", "twitter": "None", "instagram": "None", "facebook": "None", "youtube": "None", "website": "None", "summary": "None", "logo": "None", "latitude": 43.826695724912256, "longitude": -79.37062703537431}, "877935304RR0001": {"name": "JESUS THE ROCK FELLOWSHIP SOCIETY", "designationCode": "C", "categoryCode": "39", "address": "1122 HOWSE PL", "city": "COQUITLAM", "province": "BC", "country": "CA", "postalCode": "V3K5V7", "twitter": "None", "instagram": "None", "facebook": "None", "youtube": "None", "website": "None", "summary": "None", "logo": "None", "latitude": 49.245679499567316, "longitude": -122.86057080391251}, "878364512RR0001": {"name": "JESUS TO THE NATIONS ASSOCIATION", "designationCode": "C", "categoryCode": "47", "address": "PO BOX 8822 RPO CSC", "city": "HALIFAX", "province": "NS", "country": "CA", "postalCode": "B3K5M5", "twitter": "None", "instagram": "None", "facebook": "None", "youtube": "None", "website": "None", "summary": "None", "logo": "None", "latitude": 44.645478000000054, "longitude": -63.576552499999934}, "830609012RR0001": {"name": "JESUS YOUTH CANADA INC.", "designationCode": "C", "categoryCode": "49", "address": "24 LITTLEBOROUGH COURT", "city": "TORONTO", "province": "ON", "country": "CA", "postalCode": "M1C4S6", "twitter": "None", "instagram": "None", "facebook": "None", "youtube": "None", "website": "None", "summary": "None", "logo": "None", "latitude": 43.79518500000006, "longitude": -79.15869799999993}, "892554619RR0001": {"name": "JESUS, LA LUMIERE DES NATIONS/JESUS, THE LIGHT OF THE NATIONS", "designationCode": "C", "categoryCode": "39", "address": "1405 PINARD", "city": "ST HUBERT", "province": "QC", "country": "CA", "postalCode": "J3Y5K2", "twitter": "None", "instagram": "None", "facebook": "None", "youtube": "None", "website": "None", "summary": "None", "logo": "None", "latitude": 45.4898791470945, "longitude": -73.3738809622311}, "812307924RR0001": {"name": "JET Mentors Youth & Community Services", "designationCode": "C", "categoryCode": "09", "address": "45 MOLDOVAN DRIVE,", "city": "BRAMPTON", "province": "ON", "country": "CA", "postalCode": "L6R0E4", "twitter": "None", "instagram": "None", "facebook": "None", "youtube": "None", "website": "None", "summary": "None", "logo": "None", "latitude": 43.77106381877193, "longitude": -79.76152202316929}, "857322044RR0001": {"name": "JEUN' ESPOIR INC.", "designationCode": "B", "categoryCode": "09", "address": "73 RUE ST-AMBROISE", "city": "OTTAWA", "province": "ON", "country": "CA", "postalCode": "K1L5T5", "twitter": "None", "instagram": "None", "facebook": "None", "youtube": "None", "website": "None", "summary": "None", "logo": "None", "latitude": 45.43928368056425, "longitude": -75.6701533458077}, "886575083RR0001": {"name": "JEUNES AU TRAVAIL", "designationCode": "C", "categoryCode": "59", "address": "2595 RANG HAUT ST-FRANCOIS", "city": "LAVAL", "province": "QC", "country": "CA", "postalCode": "H7E4P2", "twitter": "None", "instagram": "None", "facebook": "None", "youtube": "None", "website": "None", "summary": "None", "logo": "None", "latitude": 45.61803951263773, "longitude": -73.69897601959127}, "135731131RR0001": {"name": "JEUNES CANADIENS POUR UNE CIVILISATION CHRETIENNE/YOUNG CANADIANS FOR A CHRISTIAN CIVILIZATION", "designationCode": "C", "categoryCode": "49", "address": "415 THE WESTWAY PO BOX 12604", "city": "ETOBICOKE", "province": "ON", "country": "CA", "postalCode": "M9R4C7", "twitter": "None", "instagram": "None", "facebook": "None", "youtube": "None", "website": "None", "summary": "None", "logo": "None", "latitude": 43.68358488144182, "longitude": -79.56576487342039}, "118973965RR0001": {"name": "JEUNES ENTREPRENEURS DU CENTRE DU QU\u00c9BEC INC.", "designationCode": "C", "categoryCode": "59", "address": "140 - 235 RUE HERIOT", "city": "DRUMMONDVILLE", "province": "QC", "country": "CA", "postalCode": "J2C6X5", "twitter": "None", "instagram": "None", "facebook": "None", "youtube": "None", "website": "None", "summary": "None", "logo": "None", "latitude": 45.88470048237063, "longitude": -72.48810820497428}, "118973973RR0001": {"name": "JEUNES ENTREPRISES DE LA REGION DE L'AMIANTE", "designationCode": "C", "categoryCode": "21", "address": "C.P. 71", "city": "THETFORD MINES", "province": "QC", "country": "CA", "postalCode": "G6G5R9", "twitter": "None", "instagram": "None", "facebook": "None", "youtube": "None", "website": "None", "summary": "None", "logo": "None", "latitude": 46.09057200000005, "longitude": -71.29926349999994}, "892500000RR0001": {"name": "JEUNES MERES EN ACTION", "designationCode": "C", "categoryCode": "09", "address": "330 LAURIER", "city": "SAINT-JEAN-SUR-RICHELIEU", "province": "QC", "country": "CA", "postalCode": "J3B6L3", "twitter": "None", "instagram": "None", "facebook": "None", "youtube": "None", "website": "None", "summary": "None", "logo": "None", "latitude": 45.31023620260834, "longitude": -73.25649867389913}, "861638450RR0001": {"name": "JEUNES MUSICIENS DU MONDE / YOUNG MUSICIANS OF THE WORLD", "designationCode": "C", "categoryCode": "22", "address": "145 RUE BIGAOUETTE", "city": "QUEBEC", "province": "QC", "country": "CA", "postalCode": "G1K4L3", "twitter": "None", "instagram": "None", "facebook": "None", "youtube": "None", "website": "None", "summary": "None", "logo": "None", "latitude": 46.81224563422564, "longitude": -71.24206201367691}, "107534521RR0001": {"name": "JEUNESSE ACTION VAL D'OR INC.", "designationCode": "C", "categoryCode": "09", "address": "CP 1593 351, AVENUE CENTRADE", "city": "VAL-D'OR", "province": "QC", "country": "CA", "postalCode": "J9P5Y8", "twitter": "None", "instagram": "None", "facebook": "None", "youtube": "None", "website": "None", "summary": "None", "logo": "None", "latitude": 48.10097557617298, "longitude": -77.77712531279931}, "118974021RR0001": {"name": "JEUNESSE EN MISSION (QUEBEC) INC.-YOUTH WITH A MISSION (QUEBEC) INC.", "designationCode": "C", "categoryCode": "47", "address": "CP 280", "city": "DUNHAM", "province": "QC", "country": "CA", "postalCode": "J0E1M0", "twitter": "None", "instagram": "None", "facebook": "None", "youtube": "None", "website": "None", "summary": "None", "logo": "None", "latitude": 46.89547401233861, "longitude": -71.30786923616623}, "132137316RR0001": {"name": "JEUNESSE ETUDIANTE CHRETIENNE (JEC)", "designationCode": "C", "categoryCode": "29", "address": "3119 RUE MONSABRE", "city": "MONTREAL", "province": "QC", "country": "CA", "postalCode": "H1N2L3", "twitter": "None", "instagram": "None", "facebook": "None", "youtube": "None", "website": "None", "summary": "None", "logo": "None", "latitude": 45.573139727739544, "longitude": -73.54546391811421}, "125778985RR0001": {"name": "JEUNESSE LAMBDA", "designationCode": "C", "categoryCode": "59", "address": "CP 32125, CSP SAINT-ANDRE", "city": "MONTREAL", "province": "QC", "country": "CA", "postalCode": "H2L4Y5", "twitter": "None", "instagram": "None", "facebook": "None", "youtube": "None", "website": "None", "summary": "None", "logo": "None", "latitude": 45.518293863210474, "longitude": -73.56232569710893}, "857149470RR0001": {"name": "JEUNESSE MARITIME DU SAINT-LAURENT", "designationCode": "C", "categoryCode": "21", "address": "540 RANG 5 OUEST", "city": "METIS SUR MER", "province": "QC", "country": "CA", "postalCode": "G0J1S0", "twitter": "None", "instagram": "None", "facebook": "None", "youtube": "None", "website": "None", "summary": "None", "logo": "None", "latitude": 48.648330513734244, "longitude": -67.94979508575227}, "118974054RR0001": {"name": "JEUNESSE OUVRIERE CHRETIENNE DE LA RIVE-SUD DE MONTREAL", "designationCode": "C", "categoryCode": "47", "address": "919 ST-REGIS", "city": "ST-ISIDORE", "province": "QC", "country": "CA", "postalCode": "J0L2A0", "twitter": "None", "instagram": "None", "facebook": "None", "youtube": "None", "website": "None", "summary": "None", "logo": "None", "latitude": 45.28141638022975, "longitude": -73.68967883065983}, "891396343RR0001": {"name": "JEUNESSE OUVRIERE CHRETIENNE DU SAGUENAY-LAC ST-JEAN", "designationCode": "C", "categoryCode": "49", "address": "602 RUE RACINE E", "city": "CHICOUTIMI", "province": "QC", "country": "CA", "postalCode": "G7H1V1", "twitter": "None", "instagram": "None", "facebook": "None", "youtube": "None", "website": "None", "summary": "None", "logo": "None", "latitude": 48.42955548009162, "longitude": -71.04963086081135}, "102636610RR0001": {"name": "JEUNESSE OUVRIERE CHRETIENNE NATIONALE DU QUEBEC", "designationCode": "C", "categoryCode": "49", "address": "3119 RUE MONSABRE", "city": "MONTREAL", "province": "QC", "country": "CA", "postalCode": "H1N2L3", "twitter": "None", "instagram": "None", "facebook": "None", "youtube": "None", "website": "None", "summary": "None", "logo": "None", "latitude": 45.573139727739544, "longitude": -73.54546391811421}, "118913847RR0001": {"name": "JEUNESSE OUVRIERE CHRETIENNE REGION DE MONTREAL", "designationCode": "C", "categoryCode": "49", "address": "3119 MONSABR\u00c9", "city": "MONTR\u00c9AL", "province": "QC", "country": "CA", "postalCode": "H1N2L3", "twitter": "None", "instagram": "None", "facebook": "None", "youtube": "None", "website": "None", "summary": "None", "logo": "None", "latitude": 45.573139727739544, "longitude": -73.54546391811421}}