{"107570947RR0001": {"name": "KINGSWAY BAPTIST CHURCH", "designationCode": "C", "categoryCode": "31", "address": "41 BIRCHVIEW BLVD.,", "city": "TORONTO", "province": "ON", "country": "CA", "postalCode": "M8X1H7", "twitter": "None", "instagram": "None", "facebook": "None", "youtube": "None", "website": "None", "summary": "None", "logo": "None", "latitude": 43.64746311238403, "longitude": -79.51500489506049}, "107570962RR0001": {"name": "KINGSWAY COLLEGE", "designationCode": "C", "categoryCode": "20", "address": "1200 LELAND RD", "city": "OSHAWA", "province": "ON", "country": "CA", "postalCode": "L1K2H4", "twitter": "None", "instagram": "None", "facebook": "None", "youtube": "None", "website": "None", "summary": "None", "logo": "None", "latitude": 43.91047586563014, "longitude": -78.8207523800855}, "856522792RR0001": {"name": "KINGSWAY COMMUNITY LIFE CENTRE", "designationCode": "C", "categoryCode": "39", "address": "1A - 186 SPADINA AVE", "city": "TORONTO", "province": "ON", "country": "CA", "postalCode": "M5T3B2", "twitter": "None", "instagram": "None", "facebook": "None", "youtube": "None", "website": "None", "summary": "None", "logo": "None", "latitude": 43.64969524701369, "longitude": -79.3968763297362}, "869045179RR0001": {"name": "KINGSWAY COUNCIL NO 3387 CHARITABLE WELFARE TRUST", "designationCode": "A", "categoryCode": "65", "address": "11 WILMAR ROAD", "city": "ETOBICOKE", "province": "ON", "country": "CA", "postalCode": "M9B3R6", "twitter": "None", "instagram": "None", "facebook": "None", "youtube": "None", "website": "None", "summary": "None", "logo": "None", "latitude": 43.63861339661837, "longitude": -79.543967795978}, "855426557RR0001": {"name": "KINGSWAY FOUNDATION", "designationCode": "A", "categoryCode": "03", "address": "1800-510 W. GEORGIA ST", "city": "VANCOUVER", "province": "BC", "country": "CA", "postalCode": "V6B0M3", "twitter": "None", "instagram": "None", "facebook": "None", "youtube": "None", "website": "None", "summary": "None", "logo": "None", "latitude": 49.281267759207665, "longitude": -123.11633309804196}, "107396905RR0012": {"name": "KINGSWAY FOURSQUARE CHURCH", "designationCode": "C", "categoryCode": "39", "address": "4061 KINGSWAY", "city": "BURNABY", "province": "BC", "country": "CA", "postalCode": "V5H1Z1", "twitter": "None", "instagram": "None", "facebook": "None", "youtube": "None", "website": "None", "summary": "None", "logo": "None", "latitude": 49.23290634159216, "longitude": -123.01398437672611}, "865823165RR0001": {"name": "KINGSWAY LIFE CARE", "designationCode": "C", "categoryCode": "09", "address": "310 QUEEN STREET EAST", "city": "ST. MARYS", "province": "ON", "country": "CA", "postalCode": "N4X1C8", "twitter": "None", "instagram": "None", "facebook": "None", "youtube": "None", "website": "None", "summary": "None", "logo": "None", "latitude": 43.25998484130991, "longitude": -81.13611756029927}, "107571036RR0001": {"name": "KINGSWAY-LAMBTON UNITED CHURCH", "designationCode": "C", "categoryCode": "44", "address": "85 THE KINGSWAY", "city": "TORONTO", "province": "ON", "country": "CA", "postalCode": "M8X2T6", "twitter": "None", "instagram": "None", "facebook": "None", "youtube": "None", "website": "None", "summary": "None", "logo": "None", "latitude": 43.65265347879261, "longitude": -79.50785216625309}, "107571168RR0001": {"name": "KINHURON INTEGRATED DAY-NURSERY SCHOOL CO-OPERATIVE INC.", "designationCode": "C", "categoryCode": "20", "address": "421 RUSSELL ST.", "city": "KINCARDINE", "province": "ON", "country": "CA", "postalCode": "N2Z2A9", "twitter": "None", "instagram": "None", "facebook": "None", "youtube": "None", "website": "None", "summary": "None", "logo": "None", "latitude": 44.1735274199583, "longitude": -81.63275840528601}, "140971144RR0001": {"name": "KINISTINO & DISTRICT HEALTH FOUNDATION INC.", "designationCode": "A", "categoryCode": "13", "address": "P. O. BOX 400", "city": "KINISTINO", "province": "SK", "country": "CA", "postalCode": "S0J1H0", "twitter": "None", "instagram": "None", "facebook": "None", "youtube": "None", "website": "None", "summary": "None", "logo": "None", "latitude": 52.95167619052169, "longitude": -105.02926971926463}, "118982669RR0001": {"name": "KINISTINO AND DISTRICT DONOR'S CHOICE COMBINED APPEAL", "designationCode": "C", "categoryCode": "05", "address": "BOX 242", "city": "KINISTINO", "province": "SK", "country": "CA", "postalCode": "S0J1H0", "twitter": "None", "instagram": "None", "facebook": "None", "youtube": "None", "website": "None", "summary": "None", "logo": "None", "latitude": 52.95167619052169, "longitude": -105.02926971926463}, "132465196RR0001": {"name": "KINISTINO CEMETERY SOCIETY INC", "designationCode": "C", "categoryCode": "59", "address": "BOX 10", "city": "KINISTINO", "province": "SK", "country": "CA", "postalCode": "S0J1H0", "twitter": "None", "instagram": "None", "facebook": "None", "youtube": "None", "website": "None", "summary": "None", "logo": "None", "latitude": 52.95167619052169, "longitude": -105.02926971926463}, "833644925RR0001": {"name": "KINISTINO COMMUNITY CHURCH INC.", "designationCode": "C", "categoryCode": "39", "address": "118 KINISTINO AVE             BOX 441", "city": "KINISTINO", "province": "SK", "country": "CA", "postalCode": "S0J1H0", "twitter": "None", "instagram": "None", "facebook": "None", "youtube": "None", "website": "None", "summary": "None", "logo": "None", "latitude": 52.95313897556131, "longitude": -105.03179588040263}, "118982693RR0001": {"name": "KINISTINO HALF CENTURY CLUB INC.", "designationCode": "C", "categoryCode": "56", "address": "BOX 381", "city": "KINISTINO", "province": "SK", "country": "CA", "postalCode": "S0J1H0", "twitter": "None", "instagram": "None", "facebook": "None", "youtube": "None", "website": "None", "summary": "None", "logo": "None", "latitude": 52.95167619052169, "longitude": -105.02926971926463}, "888641065RR0001": {"name": "KINISTINO HEALTH CARE AUXILIARY NO 7", "designationCode": "A", "categoryCode": "15", "address": "BOX 56", "city": "KINISTINO", "province": "SK", "country": "CA", "postalCode": "S0J1H0", "twitter": "None", "instagram": "None", "facebook": "None", "youtube": "None", "website": "None", "summary": "None", "logo": "None", "latitude": 52.95167619052169, "longitude": -105.02926971926463}, "814717898RR0002": {"name": "KINLOUGH PENTECOSTAL CHURCH", "designationCode": "C", "categoryCode": "36", "address": "740 LAKE RANGE DR. RR# 8", "city": "KINCARDINE", "province": "ON", "country": "CA", "postalCode": "N2Z0B3", "twitter": "None", "instagram": "None", "facebook": "None", "youtube": "None", "website": "None", "summary": "None", "logo": "None", "latitude": 44.12398812020296, "longitude": -81.69337474831175}, "118982750RR0001": {"name": "KINLOUGH PRESBYTERIAN CHURCH", "designationCode": "C", "categoryCode": "37", "address": "RR 1", "city": "HOLYROOD", "province": "ON", "country": "CA", "postalCode": "N0G2B0", "twitter": "None", "instagram": "None", "facebook": "None", "youtube": "None", "website": "None", "summary": "None", "logo": "None", "latitude": 44.10790499509991, "longitude": -81.418646306669}, "118982768RR0001": {"name": "KINMOUNT BAPTIST CHURCH", "designationCode": "C", "categoryCode": "31", "address": "PO BOX 255", "city": "KINMOUNT", "province": "ON", "country": "CA", "postalCode": "K0M2A0", "twitter": "None", "instagram": "None", "facebook": "None", "youtube": "None", "website": "None", "summary": "None", "logo": "None", "latitude": 44.783420000000035, "longitude": -78.64956999999998}, "898350111RR0001": {"name": "KINMOUNT DISTRICT HEALTH SERVICES FOUNDATION", "designationCode": "C", "categoryCode": "11", "address": "31 COUNTY ROAD 503, PO BOX 225", "city": "KINMOUNT", "province": "ON", "country": "CA", "postalCode": "K0M2A0", "twitter": "None", "instagram": "None", "facebook": "None", "youtube": "None", "website": "None", "summary": "None", "logo": "None", "latitude": 44.78191983547253, "longitude": -78.65043473329943}, "118982776RR0001": {"name": "KINMOUNT UNITED CHURCH", "designationCode": "C", "categoryCode": "44", "address": "PO BOX 212", "city": "KINMOUNT", "province": "ON", "country": "CA", "postalCode": "K0M2A0", "twitter": "None", "instagram": "None", "facebook": "None", "youtube": "None", "website": "None", "summary": "None", "logo": "None", "latitude": 44.783420000000035, "longitude": -78.64956999999998}, "107571374RR0001": {"name": "KINNAIRD CHURCH OF GOD", "designationCode": "C", "categoryCode": "39", "address": "2404 COLUMBIA AVE", "city": "CASTLEGAR", "province": "BC", "country": "CA", "postalCode": "V1N2X5", "twitter": "None", "instagram": "None", "facebook": "None", "youtube": "None", "website": "None", "summary": "None", "logo": "None", "latitude": 49.28558316180968, "longitude": -117.65084509388834}, "118824739RR0001": {"name": "KINNAIRD PARK COMMUNITY CHURCH", "designationCode": "C", "categoryCode": "31", "address": "1250 26TH ST", "city": "CASTLEGAR", "province": "BC", "country": "CA", "postalCode": "V1N4C9", "twitter": "None", "instagram": "None", "facebook": "None", "youtube": "None", "website": "None", "summary": "None", "logo": "None", "latitude": 49.28230274584693, "longitude": -117.66043479534632}, "118982792RR0001": {"name": "KINNEAR SETTLEMENT UNITED BAPTIST CHURCH", "designationCode": "C", "categoryCode": "31", "address": "1383 ROUTE 885", "city": "KINNEAR SETTLEMENT", "province": "NB", "country": "CA", "postalCode": "E4Z4Z7", "twitter": "None", "instagram": "None", "facebook": "None", "youtube": "None", "website": "None", "summary": "None", "logo": "None", "latitude": 45.96760162171411, "longitude": -65.25281055339485}, "889384798RR0001": {"name": "KINNEAR'S MILLS-THETFORD MINES PASTORAL CHARGE", "designationCode": "C", "categoryCode": "44", "address": "1083 RUE DUBUC", "city": "THETFORD MINES", "province": "QC", "country": "CA", "postalCode": "G6G7W7", "twitter": "None", "instagram": "None", "facebook": "None", "youtube": "None", "website": "None", "summary": "None", "logo": "None", "latitude": 46.07454938412488, "longitude": -71.30679112242464}, "891151342RR0001": {"name": "KINOSAYO MUSEUM SOCIETY", "designationCode": "C", "categoryCode": "50", "address": "PO BOX 267", "city": "KINUSO", "province": "AB", "country": "CA", "postalCode": "T0G1K0", "twitter": "None", "instagram": "None", "facebook": "None", "youtube": "None", "website": "None", "summary": "None", "logo": "None", "latitude": 55.331460104780774, "longitude": -115.43362282193122}, "886434158RR0001": {"name": "KINSELLA COMMUNITY CHURCH", "designationCode": "C", "categoryCode": "39", "address": "PO BOX 4", "city": "KINSELLA", "province": "AB", "country": "CA", "postalCode": "T0B2N0", "twitter": "None", "instagram": "None", "facebook": "None", "youtube": "None", "website": "None", "summary": "None", "logo": "None", "latitude": 53.00004000000007, "longitude": -111.52305999999999}, "132464355RR0001": {"name": "KINSELLA RECREATION AND AGRICULTURAL SOCIETY", "designationCode": "C", "categoryCode": "56", "address": "BOX 68", "city": "KINSELLA", "province": "AB", "country": "CA", "postalCode": "T0B2N0", "twitter": "None", "instagram": "None", "facebook": "None", "youtube": "None", "website": "None", "summary": "None", "logo": "None", "latitude": 53.00004000000007, "longitude": -111.52305999999999}, "855070728RR0001": {"name": "KINSHIP CANADA", "designationCode": "B", "categoryCode": "09", "address": "4 ROTHBURY ROAD", "city": "RICHMOND HILL", "province": "ON", "country": "CA", "postalCode": "L4S0A9", "twitter": "None", "instagram": "None", "facebook": "None", "youtube": "None", "website": "None", "summary": "None", "logo": "None", "latitude": 43.90560110046745, "longitude": -79.4546164781001}, "123072647RR0001": {"name": "KINSIGHT COMMUNITY SOCIETY", "designationCode": "C", "categoryCode": "11", "address": "204 BLUE MOUNTAIN STREET", "city": "COQUITLAM", "province": "BC", "country": "CA", "postalCode": "V3K4H1", "twitter": "None", "instagram": "None", "facebook": "None", "youtube": "None", "website": "None", "summary": "None", "logo": "None", "latitude": 49.23670514654625, "longitude": -122.87318343620493}, "890777352RR0001": {"name": "KINSMAN REDEEMER MINISTRIES INC", "designationCode": "C", "categoryCode": "36", "address": "402 DERRYDALE DR", "city": "MISSISSAUGA", "province": "ON", "country": "CA", "postalCode": "L5W0E1", "twitter": "None", "instagram": "None", "facebook": "None", "youtube": "None", "website": "None", "summary": "None", "logo": "None", "latitude": 43.63945493476263, "longitude": -79.71895175226516}, "893192567RR0001": {"name": "KINSMEN CARE FOUNDATION", "designationCode": "A", "categoryCode": "53", "address": "3950 12TH ST NE", "city": "CALGARY", "province": "AB", "country": "CA", "postalCode": "T2E8H9", "twitter": "None", "instagram": "None", "facebook": "None", "youtube": "None", "website": "None", "summary": "None", "logo": "None", "latitude": 51.08747138365058, "longitude": -114.03123118865847}, "107571630RR0001": {"name": "KINSMEN FOUNDATION INC.", "designationCode": "C", "categoryCode": "09", "address": "2217C HANSELMAN CRT", "city": "SASKATOON", "province": "SK", "country": "CA", "postalCode": "S7L6A8", "twitter": "None", "instagram": "None", "facebook": "None", "youtube": "None", "website": "None", "summary": "None", "logo": "None", "latitude": 52.16018990091117, "longitude": -106.68090740091118}, "890602394RR0001": {"name": "KINTAIL CEMETERY", "designationCode": "C", "categoryCode": "59", "address": "11 GORDON ST S                RR 8", "city": "KINCARDINE", "province": "ON", "country": "CA", "postalCode": "N2Z0B3", "twitter": "None", "instagram": "None", "facebook": "None", "youtube": "None", "website": "None", "summary": "None", "logo": "None", "latitude": 44.101053422932985, "longitude": -81.72461550282728}, "118982875RR0001": {"name": "KINTORE PASTORAL CHARGE", "designationCode": "C", "categoryCode": "44", "address": "15-205 NORTH CENTRE RD", "city": "LONDON", "province": "ON", "country": "CA", "postalCode": "N5X4E2", "twitter": "None", "instagram": "None", "facebook": "None", "youtube": "None", "website": "None", "summary": "None", "logo": "None", "latitude": 43.02987614458435, "longitude": -81.28210350776162}, "118982867RR0001": {"name": "KINVILLAGE ASSOCIATION", "designationCode": "C", "categoryCode": "01", "address": "5410 10TH AVE", "city": "DELTA", "province": "BC", "country": "CA", "postalCode": "V4M3X8", "twitter": "None", "instagram": "None", "facebook": "None", "youtube": "None", "website": "None", "summary": "None", "logo": "None", "latitude": 49.02193753173897, "longitude": -123.07364091618098}, "118982891RR0001": {"name": "KIPLING AND DISTRICT DONORS CHOICE APPEAL", "designationCode": "A", "categoryCode": "05", "address": "BOX 433", "city": "KIPLING", "province": "SK", "country": "CA", "postalCode": "S0G2S0", "twitter": "None", "instagram": "None", "facebook": "None", "youtube": "None", "website": "None", "summary": "None", "logo": "None", "latitude": 50.94214200000001, "longitude": -104.50606274999998}, "107571788RR0001": {"name": "KIPLING AVENUE BAPTIST CHURCH", "designationCode": "C", "categoryCode": "31", "address": "2240 KIPLING AVENUE NORTH", "city": "REXDALE", "province": "ON", "country": "CA", "postalCode": "M9W4L4", "twitter": "None", "instagram": "None", "facebook": "None", "youtube": "None", "website": "None", "summary": "None", "logo": "None", "latitude": 43.72618299971154, "longitude": -79.5736838523859}, "118982917RR0001": {"name": "KIPLING BAPTIST CHURCH", "designationCode": "C", "categoryCode": "31", "address": "201 KIPLING RD W              RR 2", "city": "WARREN", "province": "ON", "country": "CA", "postalCode": "P0H2N0", "twitter": "None", "instagram": "None", "facebook": "None", "youtube": "None", "website": "None", "summary": "None", "logo": "None", "latitude": 46.49616223430722, "longitude": -80.2124164843392}, "872657416RR0001": {"name": "KIPLING DISTRICT HEALTH FOUNDATION INC.", "designationCode": "C", "categoryCode": "11", "address": "BOX 989", "city": "KIPLING", "province": "SK", "country": "CA", "postalCode": "S0G2S0", "twitter": "None", "instagram": "None", "facebook": "None", "youtube": "None", "website": "None", "summary": "None", "logo": "None", "latitude": 50.94214200000001, "longitude": -104.50606274999998}, "118982925RR0001": {"name": "KIPLING DISTRICT HISTORICAL SOCIETY", "designationCode": "C", "categoryCode": "50", "address": "BOX 823", "city": "KIPLING", "province": "SK", "country": "CA", "postalCode": "S0G2S0", "twitter": "None", "instagram": "None", "facebook": "None", "youtube": "None", "website": "None", "summary": "None", "logo": "None", "latitude": 50.94214200000001, "longitude": -104.50606274999998}, "121873822RR0001": {"name": "KIPLING INDUSTRIES INC.", "designationCode": "C", "categoryCode": "01", "address": "BOX 747", "city": "KIPLING", "province": "SK", "country": "CA", "postalCode": "S0G2S0", "twitter": "None", "instagram": "None", "facebook": "None", "youtube": "None", "website": "None", "summary": "None", "logo": "None", "latitude": 50.94214200000001, "longitude": -104.50606274999998}, "118982990RR0001": {"name": "KIRK HILL UNITED CHURCH", "designationCode": "C", "categoryCode": "44", "address": "21122 CTY RD 24", "city": "DALKEITH", "province": "ON", "country": "CA", "postalCode": "K0B1E0", "twitter": "None", "instagram": "None", "facebook": "None", "youtube": "None", "website": "None", "summary": "None", "logo": "None", "latitude": 45.41632576530514, "longitude": -74.64182132647875}, "118983113RR0001": {"name": "KIRK MCCOLL UNITED CHURCH", "designationCode": "C", "categoryCode": "44", "address": "70 KING STREET", "city": "ST STEPHEN", "province": "NB", "country": "CA", "postalCode": "E3L2C3", "twitter": "None", "instagram": "None", "facebook": "None", "youtube": "None", "website": "None", "summary": "None", "logo": "None", "latitude": 45.19451925633089, "longitude": -67.27540326692821}, "118983121RR0001": {"name": "KIRK MEMORIAL UNITED CHURCH", "designationCode": "C", "categoryCode": "44", "address": "RR#5", "city": "NEW GLASGOW", "province": "NS", "country": "CA", "postalCode": "B2H5C8", "twitter": "None", "instagram": "None", "facebook": "None", "youtube": "None", "website": "None", "summary": "None", "logo": "None", "latitude": 45.39144300000005, "longitude": -62.16826849999994}, "107572257RR0001": {"name": "KIRK UNITED CHURCH", "designationCode": "C", "categoryCode": "44", "address": "13535 122 AVE", "city": "EDMONTON", "province": "AB", "country": "CA", "postalCode": "T5L2V7", "twitter": "None", "instagram": "None", "facebook": "None", "youtube": "None", "website": "None", "summary": "None", "logo": "None", "latitude": 53.572462513994026, "longitude": -113.55553219594324}, "107572216RR0001": {"name": "KIRK-ON-THE-HILL PRESBYTERIAN CHURCH", "designationCode": "C", "categoryCode": "37", "address": "1344 HAIST ST                 P O BOX 1302", "city": "FONTHILL", "province": "ON", "country": "CA", "postalCode": "L0S1E0", "twitter": "None", "instagram": "None", "facebook": "None", "youtube": "None", "website": "None", "summary": "None", "logo": "None", "latitude": 43.038196575076455, "longitude": -79.29500950822298}, "118982974RR0001": {"name": "KIRKFIELD PARK UNITED CHURCH", "designationCode": "C", "categoryCode": "44", "address": "472 KIRKFIELD ST", "city": "WINNIPEG", "province": "MB", "country": "CA", "postalCode": "R3K1E6", "twitter": "None", "instagram": "None", "facebook": "None", "youtube": "None", "website": "None", "summary": "None", "logo": "None", "latitude": 49.87812849347912, "longitude": -97.29032607109441}, "118982982RR0001": {"name": "KIRKFIELD WESTWOOD COMMUNITY CENTRE INC.", "designationCode": "C", "categoryCode": "56", "address": "165 SANSOME AVENUE", "city": "WINNIPEG", "province": "MB", "country": "CA", "postalCode": "R3K0N8", "twitter": "None", "instagram": "None", "facebook": "None", "youtube": "None", "website": "None", "summary": "None", "logo": "None", "latitude": 49.87551049437316, "longitude": -97.30378103843273}, "118983006RR0001": {"name": "KIRKLAND AND DISTRICT HOSPITAL AUXILIARY", "designationCode": "C", "categoryCode": "19", "address": "145 GOVERNMENT ROAD EAST", "city": "KIRKLAND", "province": "ON", "country": "CA", "postalCode": "P2N3P4", "twitter": "None", "instagram": "None", "facebook": "None", "youtube": "None", "website": "None", "summary": "None", "logo": "None", "latitude": 48.15611265880013, "longitude": -80.02275469495544}, "118983014RR0001": {"name": "KIRKLAND AND DISTRICT HOSPITAL FOUNDATION", "designationCode": "A", "categoryCode": "13", "address": "BAG SERVICE 3000", "city": "KIRKLAND LAKE", "province": "ON", "country": "CA", "postalCode": "P2N3P4", "twitter": "None", "instagram": "None", "facebook": "None", "youtube": "None", "website": "None", "summary": "None", "logo": "None", "latitude": 48.15028500000005, "longitude": -80.03540149999994}, "107572042RR0001": {"name": "KIRKLAND DISTRICT HOSPITAL", "designationCode": "C", "categoryCode": "10", "address": "145 GOVERNMENT ROAD EAST", "city": "KIRKLAND LAKE", "province": "ON", "country": "CA", "postalCode": "P2N3P4", "twitter": "None", "instagram": "None", "facebook": "None", "youtube": "None", "website": "None", "summary": "None", "logo": "None", "latitude": 48.15611265880013, "longitude": -80.02275469495544}, "888432465RR0001": {"name": "KIRKLAND HOUSE FOUNDATION", "designationCode": "C", "categoryCode": "52", "address": "4925 53A ST", "city": "DELTA", "province": "BC", "country": "CA", "postalCode": "V4K4R7", "twitter": "None", "instagram": "None", "facebook": "None", "youtube": "None", "website": "None", "summary": "None", "logo": "None", "latitude": 49.09260195614293, "longitude": -123.07483544673651}, "131328775RR0001": {"name": "KIRKLAND LAKE ARTS COUNCIL INC", "designationCode": "C", "categoryCode": "22", "address": "PO BOX 548", "city": "KIRKLAND LAKE", "province": "ON", "country": "CA", "postalCode": "P2N3J5", "twitter": "None", "instagram": "None", "facebook": "None", "youtube": "None", "website": "None", "summary": "None", "logo": "None", "latitude": 48.15028500000005, "longitude": -80.03540149999994}, "118983071RR0001": {"name": "KIRKLAND LAKE BIBLE CHAPEL", "designationCode": "C", "categoryCode": "39", "address": "PO BOX 1349", "city": "KIRKLAND LAKE", "province": "ON", "country": "CA", "postalCode": "P2N3P2", "twitter": "None", "instagram": "None", "facebook": "None", "youtube": "None", "website": "None", "summary": "None", "logo": "None", "latitude": 48.15028500000005, "longitude": -80.03540149999994}, "118983089RR0001": {"name": "KIRKLAND LAKE BRASS BAND", "designationCode": "C", "categoryCode": "22", "address": "PO BOX 490                    15 GOVERNMENT ROAD EAST", "city": "KIRKLAND LAKE", "province": "ON", "country": "CA", "postalCode": "P2N3J5", "twitter": "None", "instagram": "None", "facebook": "None", "youtube": "None", "website": "None", "summary": "None", "logo": "None", "latitude": 48.15229869794158, "longitude": -80.0318706281248}, "107572109RR0001": {"name": "KIRKLAND LAKE BRETHREN IN CHRIST CHURCH", "designationCode": "C", "categoryCode": "39", "address": "12 GRIERSON RD", "city": "KIRKLAND LAKE", "province": "ON", "country": "CA", "postalCode": "P2N1C6", "twitter": "None", "instagram": "None", "facebook": "None", "youtube": "None", "website": "None", "summary": "None", "logo": "None", "latitude": 48.16122548211084, "longitude": -80.02497136372554}, "892019175RR0001": {"name": "KIRKLAND LAKE GOSPEL HALL", "designationCode": "B", "categoryCode": "45", "address": "PO BOX 472 STN MAIN", "city": "KIRKLAND LAKE", "province": "ON", "country": "CA", "postalCode": "P2N3J1", "twitter": "None", "instagram": "None", "facebook": "None", "youtube": "None", "website": "None", "summary": "None", "logo": "None", "latitude": 48.14331139373377, "longitude": -80.03991826729765}, "119288918RR1272": {"name": "KIRKLAND LAKE ONT CONGREGATION OF JEHOVAH'S WITNESSES", "designationCode": "C", "categoryCode": "61", "address": "PO BOX 174", "city": "CHAPUT HUGHES", "province": "ON", "country": "CA", "postalCode": "P0K1A0", "twitter": "None", "instagram": "None", "facebook": "None", "youtube": "None", "website": "None", "summary": "None", "logo": "None", "latitude": 48.12213000000003, "longitude": -80.08327999999995}, "898052444RR0001": {"name": "KIRKNESS PARENT ADVISORY COMMITTEE FUNDRAISING ASSOCIATION", "designationCode": "C", "categoryCode": "21", "address": "610 KIRKNESS ROAD NW", "city": "EDMONTON", "province": "AB", "country": "CA", "postalCode": "T5Y2K4", "twitter": "None", "instagram": "None", "facebook": "None", "youtube": "None", "website": "None", "summary": "None", "logo": "None", "latitude": 53.61049658065697, "longitude": -113.3875250750787}, "107572232RR0001": {"name": "KIRKTON WOODHAM PASTORAL CHARGE", "designationCode": "C", "categoryCode": "44", "address": "BOX 105", "city": "KIRKTON", "province": "ON", "country": "CA", "postalCode": "N0K1K0", "twitter": "None", "instagram": "None", "facebook": "None", "youtube": "None", "website": "None", "summary": "None", "logo": "None", "latitude": 43.32365000000004, "longitude": -81.31382999999994}, "118983154RR0001": {"name": "KIRKWALL PRESBYTERIAN CHURCH", "designationCode": "C", "categoryCode": "37", "address": "RR#1                          2055 8TH CONC. W", "city": "CAMBRIDGE", "province": "ON", "country": "CA", "postalCode": "N1R5S2", "twitter": "None", "instagram": "None", "facebook": "None", "youtube": "None", "website": "None", "summary": "None", "logo": "None", "latitude": 43.34685900000005, "longitude": -80.27280349999994}, "118983188RR0001": {"name": "KISBEY UNITED CHURCH", "designationCode": "C", "categoryCode": "44", "address": "BOX 14", "city": "KISBEY", "province": "SK", "country": "CA", "postalCode": "S0C1L0", "twitter": "None", "instagram": "None", "facebook": "None", "youtube": "None", "website": "None", "summary": "None", "logo": "None", "latitude": 49.65247894848221, "longitude": -102.8673545678163}, "118983543RR0001": {"name": "KITCHENER - WATERLOO LITTLE THEATRE", "designationCode": "C", "categoryCode": "22", "address": "9 PRINCESS ST E", "city": "WATERLOO", "province": "ON", "country": "CA", "postalCode": "N2J2H4", "twitter": "None", "instagram": "None", "facebook": "None", "youtube": "None", "website": "None", "summary": "None", "logo": "None", "latitude": 43.466886692740594, "longitude": -80.52211893282939}, "118983220RR0001": {"name": "KITCHENER BAPTIST CHURCH", "designationCode": "C", "categoryCode": "31", "address": "1720 GLASGOW STREET", "city": "KITCHENER", "province": "ON", "country": "CA", "postalCode": "N2N0A7", "twitter": "None", "instagram": "None", "facebook": "None", "youtube": "None", "website": "None", "summary": "None", "logo": "None", "latitude": 43.4258619586244, "longitude": -80.56197017756314}, "131952376RR0007": {"name": "KITCHENER CHURCH OF GOD OF PROPHECY - LIBERTY WORSHIP CENTRE", "designationCode": "C", "categoryCode": "39", "address": "225 LAWNHURST CRT.", "city": "HAMILTON", "province": "ON", "country": "CA", "postalCode": "L8V4R4", "twitter": "None", "instagram": "None", "facebook": "None", "youtube": "None", "website": "None", "summary": "None", "logo": "None", "latitude": 43.214541642247056, "longitude": -79.8538434810143}, "855619334RR0001": {"name": "KITCHENER CHURCH OF THE LORD JESUS CHRIST APOSTOLIC INC.", "designationCode": "C", "categoryCode": "39", "address": "420 BRIDGEPORT RD", "city": "KITCHENER", "province": "ON", "country": "CA", "postalCode": "N2K1P1", "twitter": "None", "instagram": "None", "facebook": "None", "youtube": "None", "website": "None", "summary": "None", "logo": "None", "latitude": 43.47474927176951, "longitude": -80.49109581490545}, "867719437RR0001": {"name": "KITCHENER DOWNTOWN COMMUNITY HEALTH CENTRE", "designationCode": "C", "categoryCode": "11", "address": "44 FRANCIS STREET S", "city": "KITCHENER", "province": "ON", "country": "CA", "postalCode": "N2G2A2", "twitter": "None", "instagram": "None", "facebook": "None", "youtube": "None", "website": "None", "summary": "None", "logo": "None", "latitude": 43.450545478215695, "longitude": -80.4974318005943}, "107572430RR0001": {"name": "KITCHENER EAST PRESBYTERIAN CHURCH", "designationCode": "C", "categoryCode": "37", "address": "10 ZELLER DRIVE", "city": "KITCHENER", "province": "ON", "country": "CA", "postalCode": "N2A4A8", "twitter": "None", "instagram": "None", "facebook": "None", "youtube": "None", "website": "None", "summary": "None", "logo": "None", "latitude": 43.45003326066101, "longitude": -80.42337753693218}, "838674547RR0001": {"name": "KITCHENER GOSPEL TEMPLE", "designationCode": "C", "categoryCode": "36", "address": "9 CONWAY DRIVE", "city": "KITCHENER", "province": "ON", "country": "CA", "postalCode": "N2A2C4", "twitter": "None", "instagram": "None", "facebook": "None", "youtube": "None", "website": "None", "summary": "None", "logo": "None", "latitude": 43.44745791750862, "longitude": -80.44172572742242}, "118983295RR0001": {"name": "KITCHENER HORTICULTURAL SOCIETY", "designationCode": "C", "categoryCode": "56", "address": "7 FLORAL CRES", "city": "KITCHENER", "province": "ON", "country": "CA", "postalCode": "N2G4N9", "twitter": "None", "instagram": "None", "facebook": "None", "youtube": "None", "website": "None", "summary": "None", "logo": "None", "latitude": 43.43762718957101, "longitude": -80.4622335821197}, "118983303RR0001": {"name": "KITCHENER MENNONITE BRETHREN CHURCH", "designationCode": "C", "categoryCode": "34", "address": "19 OTTAWA ST N", "city": "KITCHENER", "province": "ON", "country": "CA", "postalCode": "N2H3K2", "twitter": "None", "instagram": "None", "facebook": "None", "youtube": "None", "website": "None", "summary": "None", "logo": "None", "latitude": 43.44283207323013, "longitude": -80.46983141877804}, "107572489RR0001": {"name": "KITCHENER PUBLIC LIBRARY", "designationCode": "C", "categoryCode": "50", "address": "85 QUEEN ST N", "city": "KITCHENER", "province": "ON", "country": "CA", "postalCode": "N2H2H1", "twitter": "None", "instagram": "None", "facebook": "None", "youtube": "None", "website": "None", "summary": "None", "logo": "None", "latitude": 43.452864902562304, "longitude": -80.48674868411359}, "118983329RR0001": {"name": "KITCHENER ROTARY CLUB CHARITABLE FOUNDATION", "designationCode": "A", "categoryCode": "63", "address": "500 HALLMARK DR", "city": "WATERLOO", "province": "ON", "country": "CA", "postalCode": "N2K3P5", "twitter": "None", "instagram": "None", "facebook": "None", "youtube": "None", "website": "None", "summary": "None", "logo": "None", "latitude": 43.498089060534184, "longitude": -80.51975890536185}, "801163494RR0001": {"name": "KITCHENER-CONESTOGA ROTARY CLUB COMMUNITY AID FUND", "designationCode": "A", "categoryCode": "65", "address": "298 LAWRENCE AVE", "city": "KITCHENER", "province": "ON", "country": "CA", "postalCode": "N2M1Y4", "twitter": "None", "instagram": "None", "facebook": "None", "youtube": "None", "website": "None", "summary": "None", "logo": "None", "latitude": 43.441185927029665, "longitude": -80.51350957683681}, "801126822RR0001": {"name": "KITCHENER-CONESTOGA ROTARY CLUB INTERNATIONAL AID FUND", "designationCode": "A", "categoryCode": "65", "address": "298 LAWRENCE AVE", "city": "KITCHENER", "province": "ON", "country": "CA", "postalCode": "N2M1Y4", "twitter": "None", "instagram": "None", "facebook": "None", "youtube": "None", "website": "None", "summary": "None", "logo": "None", "latitude": 43.441185927029665, "longitude": -80.51350957683681}, "118983352RR0001": {"name": "KITCHENER-WATERLOO ACADEMY OF MEDICINE, BURSARY AND LOAN FUND", "designationCode": "C", "categoryCode": "19", "address": "911 QUEEN'S BLVD              ST. MARY'S HOSPITAL", "city": "KITCHENER", "province": "ON", "country": "CA", "postalCode": "N2M1B2", "twitter": "None", "instagram": "None", "facebook": "None", "youtube": "None", "website": "None", "summary": "None", "logo": "None", "latitude": 43.438240000000064, "longitude": -80.50179999999995}, "118983360RR0001": {"name": "KITCHENER-WATERLOO ASSOCIATION FOR COMMUNITY LIVING", "designationCode": "C", "categoryCode": "11", "address": "99 OTTAWA ST S", "city": "KITCHENER", "province": "ON", "country": "CA", "postalCode": "N2G3S8", "twitter": "None", "instagram": "None", "facebook": "None", "youtube": "None", "website": "None", "summary": "None", "logo": "None", "latitude": 43.43953592365414, "longitude": -80.47398286493762}, "118983410RR0001": {"name": "KITCHENER-WATERLOO CHAMBER MUSIC SOCIETY", "designationCode": "C", "categoryCode": "22", "address": "57 YOUNG ST WEST", "city": "WATERLOO", "province": "ON", "country": "CA", "postalCode": "N2L2Z4", "twitter": "None", "instagram": "None", "facebook": "None", "youtube": "None", "website": "None", "summary": "None", "logo": "None", "latitude": 43.46749810655564, "longitude": -80.527151149576}, "822007977RR0001": {"name": "KITCHENER-WATERLOO CHAMBER ORCHESTRA", "designationCode": "C", "categoryCode": "22", "address": "F-168 LEXINGTON COURT", "city": "WATERLOO", "province": "ON", "country": "CA", "postalCode": "N2J4R9", "twitter": "None", "instagram": "None", "facebook": "None", "youtube": "None", "website": "None", "summary": "None", "logo": "None", "latitude": 43.489041534594904, "longitude": -80.51566712245331}, "107579732RR0001": {"name": "KITCHENER-WATERLOO CHRISTIAN FELLOWSHIP", "designationCode": "C", "categoryCode": "39", "address": "1000 BLEAMS RD", "city": "KITCHENER", "province": "ON", "country": "CA", "postalCode": "N2E3X5", "twitter": "None", "instagram": "None", "facebook": "None", "youtube": "None", "website": "None", "summary": "None", "logo": "None", "latitude": 43.40398310023631, "longitude": -80.48708809674521}, "132414392RR0001": {"name": "KITCHENER-WATERLOO CHRISTIAN SCHOOL SOCIETY", "designationCode": "C", "categoryCode": "20", "address": "11 LAURENTIAN DRIVE", "city": "KITCHENER", "province": "ON", "country": "CA", "postalCode": "N2E1C1", "twitter": "None", "instagram": "None", "facebook": "None", "youtube": "None", "website": "None", "summary": "None", "logo": "None", "latitude": 43.417210552802146, "longitude": -80.50049931972423}, "886386796RR0001": {"name": "KITCHENER-WATERLOO COMMUNITY ORCHESTRA INC.", "designationCode": "C", "categoryCode": "22", "address": "P.O. BOX 40004 WATERLOO RPO WA75 KING ST S", "city": "WATERLOO", "province": "ON", "country": "CA", "postalCode": "N2J4V1", "twitter": "None", "instagram": "None", "facebook": "None", "youtube": "None", "website": "None", "summary": "None", "logo": "None", "latitude": 43.46338200000005, "longitude": -80.52075349999993}, "130538614RR0001": {"name": "KITCHENER-WATERLOO COUNSELLING SERVICES INCORPORATED", "designationCode": "C", "categoryCode": "09", "address": "480 CHARLES STREET EAST", "city": "KITCHENER", "province": "ON", "country": "CA", "postalCode": "N2G4K5", "twitter": "None", "instagram": "None", "facebook": "None", "youtube": "None", "website": "None", "summary": "None", "logo": "None", "latitude": 43.442491176841976, "longitude": -80.47548678530221}, "132784943RR0001": {"name": "KITCHENER-WATERLOO EXTEND-A-FAMILY ASSOCIATION", "designationCode": "C", "categoryCode": "09", "address": "91 MOORE AVENUE", "city": "KITCHENER", "province": "ON", "country": "CA", "postalCode": "N2H3S4", "twitter": "None", "instagram": "None", "facebook": "None", "youtube": "None", "website": "None", "summary": "None", "logo": "None", "latitude": 43.45795909019567, "longitude": -80.50306986958257}, "135688299RR0001": {"name": "KITCHENER-WATERLOO HEBREW DAY SCHOOL", "designationCode": "C", "categoryCode": "20", "address": "161 STERLING AVE SOUTH", "city": "KITCHENER", "province": "ON", "country": "CA", "postalCode": "N2G3N8", "twitter": "None", "instagram": "None", "facebook": "None", "youtube": "None", "website": "None", "summary": "None", "logo": "None", "latitude": 43.4422453011139, "longitude": -80.48238070661905}, "118983527RR0001": {"name": "KITCHENER-WATERLOO HOUSE CHURCH ASSEMBLY", "designationCode": "C", "categoryCode": "39", "address": "101 DAVID STREET", "city": "KITCHENER", "province": "ON", "country": "CA", "postalCode": "N2G1Y1", "twitter": "None", "instagram": "None", "facebook": "None", "youtube": "None", "website": "None", "summary": "None", "logo": "None", "latitude": 43.44592102969016, "longitude": -80.49527161405744}, "107572596RR0001": {"name": "KITCHENER-WATERLOO KOREAN PRESBYTERIAN CHURCH", "designationCode": "C", "categoryCode": "37", "address": "130 DUKE STREET EAST", "city": "KITCHENER", "province": "ON", "country": "CA", "postalCode": "N2H1A7", "twitter": "None", "instagram": "None", "facebook": "None", "youtube": "None", "website": "None", "summary": "None", "logo": "None", "latitude": 43.449255334179604, "longitude": -80.4841615485603}, "118987601RR0001": {"name": "KITCHENER-WATERLOO MULTICULTURAL CENTRE INC.", "designationCode": "C", "categoryCode": "22", "address": "102 KING STREET WEST", "city": "KITCHENER", "province": "ON", "country": "CA", "postalCode": "N2G1A6", "twitter": "None", "instagram": "None", "facebook": "None", "youtube": "None", "website": "None", "summary": "None", "logo": "None", "latitude": 43.45055061117193, "longitude": -80.49097244794861}, "107797383RR0046": {"name": "KITCHENER-WATERLOO SEVENTH-DAY ADVENTIST CHURCH", "designationCode": "C", "categoryCode": "41", "address": "235 WILLIAMSBURG RD", "city": "KITCHENER", "province": "ON", "country": "CA", "postalCode": "N2E1K8", "twitter": "None", "instagram": "None", "facebook": "None", "youtube": "None", "website": "None", "summary": "None", "logo": "None", "latitude": 43.41325389090555, "longitude": -80.50196202570811}, "130693450RR0001": {"name": "KITCHENER-WATERLOO SYMPHONY ORCHESTRA ASSOCIATION VOLUNTEER COMMITTEE", "designationCode": "C", "categoryCode": "22", "address": "36 KING ST W", "city": "KITCHENER", "province": "ON", "country": "CA", "postalCode": "N2G1A3", "twitter": "None", "instagram": "None", "facebook": "None", "youtube": "None", "website": "None", "summary": "None", "logo": "None", "latitude": 43.450106352501464, "longitude": -80.48979167234127}, "138938253RR0001": {"name": "KITCHENER-WATERLOO VIETNAMESE ALLIANCE CHURCH", "designationCode": "C", "categoryCode": "39", "address": "45 HAZELGLEN DR", "city": "KITCHENER", "province": "ON", "country": "CA", "postalCode": "N2M2E2", "twitter": "None", "instagram": "None", "facebook": "None", "youtube": "None", "website": "None", "summary": "None", "logo": "None", "latitude": 43.4393130396735, "longitude": -80.52528896283667}, "139821318RR0001": {"name": "KITCHENER-WATERLOO-CAMBRIDGE INJURED WORKERS GROUP", "designationCode": "C", "categoryCode": "59", "address": "649 KING STREET E", "city": "CAMBRIDGE", "province": "ON", "country": "CA", "postalCode": "N3H3N7", "twitter": "None", "instagram": "None", "facebook": "None", "youtube": "None", "website": "None", "summary": "None", "logo": "None", "latitude": 43.396082831265424, "longitude": -80.35877896029785}, "107571101RR0001": {"name": "KITCHISSIPPI UNITED CHURCH", "designationCode": "C", "categoryCode": "44", "address": "630 ISLAND PARK DRIVE", "city": "OTTAWA", "province": "ON", "country": "CA", "postalCode": "K1Y0B7", "twitter": "None", "instagram": "None", "facebook": "None", "youtube": "None", "website": "None", "summary": "None", "logo": "None", "latitude": 45.390133251075916, "longitude": -75.73342022678226}, "897090536RR0001": {"name": "KITIKMEOT HERITAGE SOCIETY", "designationCode": "C", "categoryCode": "50", "address": "P.O. BOX 2160", "city": "CAMBRIDGE BAY", "province": "NU", "country": "CA", "postalCode": "X0B0C0", "twitter": "None", "instagram": "None", "facebook": "None", "youtube": "None", "website": "None", "summary": "None", "logo": "None", "latitude": 69.13891500000005, "longitude": -105.17166799999994}, "830284147RR0001": {"name": "KITIMAT ARTS FOR YOUTH", "designationCode": "A", "categoryCode": "22", "address": "4-10 CREED ST", "city": "KITIMAT", "province": "BC", "country": "CA", "postalCode": "V8C2P3", "twitter": "None", "instagram": "None", "facebook": "None", "youtube": "None", "website": "None", "summary": "None", "logo": "None", "latitude": 54.06332872260839, "longitude": -128.64037239078445}, "118983634RR0001": {"name": "KITIMAT COMMUNITY DEVELOPMENT CENTRE SOCIETY", "designationCode": "C", "categoryCode": "11", "address": "1515 KINGFISHER AVE", "city": "KITIMAT", "province": "BC", "country": "CA", "postalCode": "V8C1S5", "twitter": "None", "instagram": "None", "facebook": "None", "youtube": "None", "website": "None", "summary": "None", "logo": "None", "latitude": 54.06174701881088, "longitude": -128.62726216795764}, "118784750RR0001": {"name": "KITIMAT COMMUNITY FOUNDATION", "designationCode": "A", "categoryCode": "05", "address": "1515 KINGFISHER ST", "city": "KITIMAT", "province": "BC", "country": "CA", "postalCode": "V8C1S5", "twitter": "None", "instagram": "None", "facebook": "None", "youtube": "None", "website": "None", "summary": "None", "logo": "None", "latitude": 54.06174701881088, "longitude": -128.62726216795764}, "121436471RR0001": {"name": "KITIMAT CONCERT ASSOCIATION", "designationCode": "C", "categoryCode": "22", "address": "PO BOX 99  STN MAIN", "city": "KITIMAT", "province": "BC", "country": "CA", "postalCode": "V8C2G6", "twitter": "None", "instagram": "None", "facebook": "None", "youtube": "None", "website": "None", "summary": "None", "logo": "None", "latitude": 54.05515800000006, "longitude": -128.65506199999993}, "119288918RR1128": {"name": "KITIMAT CONGREGATION OF JEHOVAH'S WITNESSES,", "designationCode": "C", "categoryCode": "61", "address": "9 STEIN ST", "city": "KITIMAT", "province": "BC", "country": "CA", "postalCode": "V8C1J2", "twitter": "None", "instagram": "None", "facebook": "None", "youtube": "None", "website": "None", "summary": "None", "logo": "None", "latitude": 54.06522550320264, "longitude": -128.63121757703834}, "861108868RR0001": {"name": "KITIMAT FIRST BAPTIST CHURCH", "designationCode": "C", "categoryCode": "31", "address": "840 COLUMBIA AVE.", "city": "KITIMAT", "province": "BC", "country": "CA", "postalCode": "V8C1V8", "twitter": "None", "instagram": "None", "facebook": "None", "youtube": "None", "website": "None", "summary": "None", "logo": "None", "latitude": 54.050062011396975, "longitude": -128.65815349122875}}