{"896643806RR0001": {"name": "ASSOCIATION DES BENEVOLES DU MANOIR ST-PATRICE", "designationCode": "C", "categoryCode": "09", "address": "3615 BOUL PERRON", "city": "LAVAL", "province": "QC", "country": "CA", "postalCode": "H7V1P4", "twitter": "None", "instagram": "None", "facebook": "None", "youtube": "None", "website": "None", "summary": "None", "logo": "None", "latitude": 45.54167391508445, "longitude": -73.74088425841065}, "106955933RR0001": {"name": "ASSOCIATION DES BENEVOLES DU MUSEE DES BEAUX-ARTS DE MONTREAL/VOLUNTEER ASSOCIATION OF THE MONTREAL MUSEUM OF FINE ARTS", "designationCode": "A", "categoryCode": "23", "address": "PO BOX 3000                   STATION H", "city": "MONTREAL", "province": "QC", "country": "CA", "postalCode": "H3G2T9", "twitter": "None", "instagram": "None", "facebook": "None", "youtube": "None", "website": "None", "summary": "None", "logo": "None", "latitude": 45.49856100000005, "longitude": -73.57906249999994}, "861332542RR0001": {"name": "ASSOCIATION DES BENEVOLES HOPITAL REGIONAL DE SUDBURY REGIONAL HOSPITAL VOLUNTEER ASSOCIATION", "designationCode": "C", "categoryCode": "19", "address": "41 RAMSEY LAKE ROAD", "city": "SUDBURY", "province": "ON", "country": "CA", "postalCode": "P3E5J1", "twitter": "None", "instagram": "None", "facebook": "None", "youtube": "None", "website": "None", "summary": "None", "logo": "None", "latitude": 46.469380295947126, "longitude": -80.99612071267406}, "891861841RR0001": {"name": "ASSOCIATION DES BENEVOLES HUAGUANG", "designationCode": "C", "categoryCode": "09", "address": "2348 JEAN-TALON EST BUREAU 303", "city": "MONTREAL", "province": "QC", "country": "CA", "postalCode": "H2E1V7", "twitter": "None", "instagram": "None", "facebook": "None", "youtube": "None", "website": "None", "summary": "None", "logo": "None", "latitude": 45.55221231972424, "longitude": -73.6032168667553}, "118792910RR0001": {"name": "ASSOCIATION DES BIENFAITEURS MARIE REINE DES COEURS INC-MARY QUEEN OF OUR HEARTS ASSOCIATION", "designationCode": "C", "categoryCode": "47", "address": "242, RUE RICARD", "city": "CHARLEMAGNE", "province": "QC", "country": "CA", "postalCode": "J5Z1A5", "twitter": "None", "instagram": "None", "facebook": "None", "youtube": "None", "website": "None", "summary": "None", "logo": "None", "latitude": 45.72806554120271, "longitude": -73.49046141990321}, "891131146RR0001": {"name": "ASSOCIATION DES BOURSIERES ET BOURSIERS FRANCE-ACADIE", "designationCode": "A", "categoryCode": "21", "address": "403 - 236 ST GEORGE ST", "city": "MONCTON", "province": "NB", "country": "CA", "postalCode": "E1C1W1", "twitter": "None", "instagram": "None", "facebook": "None", "youtube": "None", "website": "None", "summary": "None", "logo": "None", "latitude": 46.091121853165305, "longitude": -64.7828863956374}, "898868971RR0001": {"name": "ASSOCIATION DES CARDIAQUES DE LA MAURICIE INC.", "designationCode": "C", "categoryCode": "09", "address": "3920 RUE LOUIS-PINARD", "city": "TROIS-RIVIERES", "province": "QC", "country": "CA", "postalCode": "G8Y4L9", "twitter": "None", "instagram": "None", "facebook": "None", "youtube": "None", "website": "None", "summary": "None", "logo": "None", "latitude": 46.34983112464637, "longitude": -72.59179375627588}, "892334269RR0001": {"name": "ASSOCIATION DES CIMETIERES ET EGLISES DE MEGANTIC-COMPTON/ MEGANTIC-COMPTON CEMETERY AND CHURCH ASSOCIATION", "designationCode": "C", "categoryCode": "59", "address": "206 DEARDEN N", "city": "WESTBURY", "province": "QC", "country": "CA", "postalCode": "J0B1R0", "twitter": "None", "instagram": "None", "facebook": "None", "youtube": "None", "website": "None", "summary": "None", "logo": "None", "latitude": 45.47820180959668, "longitude": -71.68024529485282}, "130515521RR0001": {"name": "ASSOCIATION DES CITOYENS AGES GRECO-CANADIENS DE MONTREAL", "designationCode": "C", "categoryCode": "56", "address": "549 RUE JARRY O", "city": "MONTREAL", "province": "QC", "country": "CA", "postalCode": "H3N1G1", "twitter": "None", "instagram": "None", "facebook": "None", "youtube": "None", "website": "None", "summary": "None", "logo": "None", "latitude": 45.531640560649734, "longitude": -73.63556196199995}, "896693041RR0001": {"name": "ASSOCIATION DES CLUBS D'ENTREPRENEURS ETUDIANTS - QUEBEC", "designationCode": "C", "categoryCode": "21", "address": "1510 RUE JEAN-BERMANS MICHAUD", "city": "DRUMMONDVILLE", "province": "QC", "country": "CA", "postalCode": "J2C7V3", "twitter": "None", "instagram": "None", "facebook": "None", "youtube": "None", "website": "None", "summary": "None", "logo": "None", "latitude": 45.89275200000006, "longitude": -72.53507149999993}, "106730575RR0001": {"name": "ASSOCIATION DES COLLEGES PRIVES DU QUEBEC", "designationCode": "C", "categoryCode": "21", "address": "1940, BOUL.HENRI-BOURASSA EST", "city": "MONTREAL", "province": "QC", "country": "CA", "postalCode": "H2B1S2", "twitter": "None", "instagram": "None", "facebook": "None", "youtube": "None", "website": "None", "summary": "None", "logo": "None", "latitude": 45.570970676928894, "longitude": -73.65793940296633}, "897331310RR0001": {"name": "ASSOCIATION DES DEVENUS SOURDS ET DES MALENTENDANTS DU QUEBEC SECTEUR DES MRC DE L'ASSOMPTION ET DES MOULINS", "designationCode": "C", "categoryCode": "09", "address": "CENTRE A NOUS PAVIL. LIONS    50 RUE THOUIN BUREAU 232", "city": "REPENTIGNY", "province": "QC", "country": "CA", "postalCode": "J6A4J4", "twitter": "None", "instagram": "None", "facebook": "None", "youtube": "None", "website": "None", "summary": "None", "logo": "None", "latitude": 45.73416390891028, "longitude": -73.45014598687135}, "134112481RR0001": {"name": "ASSOCIATION DES DEVENUS SOURDS ET DES MALENTENDANTS DU QUEBEC SECTEUR SUD-OUEST", "designationCode": "C", "categoryCode": "09", "address": "35 RUE GRANDE-ILE             SUITE 1", "city": "SALABERRY-DE-VALLEYFIELD", "province": "QC", "country": "CA", "postalCode": "J6S3L9", "twitter": "None", "instagram": "None", "facebook": "None", "youtube": "None", "website": "None", "summary": "None", "logo": "None", "latitude": 45.26255540798665, "longitude": -74.13218134390313}, "861764488RR0001": {"name": "ASSOCIATION DES ECOLES SUPERIEURES D'ARTS DE MONTREAL (ADESAM)", "designationCode": "C", "categoryCode": "22", "address": "60 RUE SENECAL", "city": "LONGUEUIL", "province": "QC", "country": "CA", "postalCode": "J4G1M7", "twitter": "None", "instagram": "None", "facebook": "None", "youtube": "None", "website": "None", "summary": "None", "logo": "None", "latitude": 45.57587389618567, "longitude": -73.47679146921331}, "830461141RR0001": {"name": "ASSOCIATION DES FAMILLES DE PERSONNES ASSASSINEES OU DISPARUES, AFPAD", "designationCode": "C", "categoryCode": "09", "address": "1686 BOUL DES LAURENTIDES     BUREAU 203", "city": "VIMONT", "province": "QC", "country": "CA", "postalCode": "H7M2P4", "twitter": "None", "instagram": "None", "facebook": "None", "youtube": "None", "website": "None", "summary": "None", "logo": "None", "latitude": 45.59614705133024, "longitude": -73.72118417363933}, "106728488RR0001": {"name": "ASSOCIATION DES FAMILLES MONOPARENTALES ET RECOMPOSEES LA CHAUDIERE", "designationCode": "C", "categoryCode": "09", "address": "2640, BOUL. DIONNE", "city": "SAINT-GEORGES", "province": "QC", "country": "CA", "postalCode": "G5Y3X8", "twitter": "None", "instagram": "None", "facebook": "None", "youtube": "None", "website": "None", "summary": "None", "logo": "None", "latitude": 46.11151055311927, "longitude": -70.67174053335417}, "106732563RR0001": {"name": "ASSOCIATION DES FAMILLES MONOPARENTALES OU RECOMPOSEES LA SOURCE", "designationCode": "C", "categoryCode": "59", "address": "218 59 RUE MONFETTE", "city": "VICTORIAVILLE", "province": "QC", "country": "CA", "postalCode": "G6P1J8", "twitter": "None", "instagram": "None", "facebook": "None", "youtube": "None", "website": "None", "summary": "None", "logo": "None", "latitude": 46.06164779188039, "longitude": -71.9668892342031}, "129816815RR0001": {"name": "ASSOCIATION DES FEMMES IMMIGRANTES DE L'OUTAOUAIS", "designationCode": "C", "categoryCode": "09", "address": "109, RUE WRIGHT, PORTE 009", "city": "GATINEAU", "province": "QC", "country": "CA", "postalCode": "J8X2G7", "twitter": "None", "instagram": "None", "facebook": "None", "youtube": "None", "website": "None", "summary": "None", "logo": "None", "latitude": 45.42702050432782, "longitude": -75.71872264071786}, "897247540RR0001": {"name": "ASSOCIATION DES FONDATIONS D'\u00c9TABLISSEMENTS DE SANT\u00c9 DU QU\u00c9BEC (AF\u00c9SAQ)", "designationCode": "C", "categoryCode": "19", "address": "A301-455 BOUL. BASE-DE-ROC", "city": "JOLIETTE", "province": "QC", "country": "CA", "postalCode": "J6E5P3", "twitter": "None", "instagram": "None", "facebook": "None", "youtube": "None", "website": "None", "summary": "None", "logo": "None", "latitude": 46.01761114455567, "longitude": -73.43559800978083}, "894797455RR0001": {"name": "ASSOCIATION DES FRANCOPHONES DES KOOTENAYS OUEST", "designationCode": "C", "categoryCode": "29", "address": "C.P. 210", "city": "NELSON", "province": "BC", "country": "CA", "postalCode": "V1L5P9", "twitter": "None", "instagram": "None", "facebook": "None", "youtube": "None", "website": "None", "summary": "None", "logo": "None", "latitude": 49.49920355104745, "longitude": -117.28064166957918}, "118793116RR0001": {"name": "ASSOCIATION DES GRANDS FRERES ET GRANDES SOEURS DU QUEBEC", "designationCode": "C", "categoryCode": "09", "address": "2235 RUE GALT OUEST           C.P.34015 ST-ESPRIT", "city": "SHERBROOKE", "province": "QC", "country": "CA", "postalCode": "J1K3C5", "twitter": "None", "instagram": "None", "facebook": "None", "youtube": "None", "website": "None", "summary": "None", "logo": "None", "latitude": 45.38707000000005, "longitude": -71.93259999999998}, "894961036RR0001": {"name": "ASSOCIATION DES HALTES-GARDERIES COMMUNAUTAIRES DU QUEBEC AHGCQ", "designationCode": "C", "categoryCode": "09", "address": "4245 RUE LAVAL", "city": "MONTREAL", "province": "QC", "country": "CA", "postalCode": "H2W2J6", "twitter": "None", "instagram": "None", "facebook": "None", "youtube": "None", "website": "None", "summary": "None", "logo": "None", "latitude": 45.52072614821967, "longitude": -73.58042140062906}, "897024477RR0001": {"name": "ASSOCIATION DES HANDICAPEES DU SECTEUR DU C.L.S.C. DE GRANDE-VALLEE", "designationCode": "C", "categoryCode": "11", "address": "6A, RUE DU COUCENT C.P.1463", "city": "GRANDE-VALL\u00c9", "province": "QC", "country": "CA", "postalCode": "G0E1K0", "twitter": "None", "instagram": "None", "facebook": "None", "youtube": "None", "website": "None", "summary": "None", "logo": "None", "latitude": 49.22693611808165, "longitude": -65.12360767877337}, "106728413RR0001": {"name": "ASSOCIATION DES HANDICAPES ADULTES DE LA COTE-NORD INC.", "designationCode": "C", "categoryCode": "09", "address": "859 RUE BOSS\u00c9                 LOCALE 103", "city": "BAIE-COMEAU", "province": "QC", "country": "CA", "postalCode": "G5C3P8", "twitter": "None", "instagram": "None", "facebook": "None", "youtube": "None", "website": "None", "summary": "None", "logo": "None", "latitude": 49.192878553955985, "longitude": -68.25784922286344}, "106727787RR0001": {"name": "ASSOCIATION DES HANDICAPES ADULTES DE LA MAURICIE INC.", "designationCode": "C", "categoryCode": "11", "address": "1322 RUE SAINTE-JULIE", "city": "TROIS-RIVIERES", "province": "QC", "country": "CA", "postalCode": "G9A1Y6", "twitter": "None", "instagram": "None", "facebook": "None", "youtube": "None", "website": "None", "summary": "None", "logo": "None", "latitude": 46.35120077130817, "longitude": -72.54992913362007}, "135417897RR0001": {"name": "ASSOCIATION DES HANDICAPES DE DESBIENS INC", "designationCode": "C", "categoryCode": "01", "address": "1398 DEQUEN", "city": "DESBIENS", "province": "QC", "country": "CA", "postalCode": "G0W1N0", "twitter": "None", "instagram": "None", "facebook": "None", "youtube": "None", "website": "None", "summary": "None", "logo": "None", "latitude": 48.42044700000005, "longitude": -71.95021549999993}, "118793140RR0001": {"name": "ASSOCIATION DES HANDICAPES GASPESIENS", "designationCode": "C", "categoryCode": "09", "address": "300 ST-JOSEPH, C.P. 153", "city": "MATANE", "province": "QC", "country": "CA", "postalCode": "G4W3N1", "twitter": "None", "instagram": "None", "facebook": "None", "youtube": "None", "website": "None", "summary": "None", "logo": "None", "latitude": 48.84032692480798, "longitude": -67.5170233356515}, "891560765RR0001": {"name": "ASSOCIATION DES HANDICAPES RESPIRATOIRES DE QUEBEC (1984) INC.", "designationCode": "C", "categoryCode": "11", "address": "1001,ROUTE DE L'\u00c9GLISE,       SUITE 204", "city": "QU\u00c9BEC", "province": "QC", "country": "CA", "postalCode": "G1V3V7", "twitter": "None", "instagram": "None", "facebook": "None", "youtube": "None", "website": "None", "summary": "None", "logo": "None", "latitude": 46.77303669054757, "longitude": -71.29719620425313}, "106730948RR0001": {"name": "ASSOCIATION DES HANDICAPES VAL-ROSIERS", "designationCode": "C", "categoryCode": "09", "address": "55 RUE DU BANC", "city": "GASPE", "province": "QC", "country": "CA", "postalCode": "G4X5E3", "twitter": "None", "instagram": "None", "facebook": "None", "youtube": "None", "website": "None", "summary": "None", "logo": "None", "latitude": 48.99419560876456, "longitude": -64.38811232022917}, "100301894RR0001": {"name": "ASSOCIATION DES HYPOGLYCEMIQUES DU QUEBEC INC.", "designationCode": "C", "categoryCode": "11", "address": "138 - 2500 BOULEVARD MASCOUCHE", "city": "MASCOUCHE", "province": "QC", "country": "CA", "postalCode": "J7M0H5", "twitter": "None", "instagram": "None", "facebook": "None", "youtube": "None", "website": "None", "summary": "None", "logo": "None", "latitude": 45.74389239018424, "longitude": -73.61772075862127}, "874587777RR0001": {"name": "ASSOCIATION DES IMPLANTES COCHLEATRES DU QUEBEC", "designationCode": "C", "categoryCode": "11", "address": "130-5100 RUE DES TOURNELLES", "city": "QU\u00c9BEC", "province": "QC", "country": "CA", "postalCode": "G2J1E4", "twitter": "None", "instagram": "None", "facebook": "None", "youtube": "None", "website": "None", "summary": "None", "logo": "None", "latitude": 46.83589218818163, "longitude": -71.28104309319677}, "140742297RR0001": {"name": "ASSOCIATION DES JEUNES BEGUES DU QUEBEC", "designationCode": "C", "categoryCode": "09", "address": "CP 79044                      CP DES OISEAUX", "city": "LAVAL", "province": "QC", "country": "CA", "postalCode": "H7L5J1", "twitter": "None", "instagram": "None", "facebook": "None", "youtube": "None", "website": "None", "summary": "None", "logo": "None", "latitude": 45.59214953628656, "longitude": -73.77144707945317}, "894664044RR0001": {"name": "ASSOCIATION DES JEUNES DE LA PETITE BOURGOGNE", "designationCode": "C", "categoryCode": "09", "address": "852 ST-MARTIN", "city": "MONTREAL", "province": "QC", "country": "CA", "postalCode": "H3J1W7", "twitter": "None", "instagram": "None", "facebook": "None", "youtube": "None", "website": "None", "summary": "None", "logo": "None", "latitude": 45.48805295392121, "longitude": -73.5678846350337}, "890940158RR0001": {"name": "ASSOCIATION DES JEUNES DE LA RUE", "designationCode": "C", "categoryCode": "01", "address": "307 RUE CEDAR", "city": "SUDBURY", "province": "ON", "country": "CA", "postalCode": "P3B1M8", "twitter": "None", "instagram": "None", "facebook": "None", "youtube": "None", "website": "None", "summary": "None", "logo": "None", "latitude": 46.49220550288554, "longitude": -80.98616249999999}, "890258460RR0001": {"name": "ASSOCIATION DES LARYNGECTOMISES DE QUEBEC INC", "designationCode": "C", "categoryCode": "11", "address": "S-20 4765 1ERE AVENUE", "city": "CHARLESBOURG", "province": "QC", "country": "CA", "postalCode": "G1H2T3", "twitter": "None", "instagram": "None", "facebook": "None", "youtube": "None", "website": "None", "summary": "None", "logo": "None", "latitude": 46.84266000000008, "longitude": -71.24939999999998}, "892003641RR0001": {"name": "ASSOCIATION DES LOCATAIRES D'ESPLANADE II INC", "designationCode": "C", "categoryCode": "09", "address": "8885 ESPLANADE                UNIT 203", "city": "MONTREAL", "province": "QC", "country": "CA", "postalCode": "H2N1V3", "twitter": "None", "instagram": "None", "facebook": "None", "youtube": "None", "website": "None", "summary": "None", "logo": "None", "latitude": 45.53935690259096, "longitude": -73.64633374909116}, "120266291RR0001": {"name": "ASSOCIATION DES LOCATAIRES DES BOIS-FRANCS", "designationCode": "C", "categoryCode": "09", "address": "211-59 RUE MONFETTE", "city": "VICTORIAVILLE", "province": "QC", "country": "CA", "postalCode": "G6P1J8", "twitter": "None", "instagram": "None", "facebook": "None", "youtube": "None", "website": "None", "summary": "None", "logo": "None", "latitude": 46.06164779188039, "longitude": -71.9668892342031}, "867952780RR0001": {"name": "ASSOCIATION DES LOISIRS POUR LES HANDICAPES DE LA LIEVRE", "designationCode": "C", "categoryCode": "56", "address": "321 RUE CHARLES", "city": "GATINEAU", "province": "QC", "country": "CA", "postalCode": "J8L2K1", "twitter": "None", "instagram": "None", "facebook": "None", "youtube": "None", "website": "None", "summary": "None", "logo": "None", "latitude": 45.592169217871806, "longitude": -75.41639058384769}, "889372199RR0001": {"name": "ASSOCIATION DES LOISIRS POUR PERSONNES HANDICAP\u00c9ES PSYCHIQUES DE LAVAL ALPHPL", "designationCode": "C", "categoryCode": "09", "address": "6600 29E AVENUE               BUREAU 130", "city": "LAVAL", "province": "QC", "country": "CA", "postalCode": "H7R3M3", "twitter": "None", "instagram": "None", "facebook": "None", "youtube": "None", "website": "None", "summary": "None", "logo": "None", "latitude": 45.54465432165747, "longitude": -73.86981526585515}, "118793231RR0001": {"name": "ASSOCIATION DES LOISIRS SAINT-BERNARD INC.", "designationCode": "C", "categoryCode": "56", "address": "1175 RUE PRINCIPALE           SUITE 1", "city": "NEGUAC", "province": "NB", "country": "CA", "postalCode": "E9G1T1", "twitter": "None", "instagram": "None", "facebook": "None", "youtube": "None", "website": "None", "summary": "None", "logo": "None", "latitude": 47.262354091265436, "longitude": -65.06434483883001}, "892466939RR0001": {"name": "ASSOCIATION DES MAISONS DE JEUNES DE MIRABEL", "designationCode": "C", "categoryCode": "09", "address": "8515,RUE ST-JACQUES", "city": "MIRABEL", "province": "QC", "country": "CA", "postalCode": "J7N2A3", "twitter": "None", "instagram": "None", "facebook": "None", "youtube": "None", "website": "None", "summary": "None", "logo": "None", "latitude": 45.634746855127204, "longitude": -73.98405498511192}, "139322861RR0001": {"name": "ASSOCIATION DES MEMBRES ET AMIS POUR LA PROTECTION DE LA RESERVE NATIONALE DE FAUNE DU LAC SAINT-FRANCOIS", "designationCode": "C", "categoryCode": "52", "address": "7600 CH DE LA POINTE-FRASER", "city": "SAINTE-AGNES-DE-DUNDEE", "province": "QC", "country": "CA", "postalCode": "J0S1L0", "twitter": "None", "instagram": "None", "facebook": "None", "youtube": "None", "website": "None", "summary": "None", "logo": "None", "latitude": 45.0433336359078, "longitude": -74.4659385319618}, "860140524RR0001": {"name": "ASSOCIATION DES MISSIONNAIRES DANS LA RUE", "designationCode": "C", "categoryCode": "09", "address": "585, RUE ST-FRANCOIS EST", "city": "QUEBEC", "province": "QC", "country": "CA", "postalCode": "G1K2Z6", "twitter": "None", "instagram": "None", "facebook": "None", "youtube": "None", "website": "None", "summary": "None", "logo": "None", "latitude": 46.8152372696152, "longitude": -71.22233279806537}, "140216862RR0001": {"name": "ASSOCIATION DES NEUROTRAUMATISES - REGION DE L'OUTAOUAIS", "designationCode": "C", "categoryCode": "09", "address": "115, BOUL.SACR\u00c9-COEUR LOCAL 01", "city": "GATINEAU", "province": "QC", "country": "CA", "postalCode": "J8X1C5", "twitter": "None", "instagram": "None", "facebook": "None", "youtube": "None", "website": "None", "summary": "None", "logo": "None", "latitude": 45.43728742829908, "longitude": -75.71438591341101}, "100301290RR0001": {"name": "ASSOCIATION DES ORCHESTRES DE JEUNES DE LA MONTEREGIE INC.", "designationCode": "C", "categoryCode": "22", "address": "598 RUE VICTORIA CP 36573", "city": "SAINT-LAMBERT", "province": "QC", "country": "CA", "postalCode": "J4P3S8", "twitter": "None", "instagram": "None", "facebook": "None", "youtube": "None", "website": "None", "summary": "None", "logo": "None", "latitude": 45.50045365171079, "longitude": -73.50906347680204}, "888948593RR0001": {"name": "ASSOCIATION DES ORCHESTRES DE JEUNES DU QUEBEC INC /QUEBEC ASSOCIATION OF YOUTH ORCHESTRAS INC", "designationCode": "C", "categoryCode": "22", "address": "901 RUE SAINT-LOUIS", "city": "TERREBONNE", "province": "QC", "country": "CA", "postalCode": "J6W1K1", "twitter": "None", "instagram": "None", "facebook": "None", "youtube": "None", "website": "None", "summary": "None", "logo": "None", "latitude": 45.69490366893554, "longitude": -73.63751950998929}, "118793264RR0001": {"name": "ASSOCIATION DES PARENTS CATHOLIQUES DU QUEBEC", "designationCode": "C", "categoryCode": "49", "address": "2494 BOUL HENRI-BOURASSA E    BUREAU 101", "city": "MONTREAL", "province": "QC", "country": "CA", "postalCode": "H2B1T9", "twitter": "None", "instagram": "None", "facebook": "None", "youtube": "None", "website": "None", "summary": "None", "logo": "None", "latitude": 45.57774568636395, "longitude": -73.65356352703577}, "890709629RR0001": {"name": "ASSOCIATION DES PARENTS D'ADOLESCENTS DE CHICOUTIMI (A P A C)", "designationCode": "C", "categoryCode": "09", "address": "508 RUE ST-AUGUSTIN", "city": "CHICOUTIMI", "province": "QC", "country": "CA", "postalCode": "G7J2J9", "twitter": "None", "instagram": "None", "facebook": "None", "youtube": "None", "website": "None", "summary": "None", "logo": "None", "latitude": 48.41437084260506, "longitude": -71.08583715560593}, "890723281RR0001": {"name": "ASSOCIATION DES PARENTS D'ENFANTS HANDICAP\u00c9S DE DRUMMOND INC.", "designationCode": "C", "categoryCode": "59", "address": "101 - 180 RUE SAINT-DAMASE", "city": "DRUMMONDVILLE", "province": "QC", "country": "CA", "postalCode": "J2B6G9", "twitter": "None", "instagram": "None", "facebook": "None", "youtube": "None", "website": "None", "summary": "None", "logo": "None", "latitude": 45.87183989229052, "longitude": -72.49330195749923}, "892130378RR0001": {"name": "ASSOCIATION DES PARENTS D'ENFANTS HANDICAPES DES HAUTES-LAURENTIDES", "designationCode": "C", "categoryCode": "09", "address": "764, RUE LABELLE NORD", "city": "RIVI\u00c8RE-ROUGE", "province": "QC", "country": "CA", "postalCode": "J0T1T0", "twitter": "None", "instagram": "None", "facebook": "None", "youtube": "None", "website": "None", "summary": "None", "logo": "None", "latitude": 46.41521682820699, "longitude": -74.87492126184445}, "106731284RR0001": {"name": "ASSOCIATION DES PARENTS DE COTE-DES-NEIGES", "designationCode": "C", "categoryCode": "09", "address": "6767 COTE DES NEIGES          SUITE 498", "city": "MONTREAL", "province": "QC", "country": "CA", "postalCode": "H3S2T6", "twitter": "None", "instagram": "None", "facebook": "None", "youtube": "None", "website": "None", "summary": "None", "logo": "None", "latitude": 45.50313226868245, "longitude": -73.63713869926147}, "118874544RR0001": {"name": "ASSOCIATION DES PARENTS DE L'ECOLE CANADIENNE-FRANCAISE DE SASKATOON INC.", "designationCode": "C", "categoryCode": "22", "address": "1407 AVE ALBERT", "city": "SASKATOON", "province": "SK", "country": "CA", "postalCode": "S7H2C6", "twitter": "None", "instagram": "None", "facebook": "None", "youtube": "None", "website": "None", "summary": "None", "logo": "None", "latitude": 52.110972000000004, "longitude": -106.64844826718281}, "888550803RR0001": {"name": "ASSOCIATION DES PARENTS DE L'ECOLE GABRIELLE-ROY", "designationCode": "C", "categoryCode": "21", "address": "6887-132ND ST", "city": "SURREY", "province": "BC", "country": "CA", "postalCode": "V3W4L9", "twitter": "None", "instagram": "None", "facebook": "None", "youtube": "None", "website": "None", "summary": "None", "logo": "None", "latitude": 49.1283897485429, "longitude": -122.85667395394987}, "863249918RR0001": {"name": "ASSOCIATION DES PARENTS DE L'ECOLE ROSE-DES-VENTS", "designationCode": "C", "categoryCode": "21", "address": "5445 RUE BAILLIE", "city": "VANCOUVER", "province": "BC", "country": "CA", "postalCode": "V5Z3M6", "twitter": "None", "instagram": "None", "facebook": "None", "youtube": "None", "website": "None", "summary": "None", "logo": "None", "latitude": 49.23655158090486, "longitude": -123.12230256445795}, "875504607RR0001": {"name": "ASSOCIATION DES PARENTS DE L'ECOLE VICTOR BRODEUR", "designationCode": "C", "categoryCode": "21", "address": "637 HEAD STREET", "city": "VICTORIA", "province": "BC", "country": "CA", "postalCode": "V9A5S9", "twitter": "None", "instagram": "None", "facebook": "None", "youtube": "None", "website": "None", "summary": "None", "logo": "None", "latitude": 48.431711435318405, "longitude": -123.40187564115931}, "118793280RR0001": {"name": "ASSOCIATION DES PARENTS DE L'HOPITAL RIVIERE DES PRAIRIES", "designationCode": "C", "categoryCode": "19", "address": "7070 BOUL. PERRAS", "city": "MONTREAL", "province": "QC", "country": "CA", "postalCode": "H1E1A4", "twitter": "None", "instagram": "None", "facebook": "None", "youtube": "None", "website": "None", "summary": "None", "logo": "None", "latitude": 45.62713032411631, "longitude": -73.61503279757376}, "864950266RR0001": {"name": "ASSOCIATION DES PARENTS DE V'LA L'BON VENT", "designationCode": "C", "categoryCode": "01", "address": "5445 BAILLIE STREET", "city": "VANCOUVER", "province": "BC", "country": "CA", "postalCode": "V5Z3M6", "twitter": "None", "instagram": "None", "facebook": "None", "youtube": "None", "website": "None", "summary": "None", "logo": "None", "latitude": 49.23655158090486, "longitude": -123.12230256445795}, "898415443RR0001": {"name": "ASSOCIATION DES PARENTS DU CENTRE LOUISE VACHON INC.", "designationCode": "C", "categoryCode": "09", "address": "4390 BOUL. ST-MARTIN OUEST", "city": "CHOMEDY, LAVAL", "province": "QC", "country": "CA", "postalCode": "H7T1C3", "twitter": "None", "instagram": "None", "facebook": "None", "youtube": "None", "website": "None", "summary": "None", "logo": "None", "latitude": 45.54851846564712, "longitude": -73.76886007813992}, "106718208RR0001": {"name": "ASSOCIATION DES PARENTS ET AMIS DE LA PERSONNE ATTEINTE DE MALADIE MENTALE -RIVE-SUD APAMM-RS", "designationCode": "C", "categoryCode": "09", "address": "10, BOUL. CHURCHILL           SUITE 206", "city": "GREENFIELD PARK", "province": "QC", "country": "CA", "postalCode": "J4V2L7", "twitter": "None", "instagram": "None", "facebook": "None", "youtube": "None", "website": "None", "summary": "None", "logo": "None", "latitude": 45.489282987794994, "longitude": -73.491302828207}, "118793363RR0001": {"name": "ASSOCIATION DES PARENTS ET AMIS DE TRIMAR", "designationCode": "C", "categoryCode": "49", "address": "2578, CH. SAINT-LOUIS", "city": "QUEBEC", "province": "QC", "country": "CA", "postalCode": "G1W1N2", "twitter": "None", "instagram": "None", "facebook": "None", "youtube": "None", "website": "None", "summary": "None", "logo": "None", "latitude": 46.76723836360998, "longitude": -71.27131478339761}, "891438939RR0001": {"name": "ASSOCIATION DES PARENTS ET AMIS DU MALADE EMOTIONEL (BAIE-COMEAU) INC.", "designationCode": "C", "categoryCode": "09", "address": "CP 2071 SUCC BUREAU-CHEF", "city": "BAIE-COMEAU", "province": "QC", "country": "CA", "postalCode": "G5C2S8", "twitter": "None", "instagram": "None", "facebook": "None", "youtube": "None", "website": "None", "summary": "None", "logo": "None", "latitude": 49.199890000000096, "longitude": -68.27365851923076}, "128213196RR0001": {"name": "ASSOCIATION DES PARENTS ET AMIS DU MALADE EMOTIONNEL DU CENTRE DU QUEBEC INC", "designationCode": "C", "categoryCode": "09", "address": "7 - 787 RUE SAINT-PIERRE", "city": "DRUMMONDVILLE", "province": "QC", "country": "CA", "postalCode": "J2C3X2", "twitter": "None", "instagram": "None", "facebook": "None", "youtube": "None", "website": "None", "summary": "None", "logo": "None", "latitude": 45.87933557926005, "longitude": -72.50770435085668}, "868093337RR0001": {"name": "ASSOCIATION DES PARENTS ET DES ENSEIGNANTES ET ENSEIGNANTS DE L'ECOLE VISION JEUNESSE DE VANIER INC.", "designationCode": "C", "categoryCode": "21", "address": "155 RUE LEBRUN, UNIT\u00c9 12", "city": "OTTAWA", "province": "ON", "country": "CA", "postalCode": "K1L1A5", "twitter": "None", "instagram": "None", "facebook": "None", "youtube": "None", "website": "None", "summary": "None", "logo": "None", "latitude": 45.44305864060228, "longitude": -75.66345232748584}, "118793371RR0001": {"name": "ASSOCIATION DES PARENTS ET DES HANDICAPES DE LA RIVE SUD METROPOLITAINE", "designationCode": "C", "categoryCode": "56", "address": "110-2545 RUE DE LORIMIER", "city": "LONGUEUIL", "province": "QC", "country": "CA", "postalCode": "J4K3P7", "twitter": "None", "instagram": "None", "facebook": "None", "youtube": "None", "website": "None", "summary": "None", "logo": "None", "latitude": 45.510260771596634, "longitude": -73.47782309296562}, "129715942RR0001": {"name": "ASSOCIATION DES PARENTS FRANSASKOIS INC.", "designationCode": "C", "categoryCode": "21", "address": "910, 5TH RUE EST", "city": "SASKATOON", "province": "SK", "country": "CA", "postalCode": "S7H2C6", "twitter": "None", "instagram": "None", "facebook": "None", "youtube": "None", "website": "None", "summary": "None", "logo": "None", "latitude": 52.1117687539904, "longitude": -106.6482321040953}, "846813871RR0001": {"name": "ASSOCIATION DES PARENTS POUR L'EDUCATION FRANCOPHONE DE COCHRANE", "designationCode": "C", "categoryCode": "21", "address": "19 COCHRANE LAKE TRAIL", "city": "COCHRANE", "province": "AB", "country": "CA", "postalCode": "T4C2A8", "twitter": "None", "instagram": "None", "facebook": "None", "youtube": "None", "website": "None", "summary": "None", "logo": "None", "latitude": 51.24431809293698, "longitude": -114.48738304131827}, "889467858RR0001": {"name": "ASSOCIATION DES PERSONNES ACVA-TCC DU BSL", "designationCode": "C", "categoryCode": "09", "address": "391 JESSOP", "city": "RIMOUSKI", "province": "QC", "country": "CA", "postalCode": "G5L1M9", "twitter": "None", "instagram": "None", "facebook": "None", "youtube": "None", "website": "None", "summary": "None", "logo": "None", "latitude": 48.465311092417366, "longitude": -68.51650290836203}, "867053936RR0001": {"name": "ASSOCIATION DES PERSONNES APHASIQUES DE LA MAURICIE", "designationCode": "C", "categoryCode": "11", "address": "10470 BOUL SAINT-JEAN", "city": "TROIS-RIVIERES", "province": "QC", "country": "CA", "postalCode": "G9A5E1", "twitter": "None", "instagram": "None", "facebook": "None", "youtube": "None", "website": "None", "summary": "None", "logo": "None", "latitude": 46.38402083654555, "longitude": -72.68486287091024}, "866551468RR0001": {"name": "ASSOCIATION DES PERSONNES APHASIQUES DU RICHELIEU-YAMASKA", "designationCode": "C", "categoryCode": "11", "address": "1800 RUE DESSAULES            LOCAL C-3115", "city": "ST-HYACINTHE", "province": "QC", "country": "CA", "postalCode": "J2S2T2", "twitter": "None", "instagram": "None", "facebook": "None", "youtube": "None", "website": "None", "summary": "None", "logo": "None", "latitude": 45.62536457269854, "longitude": -72.94960190490643}, "874650070RR0001": {"name": "ASSOCIATION DES PERSONNES APHASIQUES DU SAGUENAY", "designationCode": "C", "categoryCode": "09", "address": "138, RUE PRICE O, PORTE 058A", "city": "CHICOUTIMI", "province": "QC", "country": "CA", "postalCode": "G7J1G8", "twitter": "None", "instagram": "None", "facebook": "None", "youtube": "None", "website": "None", "summary": "None", "logo": "None", "latitude": 48.42525165551995, "longitude": -71.07321907103709}, "887586295RR0001": {"name": "ASSOCIATION DES PERSONNES APHASIQUES GRANBY-REGION", "designationCode": "C", "categoryCode": "11", "address": "170, ST-ANTOINE NORD          LOCAL #2", "city": "GRANBY", "province": "QC", "country": "CA", "postalCode": "J2G5G8", "twitter": "None", "instagram": "None", "facebook": "None", "youtube": "None", "website": "None", "summary": "None", "logo": "None", "latitude": 45.406137226758595, "longitude": -72.7272702524667}, "889691176RR0001": {"name": "ASSOCIATION DES PERSONNES AVEC DIFFICULTES VISUELLES DE MANICOUAGAN", "designationCode": "C", "categoryCode": "09", "address": "1250 LESTRAT", "city": "BAIE-COMEAU", "province": "QC", "country": "CA", "postalCode": "G5C1T8", "twitter": "None", "instagram": "None", "facebook": "None", "youtube": "None", "website": "None", "summary": "None", "logo": "None", "latitude": 49.18384500000006, "longitude": -68.25979699999993}, "892540964RR0001": {"name": "ASSOCIATION DES PERSONNES AVEC PROBLEMES AUDITIFS DES LAURENTIDES", "designationCode": "C", "categoryCode": "09", "address": "421B BOUL. LABELLE", "city": "BLAINVILLE", "province": "QC", "country": "CA", "postalCode": "J7C2H4", "twitter": "None", "instagram": "None", "facebook": "None", "youtube": "None", "website": "None", "summary": "None", "logo": "None", "latitude": 45.6521069083551, "longitude": -73.84709598221582}, "128241825RR0001": {"name": "ASSOCIATION DES PERSONNES D\u00c9FICIENTES INTELLECTUELLES/B\u00c9CANCOUR-NICOLET-YAMASKA", "designationCode": "C", "categoryCode": "11", "address": "93 PLACE DU 21-MARS", "city": "NICOLET", "province": "QC", "country": "CA", "postalCode": "J3T1E9", "twitter": "None", "instagram": "None", "facebook": "None", "youtube": "None", "website": "None", "summary": "None", "logo": "None", "latitude": 46.22592822038195, "longitude": -72.61761936707242}, "874891278RR0001": {"name": "ASSOCIATION DES PERSONNES EN PERTE D'AUTONOMIE DE CHIBOUGAMAU INC.", "designationCode": "C", "categoryCode": "09", "address": "101 AVENUE DU PARC", "city": "CHIBOUGAMAU", "province": "QC", "country": "CA", "postalCode": "G8P3A5", "twitter": "None", "instagram": "None", "facebook": "None", "youtube": "None", "website": "None", "summary": "None", "logo": "None", "latitude": 49.9149230821456, "longitude": -74.36891211575956}, "132622150RR0001": {"name": "ASSOCIATION DES PERSONNES HANDICAP\u00c9ES ACTIVES DE M\u00c9KINAC", "designationCode": "C", "categoryCode": "09", "address": "301 ST JACQUES                LOCAL #210", "city": "SAINTE-THECLE", "province": "QC", "country": "CA", "postalCode": "G0X3G0", "twitter": "None", "instagram": "None", "facebook": "None", "youtube": "None", "website": "None", "summary": "None", "logo": "None", "latitude": 46.814861832128564, "longitude": -72.50614230680709}, "100301845RR0001": {"name": "ASSOCIATION DES PERSONNES HANDICAP\u00c9ES CLAIR-SOLEIL", "designationCode": "C", "categoryCode": "59", "address": "585, RUE L\u00c9ONARD", "city": "MONT-TREMBLANT", "province": "QC", "country": "CA", "postalCode": "J8E3H9", "twitter": "None", "instagram": "None", "facebook": "None", "youtube": "None", "website": "None", "summary": "None", "logo": "None", "latitude": 46.11591937745977, "longitude": -74.59577167603486}, "127868016RR0001": {"name": "ASSOCIATION DES PERSONNES HANDICAP\u00c9ES DE L'\u00c9RABLE INC.", "designationCode": "C", "categoryCode": "09", "address": "1615 AV SAINT-LOUIS", "city": "PLESSISVILLE", "province": "QC", "country": "CA", "postalCode": "G6L2N1", "twitter": "None", "instagram": "None", "facebook": "None", "youtube": "None", "website": "None", "summary": "None", "logo": "None", "latitude": 46.2201247724047, "longitude": -71.77228281600196}, "107600728RR0001": {"name": "ASSOCIATION DES PERSONNES HANDICAP\u00c9ES DE LA RIVE-SUD OUEST", "designationCode": "C", "categoryCode": "09", "address": "100 RUE SAINTE-MARIE", "city": "LA PRAIRIE", "province": "QC", "country": "CA", "postalCode": "J5R1E8", "twitter": "None", "instagram": "None", "facebook": "None", "youtube": "None", "website": "None", "summary": "None", "logo": "None", "latitude": 45.4215997296728, "longitude": -73.49504997114656}, "132634015RR0001": {"name": "ASSOCIATION DES PERSONNES HANDICAP\u00c9ES PHYSIQUES DE BROME- MISSISQUOI", "designationCode": "C", "categoryCode": "09", "address": "CP 307", "city": "COWANSVILLE", "province": "QC", "country": "CA", "postalCode": "J2K3S7", "twitter": "None", "instagram": "None", "facebook": "None", "youtube": "None", "website": "None", "summary": "None", "logo": "None", "latitude": 45.208068000000054, "longitude": -72.74446099999993}, "131921256RR0001": {"name": "ASSOCIATION DES PERSONNES HANDICAP\u00c9ES VISUELLES DU BAS SAINT-LAURENT", "designationCode": "C", "categoryCode": "11", "address": "376 BOUL. JESSOP", "city": "RIMOUSKI", "province": "QC", "country": "CA", "postalCode": "G5L1M8", "twitter": "None", "instagram": "None", "facebook": "None", "youtube": "None", "website": "None", "summary": "None", "logo": "None", "latitude": 48.46439457951987, "longitude": -68.51684975869912}, "100302801RR0001": {"name": "ASSOCIATION DES PERSONNES HANDICAPEES DE BRANDON", "designationCode": "C", "categoryCode": "09", "address": "153 RUE MICHAUD               BUREAU 3", "city": "ST-GABRIEL", "province": "QC", "country": "CA", "postalCode": "J0K2N0", "twitter": "None", "instagram": "None", "facebook": "None", "youtube": "None", "website": "None", "summary": "None", "logo": "None", "latitude": 46.29260175076462, "longitude": -73.37844935636794}, "118793405RR0001": {"name": "ASSOCIATION DES PERSONNES HANDICAPEES DE CHARLESBOURG", "designationCode": "C", "categoryCode": "59", "address": "CP 34054 CSP DU CARREFOUR", "city": "QUEBEC", "province": "QC", "country": "CA", "postalCode": "G1G6P2", "twitter": "None", "instagram": "None", "facebook": "None", "youtube": "None", "website": "None", "summary": "None", "logo": "None", "latitude": 46.87673100000005, "longitude": -71.28341899999994}, "119008803RR0001": {"name": "ASSOCIATION DES PERSONNES HANDICAPEES DE CHARLEVOIX INC.", "designationCode": "C", "categoryCode": "59", "address": "428 - 367 RUE SAINT-ETIENNE", "city": "LA MALBAIE", "province": "QC", "country": "CA", "postalCode": "G5A1M3", "twitter": "None", "instagram": "None", "facebook": "None", "youtube": "None", "website": "None", "summary": "None", "logo": "None", "latitude": 47.65423718847008, "longitude": -70.14977797108924}, "120584842RR0001": {"name": "ASSOCIATION DES PERSONNES HANDICAPEES DE DRUMMOND INC.", "designationCode": "C", "categoryCode": "11", "address": "209 SAINT-MARCEL  RUE", "city": "DRUMMONDVILLE", "province": "QC", "country": "CA", "postalCode": "J2B2E2", "twitter": "None", "instagram": "None", "facebook": "None", "youtube": "None", "website": "None", "summary": "None", "logo": "None", "latitude": 45.87451733305443, "longitude": -72.48763476755727}, "106734155RR0001": {"name": "ASSOCIATION DES PERSONNES HANDICAPEES DE LA CHAUDIERE", "designationCode": "C", "categoryCode": "09", "address": "2425 119E RUE", "city": "SAINT-GEORGES", "province": "QC", "country": "CA", "postalCode": "G5Y5S1", "twitter": "None", "instagram": "None", "facebook": "None", "youtube": "None", "website": "None", "summary": "None", "logo": "None", "latitude": 46.12883672329614, "longitude": -70.6598307489756}, "882852379RR0001": {"name": "ASSOCIATION DES PERSONNES HANDICAPEES DE LA MRC DE BECANCOUR", "designationCode": "C", "categoryCode": "09", "address": "1255 RUE SAINT-JACQUES", "city": "PARISVILLE", "province": "QC", "country": "CA", "postalCode": "G0S1X0", "twitter": "None", "instagram": "None", "facebook": "None", "youtube": "None", "website": "None", "summary": "None", "logo": "None", "latitude": 46.5168779145362, "longitude": -72.06664376141175}, "870369667RR0001": {"name": "ASSOCIATION DES PERSONNES HANDICAPEES DE LA MRC DE COATICOOK", "designationCode": "C", "categoryCode": "09", "address": "100 - 120 RUE DES RUISSELETS", "city": "COATICOOK", "province": "QC", "country": "CA", "postalCode": "J1A3J3", "twitter": "None", "instagram": "None", "facebook": "None", "youtube": "None", "website": "None", "summary": "None", "logo": "None", "latitude": 45.13046574948648, "longitude": -71.79893571545996}, "100302827RR0001": {"name": "ASSOCIATION DES PERSONNES HANDICAPEES DE LA VALLEE DU RICHELIEU", "designationCode": "C", "categoryCode": "09", "address": "308 RUE MONTSABR\u00c9             BUREAU D-209", "city": "BELOEIL", "province": "QC", "country": "CA", "postalCode": "J3G2H5", "twitter": "None", "instagram": "None", "facebook": "None", "youtube": "None", "website": "None", "summary": "None", "logo": "None", "latitude": 45.556986910677225, "longitude": -73.21165285983876}, "890785496RR0001": {"name": "ASSOCIATION DES PERSONNES HANDICAPEES DE LEVIS INC.", "designationCode": "C", "categoryCode": "09", "address": "8069 BLVD. DU C-HOSPITALIER", "city": "CHARNY", "province": "QC", "country": "CA", "postalCode": "G6X1L3", "twitter": "None", "instagram": "None", "facebook": "None", "youtube": "None", "website": "None", "summary": "None", "logo": "None", "latitude": 46.72167797887952, "longitude": -71.26999555470579}, "118793397RR0001": {"name": "ASSOCIATION DES PERSONNES HANDICAPEES DE LOTBINIERE", "designationCode": "C", "categoryCode": "09", "address": "16 RUE DU COLLEGE             CP 1845", "city": "SAINT-APOLLINAIRE", "province": "QC", "country": "CA", "postalCode": "G0S2E0", "twitter": "None", "instagram": "None", "facebook": "None", "youtube": "None", "website": "None", "summary": "None", "logo": "None", "latitude": 46.61525008410749, "longitude": -71.51145374300297}, "875206872RR0001": {"name": "ASSOCIATION DES PERSONNES HANDICAPEES DE ST-MICHEL DES SAINTS ET ST-ZENON INC.", "designationCode": "C", "categoryCode": "09", "address": "641 RUE MATAWIN", "city": "SAINT-MICHEL-DES-SAINTS", "province": "QC", "country": "CA", "postalCode": "J0K3B0", "twitter": "None", "instagram": "None", "facebook": "None", "youtube": "None", "website": "None", "summary": "None", "logo": "None", "latitude": 46.6807306361589, "longitude": -73.91823973414483}, "118793447RR0001": {"name": "ASSOCIATION DES PERSONNES HANDICAPEES DE TEMISCAMING", "designationCode": "C", "categoryCode": "01", "address": "CP 172", "city": "TEMISCAMING", "province": "QC", "country": "CA", "postalCode": "J0Z3R0", "twitter": "None", "instagram": "None", "facebook": "None", "youtube": "None", "website": "None", "summary": "None", "logo": "None", "latitude": 46.74185700000005, "longitude": -79.06862149999994}, "892591470RR0001": {"name": "ASSOCIATION DES PERSONNES HANDICAPEES DES ILES", "designationCode": "C", "categoryCode": "11", "address": "1021 GRAND RUISSEAU", "city": "FATIMA", "province": "QC", "country": "CA", "postalCode": "G4T2M1", "twitter": "None", "instagram": "None", "facebook": "None", "youtube": "None", "website": "None", "summary": "None", "logo": "None", "latitude": 47.398584291678844, "longitude": -61.89632502974748}, "118793439RR0001": {"name": "ASSOCIATION DES PERSONNES HANDICAPEES DU SECTEUR BERTHIER", "designationCode": "C", "categoryCode": "59", "address": "588, MONTCALM, SUITE 213", "city": "BERTHIERVILLE", "province": "QC", "country": "CA", "postalCode": "J0K1A0", "twitter": "None", "instagram": "None", "facebook": "None", "youtube": "None", "website": "None", "summary": "None", "logo": "None", "latitude": 46.083804284782595, "longitude": -73.17541070335815}, "131200206RR0001": {"name": "ASSOCIATION DES PERSONNES HANDICAPEES ENTRE-AMIS DU TEMISCOUATA INC.", "designationCode": "C", "categoryCode": "09", "address": "102-3, RUE DE L'H\u00d4TEL-DE-VILLE", "city": "T\u00c9MISCOUATA-SUR-LE-LAC", "province": "QC", "country": "CA", "postalCode": "G0L1X0", "twitter": "None", "instagram": "None", "facebook": "None", "youtube": "None", "website": "None", "summary": "None", "logo": "None", "latitude": 47.610317862311895, "longitude": -68.79114947374363}, "100306836RR0001": {"name": "ASSOCIATION DES PERSONNES HANDICAPEES INTELLECTUELLES DES LAURENTIDES (APHIL)", "designationCode": "C", "categoryCode": "09", "address": "62 RUE PREFONTAINE E", "city": "SAINTE-AGATHE-DES-MONTS", "province": "QC", "country": "CA", "postalCode": "J8C1S2", "twitter": "None", "instagram": "None", "facebook": "None", "youtube": "None", "website": "None", "summary": "None", "logo": "None", "latitude": 46.04982740940029, "longitude": -74.2838240059726}, "133179911RR0001": {"name": "ASSOCIATION DES PERSONNES HANDICAPEES PHYSIQUES ET SENSORIELLES DU SECTEUR JOLIETTE", "designationCode": "C", "categoryCode": "09", "address": "200 DE SALABERRY", "city": "JOLIETTE", "province": "QC", "country": "CA", "postalCode": "J6E4G1", "twitter": "None", "instagram": "None", "facebook": "None", "youtube": "None", "website": "None", "summary": "None", "logo": "None", "latitude": 46.018426513762904, "longitude": -73.43291349685467}, "106731300RR0001": {"name": "ASSOCIATION DES PERSONNES HANDICAPEES PHYSIQUES RIVE-NORD INC.", "designationCode": "C", "categoryCode": "09", "address": "50 RUE THOUIN                 LOCAL 113", "city": "REPENTIGNY", "province": "QC", "country": "CA", "postalCode": "J6A4J4", "twitter": "None", "instagram": "None", "facebook": "None", "youtube": "None", "website": "None", "summary": "None", "logo": "None", "latitude": 45.73416390891028, "longitude": -73.45014598687135}, "118793454RR0001": {"name": "ASSOCIATION DES PERSONNES HANDICAPEES SOREL-TRACY INC.", "designationCode": "C", "categoryCode": "59", "address": "105, RUE DU PRINCE", "city": "SOREL-TRACY", "province": "QC", "country": "CA", "postalCode": "J3P4J9", "twitter": "None", "instagram": "None", "facebook": "None", "youtube": "None", "website": "None", "summary": "None", "logo": "None", "latitude": 46.04260853012287, "longitude": -73.11358937630592}}