{"862672037RR0001": {"name": "HOLY SPIRIT UKRAINIAN CATHOLIC SEMINARY", "designationCode": "C", "categoryCode": "49", "address": "1030 BASELINE RD", "city": "OTTAWA", "province": "ON", "country": "CA", "postalCode": "K2C0A6", "twitter": "None", "instagram": "None", "facebook": "None", "youtube": "None", "website": "None", "summary": "None", "logo": "None", "latitude": 45.366348774597725, "longitude": -75.72815179361208}, "893107912RR0001": {"name": "HOLY THEOTOKOS CONVENT", "designationCode": "C", "categoryCode": "46", "address": "4369 FAULKNER AVE", "city": "STOUFFVILLE", "province": "ON", "country": "CA", "postalCode": "L4A2R4", "twitter": "None", "instagram": "None", "facebook": "None", "youtube": "None", "website": "None", "summary": "None", "logo": "None", "latitude": 44.057441909779534, "longitude": -79.33131873485904}, "128748373RR0001": {"name": "HOLY TRANSFIGURATION ORTHODOX CHURCH", "designationCode": "C", "categoryCode": "39", "address": "PO BOX 24017 RPO CHERRY HILL", "city": "LONDON", "province": "ON", "country": "CA", "postalCode": "N6H5C4", "twitter": "None", "instagram": "None", "facebook": "None", "youtube": "None", "website": "None", "summary": "None", "logo": "None", "latitude": 42.98934912626871, "longitude": -81.27671211657318}, "872643515RR0001": {"name": "HOLY TRINITY ANGLICAN CATHOLIC CHURCH, MEDICINE HAT", "designationCode": "C", "categoryCode": "39", "address": "402-12TH STREET NE", "city": "MEDICINE HAT", "province": "AB", "country": "CA", "postalCode": "T1A5V2", "twitter": "None", "instagram": "None", "facebook": "None", "youtube": "None", "website": "None", "summary": "None", "logo": "None", "latitude": 50.05343552207277, "longitude": -110.67592041618097}, "108084658RR0034": {"name": "HOLY TRINITY ANGLICAN CHURCH", "designationCode": "C", "categoryCode": "30", "address": "68 RENFREW ST", "city": "PEMBROKE", "province": "ON", "country": "CA", "postalCode": "K8A5R6", "twitter": "None", "instagram": "None", "facebook": "None", "youtube": "None", "website": "None", "summary": "None", "logo": "None", "latitude": 45.82503011847221, "longitude": -77.11394548984379}, "108099771RR0056": {"name": "HOLY TRINITY ANGLICAN CHURCH", "designationCode": "C", "categoryCode": "30", "address": "120 FENNELL AVE, EAST", "city": "HAMILTON", "province": "ON", "country": "CA", "postalCode": "L9A1S1", "twitter": "None", "instagram": "None", "facebook": "None", "youtube": "None", "website": "None", "summary": "None", "logo": "None", "latitude": 43.236500943620776, "longitude": -79.87348018777759}, "108099771RR0077": {"name": "HOLY TRINITY ANGLICAN CHURCH", "designationCode": "C", "categoryCode": "30", "address": "7820 PORTAGE ROAD", "city": "NIAGARA FALLS", "province": "ON", "country": "CA", "postalCode": "L2G5Y8", "twitter": "None", "instagram": "None", "facebook": "None", "youtube": "None", "website": "None", "summary": "None", "logo": "None", "latitude": 43.061594809394194, "longitude": -79.05759160972963}, "118961069RR0001": {"name": "HOLY TRINITY ANGLICAN CHURCH", "designationCode": "C", "categoryCode": "30", "address": "#7 EVANS PLACE", "city": "MEADOW LAKE", "province": "SK", "country": "CA", "postalCode": "S9X1A4", "twitter": "None", "instagram": "None", "facebook": "None", "youtube": "None", "website": "None", "summary": "None", "logo": "None", "latitude": 54.128287545107085, "longitude": -108.44934173592644}, "118961077RR0001": {"name": "HOLY TRINITY ANGLICAN CHURCH", "designationCode": "C", "categoryCode": "30", "address": "165 SECOND AVE N", "city": "YORKTON", "province": "SK", "country": "CA", "postalCode": "S3N2R6", "twitter": "None", "instagram": "None", "facebook": "None", "youtube": "None", "website": "None", "summary": "None", "logo": "None", "latitude": 51.216165000000004, "longitude": -102.46136523382634}, "118961093RR0002": {"name": "HOLY TRINITY ANGLICAN CHURCH", "designationCode": "C", "categoryCode": "30", "address": "BOX 447", "city": "TOFIELD", "province": "AB", "country": "CA", "postalCode": "T0B4J0", "twitter": "None", "instagram": "None", "facebook": "None", "youtube": "None", "website": "None", "summary": "None", "logo": "None", "latitude": 53.36988000000008, "longitude": -112.66557999999998}, "118961358RR0002": {"name": "HOLY TRINITY ANGLICAN CHURCH", "designationCode": "C", "categoryCode": "30", "address": "MAIN ST,                      PO BOX 539", "city": "LUCAN", "province": "ON", "country": "CA", "postalCode": "N0M2J0", "twitter": "None", "instagram": "None", "facebook": "None", "youtube": "None", "website": "None", "summary": "None", "logo": "None", "latitude": 43.18814868132173, "longitude": -81.403782923084}, "118961432RR0002": {"name": "HOLY TRINITY ANGLICAN CHURCH", "designationCode": "C", "categoryCode": "30", "address": "BOX 186", "city": "LITTLE CURRENT", "province": "ON", "country": "CA", "postalCode": "P0P1K0", "twitter": "None", "instagram": "None", "facebook": "None", "youtube": "None", "website": "None", "summary": "None", "logo": "None", "latitude": 45.82642761199063, "longitude": -82.15772370619678}, "118961481RR0001": {"name": "HOLY TRINITY ANGLICAN CHURCH", "designationCode": "C", "categoryCode": "30", "address": "BOX 801", "city": "KILLARNEY", "province": "MB", "country": "CA", "postalCode": "R0K1G0", "twitter": "None", "instagram": "None", "facebook": "None", "youtube": "None", "website": "None", "summary": "None", "logo": "None", "latitude": 49.18482000000006, "longitude": -99.66915999999998}, "128985298RR0001": {"name": "HOLY TRINITY ANGLICAN CHURCH", "designationCode": "C", "categoryCode": "30", "address": "3572 33RD ST W", "city": "SASKATOON", "province": "SK", "country": "CA", "postalCode": "S7L6E1", "twitter": "None", "instagram": "None", "facebook": "None", "youtube": "None", "website": "None", "summary": "None", "logo": "None", "latitude": 52.14395550043268, "longitude": -106.73808202553522}, "129144549RR0040": {"name": "HOLY TRINITY ANGLICAN CHURCH", "designationCode": "C", "categoryCode": "30", "address": "BOX 776                       TREASURER", "city": "GRAND FORKS", "province": "BC", "country": "CA", "postalCode": "V0H1H0", "twitter": "None", "instagram": "None", "facebook": "None", "youtube": "None", "website": "None", "summary": "None", "logo": "None", "latitude": 49.03245000000004, "longitude": -118.44297999999998}, "130402019RR0025": {"name": "HOLY TRINITY ANGLICAN CHURCH", "designationCode": "C", "categoryCode": "30", "address": "POST OFFICE BOX 276           STATION MAIN", "city": "YELLOWKNIFE", "province": "NT", "country": "CA", "postalCode": "X1A2N2", "twitter": "None", "instagram": "None", "facebook": "None", "youtube": "None", "website": "None", "summary": "None", "logo": "None", "latitude": 62.45446200000005, "longitude": -114.37092349999993}, "868929290RR0001": {"name": "HOLY TRINITY ANGLICAN CHURCH", "designationCode": "C", "categoryCode": "30", "address": "30 ALFRED ST.", "city": "DARTMOUTH", "province": "NS", "country": "CA", "postalCode": "B3A4E9", "twitter": "None", "instagram": "None", "facebook": "None", "youtube": "None", "website": "None", "summary": "None", "logo": "None", "latitude": 44.68115271605411, "longitude": -63.58893187604613}, "875748261RR0001": {"name": "HOLY TRINITY ANGLICAN CHURCH", "designationCode": "C", "categoryCode": "30", "address": "2 ANDREW ST.,                 BOX 357", "city": "ST GEORGE", "province": "ON", "country": "CA", "postalCode": "N0E1N0", "twitter": "None", "instagram": "None", "facebook": "None", "youtube": "None", "website": "None", "summary": "None", "logo": "None", "latitude": 43.24853269605883, "longitude": -80.25503899832655}, "886316199RR0001": {"name": "HOLY TRINITY ANGLICAN CHURCH", "designationCode": "C", "categoryCode": "30", "address": "745 MAHEUX", "city": "THETFORD MINES", "province": "QC", "country": "CA", "postalCode": "G6H1S7", "twitter": "None", "instagram": "None", "facebook": "None", "youtube": "None", "website": "None", "summary": "None", "logo": "None", "latitude": 46.04562102582369, "longitude": -71.37019617303375}, "890910979RR0001": {"name": "HOLY TRINITY ANGLICAN CHURCH", "designationCode": "C", "categoryCode": "30", "address": "BOX 816", "city": "BON ACCORD", "province": "AB", "country": "CA", "postalCode": "T0A0K0", "twitter": "None", "instagram": "None", "facebook": "None", "youtube": "None", "website": "None", "summary": "None", "logo": "None", "latitude": 53.837270000000046, "longitude": -113.41078999999996}, "893783621RR0001": {"name": "HOLY TRINITY ANGLICAN CHURCH", "designationCode": "C", "categoryCode": "30", "address": "36364 RGE RD 252", "city": "RED DEER COUNTY", "province": "AB", "country": "CA", "postalCode": "T0M1R0", "twitter": "None", "instagram": "None", "facebook": "None", "youtube": "None", "website": "None", "summary": "None", "logo": "None", "latitude": 52.1096479428127, "longitude": -113.48096636144558}, "130714926RR0001": {"name": "HOLY TRINITY ANGLICAN CHURCH,", "designationCode": "C", "categoryCode": "30", "address": "5015-49 STREET", "city": "ROCKY MOUNTAIN HOUSE", "province": "AB", "country": "CA", "postalCode": "T4T1C1", "twitter": "None", "instagram": "None", "facebook": "None", "youtube": "None", "website": "None", "summary": "None", "logo": "None", "latitude": 52.37498641326678, "longitude": -114.91767600360667}, "130196421RR0001": {"name": "HOLY TRINITY ANGLICAN CHURCH, GROSSE ILE", "designationCode": "C", "categoryCode": "30", "address": "541 CH. PRINCIPAL", "city": "GROSSE ILE", "province": "QC", "country": "CA", "postalCode": "G4T6B2", "twitter": "None", "instagram": "None", "facebook": "None", "youtube": "None", "website": "None", "summary": "None", "logo": "None", "latitude": 47.61590199751849, "longitude": -61.51175012421366}, "107487969RR0001": {"name": "HOLY TRINITY ARMENIAN CHURCH", "designationCode": "C", "categoryCode": "39", "address": "920 PROGRESS AVE", "city": "SCARBOROUGH", "province": "ON", "country": "CA", "postalCode": "M1G3T5", "twitter": "None", "instagram": "None", "facebook": "None", "youtube": "None", "website": "None", "summary": "None", "logo": "None", "latitude": 43.78227837359329, "longitude": -79.23305917196589}, "118961150RR0001": {"name": "HOLY TRINITY CANADIAN RUSSIAN ORTHODOX GREEK CATHOLIC CHURCH", "designationCode": "C", "categoryCode": "39", "address": "10902-96 STREET", "city": "EDMONTON", "province": "AB", "country": "CA", "postalCode": "T5H2K3", "twitter": "None", "instagram": "None", "facebook": "None", "youtube": "None", "website": "None", "summary": "None", "logo": "None", "latitude": 53.556154805990005, "longitude": -113.48807905776421}, "118961168RR0001": {"name": "HOLY TRINITY CEMETERY TRUST", "designationCode": "A", "categoryCode": "59", "address": "BOX 703", "city": "BIRCH HILLS", "province": "SK", "country": "CA", "postalCode": "S0J0G0", "twitter": "None", "instagram": "None", "facebook": "None", "youtube": "None", "website": "None", "summary": "None", "logo": "None", "latitude": 56.325968466910076, "longitude": -103.2432009425047}, "107909939RR0007": {"name": "HOLY TRINITY CHURCH", "designationCode": "C", "categoryCode": "38", "address": "1525 - 45 STREET SE", "city": "CALGARY", "province": "AB", "country": "CA", "postalCode": "T2A1N3", "twitter": "None", "instagram": "None", "facebook": "None", "youtube": "None", "website": "None", "summary": "None", "logo": "None", "latitude": 51.040171341104525, "longitude": -113.968606619222}, "108099771RR0109": {"name": "HOLY TRINITY CHURCH", "designationCode": "C", "categoryCode": "30", "address": "77 DIVISION ST", "city": "WELLAND", "province": "ON", "country": "CA", "postalCode": "L3B3Z8", "twitter": "None", "instagram": "None", "facebook": "None", "youtube": "None", "website": "None", "summary": "None", "logo": "None", "latitude": 42.990997779877844, "longitude": -79.24848821842005}, "118787142RR0026": {"name": "HOLY TRINITY CHURCH", "designationCode": "C", "categoryCode": "30", "address": "1319 MILLS ROAD", "city": "NORTH SAANICH", "province": "BC", "country": "CA", "postalCode": "V8L5T2", "twitter": "None", "instagram": "None", "facebook": "None", "youtube": "None", "website": "None", "summary": "None", "logo": "None", "latitude": 48.65540048398676, "longitude": -123.44517360935426}, "118961234RR0001": {"name": "HOLY TRINITY CHURCH", "designationCode": "C", "categoryCode": "30", "address": "466 CH. LASALLE", "city": "ULVERTON", "province": "QC", "country": "CA", "postalCode": "J0B2B0", "twitter": "None", "instagram": "None", "facebook": "None", "youtube": "None", "website": "None", "summary": "None", "logo": "None", "latitude": 45.71287685287683, "longitude": -72.2372186932602}, "118961242RR0001": {"name": "HOLY TRINITY CHURCH", "designationCode": "C", "categoryCode": "30", "address": "52 RUE PRINCIPALE S", "city": "SUTTON", "province": "QC", "country": "CA", "postalCode": "J0E2K0", "twitter": "None", "instagram": "None", "facebook": "None", "youtube": "None", "website": "None", "summary": "None", "logo": "None", "latitude": 45.10311013070587, "longitude": -72.61784441768151}, "118961259RR0002": {"name": "HOLY TRINITY CHURCH", "designationCode": "C", "categoryCode": "30", "address": "391 MAIN ST", "city": "GRENVILLE SUR LA ROUGE", "province": "QC", "country": "CA", "postalCode": "J0V1B0", "twitter": "None", "instagram": "None", "facebook": "None", "youtube": "None", "website": "None", "summary": "None", "logo": "None", "latitude": 45.64519000000007, "longitude": -74.60990999999996}, "118961267RR0002": {"name": "HOLY TRINITY CHURCH", "designationCode": "C", "categoryCode": "30", "address": "4 CAMBRIA", "city": "GORE", "province": "QC", "country": "CA", "postalCode": "J0V1K0", "twitter": "None", "instagram": "None", "facebook": "None", "youtube": "None", "website": "None", "summary": "None", "logo": "None", "latitude": 45.75152589255033, "longitude": -74.25698642910714}, "118961317RR0001": {"name": "HOLY TRINITY CHURCH", "designationCode": "C", "categoryCode": "30", "address": "140 BROOKE ST", "city": "THORNHILL", "province": "ON", "country": "CA", "postalCode": "L4J1Y9", "twitter": "None", "instagram": "None", "facebook": "None", "youtube": "None", "website": "None", "summary": "None", "logo": "None", "latitude": 43.81422463474525, "longitude": -79.42719757496089}, "118961333RR0002": {"name": "HOLY TRINITY CHURCH", "designationCode": "C", "categoryCode": "30", "address": "PO BOX 55", "city": "BURFORD", "province": "ON", "country": "CA", "postalCode": "N0E1A0", "twitter": "None", "instagram": "None", "facebook": "None", "youtube": "None", "website": "None", "summary": "None", "logo": "None", "latitude": 43.103090000000066, "longitude": -80.43002999999999}, "118961457RR0002": {"name": "HOLY TRINITY CHURCH", "designationCode": "C", "categoryCode": "30", "address": "352 NORTHERN AVENUE EAST", "city": "SAULT STE MARIE", "province": "ON", "country": "CA", "postalCode": "P6B4J1", "twitter": "None", "instagram": "None", "facebook": "None", "youtube": "None", "website": "None", "summary": "None", "logo": "None", "latitude": 46.53413248600597, "longitude": -84.3185835}, "118961473RR0002": {"name": "HOLY TRINITY CHURCH", "designationCode": "C", "categoryCode": "30", "address": "5335 PORTAGE AVE", "city": "HEADINGLEY", "province": "MB", "country": "CA", "postalCode": "R4H1J9", "twitter": "None", "instagram": "None", "facebook": "None", "youtube": "None", "website": "None", "summary": "None", "logo": "None", "latitude": 49.8759165702382, "longitude": -97.4014272606492}, "118961507RR0002": {"name": "HOLY TRINITY CHURCH", "designationCode": "C", "categoryCode": "30", "address": "256 SMITH ST", "city": "WINNIPEG", "province": "MB", "country": "CA", "postalCode": "R3C1K1", "twitter": "None", "instagram": "None", "facebook": "None", "youtube": "None", "website": "None", "summary": "None", "logo": "None", "latitude": 49.89266718261305, "longitude": -97.14154558179887}, "129002556RR0002": {"name": "HOLY TRINITY CHURCH", "designationCode": "C", "categoryCode": "30", "address": "81 SELKIRK STREET", "city": "CHATHAM", "province": "ON", "country": "CA", "postalCode": "N7L1Y8", "twitter": "None", "instagram": "None", "facebook": "None", "youtube": "None", "website": "None", "summary": "None", "logo": "None", "latitude": 42.41053972719127, "longitude": -82.18923930532617}, "134784396RR0001": {"name": "HOLY TRINITY CHURCH", "designationCode": "C", "categoryCode": "30", "address": "PO BOX 245", "city": "MIDDLETON", "province": "NS", "country": "CA", "postalCode": "B0S1P0", "twitter": "None", "instagram": "None", "facebook": "None", "youtube": "None", "website": "None", "summary": "None", "logo": "None", "latitude": 45.01449600000005, "longitude": -65.06449099999993}, "132259532RR0002": {"name": "HOLY TRINITY CHURCH (ANGLICAN)", "designationCode": "C", "categoryCode": "30", "address": "10037 84TH AVE", "city": "EDMONTON", "province": "AB", "country": "CA", "postalCode": "T6E2G6", "twitter": "None", "instagram": "None", "facebook": "None", "youtube": "None", "website": "None", "summary": "None", "logo": "None", "latitude": 53.51996453952926, "longitude": -113.49075158381903}, "891076069RR0001": {"name": "HOLY TRINITY CHURCH (FERRYLAND) RESTORATION FOUNDATION INC.", "designationCode": "C", "categoryCode": "52", "address": "P.O. BOX 195", "city": "FERRYLAND", "province": "NL", "country": "CA", "postalCode": "A0A2H0", "twitter": "None", "instagram": "None", "facebook": "None", "youtube": "None", "website": "None", "summary": "None", "logo": "None", "latitude": 47.02203000000003, "longitude": -52.889899999999955}, "108099771RR0047": {"name": "HOLY TRINITY CHURCH (FONTHILL)", "designationCode": "C", "categoryCode": "30", "address": "1557 PELHAM STREET            BOX 1429", "city": "FONTHILL", "province": "ON", "country": "CA", "postalCode": "L0S1E0", "twitter": "None", "instagram": "None", "facebook": "None", "youtube": "None", "website": "None", "summary": "None", "logo": "None", "latitude": 43.04534822814935, "longitude": -79.2854080950689}, "108084658RR0058": {"name": "HOLY TRINITY CHURCH (METCALFE)", "designationCode": "C", "categoryCode": "30", "address": "8140 VICTORIA STREET", "city": "METCALFE", "province": "ON", "country": "CA", "postalCode": "K0A2P0", "twitter": "None", "instagram": "None", "facebook": "None", "youtube": "None", "website": "None", "summary": "None", "logo": "None", "latitude": 45.233881545357626, "longitude": -75.47750126337365}, "108084658RR0003": {"name": "HOLY TRINITY CHURCH DANFORD LAKE", "designationCode": "C", "categoryCode": "30", "address": "26 HARRISON RD                BOX 901", "city": "DANFORD LAKE", "province": "QC", "country": "CA", "postalCode": "J0X1P0", "twitter": "None", "instagram": "None", "facebook": "None", "youtube": "None", "website": "None", "summary": "None", "logo": "None", "latitude": 45.9264864446304, "longitude": -76.1575439756482}, "131905184RR0001": {"name": "HOLY TRINITY CHURCH,", "designationCode": "C", "categoryCode": "30", "address": "BOX 131", "city": "MINIOTA", "province": "MB", "country": "CA", "postalCode": "R0M1M0", "twitter": "None", "instagram": "None", "facebook": "None", "youtube": "None", "website": "None", "summary": "None", "logo": "None", "latitude": 50.14250000000004, "longitude": -101.03465999999997}, "889994885RR0001": {"name": "HOLY TRINITY CHURCH,", "designationCode": "C", "categoryCode": "30", "address": "1414 RIVER ROAD, RR 1", "city": "BARRY'S BAY", "province": "ON", "country": "CA", "postalCode": "K0J1B0", "twitter": "None", "instagram": "None", "facebook": "None", "youtube": "None", "website": "None", "summary": "None", "logo": "None", "latitude": 45.47700600000006, "longitude": -77.68470049999993}, "892191644RR0002": {"name": "HOLY TRINITY CHURCH, IRON HILL", "designationCode": "C", "categoryCode": "30", "address": "30 CHAPMAN RD., R.R. 3", "city": "COWANSVILLE", "province": "QC", "country": "CA", "postalCode": "J2K3G8", "twitter": "None", "instagram": "None", "facebook": "None", "youtube": "None", "website": "None", "summary": "None", "logo": "None", "latitude": 45.22798404123613, "longitude": -72.686173827832}, "118961622RR0001": {"name": "HOLY TRINITY EVANGELICAL LUTHERAN CHURCH", "designationCode": "C", "categoryCode": "32", "address": "516 VICTORIA AVE", "city": "BELLEVILLE", "province": "ON", "country": "CA", "postalCode": "K8N2G5", "twitter": "None", "instagram": "None", "facebook": "None", "youtube": "None", "website": "None", "summary": "None", "logo": "None", "latitude": 44.17557564568724, "longitude": -77.3499414528925}, "107488215RR0001": {"name": "HOLY TRINITY GREEK ORTHODOX COMMUNITY OF LONDON AND VICINITY", "designationCode": "C", "categoryCode": "39", "address": "131 SOUTHDALE ROAD WEST", "city": "LONDON", "province": "ON", "country": "CA", "postalCode": "N6J2J2", "twitter": "None", "instagram": "None", "facebook": "None", "youtube": "None", "website": "None", "summary": "None", "logo": "None", "latitude": 42.94005583586608, "longitude": -81.26584451355929}, "118961671RR0001": {"name": "HOLY TRINITY LUTHERAN CHURCH", "designationCode": "C", "categoryCode": "32", "address": "304 ANDERSON STREET           BOX 190", "city": "LUSELAND", "province": "SK", "country": "CA", "postalCode": "S0L2A0", "twitter": "None", "instagram": "None", "facebook": "None", "youtube": "None", "website": "None", "summary": "None", "logo": "None", "latitude": 52.083044405227, "longitude": -109.3954100163423}, "118961689RR0001": {"name": "HOLY TRINITY MACEDONO BULGARIAN EASTERN ORTHODOX CHURCH", "designationCode": "C", "categoryCode": "39", "address": "201 MONARCH PK AV", "city": "TORONTO", "province": "ON", "country": "CA", "postalCode": "M4J4R9", "twitter": "None", "instagram": "None", "facebook": "None", "youtube": "None", "website": "None", "summary": "None", "logo": "None", "latitude": 43.68532816348313, "longitude": -79.32825716440675}, "118961697RR0001": {"name": "HOLY TRINITY MEN'S CLUB", "designationCode": "C", "categoryCode": "49", "address": "P.O. BOX 787", "city": "SUDBURY", "province": "ON", "country": "CA", "postalCode": "P3E4S1", "twitter": "None", "instagram": "None", "facebook": "None", "youtube": "None", "website": "None", "summary": "None", "logo": "None", "latitude": 46.48958700000006, "longitude": -80.99011249999994}, "891636375RR0001": {"name": "HOLY TRINITY ORTHODOX CHURCH", "designationCode": "C", "categoryCode": "39", "address": "725  9TH AVE S.W.", "city": "MOOSE JAW", "province": "SK", "country": "CA", "postalCode": "S6H5X2", "twitter": "None", "instagram": "None", "facebook": "None", "youtube": "None", "website": "None", "summary": "None", "logo": "None", "latitude": 50.38110610742561, "longitude": -105.55750761709112}, "887943249RR0001": {"name": "HOLY TRINITY ORTHODOX CHURCH OF SUNLAND", "designationCode": "C", "categoryCode": "39", "address": "P.O. BOX 66", "city": "ANDREW", "province": "AB", "country": "CA", "postalCode": "T0B0C0", "twitter": "None", "instagram": "None", "facebook": "None", "youtube": "None", "website": "None", "summary": "None", "logo": "None", "latitude": 53.88346000000007, "longitude": -112.35188999999997}, "107020331RR0014": {"name": "HOLY TRINITY PARISH", "designationCode": "C", "categoryCode": "38", "address": "P.O. BOX 141                  STATION MAIN", "city": "SAINT JOHN", "province": "NB", "country": "CA", "postalCode": "E2L3X8", "twitter": "None", "instagram": "None", "facebook": "None", "youtube": "None", "website": "None", "summary": "None", "logo": "None", "latitude": 45.274774384642015, "longitude": -66.0653109102771}, "107910176RR0022": {"name": "HOLY TRINITY PARISH", "designationCode": "C", "categoryCode": "38", "address": "PO BOX 1363                   STN C", "city": "ST. JOHN'S", "province": "NL", "country": "CA", "postalCode": "A1C5N5", "twitter": "None", "instagram": "None", "facebook": "None", "youtube": "None", "website": "None", "summary": "None", "logo": "None", "latitude": 47.56082100000006, "longitude": -52.71219349999993}, "118787142RR0038": {"name": "HOLY TRINITY PARISH", "designationCode": "C", "categoryCode": "30", "address": "BOX 519", "city": "SOOKE", "province": "BC", "country": "CA", "postalCode": "V9Z1H5", "twitter": "None", "instagram": "None", "facebook": "None", "youtube": "None", "website": "None", "summary": "None", "logo": "None", "latitude": 48.381873000000056, "longitude": -123.73120249999994}, "118849470RR0014": {"name": "HOLY TRINITY PARISH", "designationCode": "C", "categoryCode": "38", "address": "2725 LONSDALE AVE", "city": "NORTH VANCOUVER", "province": "BC", "country": "CA", "postalCode": "V7N3J2", "twitter": "None", "instagram": "None", "facebook": "None", "youtube": "None", "website": "None", "summary": "None", "logo": "None", "latitude": 49.334364991395184, "longitude": -123.07207260571063}, "118864040RR0001": {"name": "HOLY TRINITY PARISH", "designationCode": "C", "categoryCode": "30", "address": "PO BOX 429", "city": "COCHRANE", "province": "ON", "country": "CA", "postalCode": "P0L1C0", "twitter": "None", "instagram": "None", "facebook": "None", "youtube": "None", "website": "None", "summary": "None", "logo": "None", "latitude": 49.07076000000005, "longitude": -81.00274849999994}, "130599442RR0012": {"name": "HOLY TRINITY PARISH", "designationCode": "C", "categoryCode": "38", "address": "BOX 608", "city": "ENGLEHART", "province": "ON", "country": "CA", "postalCode": "P0J1H0", "twitter": "None", "instagram": "None", "facebook": "None", "youtube": "None", "website": "None", "summary": "None", "logo": "None", "latitude": 47.81686000000008, "longitude": -79.86639999999994}, "118961804RR0001": {"name": "HOLY TRINITY PARISH OF NEW WESTMINSTER, B.C.", "designationCode": "C", "categoryCode": "30", "address": "514 CARNARVON ST", "city": "NEW WESTMINSTER", "province": "BC", "country": "CA", "postalCode": "V3L1C4", "twitter": "None", "instagram": "None", "facebook": "None", "youtube": "None", "website": "None", "summary": "None", "logo": "None", "latitude": 49.204940041058464, "longitude": -122.90713704160672}, "886305994RR0001": {"name": "HOLY TRINITY PARISH OF THE RUSSIAN ORTHODOX CHURCH ABROAD", "designationCode": "C", "categoryCode": "39", "address": "915 RHOLAINE DR", "city": "WINDSOR", "province": "ON", "country": "CA", "postalCode": "N8S3Z9", "twitter": "None", "instagram": "None", "facebook": "None", "youtube": "None", "website": "None", "summary": "None", "logo": "None", "latitude": 42.33112576158465, "longitude": -82.93158504804069}, "107909939RR0049": {"name": "HOLY TRINITY PARISH, BLACKFOOT INDIAN RESERVE", "designationCode": "C", "categoryCode": "38", "address": "BOX 204", "city": "CLUNY", "province": "AB", "country": "CA", "postalCode": "T0J0S0", "twitter": "None", "instagram": "None", "facebook": "None", "youtube": "None", "website": "None", "summary": "None", "logo": "None", "latitude": 50.83859000000007, "longitude": -112.86685999999997}, "119110450RR0095": {"name": "HOLY TRINITY PARISH, OAKVILLE", "designationCode": "C", "categoryCode": "38", "address": "2110 TRAFALGAR ROAD", "city": "OAKVILLE", "province": "ON", "country": "CA", "postalCode": "L6H7H2", "twitter": "None", "instagram": "None", "facebook": "None", "youtube": "None", "website": "None", "summary": "None", "logo": "None", "latitude": 43.477443954469464, "longitude": -79.70553877312584}, "107488348RR0001": {"name": "HOLY TRINITY POLISH NATIONAL CATHOLIC CHURCH", "designationCode": "C", "categoryCode": "39", "address": "880 BARTON STREET EAST", "city": "HAMILTON", "province": "ON", "country": "CA", "postalCode": "L8L3B7", "twitter": "None", "instagram": "None", "facebook": "None", "youtube": "None", "website": "None", "summary": "None", "logo": "None", "latitude": 43.25398700969486, "longitude": -79.82661725618895}, "118961820RR0001": {"name": "HOLY TRINITY RELIGIOUS AND EDUCATIONAL CENTRE", "designationCode": "C", "categoryCode": "49", "address": "201 MONARCH PARK AVE", "city": "TORONTO", "province": "ON", "country": "CA", "postalCode": "M4J4R9", "twitter": "None", "instagram": "None", "facebook": "None", "youtube": "None", "website": "None", "summary": "None", "logo": "None", "latitude": 43.68532816348313, "longitude": -79.32825716440675}, "107909939RR0032": {"name": "HOLY TRINITY ROMAN CATHOLIC PARISH", "designationCode": "C", "categoryCode": "38", "address": "BOX 1410", "city": "BLAIRMORE", "province": "AB", "country": "CA", "postalCode": "T0K0E0", "twitter": "None", "instagram": "None", "facebook": "None", "youtube": "None", "website": "None", "summary": "None", "logo": "None", "latitude": 49.491268008524564, "longitude": -113.94719278131039}, "118812726RR0001": {"name": "HOLY TRINITY ROMAN CATHOLIC SEPARATE SCHOOL DIVISION NO. 22 OF SASKATCHEWAN", "designationCode": "A", "categoryCode": "20", "address": "502-6TH AVE NE", "city": "MOOSE JAW", "province": "SK", "country": "CA", "postalCode": "S6H6B8", "twitter": "None", "instagram": "None", "facebook": "None", "youtube": "None", "website": "None", "summary": "None", "logo": "None", "latitude": 50.394457497617374, "longitude": -105.51995115745763}, "119109817RR0058": {"name": "HOLY TRINITY ROMAN CATHOLICCHURCH", "designationCode": "C", "categoryCode": "38", "address": "1035 ELLIS STREET EAST", "city": "WINDSOR", "province": "ON", "country": "CA", "postalCode": "N8X2J2", "twitter": "None", "instagram": "None", "facebook": "None", "youtube": "None", "website": "None", "summary": "None", "logo": "None", "latitude": 42.30698142677314, "longitude": -83.0142153487312}, "118961846RR0001": {"name": "HOLY TRINITY ROMANIAN ORTHODOX PARISH", "designationCode": "C", "categoryCode": "39", "address": "184 MCBURBEY DRIVE", "city": "YORKTON", "province": "SK", "country": "CA", "postalCode": "S3N3M4", "twitter": "None", "instagram": "None", "facebook": "None", "youtube": "None", "website": "None", "summary": "None", "logo": "None", "latitude": 51.22252960228514, "longitude": -102.44348639872449}, "118961838RR0001": {"name": "HOLY TRINITY ROMANIAN ORTHODOX PARISH SOCIETY", "designationCode": "C", "categoryCode": "39", "address": "210 ST. JAMES RD E", "city": "NORTH VANCOUVER", "province": "BC", "country": "CA", "postalCode": "V7N1L2", "twitter": "None", "instagram": "None", "facebook": "None", "youtube": "None", "website": "None", "summary": "None", "logo": "None"}, "133629147RR0001": {"name": "HOLY TRINITY RUSSIAN GREEK ORTHODOX CATHEDRAL", "designationCode": "C", "categoryCode": "39", "address": "643 MANITOBA AVE", "city": "WINNIPEG", "province": "MB", "country": "CA", "postalCode": "R2W2H1", "twitter": "None", "instagram": "None", "facebook": "None", "youtube": "None", "website": "None", "summary": "None", "logo": "None", "latitude": 49.91908890648612, "longitude": -97.1500639099199}, "118961853RR0001": {"name": "HOLY TRINITY RUSSIAN ORTHODOX CHURCH", "designationCode": "C", "categoryCode": "39", "address": "BOX 215", "city": "PENSE", "province": "SK", "country": "CA", "postalCode": "S0G3W0", "twitter": "None", "instagram": "None", "facebook": "None", "youtube": "None", "website": "None", "summary": "None", "logo": "None", "latitude": 50.41566000000006, "longitude": -104.98467999999997}, "890207772RR0001": {"name": "HOLY TRINITY RUSSIAN ORTHODOX GREEK CATHOLIC CHURCH", "designationCode": "A", "categoryCode": "39", "address": "9809-111 AVENUE", "city": "GRANDE PRAIRIE", "province": "AB", "country": "CA", "postalCode": "T8V1T3", "twitter": "None", "instagram": "None", "facebook": "None", "youtube": "None", "website": "None", "summary": "None", "logo": "None", "latitude": 55.18003013206221, "longitude": -118.78995333135232}, "118961879RR0001": {"name": "HOLY TRINITY RUSSIAN SYNODAL ORTHODOX CHURCH", "designationCode": "C", "categoryCode": "39", "address": "2733 EAST 2ND AVE", "city": "VANCOUVER", "province": "BC", "country": "CA", "postalCode": "V5M1E2", "twitter": "None", "instagram": "None", "facebook": "None", "youtube": "None", "website": "None", "summary": "None", "logo": "None", "latitude": 49.26855149321933, "longitude": -123.04845377699232}, "122397417RR0001": {"name": "HOLY TRINITY SCHOOL (CO-EDUCATIONAL) RICHMOND HILL", "designationCode": "C", "categoryCode": "20", "address": "11300 BAYVIEW AVENUE", "city": "RICHMOND HILL", "province": "ON", "country": "CA", "postalCode": "L4S1L4", "twitter": "None", "instagram": "None", "facebook": "None", "youtube": "None", "website": "None", "summary": "None", "logo": "None", "latitude": 43.90693408849358, "longitude": -79.42320014216016}, "107488413RR0001": {"name": "HOLY TRINITY SERBIAN ORTHODOX CHURCH KITCHENER-WATERLOO", "designationCode": "C", "categoryCode": "39", "address": "700 FISCHER/HALLMAN RD", "city": "KITCHENER", "province": "ON", "country": "CA", "postalCode": "N2E1L7", "twitter": "None", "instagram": "None", "facebook": "None", "youtube": "None", "website": "None", "summary": "None", "logo": "None", "latitude": 43.4155945046163, "longitude": -80.51007822696107}, "118961887RR0001": {"name": "HOLY TRINITY UKRAINIAN CATHOLIC CHURCH", "designationCode": "C", "categoryCode": "38", "address": "118 DON ST", "city": "KAMLOOPS", "province": "BC", "country": "CA", "postalCode": "V2B1B7", "twitter": "None", "instagram": "None", "facebook": "None", "youtube": "None", "website": "None", "summary": "None", "logo": "None", "latitude": 50.684299438802014, "longitude": -120.35179466723403}, "891434540RR0001": {"name": "HOLY TRINITY UKRAINIAN CATHOLIC CHURCH OF STUARTBURN", "designationCode": "C", "categoryCode": "39", "address": "BOX 26", "city": "STUARTBURN", "province": "MB", "country": "CA", "postalCode": "R0A2B0", "twitter": "None", "instagram": "None", "facebook": "None", "youtube": "None", "website": "None", "summary": "None", "logo": "None", "latitude": 49.13378000000006, "longitude": -96.74747999999994}, "891553448RR0001": {"name": "HOLY TRINITY UKRAINIAN CATHOLIC PARISH - LEDUC, ALBERTA", "designationCode": "C", "categoryCode": "39", "address": "11623-137 AVE", "city": "EDMONTON", "province": "AB", "country": "CA", "postalCode": "T5E1Z6", "twitter": "None", "instagram": "None", "facebook": "None", "youtube": "None", "website": "None", "summary": "None", "logo": "None", "latitude": 53.599239525102526, "longitude": -113.52303369317329}, "131908097RR0001": {"name": "HOLY TRINITY UKRAINIAN CATHOLIC PARISH,", "designationCode": "C", "categoryCode": "38", "address": "5705-51 STREET", "city": "VEGREVILLE", "province": "AB", "country": "CA", "postalCode": "T9C1H8", "twitter": "None", "instagram": "None", "facebook": "None", "youtube": "None", "website": "None", "summary": "None", "logo": "None", "latitude": 53.50093267055226, "longitude": -112.05116628902445}, "893722272RR0001": {"name": "HOLY TRINITY UKRAINIAN CATHOLIC PARISH, SPEDDEN", "designationCode": "C", "categoryCode": "38", "address": "BOX 53", "city": "SPEDDEN", "province": "AB", "country": "CA", "postalCode": "T0A3E0", "twitter": "None", "instagram": "None", "facebook": "None", "youtube": "None", "website": "None", "summary": "None", "logo": "None", "latitude": 54.136880000000076, "longitude": -111.72822999999994}, "118961937RR0001": {"name": "HOLY TRINITY UKRAINIAN GREEK ORTHODOX CHURCH", "designationCode": "C", "categoryCode": "39", "address": "BOX 14", "city": "VITA", "province": "MB", "country": "CA", "postalCode": "R0A2K0", "twitter": "None", "instagram": "None", "facebook": "None", "youtube": "None", "website": "None", "summary": "None", "logo": "None", "latitude": 49.13337000000007, "longitude": -96.56287999999995}, "118961986RR0001": {"name": "HOLY TRINITY UKRAINIAN GREEK ORTHODOX CHURCH", "designationCode": "C", "categoryCode": "39", "address": "643-13 ST. N.", "city": "LETHBRIDGE", "province": "AB", "country": "CA", "postalCode": "T1H2S9", "twitter": "None", "instagram": "None", "facebook": "None", "youtube": "None", "website": "None", "summary": "None", "logo": "None", "latitude": 49.708513531715155, "longitude": -112.82406224985986}, "131986952RR0001": {"name": "HOLY TRINITY UKRAINIAN GREEK ORTHODOX CHURCH", "designationCode": "C", "categoryCode": "39", "address": "102 BRAESHIRE LANE", "city": "SASKATOON", "province": "SK", "country": "CA", "postalCode": "S7V1A1", "twitter": "None", "instagram": "None", "facebook": "None", "youtube": "None", "website": "None", "summary": "None", "logo": "None", "latitude": 52.11047462334829, "longitude": -106.57123519484672}, "118961978RR0001": {"name": "HOLY TRINITY UKRAINIAN GREEK ORTHODOX PARISH", "designationCode": "C", "categoryCode": "39", "address": "PO BOX 124", "city": "BROSSEAU", "province": "AB", "country": "CA", "postalCode": "T0B0P0", "twitter": "None", "instagram": "None", "facebook": "None", "youtube": "None", "website": "None", "summary": "None", "logo": "None", "latitude": 53.79120644445779, "longitude": -111.68345890455207}, "108148263RR0004": {"name": "HOLY TRINITY UKRAINIAN ORTHODOX CHURCH OF TARNOPOL", "designationCode": "C", "categoryCode": "39", "address": "BOX 64", "city": "YELLOW CREEK", "province": "SK", "country": "CA", "postalCode": "S0K4X0", "twitter": "None", "instagram": "None", "facebook": "None", "youtube": "None", "website": "None", "summary": "None", "logo": "None"}, "890778178RR0001": {"name": "HOLY TRINITY UKRAINIAN ORTHODOX CHURCH-TWO HILLS, ALBERTA", "designationCode": "C", "categoryCode": "39", "address": "BOX 87", "city": "TWO HILLS", "province": "AB", "country": "CA", "postalCode": "T0B4K0", "twitter": "None", "instagram": "None", "facebook": "None", "youtube": "None", "website": "None", "summary": "None", "logo": "None", "latitude": 52.471845798795655, "longitude": -112.81098701716938}, "118962026RR0002": {"name": "HOLY TRINITY UKRAINIAN ORTHODOX PARISH OF CALMAR, ALBERTA", "designationCode": "C", "categoryCode": "39", "address": "BOX 223", "city": "CALMAR", "province": "AB", "country": "CA", "postalCode": "T0C0V0", "twitter": "None", "instagram": "None", "facebook": "None", "youtube": "None", "website": "None", "summary": "None", "logo": "None", "latitude": 53.265040000000056, "longitude": -113.80454999999995}, "140648882RR0001": {"name": "HOLY TRINITY UKRAINIAN ORTHODOX PARISH OF GLENDON, ALBERTA", "designationCode": "C", "categoryCode": "39", "address": "PO BOX 191", "city": "GLENDON", "province": "AB", "country": "CA", "postalCode": "T0A1P0", "twitter": "None", "instagram": "None", "facebook": "None", "youtube": "None", "website": "None", "summary": "None", "logo": "None", "latitude": 54.247190000000046, "longitude": -111.15382999999997}, "107488512RR0001": {"name": "HOLY TRINITY UNITED CHURCH", "designationCode": "C", "categoryCode": "44", "address": "40 HILLSIDE DRIVE NORTH", "city": "ELLIOT LAKE", "province": "ON", "country": "CA", "postalCode": "P5A1X4", "twitter": "None", "instagram": "None", "facebook": "None", "youtube": "None", "website": "None", "summary": "None", "logo": "None", "latitude": 46.38561581873489, "longitude": -82.65202977317043}, "888492444RR0001": {"name": "HOLY TRINITY, IRWINVILLE", "designationCode": "C", "categoryCode": "30", "address": "PO BOX 70", "city": "MARWAYNE", "province": "AB", "country": "CA", "postalCode": "T0B2X0", "twitter": "None", "instagram": "None", "facebook": "None", "youtube": "None", "website": "None", "summary": "None", "logo": "None", "latitude": 53.53347000000008, "longitude": -110.33490999999998}, "890592744RR0001": {"name": "HOLY UNITED CHURCH OF JESUS CHRIST", "designationCode": "C", "categoryCode": "39", "address": "3291 DUNDAS STREET WEST", "city": "TORONTO", "province": "ON", "country": "CA", "postalCode": "M6P2A5", "twitter": "None", "instagram": "None", "facebook": "None", "youtube": "None", "website": "None", "summary": "None", "logo": "None", "latitude": 43.665535499567326, "longitude": -79.47988102553522}, "118962067RR0001": {"name": "HOLY WORD CHURCH OF EVANGELIZE CHINA FELLOWSHIP", "designationCode": "C", "categoryCode": "39", "address": "206 MCCAUL ST.", "city": "TORONTO", "province": "ON", "country": "CA", "postalCode": "M5T1W5", "twitter": "None", "instagram": "None", "facebook": "None", "youtube": "None", "website": "None", "summary": "None", "logo": "None", "latitude": 43.657174991113195, "longitude": -79.39270671942965}, "866847163RR0001": {"name": "HOLY WORD EVANGELISTIC FOUNDATION", "designationCode": "C", "categoryCode": "47", "address": "SUITE 456, NORTH OFFICE TOWER 650 WEST 41ST AVE.", "city": "VANCOUVER", "province": "BC", "country": "CA", "postalCode": "V5Z2M9", "twitter": "None", "instagram": "None", "facebook": "None", "youtube": "None", "website": "None", "summary": "None", "logo": "None", "latitude": 49.233542548906996, "longitude": -123.11711287483404}, "892920364RR0001": {"name": "HOLY WORD FELLOWSHIP CHURCH OF GOD IN CHRIST MINISTRIES INC.", "designationCode": "C", "categoryCode": "39", "address": "29 EDGAR AVE", "city": "NORTH YORK", "province": "ON", "country": "CA", "postalCode": "M9M2J2", "twitter": "None", "instagram": "None", "facebook": "None", "youtube": "None", "website": "None", "summary": "None", "logo": "None", "latitude": 43.717682734116195, "longitude": -79.52787589739775}, "892738212RR0001": {"name": "HOLY ZION OF MELCHIZEDEK (TORONTO) INC.", "designationCode": "C", "categoryCode": "39", "address": "444 BIRCHMOUNT ROAD", "city": "SCARBOROUGH", "province": "ON", "country": "CA", "postalCode": "M1K1M6", "twitter": "None", "instagram": "None", "facebook": "None", "youtube": "None", "website": "None", "summary": "None", "logo": "None", "latitude": 43.704188256997014, "longitude": -79.26702543150172}, "132564212RR0001": {"name": "HOLYROOD MENNONITE CHURCH", "designationCode": "C", "categoryCode": "34", "address": "9505 79 ST NW", "city": "EDMONTON", "province": "AB", "country": "CA", "postalCode": "T6C2S1", "twitter": "None", "instagram": "None", "facebook": "None", "youtube": "None", "website": "None", "summary": "None", "logo": "None", "latitude": 53.53360585512719, "longitude": -113.4488423578685}, "139136923RR0001": {"name": "HOME AND COMMUNITY SUPPORT SERVICES OF GREY-BRUCE", "designationCode": "C", "categoryCode": "09", "address": "104-340 10TH ST EAST", "city": "OWEN SOUND", "province": "ON", "country": "CA", "postalCode": "N4K6P7", "twitter": "None", "instagram": "None", "facebook": "None", "youtube": "None", "website": "None", "summary": "None", "logo": "None", "latitude": 44.569544106525065, "longitude": -80.9277478173491}}