{"887771467RR0001": {"name": "UKRAINIAN STUDIES SOCIETY", "designationCode": "C", "categoryCode": "21", "address": "3277 DOUGLAS STREET", "city": "VICTORIA", "province": "BC", "country": "CA", "postalCode": "V8Z3K9", "twitter": "None", "instagram": "None", "facebook": "None", "youtube": "None", "website": "None", "summary": "None", "logo": "None", "latitude": 48.44897139954076, "longitude": -123.37306448659832}, "888897063RR0001": {"name": "UKRAINIAN WORLD FOUNDATION", "designationCode": "C", "categoryCode": "23", "address": "145 EVANS AVENUE", "city": "TORONTO", "province": "ON", "country": "CA", "postalCode": "M8Z5X8", "twitter": "None", "instagram": "None", "facebook": "None", "youtube": "None", "website": "None", "summary": "None", "logo": "None", "latitude": 43.61887343542647, "longitude": -79.50980318870123}, "108148461RR0001": {"name": "UKRAINIAN YOUTH ASSOCIATION'S CHARITABLE TRUST", "designationCode": "C", "categoryCode": "09", "address": "9 PLASTICS AVE", "city": "TORONTO", "province": "ON", "country": "CA", "postalCode": "M8Z4B6", "twitter": "None", "instagram": "None", "facebook": "None", "youtube": "None", "website": "None", "summary": "None", "logo": "None", "latitude": 43.62329980711517, "longitude": -79.50931150551126}, "887349595RR0001": {"name": "UKRAINIAN YOUTH ASSOCIATIONS BENEVOLENT INSTITUTE OF QUEBEC INC/INSTITUT BENEVOLE DU QUEBEC DES ASSOCIATIONS DE JEUNESSE UKRAINIENNE INC", "designationCode": "A", "categoryCode": "03", "address": "3260 BEAUBIEN ST .E.", "city": "MONTREAL", "province": "QC", "country": "CA", "postalCode": "H1X3C9", "twitter": "None", "instagram": "None", "facebook": "None", "youtube": "None", "website": "None", "summary": "None", "logo": "None", "latitude": 45.55540651289751, "longitude": -73.58589603147918}, "119275279RR0001": {"name": "UKRAINIAN YOUTH ENSEMBLES CORPORATION (YMA)", "designationCode": "C", "categoryCode": "22", "address": "1 HILL HEIGHTS ROAD 31", "city": "TORONTO", "province": "ON", "country": "CA", "postalCode": "M8Y1Y9", "twitter": "None", "instagram": "None", "facebook": "None", "youtube": "None", "website": "None", "summary": "None", "logo": "None", "latitude": 43.63838092919405, "longitude": -79.49387666582038}, "888628450RR0001": {"name": "UKRANIAN CATHOLIC CHURCH OF SACRED HEART PARISH", "designationCode": "C", "categoryCode": "38", "address": "PO BOX 179", "city": "GILBERT PLAINS", "province": "MB", "country": "CA", "postalCode": "R0L0X0", "twitter": "None", "instagram": "None", "facebook": "None", "youtube": "None", "website": "None", "summary": "None", "logo": "None", "latitude": 51.144900000000064, "longitude": -100.48893999999996}, "108148016RR0001": {"name": "UKRANIAN FOLK ARTS CENTRE AND MUSEUM INC.", "designationCode": "C", "categoryCode": "22", "address": "PO 658", "city": "DAUPHIN", "province": "MB", "country": "CA", "postalCode": "R7N2V4", "twitter": "None", "instagram": "None", "facebook": "None", "youtube": "None", "website": "None", "summary": "None", "logo": "None", "latitude": 51.150138000000055, "longitude": -100.04934049999993}, "108148263RR0107": {"name": "UKRANIAN ORTHODOX CHURCH OF HOLY ASCENSION, ANGUSVILLE", "designationCode": "C", "categoryCode": "39", "address": "BOX 459", "city": "RUSSELL", "province": "MB", "country": "CA", "postalCode": "R0J1W0", "twitter": "None", "instagram": "None", "facebook": "None", "youtube": "None", "website": "None", "summary": "None", "logo": "None", "latitude": 50.69676379161792, "longitude": -101.40612232134879}, "108148263RR0092": {"name": "UKRANIAN ORTHODOX CHURCH OF HOLY GHOST, BRANDON", "designationCode": "C", "categoryCode": "39", "address": "1133 STICKNEY AV", "city": "BRANDON", "province": "MB", "country": "CA", "postalCode": "R7A0E4", "twitter": "None", "instagram": "None", "facebook": "None", "youtube": "None", "website": "None", "summary": "None", "logo": "None", "latitude": 49.85214651875456, "longitude": -99.95362102553523}, "872558127RR0001": {"name": "UKRANIAN ORTHODOX CHURCH OF ST'S PETER AND PAUL", "designationCode": "C", "categoryCode": "39", "address": "BOX 553", "city": "CARROT RIVER", "province": "SK", "country": "CA", "postalCode": "S0E0L0", "twitter": "None", "instagram": "None", "facebook": "None", "youtube": "None", "website": "None", "summary": "None", "logo": "None", "latitude": 53.28401000000008, "longitude": -103.58754999999996}, "875370504RR0001": {"name": "ULAPITSAIJET/PEOPLE HELPING PEOPLE INC.", "designationCode": "C", "categoryCode": "59", "address": "P.O. BOX 490", "city": "NAIN", "province": "NL", "country": "CA", "postalCode": "A0P1L0", "twitter": "None", "instagram": "None", "facebook": "None", "youtube": "None", "website": "None", "summary": "None", "logo": "None", "latitude": 56.544800000000066, "longitude": -61.68909999999994}, "890833940RR0001": {"name": "ULVERTON UNITED CHURCH", "designationCode": "C", "categoryCode": "44", "address": "146 ROUTE 143", "city": "ULVERTON", "province": "QC", "country": "CA", "postalCode": "J0B2B0", "twitter": "None", "instagram": "None", "facebook": "None", "youtube": "None", "website": "None", "summary": "None", "logo": "None", "latitude": 45.72569454984024, "longitude": -72.24057053117696}, "125531384RR0001": {"name": "UMBRELLA CENTRAL DAY CARE SERVICES", "designationCode": "C", "categoryCode": "01", "address": "1220 KINGSTON RD", "city": "SCARBOROUGH", "province": "ON", "country": "CA", "postalCode": "M1N1P3", "twitter": "None", "instagram": "None", "facebook": "None", "youtube": "None", "website": "None", "summary": "None", "logo": "None", "latitude": 43.68251083847878, "longitude": -79.27874646309647}, "892606856RR0001": {"name": "UMBRELLA FAMILY AND CHILD CENTRES OF HAMILTON", "designationCode": "C", "categoryCode": "20", "address": "9 - 310 LIMERIDGE RD W", "city": "HAMILTON", "province": "ON", "country": "CA", "postalCode": "L9C2V2", "twitter": "None", "instagram": "None", "facebook": "None", "youtube": "None", "website": "None", "summary": "None", "logo": "None", "latitude": 43.222647998997324, "longitude": -79.89640039588902}, "854882735RR0001": {"name": "UMBRELLA FOUNDATION FOR ADDICTIONS AND MENTAL HEALTH", "designationCode": "A", "categoryCode": "03", "address": "901 KINGS ROAD", "city": "VICTORIA", "province": "BC", "country": "CA", "postalCode": "V8T1W5", "twitter": "None", "instagram": "None", "facebook": "None", "youtube": "None", "website": "None", "summary": "None", "logo": "None", "latitude": 48.437076678313865, "longitude": -123.36104709463908}, "886425909RR0001": {"name": "UMOJA OPERATION COMPASSION SOCIETY", "designationCode": "C", "categoryCode": "09", "address": "208 - 14888 104 AVE", "city": "SURREY", "province": "BC", "country": "CA", "postalCode": "V3R1M4", "twitter": "None", "instagram": "None", "facebook": "None", "youtube": "None", "website": "None", "summary": "None", "logo": "None", "latitude": 49.19146447403209, "longitude": -122.80975102553523}, "882618309RR0001": {"name": "UN COEUR POUR LES AUTRES / A HEART FOR OTHERS", "designationCode": "C", "categoryCode": "09", "address": "C.P. 50531", "city": "BROSSARD", "province": "QC", "country": "CA", "postalCode": "J4X2V7", "twitter": "None", "instagram": "None", "facebook": "None", "youtube": "None", "website": "None", "summary": "None", "logo": "None", "latitude": 45.45593700000006, "longitude": -73.46766049999994}, "863351078RR0001": {"name": "UN DON MUSICAL, THE GIFT OF MUSIC", "designationCode": "C", "categoryCode": "22", "address": "4963 KENT", "city": "MONTREAL", "province": "QC", "country": "CA", "postalCode": "H8Z2T2", "twitter": "None", "instagram": "None", "facebook": "None", "youtube": "None", "website": "None", "summary": "None", "logo": "None", "latitude": 45.49987240466844, "longitude": -73.8443656219633}, "814219275RR0001": {"name": "UN ITINERAIRE POUR TOUS", "designationCode": "C", "categoryCode": "20", "address": "12004 BLVD ROLAND", "city": "MONTREAL-NORD", "province": "QC", "country": "CA", "postalCode": "H1G3W1", "twitter": "None", "instagram": "None", "facebook": "None", "youtube": "None", "website": "None", "summary": "None", "logo": "None", "latitude": 45.61654297861971, "longitude": -73.62075454206808}, "854701471RR0001": {"name": "UN PAS DE PLUS / ONE MORE STEP", "designationCode": "C", "categoryCode": "09", "address": "1321 BOUL SAINT-JEAN-BAPTISTE", "city": "POINTE AUX TREMBLES", "province": "QC", "country": "CA", "postalCode": "H1B4A2", "twitter": "None", "instagram": "None", "facebook": "None", "youtube": "None", "website": "None", "summary": "None", "logo": "None", "latitude": 45.64205229672783, "longitude": -73.50284902816095}, "105460182RR0001": {"name": "UN PROLONGEMENT A LA FAMILLE DE MONTREAL", "designationCode": "C", "categoryCode": "09", "address": "1691 BOUL PIE-IX (LOCAL S-21)", "city": "MONTR\u00c9AL", "province": "QC", "country": "CA", "postalCode": "H1V2C3", "twitter": "None", "instagram": "None", "facebook": "None", "youtube": "None", "website": "None", "summary": "None", "logo": "None", "latitude": 45.549584819348844, "longitude": -73.53872267288952}, "865048060RR0001": {"name": "UN REFUGE SOUS SES AILES - A REFUGE UNDER HIS WINGS", "designationCode": "C", "categoryCode": "49", "address": "100-1410, RUE PRINCIPALE", "city": "STE-JULIE", "province": "QC", "country": "CA", "postalCode": "J3E1R6", "twitter": "None", "instagram": "None", "facebook": "None", "youtube": "None", "website": "None", "summary": "None", "logo": "None", "latitude": 45.59875458976299, "longitude": -73.33223248886283}, "107406316RR0054": {"name": "UNA Free Methodist Church", "designationCode": "C", "categoryCode": "39", "address": "39 BOURNEMOUTH", "city": "KITCHENER", "province": "ON", "country": "CA", "postalCode": "N2B1M6", "twitter": "None", "instagram": "None", "facebook": "None", "youtube": "None", "website": "None", "summary": "None", "logo": "None", "latitude": 43.457053286687184, "longitude": -80.4676232576895}, "863195178RR0001": {"name": "UNA VOCE CALGARY SOCIETY", "designationCode": "C", "categoryCode": "47", "address": "P.O. BOX 42223                SOUTHLAND CROSSING RPO", "city": "CALGARY", "province": "AB", "country": "CA", "postalCode": "T2J7A6", "twitter": "None", "instagram": "None", "facebook": "None", "youtube": "None", "website": "None", "summary": "None", "logo": "None", "latitude": 50.96850383088225, "longitude": -114.03020395220729}, "898777628RR0001": {"name": "UNA VOCE ST. JOHN'S - ST. OLIVER PLUNKET CHAPTER", "designationCode": "C", "categoryCode": "49", "address": "77 RENNIE'S MILL ROAD", "city": "ST. JOHN'S", "province": "NL", "country": "CA", "postalCode": "A1C3R1", "twitter": "None", "instagram": "None", "facebook": "None", "youtube": "None", "website": "None", "summary": "None", "logo": "None", "latitude": 47.5720103613596, "longitude": -52.70999226897089}, "891641466RR0001": {"name": "UNARIUS CANADA", "designationCode": "C", "categoryCode": "29", "address": "330 MILL STREET SOUTH         SUITE 510", "city": "BRAMPTON", "province": "ON", "country": "CA", "postalCode": "L6Y3V3", "twitter": "None", "instagram": "None", "facebook": "None", "youtube": "None", "website": "None", "summary": "None", "logo": "None", "latitude": 43.67073181767543, "longitude": -79.74414971602546}, "108149139RR0001": {"name": "UNCLE GABE'S FRIENDSHIP CENTRE", "designationCode": "C", "categoryCode": "56", "address": "PO BOX 957                    112 CONIBEAR CRESCENT", "city": "FORT SMITH", "province": "NT", "country": "CA", "postalCode": "X0E0P0", "twitter": "None", "instagram": "None", "facebook": "None", "youtube": "None", "website": "None", "summary": "None", "logo": "None", "latitude": 60.00466401908427, "longitude": -111.89421155276086}, "108149147RR0001": {"name": "UNCLES & AUNTS AT LARGE (EDMONTON AREA) SOCIETY", "designationCode": "C", "categoryCode": "09", "address": "11031 - 124 STREET", "city": "EDMONTON", "province": "AB", "country": "CA", "postalCode": "T5M0J5", "twitter": "None", "instagram": "None", "facebook": "None", "youtube": "None", "website": "None", "summary": "None", "logo": "None", "latitude": 53.55830700000001, "longitude": -113.5358867490625}, "713318525RR0001": {"name": "UNDER ANGELS WINGS", "designationCode": "C", "categoryCode": "09", "address": "4 LENT CRES", "city": "BRAMPTON", "province": "ON", "country": "CA", "postalCode": "L6Y5E5", "twitter": "None", "instagram": "None", "facebook": "None", "youtube": "None", "website": "None", "summary": "None", "logo": "None", "latitude": 43.663007892579, "longitude": -79.77388264498836}, "861466209RR0001": {"name": "UNDER THE BANYAN TREE CENTRE FOR THE DEVELOPMENTALLY DISABLED", "designationCode": "C", "categoryCode": "11", "address": "1020 DENISON STREET           SUITE 106", "city": "MARKHAM", "province": "ON", "country": "CA", "postalCode": "L3R3W5", "twitter": "None", "instagram": "None", "facebook": "None", "youtube": "None", "website": "None", "summary": "None", "logo": "None", "latitude": 43.826960103554526, "longitude": -79.32883877589579}, "893323378RR0001": {"name": "UNDER THE BRIDGE THEATRE COMPANY", "designationCode": "C", "categoryCode": "22", "address": "160 ROSEDALE HEIGHTS DRIVE", "city": "TORONTO", "province": "ON", "country": "CA", "postalCode": "M4T1C8", "twitter": "None", "instagram": "None", "facebook": "None", "youtube": "None", "website": "None", "summary": "None", "logo": "None", "latitude": 43.688075132407974, "longitude": -79.37607653886542}, "849962568RR0001": {"name": "UNDER THE READING TREE / LISANT SOUS L'ARBRE", "designationCode": "C", "categoryCode": "09", "address": "35 OXFORD ST", "city": "HAMILTON", "province": "ON", "country": "CA", "postalCode": "L8R2W9", "twitter": "None", "instagram": "None", "facebook": "None", "youtube": "None", "website": "None", "summary": "None", "logo": "None", "latitude": 43.26466373189449, "longitude": -79.87790574106974}, "890141195RR0001": {"name": "UNDERSTAND THE TIMES: ROGER OAKLAND MINISTRIES, INC", "designationCode": "C", "categoryCode": "47", "address": "BOX 1160", "city": "ESTON", "province": "SK", "country": "CA", "postalCode": "S0L1A0", "twitter": "None", "instagram": "None", "facebook": "None", "youtube": "None", "website": "None", "summary": "None", "logo": "None", "latitude": 51.15382000000005, "longitude": -108.75371999999999}, "119275436RR0001": {"name": "UNDERWATER ARCHAEOLOGICAL SOCIETY OF BRITISH COLUMBIA", "designationCode": "C", "categoryCode": "50", "address": "1905 OGDEN AVENUE", "city": "VANCOUVER", "province": "BC", "country": "CA", "postalCode": "V6J1A3", "twitter": "None", "instagram": "None", "facebook": "None", "youtube": "None", "website": "None", "summary": "None", "logo": "None", "latitude": 49.277053318367905, "longitude": -123.14888524395526}, "119275469RR0001": {"name": "UNDERWOOD/WESLY PASTORAL CHARGE", "designationCode": "C", "categoryCode": "44", "address": "124 SUNSET DRIVE              RR1,", "city": "PORT ELGIN", "province": "ON", "country": "CA", "postalCode": "N0H2C5", "twitter": "None", "instagram": "None", "facebook": "None", "youtube": "None", "website": "None", "summary": "None", "logo": "None", "latitude": 44.365504658261266, "longitude": -81.53442542933828}, "898770821RR0001": {"name": "UNE AFFAIRE DE FAMILLE", "designationCode": "C", "categoryCode": "09", "address": "19, RUE BRIDGE, C.P. 397", "city": "ORMSTOWN", "province": "QC", "country": "CA", "postalCode": "J0S1K0", "twitter": "None", "instagram": "None", "facebook": "None", "youtube": "None", "website": "None", "summary": "None", "logo": "None", "latitude": 45.12283712213621, "longitude": -73.9914142966705}, "119275519RR0001": {"name": "UNIACKE AND DISTRICT VOLUNTEER FIRE DEPARTMENT", "designationCode": "C", "categoryCode": "59", "address": "BOX 44", "city": "MT UNIACKE", "province": "NS", "country": "CA", "postalCode": "B0N1Z0", "twitter": "None", "instagram": "None", "facebook": "None", "youtube": "None", "website": "None", "summary": "None", "logo": "None", "latitude": 44.90015000000005, "longitude": -63.83201999999994}, "108149329RR0001": {"name": "UNIACKE BAPTIST CHURCH", "designationCode": "C", "categoryCode": "31", "address": "37 EAST UNIACKE ROAD", "city": "HANTS COUNTY", "province": "NS", "country": "CA", "postalCode": "B0N1Z0", "twitter": "None", "instagram": "None", "facebook": "None", "youtube": "None", "website": "None", "summary": "None", "logo": "None", "latitude": 44.87629640492824, "longitude": -63.80280786009019}, "132985243RR0001": {"name": "UNIACKE UNION CHURCH TRUSTEE ASSOCIATION", "designationCode": "C", "categoryCode": "52", "address": "16 LAKECREST DRIVE", "city": "MOUNT UNIACKE", "province": "NS", "country": "CA", "postalCode": "B0N1Z0", "twitter": "None", "instagram": "None", "facebook": "None", "youtube": "None", "website": "None", "summary": "None", "logo": "None", "latitude": 44.92643121671796, "longitude": -63.77490263783232}, "119275535RR0001": {"name": "UNICAMP OF ONTARIO INCORPORATED", "designationCode": "C", "categoryCode": "56", "address": "215 SPADINA AVE", "city": "TORONTO", "province": "ON", "country": "CA", "postalCode": "M5T2C7", "twitter": "None", "instagram": "None", "facebook": "None", "youtube": "None", "website": "None", "summary": "None", "logo": "None", "latitude": 43.65063316348313, "longitude": -79.39697013165816}, "119275543RR0001": {"name": "UNICORN CHILDREN'S CENTRE INC", "designationCode": "C", "categoryCode": "20", "address": "500 CLEVELAND AVE", "city": "RIVERVIEW", "province": "NB", "country": "CA", "postalCode": "E1B1Y2", "twitter": "None", "instagram": "None", "facebook": "None", "youtube": "None", "website": "None", "summary": "None", "logo": "None", "latitude": 46.06025286816895, "longitude": -64.79572797749454}, "890591589RR0001": {"name": "UNION BAPTIST CHURCH,", "designationCode": "C", "categoryCode": "31", "address": "10586 UNION LINE              PO BOX 974", "city": "DRESDEN", "province": "ON", "country": "CA", "postalCode": "N0P1M0", "twitter": "None", "instagram": "None", "facebook": "None", "youtube": "None", "website": "None", "summary": "None", "logo": "None", "latitude": 42.55763936715934, "longitude": -82.21663335160743}, "119275584RR0001": {"name": "UNION BAY COMMUNITY CLUB AND RECREATION ASSOCIATION", "designationCode": "C", "categoryCode": "56", "address": "5401 ISLAND HIGHWAY           BOX 335", "city": "UNION BAY", "province": "BC", "country": "CA", "postalCode": "V0R3B0", "twitter": "None", "instagram": "None", "facebook": "None", "youtube": "None", "website": "None", "summary": "None", "logo": "None"}, "140644717RR0001": {"name": "UNION BAY HISTORICAL SOCIETY", "designationCode": "C", "categoryCode": "50", "address": "5527 ISLAND HIGHWAY           PO BOX 448", "city": "UNION BAY", "province": "BC", "country": "CA", "postalCode": "V0R3B0", "twitter": "None", "instagram": "None", "facebook": "None", "youtube": "None", "website": "None", "summary": "None", "logo": "None", "latitude": 49.584686855163845, "longitude": -124.88663086336385}, "819295155RR0001": {"name": "UNION BAY MISSION UNITED CHURCH", "designationCode": "C", "categoryCode": "44", "address": "PO BOX 327", "city": "UNION BAY", "province": "BC", "country": "CA", "postalCode": "V0R3B0", "twitter": "None", "instagram": "None", "facebook": "None", "youtube": "None", "website": "None", "summary": "None", "logo": "None", "latitude": 49.62709089183625, "longitude": -125.01029476219132}, "119275592RR0001": {"name": "UNION BURIAL GROUNDS CEMETERY", "designationCode": "C", "categoryCode": "59", "address": "RR 6", "city": "DRESDEN", "province": "ON", "country": "CA", "postalCode": "N0P1M0", "twitter": "None", "instagram": "None", "facebook": "None", "youtube": "None", "website": "None", "summary": "None", "logo": "None", "latitude": 42.58952000000005, "longitude": -82.17963999999995}, "890272537RR0001": {"name": "UNION CANADIENNE DES MONIALES DE L'ORDRE DE SAINT URSULE", "designationCode": "C", "categoryCode": "46", "address": "1358 RUE BARRIN", "city": "QU\u00c9BEC", "province": "QC", "country": "CA", "postalCode": "G1S2G8", "twitter": "None", "instagram": "None", "facebook": "None", "youtube": "None", "website": "None", "summary": "None", "logo": "None", "latitude": 46.79336092229781, "longitude": -71.25371748433253}, "119275618RR0001": {"name": "UNION CANADIENNE DES MONIALES DE L'ORDRE DE SAINTE-URSULE", "designationCode": "C", "categoryCode": "46", "address": "1358 RUE BARRIN", "city": "QUEBEC", "province": "QC", "country": "CA", "postalCode": "G1S2G8", "twitter": "None", "instagram": "None", "facebook": "None", "youtube": "None", "website": "None", "summary": "None", "logo": "None", "latitude": 46.79336092229781, "longitude": -71.25371748433253}, "864347539RR0001": {"name": "UNION CEMETERY", "designationCode": "C", "categoryCode": "59", "address": "P.O. BOX 1003", "city": "COLBORNE", "province": "ON", "country": "CA", "postalCode": "K0K1S0", "twitter": "None", "instagram": "None", "facebook": "None", "youtube": "None", "website": "None", "summary": "None", "logo": "None", "latitude": 44.47739277748983, "longitude": -77.31137062647974}, "889580262RR0001": {"name": "UNION CEMETERY", "designationCode": "C", "categoryCode": "59", "address": "R.R.#2", "city": "SPENCERVILLE", "province": "ON", "country": "CA", "postalCode": "K0E1X0", "twitter": "None", "instagram": "None", "facebook": "None", "youtube": "None", "website": "None", "summary": "None", "logo": "None", "latitude": 44.84255997388789, "longitude": -75.5491700455878}, "892078643RR0001": {"name": "UNION CEMETERY BOARD", "designationCode": "C", "categoryCode": "59", "address": "278 WARBURTON RD", "city": "LANSDOWNE", "province": "ON", "country": "CA", "postalCode": "K0E1L0", "twitter": "None", "instagram": "None", "facebook": "None", "youtube": "None", "website": "None", "summary": "None", "logo": "None", "latitude": 44.464606570389165, "longitude": -76.02779549746818}, "887832665RR0001": {"name": "UNION CEMETERY COMPANY", "designationCode": "C", "categoryCode": "59", "address": "BOX 66", "city": "WARBURG", "province": "AB", "country": "CA", "postalCode": "T0C2T0", "twitter": "None", "instagram": "None", "facebook": "None", "youtube": "None", "website": "None", "summary": "None", "logo": "None", "latitude": 53.18105000000003, "longitude": -114.31863999999996}, "852341148RR0001": {"name": "UNION CEMETERY LOMBARDY", "designationCode": "C", "categoryCode": "59", "address": "635 HWY 15 RR 1", "city": "LOMBARDY", "province": "ON", "country": "CA", "postalCode": "K0G1L0", "twitter": "None", "instagram": "None", "facebook": "None", "youtube": "None", "website": "None", "summary": "None", "logo": "None", "latitude": 44.832212012360486, "longitude": -76.07855320338322}, "119275634RR0001": {"name": "UNION CENTRE COMMUNITY CLUB", "designationCode": "C", "categoryCode": "56", "address": "RR#2", "city": "WESTVILLE", "province": "NS", "country": "CA", "postalCode": "B0K2A0", "twitter": "None", "instagram": "None", "facebook": "None", "youtube": "None", "website": "None", "summary": "None", "logo": "None", "latitude": 45.559140000000056, "longitude": -62.70123049999994}, "119275659RR0001": {"name": "UNION CHURCH OF INDIAN POINT", "designationCode": "C", "categoryCode": "39", "address": "227 INDIAN PT. RD.", "city": "MAHONE BAY", "province": "NS", "country": "CA", "postalCode": "B0J2E0", "twitter": "None", "instagram": "None", "facebook": "None", "youtube": "None", "website": "None", "summary": "None", "logo": "None", "latitude": 44.46164654899299, "longitude": -64.31044322219962}, "892891763RR0001": {"name": "UNION CHURCH OF SCOTT S BAY", "designationCode": "C", "categoryCode": "31", "address": "5704 HWY 358                  RR 3", "city": "CANNING", "province": "NS", "country": "CA", "postalCode": "B0P1H0", "twitter": "None", "instagram": "None", "facebook": "None", "youtube": "None", "website": "None", "summary": "None", "logo": "None", "latitude": 45.29900032547235, "longitude": -64.39365396866815}, "108149923RR0001": {"name": "UNION CHURCH, STE. ANNE DE BELLEVUE", "designationCode": "C", "categoryCode": "44", "address": "24 MAPLE AVE", "city": "STE ANNE DE BELLEVUE", "province": "QC", "country": "CA", "postalCode": "H9X2E6", "twitter": "None", "instagram": "None", "facebook": "None", "youtube": "None", "website": "None", "summary": "None", "logo": "None", "latitude": 45.40665235414625, "longitude": -73.94528861036386}, "825852676RR0001": {"name": "UNION COMMUNITY CENTRE", "designationCode": "C", "categoryCode": "56", "address": "55 AIREY AVE.", "city": "ST. THOMAS", "province": "ON", "country": "CA", "postalCode": "N5R1E1", "twitter": "None", "instagram": "None", "facebook": "None", "youtube": "None", "website": "None", "summary": "None", "logo": "None", "latitude": 42.758852797221046, "longitude": -81.16807119872755}, "867907271RR0001": {"name": "UNION FOR REFORM JUDAISM CAMP GEORGE", "designationCode": "C", "categoryCode": "49", "address": "3845 BATHURST ST.             SUITE 301", "city": "TORONTO", "province": "ON", "country": "CA", "postalCode": "M3H3N2", "twitter": "None", "instagram": "None", "facebook": "None", "youtube": "None", "website": "None", "summary": "None", "logo": "None", "latitude": 43.74047087039064, "longitude": -79.43473796055765}, "108150525RR0001": {"name": "UNION FRANCAISE", "designationCode": "C", "categoryCode": "03", "address": "429 AV VIGER EST", "city": "MONTREAL", "province": "QC", "country": "CA", "postalCode": "H2L2N9", "twitter": "None", "instagram": "None", "facebook": "None", "youtube": "None", "website": "None", "summary": "None", "logo": "None", "latitude": 45.51218669859764, "longitude": -73.55531413713983}, "862851615RR0001": {"name": "UNION GOSPEL MISSION FOUNDATION", "designationCode": "A", "categoryCode": "03", "address": "601 EAST HASTINGS STREET", "city": "VANCOUVER", "province": "BC", "country": "CA", "postalCode": "V6A1J7", "twitter": "None", "instagram": "None", "facebook": "None", "youtube": "None", "website": "None", "summary": "None", "logo": "None", "latitude": 49.281189504327834, "longitude": -123.09108258090484}, "119275758RR0001": {"name": "UNION GOSPEL MISSION,", "designationCode": "C", "categoryCode": "39", "address": "PO BOX 1073 STN MAIN          320 PRINCESS ST.", "city": "WINNIPEG", "province": "MB", "country": "CA", "postalCode": "R3C2X4", "twitter": "None", "instagram": "None", "facebook": "None", "youtube": "None", "website": "None", "summary": "None", "logo": "None", "latitude": 49.89378009743844, "longitude": -97.13773977270498}, "131902348RR0001": {"name": "UNION GOSPEL MISSION,", "designationCode": "C", "categoryCode": "03", "address": "601 E HASTINGS ST", "city": "VANCOUVER", "province": "BC", "country": "CA", "postalCode": "V6A1J7", "twitter": "None", "instagram": "None", "facebook": "None", "youtube": "None", "website": "None", "summary": "None", "logo": "None", "latitude": 49.281189504327834, "longitude": -123.09108258090484}, "887994069RR0001": {"name": "UNION GROVE CEMETERY", "designationCode": "C", "categoryCode": "59", "address": "494 SMITH ST.", "city": "NEW WATERFORD", "province": "NS", "country": "CA", "postalCode": "B1H3R4", "twitter": "None", "instagram": "None", "facebook": "None", "youtube": "None", "website": "None", "summary": "None", "logo": "None", "latitude": 46.24763448237063, "longitude": -60.08752123339503}, "131595324RR0001": {"name": "UNION HALL COMMUNITY CENTRE (LANARK COUNTY) INC.", "designationCode": "C", "categoryCode": "56", "address": "2581 WOLF GROVE RD", "city": "ALMONTE", "province": "ON", "country": "CA", "postalCode": "K0A1A0", "twitter": "None", "instagram": "None", "facebook": "None", "youtube": "None", "website": "None", "summary": "None", "logo": "None", "latitude": 45.14384606392457, "longitude": -76.32087024133165}, "890196397RR0001": {"name": "UNION MARONITE DU CANADA/MARONITE UNION OF CANADA", "designationCode": "C", "categoryCode": "09", "address": "207-1805 RUE SAUVE O", "city": "MONTREAL", "province": "QC", "country": "CA", "postalCode": "H4N3B8", "twitter": "None", "instagram": "None", "facebook": "None", "youtube": "None", "website": "None", "summary": "None", "logo": "None", "latitude": 45.531413400681174, "longitude": -73.66743352821463}, "108150509RR0001": {"name": "UNION MISSION FOR MEN", "designationCode": "C", "categoryCode": "01", "address": "35 WALLER ST", "city": "OTTAWA", "province": "ON", "country": "CA", "postalCode": "K1N7G4", "twitter": "None", "instagram": "None", "facebook": "None", "youtube": "None", "website": "None", "summary": "None", "logo": "None", "latitude": 45.42636524508045, "longitude": -75.68809342711658}, "119275774RR0001": {"name": "UNION OF SPIRITUAL COMMUNITIES OF CHRIST", "designationCode": "C", "categoryCode": "49", "address": "BOX 760", "city": "GRAND FORKS", "province": "BC", "country": "CA", "postalCode": "V0H1H0", "twitter": "None", "instagram": "None", "facebook": "None", "youtube": "None", "website": "None", "summary": "None", "logo": "None", "latitude": 49.032020000000045, "longitude": -118.43659999999994}, "108150764RR0001": {"name": "UNION PRESBYTERIAN CHURCH", "designationCode": "C", "categoryCode": "37", "address": "PO BOX 12", "city": "THORBURN", "province": "NS", "country": "CA", "postalCode": "B0K1W0", "twitter": "None", "instagram": "None", "facebook": "None", "youtube": "None", "website": "None", "summary": "None", "logo": "None", "latitude": 45.56894299795978, "longitude": -62.53528136563699}, "119275808RR0001": {"name": "UNION PRESBYTERIAN CHURCH", "designationCode": "C", "categoryCode": "37", "address": "16789 22ND SIDEROAD", "city": "GEORGETOWN", "province": "ON", "country": "CA", "postalCode": "L7G4S7", "twitter": "None", "instagram": "None", "facebook": "None", "youtube": "None", "website": "None", "summary": "None", "logo": "None", "latitude": 43.69275412576432, "longitude": -79.91796453493494}, "119275782RR0001": {"name": "UNION PRESBYTERIAN CHURCH,", "designationCode": "C", "categoryCode": "37", "address": "4220 LOUISBOURG HWY", "city": "ALBERT BRIDGE", "province": "NS", "country": "CA", "postalCode": "B1K3K3", "twitter": "None", "instagram": "None", "facebook": "None", "youtube": "None", "website": "None", "summary": "None", "logo": "None", "latitude": 46.02014174656277, "longitude": -60.0585003453197}, "120773494RR0001": {"name": "UNION QUEBECOISE DE REHABILITATION DES OISEAUX DE PROIE", "designationCode": "C", "categoryCode": "54", "address": "CP 246", "city": "ST HYACINTHE", "province": "QC", "country": "CA", "postalCode": "J2S7B6", "twitter": "None", "instagram": "None", "facebook": "None", "youtube": "None", "website": "None", "summary": "None", "logo": "None", "latitude": 45.62664000000005, "longitude": -72.94719049999993}, "886076199RR0001": {"name": "UNION SQUARE CEMETERY", "designationCode": "C", "categoryCode": "59", "address": "P.O. BOX 1784", "city": "LUNENBURG", "province": "NS", "country": "CA", "postalCode": "B0J2C0", "twitter": "None", "instagram": "None", "facebook": "None", "youtube": "None", "website": "None", "summary": "None", "logo": "None", "latitude": 44.37886006217898, "longitude": -64.31792993782098}, "812539047RR0001": {"name": "UNION STREET ATLANTIC BAPTIST CHURCH LTD.", "designationCode": "C", "categoryCode": "31", "address": "28 MAIN ST", "city": "ST. STEPHEN", "province": "NB", "country": "CA", "postalCode": "E3L1Z1", "twitter": "None", "instagram": "None", "facebook": "None", "youtube": "None", "website": "None", "summary": "None", "logo": "None", "latitude": 45.19429301965916, "longitude": -67.28161022234167}, "119275865RR0001": {"name": "UNION SUNDAY SCHOOL", "designationCode": "C", "categoryCode": "49", "address": "PO BOX 461", "city": "BATH", "province": "NB", "country": "CA", "postalCode": "E7J2N3", "twitter": "None", "instagram": "None", "facebook": "None", "youtube": "None", "website": "None", "summary": "None", "logo": "None", "latitude": 46.50950400000005, "longitude": -67.59541249999994}, "108150814RR0001": {"name": "UNION UNITED CHURCH", "designationCode": "C", "categoryCode": "44", "address": "3007, RUE DELISLE", "city": "MONTREAL", "province": "QC", "country": "CA", "postalCode": "H4C1M8", "twitter": "None", "instagram": "None", "facebook": "None", "youtube": "None", "website": "None", "summary": "None", "logo": "None", "latitude": 45.4822853355646, "longitude": -73.57908860242935}, "108150848RR0001": {"name": "UNIONVILLE BAPTIST CHURCH", "designationCode": "C", "categoryCode": "31", "address": "243 MAIN STREET", "city": "UNIONVILLE", "province": "ON", "country": "CA", "postalCode": "L3R2H3", "twitter": "None", "instagram": "None", "facebook": "None", "youtube": "None", "website": "None", "summary": "None", "logo": "None", "latitude": 43.87121933917127, "longitude": -79.31211767770829}, "885115501RR0001": {"name": "UNIONVILLE CHRISTIAN COMMUNITY CHURCH", "designationCode": "C", "categoryCode": "39", "address": "2750-14TH AVE STE G-05", "city": "MARKHAM", "province": "ON", "country": "CA", "postalCode": "L3R0B6", "twitter": "None", "instagram": "None", "facebook": "None", "youtube": "None", "website": "None", "summary": "None", "logo": "None", "latitude": 43.83015298424562, "longitude": -79.35888136612013}, "886295997RR0001": {"name": "UNIONVILLE COOPERATIVE NURSERYSCHOOL INCORPORATED", "designationCode": "C", "categoryCode": "01", "address": "131 MAIN ST UNIONVILLE", "city": "UNIONVILLE", "province": "ON", "country": "CA", "postalCode": "L3R2G3", "twitter": "None", "instagram": "None", "facebook": "None", "youtube": "None", "website": "None", "summary": "None", "logo": "None", "latitude": 43.86396828365743, "longitude": -79.31018515413497}, "119275899RR0001": {"name": "UNIONVILLE GOSPEL HALL", "designationCode": "C", "categoryCode": "47", "address": "24 SECOND ST SOUTH", "city": "UNIONVILLE", "province": "ON", "country": "CA", "postalCode": "L3R2C3", "twitter": "None", "instagram": "None", "facebook": "None", "youtube": "None", "website": "None", "summary": "None", "logo": "None", "latitude": 43.86248248927249, "longitude": -79.30257184391316}, "127792364RR0001": {"name": "UNIONVILLE HOME SOCIETY", "designationCode": "C", "categoryCode": "01", "address": "4300 HIGHWAY #7", "city": "UNIONVILLE", "province": "ON", "country": "CA", "postalCode": "L3R1L8", "twitter": "None", "instagram": "None", "facebook": "None", "youtube": "None", "website": "None", "summary": "None", "logo": "None", "latitude": 43.86019114856547, "longitude": -79.31492846831928}, "871721940RR0001": {"name": "UNIONVILLE HOME SOCIETY FOUNDATION", "designationCode": "A", "categoryCode": "03", "address": "4300 HIGHWAY #7", "city": "UNIONVILLE", "province": "ON", "country": "CA", "postalCode": "L3R1L8", "twitter": "None", "instagram": "None", "facebook": "None", "youtube": "None", "website": "None", "summary": "None", "logo": "None", "latitude": 43.86019114856547, "longitude": -79.31492846831928}, "108150913RR0001": {"name": "UNIONVILLE PRESBYTERIAN CHURCH OF THE PRESBYTERIAN CHURCH IN CANADA", "designationCode": "C", "categoryCode": "37", "address": "ATT:  TREASURER               600 VILLAGE PARKWAY", "city": "UNIONVILLE", "province": "ON", "country": "CA", "postalCode": "L3R6C2", "twitter": "None", "instagram": "None", "facebook": "None", "youtube": "None", "website": "None", "summary": "None", "logo": "None", "latitude": 43.86778893643607, "longitude": -79.32797002169741}, "816112643RR0001": {"name": "UNIPSED", "designationCode": "C", "categoryCode": "21", "address": "5635 AVENUE WOODBURY", "city": "MONTREAL", "province": "QC", "country": "CA", "postalCode": "H3T1S6", "twitter": "None", "instagram": "None", "facebook": "None", "youtube": "None", "website": "None", "summary": "None", "logo": "None", "latitude": 45.506405177650045, "longitude": -73.61955103883676}, "833872591RR0001": {"name": "UNIQUE GET TOGETHER SOCIETY", "designationCode": "C", "categoryCode": "09", "address": "1318 BREWSTER DRIVE", "city": "COQUITLAM", "province": "BC", "country": "CA", "postalCode": "V3B8G1", "twitter": "None", "instagram": "None", "facebook": "None", "youtube": "None", "website": "None", "summary": "None", "logo": "None", "latitude": 49.29273941909517, "longitude": -122.80226310716121}, "129371068RR0001": {"name": "UNISON HEALTH AND COMMUNITY SERVICES", "designationCode": "C", "categoryCode": "11", "address": "12 FLEMINGTON ROAD", "city": "TORONTO", "province": "ON", "country": "CA", "postalCode": "M6A2N4", "twitter": "None", "instagram": "None", "facebook": "None", "youtube": "None", "website": "None", "summary": "None", "logo": "None", "latitude": 43.719303183478424, "longitude": -79.44482703595122}, "119278794RR0001": {"name": "UNIT 306: SOCIETY FOR THE DEMOCRATIZATION OF THE ARTS", "designationCode": "C", "categoryCode": "22", "address": "116-350 2ND AVE E", "city": "VANCOUVER", "province": "BC", "country": "CA", "postalCode": "V5T4R8", "twitter": "None", "instagram": "None", "facebook": "None", "youtube": "None", "website": "None", "summary": "None", "logo": "None", "latitude": 49.26703841768151, "longitude": -123.09689213116722}, "132005950RR0001": {"name": "UNIT/PITT Society for Art and Critical Awareness", "designationCode": "C", "categoryCode": "22", "address": "236 EAST PENDER STREET", "city": "VANCOUVER", "province": "BC", "country": "CA", "postalCode": "V6A1T7", "twitter": "None", "instagram": "None", "facebook": "None", "youtube": "None", "website": "None", "summary": "None", "logo": "None", "latitude": 49.280316539529245, "longitude": -123.09876386081135}, "893004960RR0001": {"name": "UNIT\u00c9 D'INFORMATION ET D'ACTION EN TOXICOMANIE (UNIATOX)", "designationCode": "C", "categoryCode": "09", "address": "185 CH DES ANGLAIS", "city": "MASCOUCHE", "province": "QC", "country": "CA", "postalCode": "J7L3N8", "twitter": "None", "instagram": "None", "facebook": "None", "youtube": "None", "website": "None", "summary": "None", "logo": "None", "latitude": 45.72951075578492, "longitude": -73.65653209334006}, "130724834RR0001": {"name": "UNITARIAN CHURCH OF CALGARY", "designationCode": "C", "categoryCode": "39", "address": "1703 1 ST NW", "city": "CALGARY", "province": "AB", "country": "CA", "postalCode": "T2M4P4", "twitter": "None", "instagram": "None", "facebook": "None", "youtube": "None", "website": "None", "summary": "None", "logo": "None", "latitude": 51.067114436705566, "longitude": -114.0649833223816}, "129539201RR0001": {"name": "UNITARIAN CHURCH OF EDMONTON", "designationCode": "C", "categoryCode": "39", "address": "10804 119 STREET N W", "city": "EDMONTON", "province": "AB", "country": "CA", "postalCode": "T5H3P2", "twitter": "None", "instagram": "None", "facebook": "None", "youtube": "None", "website": "None", "summary": "None", "logo": "None", "latitude": 53.55439844817974, "longitude": -113.526811313232}, "108151077RR0001": {"name": "UNITARIAN CONGREGATION IN MISSISSAUGA", "designationCode": "C", "categoryCode": "39", "address": "84 SOUTH SERVICE ROAD", "city": "MISSISSAUGA", "province": "ON", "country": "CA", "postalCode": "L5G2R9", "twitter": "None", "instagram": "None", "facebook": "None", "youtube": "None", "website": "None", "summary": "None", "logo": "None", "latitude": 43.57013698776631, "longitude": -79.5971782072829}, "133362756RR0001": {"name": "UNITARIAN CONGREGATION OF GUELPH", "designationCode": "C", "categoryCode": "39", "address": "122 HARRIS ST", "city": "GUELPH", "province": "ON", "country": "CA", "postalCode": "N1E5T1", "twitter": "None", "instagram": "None", "facebook": "None", "youtube": "None", "website": "None", "summary": "None", "logo": "None", "latitude": 43.54762349016092, "longitude": -80.23021675823776}, "108077777RR0001": {"name": "UNITARIAN CONGREGATION OF NIAGARA", "designationCode": "C", "categoryCode": "39", "address": "223 CHURCH ST", "city": "ST CATHARINES", "province": "ON", "country": "CA", "postalCode": "L2R3E8", "twitter": "None", "instagram": "None", "facebook": "None", "youtube": "None", "website": "None", "summary": "None", "logo": "None", "latitude": 43.16378239497359, "longitude": -79.23590760629584}, "119276103RR0001": {"name": "UNITARIAN CONGREGATION OF SASKATOON", "designationCode": "C", "categoryCode": "39", "address": "213-2ND STREET EAST", "city": "SASKATOON", "province": "SK", "country": "CA", "postalCode": "S7H1N5", "twitter": "None", "instagram": "None", "facebook": "None", "youtube": "None", "website": "None", "summary": "None", "logo": "None", "latitude": 52.10923049321932, "longitude": -106.66673010935426}, "119276012RR0001": {"name": "UNITARIAN FELLOWSHIP OF KELOWNA", "designationCode": "C", "categoryCode": "39", "address": "1310 BERTRAM ST", "city": "KELOWNA", "province": "BC", "country": "CA", "postalCode": "V1Y2E8", "twitter": "None", "instagram": "None", "facebook": "None", "youtube": "None", "website": "None", "summary": "None", "logo": "None", "latitude": 49.89137989246355, "longitude": -119.49030447057656}, "108151093RR0001": {"name": "UNITARIAN FELLOWSHIP OF LONDON", "designationCode": "C", "categoryCode": "39", "address": "557 CLARKE ROAD", "city": "LONDON", "province": "ON", "country": "CA", "postalCode": "N5V2E1", "twitter": "None", "instagram": "None", "facebook": "None", "youtube": "None", "website": "None", "summary": "None", "logo": "None", "latitude": 43.01139296306782, "longitude": -81.17915249604661}, "119276061RR0001": {"name": "UNITARIAN FELLOWSHIP OF PETERBOROUGH", "designationCode": "C", "categoryCode": "39", "address": "171 A RINK ST SUITE 266", "city": "PETERBOROUGH", "province": "ON", "country": "CA", "postalCode": "K9J2L6", "twitter": "None", "instagram": "None", "facebook": "None", "youtube": "None", "website": "None", "summary": "None", "logo": "None", "latitude": 44.29581953952927, "longitude": -78.31992138481736}, "889493573RR0001": {"name": "UNITARIAN FELLOWSHIP OF PRINCE EDWARD ISLAND INC", "designationCode": "C", "categoryCode": "39", "address": "VOLUNTARY RESOURCE CENTRE     81 PRINCE STREET", "city": "CHARLOTTETOWN", "province": "PE", "country": "CA", "postalCode": "C1A4R3", "twitter": "None", "instagram": "None", "facebook": "None", "youtube": "None", "website": "None", "summary": "None", "logo": "None", "latitude": 46.23527784901036, "longitude": -63.123739081885795}, "119276087RR0001": {"name": "UNITARIAN FELLOWSHIP OF RED DEER", "designationCode": "C", "categoryCode": "39", "address": "#27 4240-46A AVENUE", "city": "RED DEER", "province": "AB", "country": "CA", "postalCode": "T4N6T8", "twitter": "None", "instagram": "None", "facebook": "None", "youtube": "None", "website": "None", "summary": "None", "logo": "None", "latitude": 52.2625467215116, "longitude": -113.80387131218622}}