{"107764888RR0001": {"name": "NATIVE COUNSELLING SERVICES OF ALBERTA", "designationCode": "C", "categoryCode": "59", "address": "10975-124 ST", "city": "EDMONTON", "province": "AB", "country": "CA", "postalCode": "T5M0H9", "twitter": "None", "instagram": "None", "facebook": "None", "youtube": "None", "website": "None", "summary": "None", "logo": "None", "latitude": 53.556363000000005, "longitude": -113.53588471631392}, "119052116RR0001": {"name": "NATIVE EARTH PERFORMING ARTS INCORPORATED", "designationCode": "C", "categoryCode": "22", "address": "250-585 DUNDAS STREET EAST", "city": "TORONTO", "province": "ON", "country": "CA", "postalCode": "M5A2B7", "twitter": "None", "instagram": "None", "facebook": "None", "youtube": "None", "website": "None", "summary": "None", "logo": "None", "latitude": 43.65954875487589, "longitude": -79.36545661016179}, "107764920RR0001": {"name": "NATIVE EVANGELICAL FELLOWSHIP OF CANADA INC.", "designationCode": "C", "categoryCode": "39", "address": "PO BOX 4096                   REDWOOD POSTAL OUTLET", "city": "WINNIPEG", "province": "MB", "country": "CA", "postalCode": "R2W5K8", "twitter": "None", "instagram": "None", "facebook": "None", "youtube": "None", "website": "None", "summary": "None", "logo": "None", "latitude": 49.9202268867527, "longitude": -97.14013748947589}, "890974645RR0001": {"name": "NATIVE GOSPEL MINISTRIES OF CANADA, INC", "designationCode": "C", "categoryCode": "47", "address": "PO BOX 41006", "city": "OTTAWA", "province": "ON", "country": "CA", "postalCode": "K1G5K9", "twitter": "None", "instagram": "None", "facebook": "None", "youtube": "None", "website": "None", "summary": "None", "logo": "None", "latitude": 45.42177300000006, "longitude": -75.69115999999994}, "891840761RR0001": {"name": "NATIVE HORIZONS TREATMENT CENTRE", "designationCode": "C", "categoryCode": "57", "address": "130 NEW CREDIT RD", "city": "HAGERSVILLE", "province": "ON", "country": "CA", "postalCode": "N0A1H0", "twitter": "None", "instagram": "None", "facebook": "None", "youtube": "None", "website": "None", "summary": "None", "logo": "None", "latitude": 42.98828658440105, "longitude": -80.10393157101694}, "860424530RR0001": {"name": "NATIVE MISSIONARY MOVEMENT", "designationCode": "C", "categoryCode": "47", "address": "1120 NORTH WENIGE DRIVE", "city": "LONDON", "province": "ON", "country": "CA", "postalCode": "N5X4K5", "twitter": "None", "instagram": "None", "facebook": "None", "youtube": "None", "website": "None", "summary": "None", "logo": "None", "latitude": 43.05088827058991, "longitude": -81.25375779066442}, "119052181RR0001": {"name": "NATIVE NEW LIFE CHURCH AND ITS BRANCHES FOR MISSIONS AND BIBLE SCHOOL", "designationCode": "C", "categoryCode": "39", "address": "PO BOX 478", "city": "DESERONTO", "province": "ON", "country": "CA", "postalCode": "K0K1X0", "twitter": "None", "instagram": "None", "facebook": "None", "youtube": "None", "website": "None", "summary": "None", "logo": "None", "latitude": 44.24640750000001, "longitude": -77.06454975}, "868167198RR0001": {"name": "NATIVE ORCHID CONSERVATION INCORPORATED", "designationCode": "C", "categoryCode": "52", "address": "P.O. BOX 40057                LAGIMDDIERE PO", "city": "WINNIPEG", "province": "MB", "country": "CA", "postalCode": "R2C4P3", "twitter": "None", "instagram": "None", "facebook": "None", "youtube": "None", "website": "None", "summary": "None", "logo": "None", "latitude": 49.89411183340164, "longitude": -97.07066616143058}, "123074064RR0001": {"name": "NATIVE PEOPLE OF SUDBURY DEVELOPMENT CORPORATION", "designationCode": "C", "categoryCode": "09", "address": "68 XAVIER STREET", "city": "SUDBURY", "province": "ON", "country": "CA", "postalCode": "P3C2B9", "twitter": "None", "instagram": "None", "facebook": "None", "youtube": "None", "website": "None", "summary": "None", "logo": "None", "latitude": 46.495773000000014, "longitude": -80.9943989540301}, "107765075RR0001": {"name": "NATIVE PEOPLE OF THUNDER BAY DEVELOPMENT CORPORATION", "designationCode": "C", "categoryCode": "59", "address": "230 VAN NORMAN STREET", "city": "THUNDER BAY", "province": "ON", "country": "CA", "postalCode": "P7A4B8", "twitter": "None", "instagram": "None", "facebook": "None", "youtube": "None", "website": "None", "summary": "None", "logo": "None", "latitude": 48.43648217375491, "longitude": -89.22008848874727}, "103838223RR0001": {"name": "NATIVE WOMEN'S RESOURCE CENTER OF TORONTO, INC.", "designationCode": "C", "categoryCode": "59", "address": "191 GERRARD ST E", "city": "TORONTO", "province": "ON", "country": "CA", "postalCode": "M5A2E5", "twitter": "None", "instagram": "None", "facebook": "None", "youtube": "None", "website": "None", "summary": "None", "logo": "None", "latitude": 43.66111080151794, "longitude": -79.3725752525536}, "103838231RR0001": {"name": "NATIVE WOMEN'S TRANSITION CENTRE, INC.", "designationCode": "C", "categoryCode": "01", "address": "105 AIKINS ST", "city": "WINNIPEG", "province": "MB", "country": "CA", "postalCode": "R2W4E4", "twitter": "None", "instagram": "None", "facebook": "None", "youtube": "None", "website": "None", "summary": "None", "logo": "None", "latitude": 49.91246115791454, "longitude": -97.13974612375232}, "107765315RR0001": {"name": "NATIVITY LUTHERAN CHURCH", "designationCode": "C", "categoryCode": "32", "address": "1396 LANGLOIS AVENUE", "city": "WINDSOR", "province": "ON", "country": "CA", "postalCode": "N8X4L7", "twitter": "None", "instagram": "None", "facebook": "None", "youtube": "None", "website": "None", "summary": "None", "logo": "None", "latitude": 42.30707804330882, "longitude": -83.01476548886284}, "862504024RR0001": {"name": "NATIVITY LUTHERAN CHURCH", "designationCode": "C", "categoryCode": "39", "address": "27 SPRUCE ST. N.", "city": "KINGSVILLE", "province": "ON", "country": "CA", "postalCode": "N9Y1G2", "twitter": "None", "instagram": "None", "facebook": "None", "youtube": "None", "website": "None", "summary": "None", "logo": "None", "latitude": 42.03874914226789, "longitude": -82.73584273275706}, "119052272RR0001": {"name": "NATIVITY OF BLESSED VIRGIN MARY CHURCH", "designationCode": "C", "categoryCode": "38", "address": "257 SHAW ST", "city": "TORONTO", "province": "ON", "country": "CA", "postalCode": "M6J2W7", "twitter": "None", "instagram": "None", "facebook": "None", "youtube": "None", "website": "None", "summary": "None", "logo": "None", "latitude": 43.64887977713654, "longitude": -79.4178198729877}, "890710742RR0001": {"name": "NATIVITY OF THE BLESSED VIRGIN MARY UKRAINIAN CATHOLIC PARISH", "designationCode": "C", "categoryCode": "38", "address": "RR1", "city": "STAR", "province": "AB", "country": "CA", "postalCode": "T0B4E0", "twitter": "None", "instagram": "None", "facebook": "None", "youtube": "None", "website": "None", "summary": "None", "logo": "None", "latitude": 53.82654000000005, "longitude": -112.77755449999994}, "108031113RR0001": {"name": "NATIVITY OF THE HOLY MOTHER OF GOD (UKRAINIAN CATHOLIC CHURCH), NIAGARA FALLS, ONTARIO", "designationCode": "C", "categoryCode": "38", "address": "6248 MAIN ST", "city": "NIAGARA FALLS", "province": "ON", "country": "CA", "postalCode": "L2G6A4", "twitter": "None", "instagram": "None", "facebook": "None", "youtube": "None", "website": "None", "summary": "None", "logo": "None", "latitude": 43.084332520716444, "longitude": -79.08800232067651}, "888849791RR0001": {"name": "NATIVITY OF THE MOTHER OF GOD, ST MARY'S UKRAINIAN CATHOLIC", "designationCode": "C", "categoryCode": "38", "address": "582 EAGLE ST. N", "city": "CAMBRIDGE", "province": "ON", "country": "CA", "postalCode": "N3H1C3", "twitter": "None", "instagram": "None", "facebook": "None", "youtube": "None", "website": "None", "summary": "None", "logo": "None", "latitude": 43.40331123454888, "longitude": -80.35625644921801}, "130599442RR0035": {"name": "NATIVITY PARISH", "designationCode": "C", "categoryCode": "38", "address": "BOX 215", "city": "ELK LAKE", "province": "ON", "country": "CA", "postalCode": "P0J1G0", "twitter": "None", "instagram": "None", "facebook": "None", "youtube": "None", "website": "None", "summary": "None", "logo": "None", "latitude": 47.73341439987387, "longitude": -80.32767350233988}, "888654068RR0001": {"name": "NATIVITY-ST. PETER'S ANGLICAN CHURCH", "designationCode": "C", "categoryCode": "30", "address": "PO BOX 184", "city": "DUTTON", "province": "ON", "country": "CA", "postalCode": "N0L1J0", "twitter": "None", "instagram": "None", "facebook": "None", "youtube": "None", "website": "None", "summary": "None", "logo": "None", "latitude": 38.081390000000056, "longitude": -121.85011999999995}, "119011872RR0001": {"name": "NATO Association of Canada/Association canadienne pour l'OTAN", "designationCode": "C", "categoryCode": "29", "address": "4506 ONTARIO STREET, UNIT 1", "city": "BEAMSVILLE", "province": "ON", "country": "CA", "postalCode": "L0R1B5", "twitter": "None", "instagram": "None", "facebook": "None", "youtube": "None", "website": "None", "summary": "None", "logo": "None", "latitude": 43.176096, "longitude": -79.47694917586104}, "129904280RR0001": {"name": "NATURAL FAMILY PLANNING ASSOCIATION", "designationCode": "C", "categoryCode": "09", "address": "205-3050 YONGE ST", "city": "TORONTO", "province": "ON", "country": "CA", "postalCode": "M4N2K4", "twitter": "None", "instagram": "None", "facebook": "None", "youtube": "None", "website": "None", "summary": "None", "logo": "None", "latitude": 43.72491154731953, "longitude": -79.4022076078537}, "119052355RR0001": {"name": "NATURAL FAMILY PLANNING ASSOCIATION (ALBERTA)", "designationCode": "C", "categoryCode": "11", "address": "3301 63 AVENUE CLOSE", "city": "LLOYDMINSTER", "province": "AB", "country": "CA", "postalCode": "T9V2V9", "twitter": "None", "instagram": "None", "facebook": "None", "youtube": "None", "website": "None", "summary": "None", "logo": "None", "latitude": 53.26897267525545, "longitude": -110.03529405216696}, "119052330RR0001": {"name": "NATURAL FAMILY PLANNING ASSOCIATION-ONTARIO", "designationCode": "C", "categoryCode": "11", "address": "279 JOHNSON ST.", "city": "KINGSTON", "province": "ON", "country": "CA", "postalCode": "K7L1Y5", "twitter": "None", "instagram": "None", "facebook": "None", "youtube": "None", "website": "None", "summary": "None", "logo": "None", "latitude": 44.230890329476395, "longitude": -76.4904568889723}, "118834704RR0001": {"name": "NATURE CANADA / CANADA NATURE", "designationCode": "C", "categoryCode": "54", "address": "75, ALBERT ST., SUITE 300", "city": "OTTAWA", "province": "ON", "country": "CA", "postalCode": "K1P5E7", "twitter": "None", "instagram": "None", "facebook": "None", "youtube": "None", "website": "None", "summary": "None", "logo": "None", "latitude": 45.42207928642739, "longitude": -75.69532471400531}, "864463773RR0001": {"name": "NATURE CONSERVANCY OF CANADA (PEI) INC.", "designationCode": "C", "categoryCode": "53", "address": "79 PRINCE CHARLES DRIVE", "city": "CHARLOTTETOWN", "province": "PE", "country": "CA", "postalCode": "C1A3C1", "twitter": "None", "instagram": "None", "facebook": "None", "youtube": "None", "website": "None", "summary": "None", "logo": "None", "latitude": 46.236760092705836, "longitude": -63.14896925673722}, "869694273RR0001": {"name": "NATURE LEGACY TRUST FOUNDATION INC", "designationCode": "C", "categoryCode": "99", "address": "20 BAY STREET SUITE 1205      WATERPARK PLACE", "city": "TORONTO", "province": "ON", "country": "CA", "postalCode": "M5J2N8", "twitter": "None", "instagram": "None", "facebook": "None", "youtube": "None", "website": "None", "summary": "None", "logo": "None", "latitude": 43.64168543738837, "longitude": -79.37728173956918}, "899934079RR0001": {"name": "NATURE NEWFOUNDLAND AND LABRADOR INCORPORATED", "designationCode": "C", "categoryCode": "52", "address": "P.O.BOX 1013 STN C", "city": "ST. JOHN'S", "province": "NL", "country": "CA", "postalCode": "A1C5M3", "twitter": "None", "instagram": "None", "facebook": "None", "youtube": "None", "website": "None", "summary": "None", "logo": "None", "latitude": 47.56082100000006, "longitude": -52.71219349999993}, "119275816RR0001": {"name": "NATURE QU\u00c9BEC", "designationCode": "C", "categoryCode": "52", "address": "207-870 AV. DE SALABERRY", "city": "QUEBEC", "province": "QC", "country": "CA", "postalCode": "G1R2T9", "twitter": "None", "instagram": "None", "facebook": "None", "youtube": "None", "website": "None", "summary": "None", "logo": "None", "latitude": 46.80589182679337, "longitude": -71.22672208246271}, "103839262RR0001": {"name": "NATURE-ACTION QUEBEC INC.", "designationCode": "C", "categoryCode": "59", "address": "120 RUE LEDOUX", "city": "BELOEIL", "province": "QC", "country": "CA", "postalCode": "J3G0A4", "twitter": "None", "instagram": "None", "facebook": "None", "youtube": "None", "website": "None", "summary": "None", "logo": "None", "latitude": 45.56142506105378, "longitude": -73.20641838077799}, "862330529RR0001": {"name": "NATURESERVE CANADA", "designationCode": "C", "categoryCode": "59", "address": "39 MCARTHUR AVE               LEVEL 1-1", "city": "OTTAWA", "province": "ON", "country": "CA", "postalCode": "K1L8L7", "twitter": "None", "instagram": "None", "facebook": "None", "youtube": "None", "website": "None", "summary": "None", "logo": "None", "latitude": 45.4309004787926, "longitude": -75.66676355551384}, "891775447RR0001": {"name": "NAUTICAL PROFESSIONAL EDUCATION SOCIETY OF CANADA", "designationCode": "C", "categoryCode": "20", "address": "3648 GLENVIEW CRES", "city": "NORTH VANCOUVER", "province": "BC", "country": "CA", "postalCode": "V7R3E8", "twitter": "None", "instagram": "None", "facebook": "None", "youtube": "None", "website": "None", "summary": "None", "logo": "None", "latitude": 49.342313463212044, "longitude": -123.0923993445383}, "119052389RR0001": {"name": "NAUWIGEWAUK CHRISTIAN CHURCH", "designationCode": "C", "categoryCode": "39", "address": "290 ROUTE 100", "city": "NAUWIGEWAUK", "province": "NB", "country": "CA", "postalCode": "E5N6Z4", "twitter": "None", "instagram": "None", "facebook": "None", "youtube": "None", "website": "None", "summary": "None", "logo": "None", "latitude": 45.47853905430081, "longitude": -65.88700965627746}, "894021328RR0001": {"name": "NAUWIGEWAUK EDUCATION FOUNDATION INC.", "designationCode": "C", "categoryCode": "21", "address": "17 CRAIG COURT", "city": "HAMPTON", "province": "NB", "country": "CA", "postalCode": "E5N5G7", "twitter": "None", "instagram": "None", "facebook": "None", "youtube": "None", "website": "None", "summary": "None", "logo": "None", "latitude": 45.52532844797726, "longitude": -65.84179260136149}, "882425952RR0001": {"name": "NAV CANADA FAMILY SUPPORT COMMITTEE", "designationCode": "C", "categoryCode": "05", "address": "222 OLD COACH ROAD", "city": "RIVERVIEW", "province": "NB", "country": "CA", "postalCode": "E1B4G2", "twitter": "None", "instagram": "None", "facebook": "None", "youtube": "None", "website": "None", "summary": "None", "logo": "None", "latitude": 46.07186561474996, "longitude": -64.77115994641939}, "132688888RR0001": {"name": "NAVAN/VARS UNITED CHURCH", "designationCode": "C", "categoryCode": "44", "address": "1180 FOREST LEA DR.", "city": "NAVAN", "province": "ON", "country": "CA", "postalCode": "K4B1N4", "twitter": "None", "instagram": "None", "facebook": "None", "youtube": "None", "website": "None", "summary": "None", "logo": "None", "latitude": 45.4170645337582, "longitude": -75.42588052553522}, "129683546RR0001": {"name": "NAVON EDUCATIONAL FOUNDATION", "designationCode": "B", "categoryCode": "49", "address": "30 DELL PARK AVE", "city": "TORONTO", "province": "ON", "country": "CA", "postalCode": "M6B2T4", "twitter": "None", "instagram": "None", "facebook": "None", "youtube": "None", "website": "None", "summary": "None", "logo": "None", "latitude": 43.71719224897559, "longitude": -79.43179664960466}, "119246635RR0010": {"name": "NAVY LEAGUE OF CANADA", "designationCode": "C", "categoryCode": "29", "address": "BRANCH - TREASURER            BOX 106", "city": "CAMPBELL RIVER", "province": "BC", "country": "CA", "postalCode": "V9W4Z9", "twitter": "None", "instagram": "None", "facebook": "None", "youtube": "None", "website": "None", "summary": "None", "logo": "None", "latitude": 50.024643000000054, "longitude": -125.24819299999993}, "119246635RR0018": {"name": "NAVY LEAGUE OF CANADA (KAMLOOPS BRANCH)", "designationCode": "C", "categoryCode": "29", "address": "P.O. BOX 883", "city": "KAMLOOPS", "province": "BC", "country": "CA", "postalCode": "V2C5M8", "twitter": "None", "instagram": "None", "facebook": "None", "youtube": "None", "website": "None", "summary": "None", "logo": "None", "latitude": 50.675883000000056, "longitude": -120.33898099999993}, "119246635RR0075": {"name": "NAVY LEAGUE OF CANADA - BATHURST BRANCH", "designationCode": "C", "categoryCode": "29", "address": "575 ST PETER AVE", "city": "BATHURST", "province": "NB", "country": "CA", "postalCode": "E2A2Y5", "twitter": "None", "instagram": "None", "facebook": "None", "youtube": "None", "website": "None", "summary": "None", "logo": "None", "latitude": 47.63004109599541, "longitude": -65.6665722132259}, "119246635RR0032": {"name": "NAVY LEAGUE OF CANADA - COMOX VALLEY BRANCH", "designationCode": "C", "categoryCode": "29", "address": "PO BOX 1392", "city": "COMOX", "province": "BC", "country": "CA", "postalCode": "V9M7Z9", "twitter": "None", "instagram": "None", "facebook": "None", "youtube": "None", "website": "None", "summary": "None", "logo": "None", "latitude": 49.673733000000055, "longitude": -124.92743299999994}, "131939175RR0001": {"name": "NAVY LEAGUE OF CANADA - LETHBRIDGE BRANCH", "designationCode": "C", "categoryCode": "29", "address": "1708 10 AVE S", "city": "LETHBRIDGE", "province": "AB", "country": "CA", "postalCode": "T1K0B3", "twitter": "None", "instagram": "None", "facebook": "None", "youtube": "None", "website": "None", "summary": "None", "logo": "None", "latitude": 49.68376652842075, "longitude": -112.8178935}, "119246635RR0017": {"name": "NAVY LEAGUE OF CANADA - LUNENBURG BRANCH", "designationCode": "C", "categoryCode": "29", "address": "P.O. BOX 698", "city": "LUNENBURG", "province": "NS", "country": "CA", "postalCode": "B0J2C0", "twitter": "None", "instagram": "None", "facebook": "None", "youtube": "None", "website": "None", "summary": "None", "logo": "None", "latitude": 44.37886006217898, "longitude": -64.31792993782098}, "119246635RR0053": {"name": "NAVY LEAGUE OF CANADA - NEW WESTMINSTER BRANCH BRITISH COLUMBIA MAINLAND DIVISION", "designationCode": "C", "categoryCode": "29", "address": "555 DERWENT WAY", "city": "NEW WESTMINSTER", "province": "BC", "country": "CA", "postalCode": "V3M6S9", "twitter": "None", "instagram": "None", "facebook": "None", "youtube": "None", "website": "None", "summary": "None", "logo": "None", "latitude": 49.183962383259505, "longitude": -122.93078135633836}, "119246635RR0072": {"name": "NAVY LEAGUE OF CANADA - ROCKY MOUNTAIN HOUSE BRANCH", "designationCode": "C", "categoryCode": "29", "address": "BOX 422", "city": "ROCKY MOUNTAIN HOUSE", "province": "AB", "country": "CA", "postalCode": "T4T1A3", "twitter": "None", "instagram": "None", "facebook": "None", "youtube": "None", "website": "None", "summary": "None", "logo": "None", "latitude": 52.37758500000005, "longitude": -114.93030049999993}, "119246635RR0058": {"name": "NAVY LEAGUE OF CANADA - SOOKE BRANCH - VANCOUVER ISLAND DIVISION", "designationCode": "C", "categoryCode": "29", "address": "BOX 412", "city": "SOOKE", "province": "BC", "country": "CA", "postalCode": "V9Z1H4", "twitter": "None", "instagram": "None", "facebook": "None", "youtube": "None", "website": "None", "summary": "None", "logo": "None", "latitude": 48.381873000000056, "longitude": -123.73120249999994}, "119246635RR0050": {"name": "NAVY LEAGUE OF CANADA GREATER VANCOUVER BRANCH", "designationCode": "C", "categoryCode": "29", "address": "PO BOX 20113 RPO FAIRVIEW", "city": "VANCOUVER", "province": "BC", "country": "CA", "postalCode": "V5Z0C1", "twitter": "None", "instagram": "None", "facebook": "None", "youtube": "None", "website": "None", "summary": "None", "logo": "None", "latitude": 49.26613000000003, "longitude": -123.13313}, "119246635RR0045": {"name": "NAVY LEAGUE OF CANADA NANAIMO BRANCH", "designationCode": "C", "categoryCode": "29", "address": "750 5TH STREET", "city": "NANAIMO", "province": "BC", "country": "CA", "postalCode": "V9R7B4", "twitter": "None", "instagram": "None", "facebook": "None", "youtube": "None", "website": "None", "summary": "None", "logo": "None", "latitude": 49.155235522072765, "longitude": -123.96401007799065}, "119246635RR0062": {"name": "NAVY LEAGUE OF CANADA QU'APPELLE (WINNIPEG)", "designationCode": "C", "categoryCode": "29", "address": "HMCS CHIPPAWA                 1 NAVY WAY", "city": "WINNIPEG", "province": "MB", "country": "CA", "postalCode": "R3C4J7", "twitter": "None", "instagram": "None", "facebook": "None", "youtube": "None", "website": "None", "summary": "None", "logo": "None", "latitude": 49.88594685988772, "longitude": -97.13774032638932}, "825833676RR0001": {"name": "NAVY LEAGUE OF CANADA SAANICH PENINSULA BRANCH", "designationCode": "C", "categoryCode": "29", "address": "9565 HURRICANE ROAD", "city": "SIDNEY", "province": "BC", "country": "CA", "postalCode": "V8L5V5", "twitter": "None", "instagram": "None", "facebook": "None", "youtube": "None", "website": "None", "summary": "None", "logo": "None", "latitude": 48.64284540413708, "longitude": -123.4177573179529}, "119246635RR0015": {"name": "NAVY LEAGUE OF CANADA SASKATCHEWAN DIVISION", "designationCode": "C", "categoryCode": "29", "address": "1860 LORNE STREET", "city": "REGINA", "province": "SK", "country": "CA", "postalCode": "S4P2L7", "twitter": "None", "instagram": "None", "facebook": "None", "youtube": "None", "website": "None", "summary": "None", "logo": "None", "latitude": 50.44926675437128, "longitude": -104.61372309134951}, "891480345RR0001": {"name": "NAVY LEAGUE OF CANADA SHERWOOD PARK BRANCH", "designationCode": "C", "categoryCode": "29", "address": "9376-49 STREET NORTH WEST", "city": "EDMONTON", "province": "AB", "country": "CA", "postalCode": "T6B2L7", "twitter": "None", "instagram": "None", "facebook": "None", "youtube": "None", "website": "None", "summary": "None", "logo": "None", "latitude": 53.53169100000005, "longitude": -113.41492099999994}, "119246635RR0003": {"name": "NAVY LEAGUE OF CANADA-JUAN DE FUCA BRANCH", "designationCode": "C", "categoryCode": "29", "address": "948 DUNFORD AVE", "city": "VICTORIA", "province": "BC", "country": "CA", "postalCode": "V9B2S3", "twitter": "None", "instagram": "None", "facebook": "None", "youtube": "None", "website": "None", "summary": "None", "logo": "None", "latitude": 48.4453160747011, "longitude": -123.5124235496568}, "119246635RR0080": {"name": "NAVY LEAGUE OF CANADA, FISH CREEK BRANCH", "designationCode": "C", "categoryCode": "29", "address": "PO BOX 44057                  RPO SOUTHCENTRE", "city": "CALGARY", "province": "AB", "country": "CA", "postalCode": "T2J7C5", "twitter": "None", "instagram": "None", "facebook": "None", "youtube": "None", "website": "None", "summary": "None", "logo": "None", "latitude": 50.95135000000005, "longitude": -114.06508999999994}, "119246635RR0028": {"name": "NAVY LEAGUE OF CANADA, SMITHERS BRANCH", "designationCode": "C", "categoryCode": "29", "address": "BOX 2328", "city": "SMITHERS", "province": "BC", "country": "CA", "postalCode": "V0J2N0", "twitter": "None", "instagram": "None", "facebook": "None", "youtube": "None", "website": "None", "summary": "None", "logo": "None", "latitude": 54.78190002943043, "longitude": -127.16272999999995}, "119246635RR0060": {"name": "NAVY LEAGUE OF CANADA, THUNDER BAY BRANCH", "designationCode": "C", "categoryCode": "29", "address": "125 ALGOMA ST N", "city": "THUNDER BAY", "province": "ON", "country": "CA", "postalCode": "P7A4Z5", "twitter": "None", "instagram": "None", "facebook": "None", "youtube": "None", "website": "None", "summary": "None", "logo": "None", "latitude": 48.4403616577703, "longitude": -89.22052862597403}, "119246635RR0021": {"name": "NAVY LEAGUE OF CANADA, YARMOUTH BRANCH", "designationCode": "C", "categoryCode": "29", "address": "BOX 55", "city": "YARMOUTH", "province": "NS", "country": "CA", "postalCode": "B5A4B1", "twitter": "None", "instagram": "None", "facebook": "None", "youtube": "None", "website": "None", "summary": "None", "logo": "None", "latitude": 43.841274000000055, "longitude": -66.11887249999994}, "888447273RR0001": {"name": "NAVY LEAGUE OF ONTARIO FOUNDATION", "designationCode": "A", "categoryCode": "23", "address": "2504 TRONDHEIM CRES", "city": "MISSISSAUGA", "province": "ON", "country": "CA", "postalCode": "L5N1P4", "twitter": "None", "instagram": "None", "facebook": "None", "youtube": "None", "website": "None", "summary": "None", "logo": "None", "latitude": 43.59419876380634, "longitude": -79.7569716719659}, "728867490RR0001": {"name": "NAVY STREET CHARITY FOR PERSONS WITH DISABILITIES", "designationCode": "C", "categoryCode": "11", "address": "14 AUTUMN RIDGE COURT,", "city": "WOODBRIDGE", "province": "ON", "country": "CA", "postalCode": "L4L0B1", "twitter": "None", "instagram": "None", "facebook": "None", "youtube": "None", "website": "None", "summary": "None", "logo": "None", "latitude": 43.79948601887012, "longitude": -79.58623044021563}, "857793525RR0001": {"name": "NAWICAN ADVANCEMENT SOCIETY", "designationCode": "C", "categoryCode": "56", "address": "1320-102 AVE", "city": "DAWSON CREEK", "province": "BC", "country": "CA", "postalCode": "V1G2C6", "twitter": "None", "instagram": "None", "facebook": "None", "youtube": "None", "website": "None", "summary": "None", "logo": "None", "latitude": 55.75955952986305, "longitude": -120.23939250000001}, "866302979RR0001": {"name": "NAZAMDIPUR COMMUNITY DEVELOPMENT FOUNDATION", "designationCode": "C", "categoryCode": "47", "address": "2454 MARTELL CRESCENT", "city": "EDMONTON", "province": "AB", "country": "CA", "postalCode": "T6R0M6", "twitter": "None", "instagram": "None", "facebook": "None", "youtube": "None", "website": "None", "summary": "None", "logo": "None", "latitude": 53.4471114884588, "longitude": -113.55588}, "119052678RR0001": {"name": "NAZARENE CHRISTIAN CONGREGATION", "designationCode": "C", "categoryCode": "39", "address": "448 LANCASTER ST W", "city": "KITCHENER", "province": "ON", "country": "CA", "postalCode": "N2H4V9", "twitter": "None", "instagram": "None", "facebook": "None", "youtube": "None", "website": "None", "summary": "None", "logo": "None", "latitude": 43.47280841909517, "longitude": -80.48435213817905}, "860488600RR0001": {"name": "NAZARETH BAPTIST CHURCH", "designationCode": "C", "categoryCode": "31", "address": "2240 KIPLING AVENUE", "city": "ETOBICOKE", "province": "ON", "country": "CA", "postalCode": "M9W4L4", "twitter": "None", "instagram": "None", "facebook": "None", "youtube": "None", "website": "None", "summary": "None", "logo": "None", "latitude": 43.72618299971154, "longitude": -79.5736838523859}, "895070290RR0001": {"name": "NAZARETH GOSPEL TEMPLE OF ONTARIO", "designationCode": "C", "categoryCode": "39", "address": "49 SPRAGG CIRCLE", "city": "MARKHAM", "province": "ON", "country": "CA", "postalCode": "L3P5W3", "twitter": "None", "instagram": "None", "facebook": "None", "youtube": "None", "website": "None", "summary": "None", "logo": "None", "latitude": 43.89648798695827, "longitude": -79.24009591338235}, "136482635RR0001": {"name": "NAZARETH HOUSE INC.", "designationCode": "C", "categoryCode": "09", "address": "455 PALMERSTON BLVD", "city": "TORONTO", "province": "ON", "country": "CA", "postalCode": "M6G2N9", "twitter": "None", "instagram": "None", "facebook": "None", "youtube": "None", "website": "None", "summary": "None", "logo": "None", "latitude": 43.661157673610674, "longitude": -79.41217795640272}, "119052702RR0001": {"name": "NAZARETH LUTHERAN CHURCH", "designationCode": "C", "categoryCode": "32", "address": "BOX 264", "city": "STANDARD", "province": "AB", "country": "CA", "postalCode": "T0J3G0", "twitter": "None", "instagram": "None", "facebook": "None", "youtube": "None", "website": "None", "summary": "None", "logo": "None", "latitude": 51.109930062179025, "longitude": -112.98285000057689}, "884215013RR0001": {"name": "NCWC EDUCATION FUND / LE FOND EDUCATION NCWC", "designationCode": "C", "categoryCode": "20", "address": "P.O. BOX 67099", "city": "OTTAWA", "province": "ON", "country": "CA", "postalCode": "K2A4E4", "twitter": "None", "instagram": "None", "facebook": "None", "youtube": "None", "website": "None", "summary": "None", "logo": "None", "latitude": 45.42177300000006, "longitude": -75.69115999999994}, "891374548RR0001": {"name": "NDA SCHOOL CHARITABLE TRUST", "designationCode": "C", "categoryCode": "21", "address": "PO BOX 100", "city": "CHETICAMP INVERNESS COUNTY", "province": "NS", "country": "CA", "postalCode": "B0E1H0", "twitter": "None", "instagram": "None", "facebook": "None", "youtube": "None", "website": "None", "summary": "None", "logo": "None", "latitude": 46.63427000000007, "longitude": -61.00917999999996}, "140771254RR0001": {"name": "NDINAWEMAAGANAG ENDAAWAAD INC", "designationCode": "C", "categoryCode": "01", "address": "370 FLORA AVE", "city": "WINNIPEG", "province": "MB", "country": "CA", "postalCode": "R2W2R5", "twitter": "None", "instagram": "None", "facebook": "None", "youtube": "None", "website": "None", "summary": "None", "logo": "None", "latitude": 49.91321010794062, "longitude": -97.14014955303234}, "813900941RR0001": {"name": "NE CENTRE OF COMMUNITY SOCIETY", "designationCode": "C", "categoryCode": "56", "address": "10-7555 FALCONRIDGE BLVD NE", "city": "CALGARY", "province": "AB", "country": "CA", "postalCode": "T3J0C9", "twitter": "None", "instagram": "None", "facebook": "None", "youtube": "None", "website": "None", "summary": "None", "logo": "None", "latitude": 51.118893000000014, "longitude": -113.94691678411876}, "886861798RR0001": {"name": "NE-CHEE FRIENDSHIP CENTRE", "designationCode": "C", "categoryCode": "59", "address": "PO BOX 241                    DONALD COPENACE", "city": "KENORA", "province": "ON", "country": "CA", "postalCode": "P9N3X3", "twitter": "None", "instagram": "None", "facebook": "None", "youtube": "None", "website": "None", "summary": "None", "logo": "None", "latitude": 49.77125700000006, "longitude": -94.48912249999994}, "119052827RR0001": {"name": "NEAL MEMORIAL UNITED CHURCH", "designationCode": "C", "categoryCode": "44", "address": "PO BOX 136", "city": "PORT ROWAN", "province": "ON", "country": "CA", "postalCode": "N0E1M0", "twitter": "None", "instagram": "None", "facebook": "None", "youtube": "None", "website": "None", "summary": "None", "logo": "None", "latitude": 42.62403000000006, "longitude": -80.45044999999999}, "879857324RR0001": {"name": "NEAR NORTH BAPTIST CHURCH", "designationCode": "C", "categoryCode": "31", "address": "890 VIMY ST", "city": "NORTH BAY", "province": "ON", "country": "CA", "postalCode": "P1B5B7", "twitter": "None", "instagram": "None", "facebook": "None", "youtube": "None", "website": "None", "summary": "None", "logo": "None", "latitude": 46.324041523226626, "longitude": -79.47345077699232}, "132420290RR0001": {"name": "NEAR NORTH CRIME STOPPERS INC", "designationCode": "C", "categoryCode": "59", "address": "PO BOX 382", "city": "NORTH BAY", "province": "ON", "country": "CA", "postalCode": "P1B8H5", "twitter": "None", "instagram": "None", "facebook": "None", "youtube": "None", "website": "None", "summary": "None", "logo": "None", "latitude": 46.30661700000006, "longitude": -79.45993249999994}, "897864310RR0001": {"name": "NEAR NORTH DISTRICT SCHOOL BOARD CHARITY WORKS", "designationCode": "C", "categoryCode": "21", "address": "963 AIRPORT RD                P.O. BOX 3110", "city": "NORTH BAY", "province": "ON", "country": "CA", "postalCode": "P1B8H1", "twitter": "None", "instagram": "None", "facebook": "None", "youtube": "None", "website": "None", "summary": "None", "logo": "None", "latitude": 46.347520546042084, "longitude": -79.4355832362123}, "892020884RR0001": {"name": "NEAR NORTH PALLIATIVE CARE NETWORK (NIPISSING-PARRY SOUND)", "designationCode": "C", "categoryCode": "11", "address": "2025 MAIN ST W", "city": "NORTH BAY", "province": "ON", "country": "CA", "postalCode": "P1B2X6", "twitter": "None", "instagram": "None", "facebook": "None", "youtube": "None", "website": "None", "summary": "None", "logo": "None", "latitude": 46.32472054833007, "longitude": -79.49626561962603}, "131295610RR0001": {"name": "NEC NATIVE EDUCATION COLLEGE", "designationCode": "C", "categoryCode": "20", "address": "4011 SI-LU DR", "city": "VANCOUVER", "province": "BC", "country": "CA", "postalCode": "V6N4G5", "twitter": "None", "instagram": "None", "facebook": "None", "youtube": "None", "website": "None", "summary": "None", "logo": "None", "latitude": 49.22643550007713, "longitude": -123.1934778619258}, "119052843RR0001": {"name": "NECHAKO CHRISTIAN FELLOWSHIP", "designationCode": "C", "categoryCode": "47", "address": "PO BOX 145", "city": "VANDERHOOF", "province": "BC", "country": "CA", "postalCode": "V0J3A0", "twitter": "None", "instagram": "None", "facebook": "None", "youtube": "None", "website": "None", "summary": "None", "logo": "None", "latitude": 54.01397400000006, "longitude": -124.01297449999993}, "894917814RR0001": {"name": "NECHAKO COMMUNITY CHURCH", "designationCode": "C", "categoryCode": "34", "address": "PO BOX 1279", "city": "VANDERHOOF", "province": "BC", "country": "CA", "postalCode": "V0J3A0", "twitter": "None", "instagram": "None", "facebook": "None", "youtube": "None", "website": "None", "summary": "None", "logo": "None", "latitude": 54.01397400000006, "longitude": -124.01297449999993}, "107766347RR0001": {"name": "NECHAKO VALLEY HISTORICAL SOCIETY", "designationCode": "C", "categoryCode": "50", "address": "PO BOX 1515", "city": "VANDERHOOF", "province": "BC", "country": "CA", "postalCode": "V0J3A0", "twitter": "None", "instagram": "None", "facebook": "None", "youtube": "None", "website": "None", "summary": "None", "logo": "None", "latitude": 54.01397400000006, "longitude": -124.01297449999993}, "891130940RR0001": {"name": "NECHAKO VALLEY SEARCH AND RESCUE SOCIETY", "designationCode": "C", "categoryCode": "59", "address": "BOX 378", "city": "VANDERHOOF", "province": "BC", "country": "CA", "postalCode": "V0J3A0", "twitter": "None", "instagram": "None", "facebook": "None", "youtube": "None", "website": "None", "summary": "None", "logo": "None", "latitude": 54.01397400000006, "longitude": -124.01297449999993}, "132350638RR0001": {"name": "NECHAKO VIEW SENIOR CITIZENS' HOME SOCIETY", "designationCode": "C", "categoryCode": "01", "address": "241 NORTHSIDE RD", "city": "VANDERHOOF", "province": "BC", "country": "CA", "postalCode": "V0J3A2", "twitter": "None", "instagram": "None", "facebook": "None", "youtube": "None", "website": "None", "summary": "None", "logo": "None", "latitude": 54.02764537722863, "longitude": -124.00682450126939}, "140764713RR0001": {"name": "NEEBING FIRE/RESCUE ASSOCIATION", "designationCode": "C", "categoryCode": "59", "address": "4766 HIGHWAY 61", "city": "NEEBING", "province": "ON", "country": "CA", "postalCode": "P7L0B5", "twitter": "None", "instagram": "None", "facebook": "None", "youtube": "None", "website": "None", "summary": "None", "logo": "None", "latitude": 48.22628960652789, "longitude": -89.47672991810161}, "119052892RR0001": {"name": "NEEDLEWORK GUILD OF CANADA TORONTO BRANCH", "designationCode": "C", "categoryCode": "09", "address": "#6-10 POST OAK DR", "city": "RICHMOND HILL", "province": "ON", "country": "CA", "postalCode": "L4E4H8", "twitter": "None", "instagram": "None", "facebook": "None", "youtube": "None", "website": "None", "summary": "None", "logo": "None", "latitude": 43.90898104579033, "longitude": -79.44461769360598}, "119052926RR0001": {"name": "NEEJE ASSOCIATION FOR WOMEN AND FAMILY/ASSOCIATION NEEJE POUR LA FEMME ET LA FAMILLE", "designationCode": "C", "categoryCode": "09", "address": "453 DALY AVE", "city": "OTTAWA", "province": "ON", "country": "CA", "postalCode": "K1N6H6", "twitter": "None", "instagram": "None", "facebook": "None", "youtube": "None", "website": "None", "summary": "None", "logo": "None", "latitude": 45.432455352501464, "longitude": -75.67300527560734}, "119052934RR0001": {"name": "NEEPAWA & DISTRICT CENTENNIAL PROJECT COMMITTEE INC.", "designationCode": "C", "categoryCode": "56", "address": "BOX 2440", "city": "NEEPAWA", "province": "MB", "country": "CA", "postalCode": "R0J1H0", "twitter": "None", "instagram": "None", "facebook": "None", "youtube": "None", "website": "None", "summary": "None", "logo": "None", "latitude": 50.22581100000005, "longitude": -99.48963949999994}, "132041369RR0001": {"name": "NEEPAWA & DISTRICT DISABLED PERSONS ASSOCIATION INC", "designationCode": "C", "categoryCode": "09", "address": "PO BOX 2444", "city": "NEEPAWA", "province": "MB", "country": "CA", "postalCode": "R0J1H0", "twitter": "None", "instagram": "None", "facebook": "None", "youtube": "None", "website": "None", "summary": "None", "logo": "None", "latitude": 50.22581100000005, "longitude": -99.48963949999994}, "119052959RR0001": {"name": "NEEPAWA & DISTRICT DROP-IN CENTRE INC.", "designationCode": "C", "categoryCode": "56", "address": "PO BOX 2072", "city": "NEEPAWA", "province": "MB", "country": "CA", "postalCode": "R0J1H0", "twitter": "None", "instagram": "None", "facebook": "None", "youtube": "None", "website": "None", "summary": "None", "logo": "None", "latitude": 50.22581100000005, "longitude": -99.48963949999994}, "131502338RR0001": {"name": "NEEPAWA & DISTRICT FINE ARTS FESTIVAL", "designationCode": "C", "categoryCode": "22", "address": "BOX 547", "city": "NEEPAWA", "province": "MB", "country": "CA", "postalCode": "R0J1H0", "twitter": "None", "instagram": "None", "facebook": "None", "youtube": "None", "website": "None", "summary": "None", "logo": "None", "latitude": 50.22581100000005, "longitude": -99.48963949999994}, "848323325RR0001": {"name": "NEEPAWA AND AREA PALLIATIVE CARE (ARHA)", "designationCode": "C", "categoryCode": "11", "address": "BOX 1240                      NEEPAWA HEALTH CENTRE", "city": "NEEPAWA", "province": "MB", "country": "CA", "postalCode": "R0J1H0", "twitter": "None", "instagram": "None", "facebook": "None", "youtube": "None", "website": "None", "summary": "None", "logo": "None", "latitude": 50.23451000000006, "longitude": -99.46135999999996}, "103846358RR0001": {"name": "NEEPAWA CO-OPERATIVE PLAY CENTRE INC.", "designationCode": "C", "categoryCode": "01", "address": "BOX 1015", "city": "NEEPAWA", "province": "MB", "country": "CA", "postalCode": "R0J1H0", "twitter": "None", "instagram": "None", "facebook": "None", "youtube": "None", "website": "None", "summary": "None", "logo": "None", "latitude": 50.22581100000005, "longitude": -99.48963949999994}, "864141023RR0001": {"name": "NEEPAWA FIRST BAPTIST CHURCH INC.", "designationCode": "C", "categoryCode": "31", "address": "BOX 1227", "city": "NEEPAWA", "province": "MB", "country": "CA", "postalCode": "R0J1H0", "twitter": "None", "instagram": "None", "facebook": "None", "youtube": "None", "website": "None", "summary": "None", "logo": "None", "latitude": 50.22581100000005, "longitude": -99.48963949999994}, "119243855RR0001": {"name": "NEEPAWA HEALTH AUXILIARIES", "designationCode": "C", "categoryCode": "19", "address": "BOX 1461", "city": "NEEPAWA", "province": "MB", "country": "CA", "postalCode": "R0J1H0", "twitter": "None", "instagram": "None", "facebook": "None", "youtube": "None", "website": "None", "summary": "None", "logo": "None", "latitude": 50.22581100000005, "longitude": -99.48963949999994}, "119053007RR0001": {"name": "NEEPAWA KINSMEN SENIOR CITIZENS HOUSING INC.", "designationCode": "C", "categoryCode": "09", "address": "299 DAVIDSON STREET", "city": "NEEPAWA", "province": "MB", "country": "CA", "postalCode": "R0J1H0", "twitter": "None", "instagram": "None", "facebook": "None", "youtube": "None", "website": "None", "summary": "None", "logo": "None", "latitude": 50.229432352982535, "longitude": -99.46398396531006}, "119053015RR0001": {"name": "NEEPAWA MANITOBA CONGREGATION OF JEHOVAH'S WITNESSES", "designationCode": "C", "categoryCode": "61", "address": "BOX 1870", "city": "NEEPAWA", "province": "MB", "country": "CA", "postalCode": "R0J1H0", "twitter": "None", "instagram": "None", "facebook": "None", "youtube": "None", "website": "None", "summary": "None", "logo": "None", "latitude": 50.22581100000005, "longitude": -99.48963949999994}, "122891385RR0001": {"name": "NEEPAWA THEATRE CENTRE INC.", "designationCode": "C", "categoryCode": "56", "address": "P.O. BOX 1281", "city": "NEEPAWA", "province": "MB", "country": "CA", "postalCode": "R0J1H0", "twitter": "None", "instagram": "None", "facebook": "None", "youtube": "None", "website": "None", "summary": "None", "logo": "None", "latitude": 50.22581100000005, "longitude": -99.48963949999994}, "130635725RR0001": {"name": "NEEPAWA UNITED CHURCH,", "designationCode": "C", "categoryCode": "44", "address": "BOX 1420", "city": "NEEPAWA", "province": "MB", "country": "CA", "postalCode": "R0J1H0", "twitter": "None", "instagram": "None", "facebook": "None", "youtube": "None", "website": "None", "summary": "None", "logo": "None", "latitude": 50.22581100000005, "longitude": -99.48963949999994}, "888824646RR0001": {"name": "NEERLANDIA CHRISTIAN EDUCATION SOCIETY", "designationCode": "C", "categoryCode": "25", "address": "4918 50 ST                    RR 1", "city": "NEERLANDIA", "province": "AB", "country": "CA", "postalCode": "T0G1R0", "twitter": "None", "instagram": "None", "facebook": "None", "youtube": "None", "website": "None", "summary": "None", "logo": "None", "latitude": 53.94786124480127, "longitude": -113.88976447541714}, "107766560RR0001": {"name": "NEERLANDIA CHRISTIAN REFORMED CHURCH", "designationCode": "C", "categoryCode": "39", "address": "4913 50 ST                    RR 1", "city": "NEERLANDIA", "province": "AB", "country": "CA", "postalCode": "T0G1R0", "twitter": "None", "instagram": "None", "facebook": "None", "youtube": "None", "website": "None", "summary": "None", "logo": "None", "latitude": 55.42837012297293, "longitude": -116.49357213800616}, "890247794RR0001": {"name": "NEERLANDIA SPORTS COMMITTEE", "designationCode": "C", "categoryCode": "56", "address": "5002-50 ST", "city": "NEERLANDIA", "province": "AB", "country": "CA", "postalCode": "T0G1R0", "twitter": "None", "instagram": "None", "facebook": "None", "youtube": "None", "website": "None", "summary": "None", "logo": "None", "latitude": 54.06276499081072, "longitude": -113.64695873851339}}