{"864987003RR0001": {"name": "CAF\u00c9 DES TROIS COLOMBES", "designationCode": "C", "categoryCode": "47", "address": "2000 RUE SHERBROOKE O", "city": "MONTREAL", "province": "QC", "country": "CA", "postalCode": "H3H1G4", "twitter": "None", "instagram": "None", "facebook": "None", "youtube": "None", "website": "None", "summary": "None", "logo": "None", "latitude": 45.49368344489018, "longitude": -73.5842704953837}, "890681406RR0001": {"name": "CAFE ADONAI", "designationCode": "C", "categoryCode": "49", "address": "605 FENNELL AVENUE EAST", "city": "HAMILTON", "province": "ON", "country": "CA", "postalCode": "L8V1T3", "twitter": "None", "instagram": "None", "facebook": "None", "youtube": "None", "website": "None", "summary": "None", "logo": "None", "latitude": 43.23178299030514, "longitude": -79.85450642977098}, "119858157RR0001": {"name": "CAFE CHRETIEN ST-GEORGES-DE-BEAUCE INC.", "designationCode": "C", "categoryCode": "49", "address": "C.P. 161                      12012 2EME", "city": "SAINT-GEORGES", "province": "QC", "country": "CA", "postalCode": "G5Y5C4", "twitter": "None", "instagram": "None", "facebook": "None", "youtube": "None", "website": "None", "summary": "None", "logo": "None", "latitude": 46.12030740457246, "longitude": -70.67095740986674}, "118822568RR0001": {"name": "CAFE CHRETIEN VICTO INC.", "designationCode": "C", "categoryCode": "49", "address": "100 RUE ST PAUL", "city": "VICTORIAVILLE", "province": "QC", "country": "CA", "postalCode": "G6P9C8", "twitter": "None", "instagram": "None", "facebook": "None", "youtube": "None", "website": "None", "summary": "None", "logo": "None", "latitude": 46.06399083319865, "longitude": -71.96297538164337}, "889245999RR0001": {"name": "CAFE D'ACCUEIL CHRETIEN INC", "designationCode": "C", "categoryCode": "49", "address": "465 STANLEY", "city": "ROXTON POND", "province": "QC", "country": "CA", "postalCode": "J0E1Z0", "twitter": "None", "instagram": "None", "facebook": "None", "youtube": "None", "website": "None", "summary": "None", "logo": "None", "latitude": 45.478928828206996, "longitude": -72.66416062265579}, "100718212RR0001": {"name": "CAFE DES DEUX PAINS DE VALLEYFIELD INC.", "designationCode": "C", "categoryCode": "09", "address": "107 JACQUES CARTIER", "city": "VALLEYFIELD", "province": "QC", "country": "CA", "postalCode": "J6T4R8", "twitter": "None", "instagram": "None", "facebook": "None", "youtube": "None", "website": "None", "summary": "None", "logo": "None", "latitude": 45.252046958653075, "longitude": -74.12720618607548}, "118822584RR0001": {"name": "CAFE JEUNESSE DE CHICOUTIMI INC.", "designationCode": "C", "categoryCode": "09", "address": "30 RUE JACQUES-CARTIER O", "city": "CHICOUTIMI", "province": "QC", "country": "CA", "postalCode": "G7J1E6", "twitter": "None", "instagram": "None", "facebook": "None", "youtube": "None", "website": "None", "summary": "None", "logo": "None", "latitude": 48.426734557851134, "longitude": -71.06944383680533}, "854081361RR0001": {"name": "CAFE LA MOSAIQUE", "designationCode": "C", "categoryCode": "09", "address": "15, RUE SAINT-LOUIS", "city": "L\u00c9VIS", "province": "QC", "country": "CA", "postalCode": "G6V4E2", "twitter": "None", "instagram": "None", "facebook": "None", "youtube": "None", "website": "None", "summary": "None", "logo": "None", "latitude": 46.80283367210465, "longitude": -71.18542020454824}, "899216477RR0001": {"name": "CAFE RENCONTRE DU CENTRE-VILLE (QUEBEC) INC", "designationCode": "C", "categoryCode": "09", "address": "C.P. 30146                    C.S.P. MAIL CENTRE VILLE", "city": "QUEBEC", "province": "QC", "country": "CA", "postalCode": "G1K8Y2", "twitter": "None", "instagram": "None", "facebook": "None", "youtube": "None", "website": "None", "summary": "None", "logo": "None", "latitude": 46.81272300000006, "longitude": -71.21930299999994}, "845086743RR0001": {"name": "CAFKA - Contemporary Art Forum Kitchener and Area", "designationCode": "C", "categoryCode": "22", "address": "141 WHITNEY PL #7", "city": "KITCHENER", "province": "ON", "country": "CA", "postalCode": "N2G2X8", "twitter": "None", "instagram": "None", "facebook": "None", "youtube": "None", "website": "None", "summary": "None", "logo": "None", "latitude": 43.441541855098535, "longitude": -80.48866334012357}, "887137396RR0001": {"name": "CAG CONTEMPORARY ART GALLERY SOCIETY OF BRITISH COLUMBIA", "designationCode": "C", "categoryCode": "22", "address": "555 NELSON ST", "city": "VANCOUVER", "province": "BC", "country": "CA", "postalCode": "V6B6R5", "twitter": "None", "instagram": "None", "facebook": "None", "youtube": "None", "website": "None", "summary": "None", "logo": "None", "latitude": 49.27840846512015, "longitude": -123.12159466356027}, "776727323RR0001": {"name": "CAGP Foundation", "designationCode": "C", "categoryCode": "20", "address": "14 CHAMBERLAIN AVENUE         SUITE 201A", "city": "OTTAWA", "province": "ON", "country": "CA", "postalCode": "K1S1V9", "twitter": "None", "instagram": "None", "facebook": "None", "youtube": "None", "website": "None", "summary": "None", "logo": "None", "latitude": 45.40803723423177, "longitude": -75.69212027142373}, "118822618RR0001": {"name": "CAHIERS DE THEATRE JEU INC.", "designationCode": "C", "categoryCode": "22", "address": "200-4067 BOUL ST-LAURENT", "city": "MONTREAL", "province": "QC", "country": "CA", "postalCode": "H2W1Y7", "twitter": "None", "instagram": "None", "facebook": "None", "youtube": "None", "website": "None", "summary": "None", "logo": "None", "latitude": 45.51719115932819, "longitude": -73.5798487801663}, "126734565RR0001": {"name": "CAHOOTS THEATRE PROJECTS", "designationCode": "C", "categoryCode": "22", "address": "PO BOX 82574 RPO CORKTOWN", "city": "TORONTO", "province": "ON", "country": "CA", "postalCode": "M5A1T8", "twitter": "None", "instagram": "None", "facebook": "None", "youtube": "None", "website": "None", "summary": "None", "logo": "None", "latitude": 43.653559559182476, "longitude": -79.36052048358884}, "132977620RR0001": {"name": "CAIRNS CHILDREN'S CENTRE INC", "designationCode": "C", "categoryCode": "01", "address": "1100 CHANCELLOR DR", "city": "WINNIPEG", "province": "MB", "country": "CA", "postalCode": "R3T4W8", "twitter": "None", "instagram": "None", "facebook": "None", "youtube": "None", "website": "None", "summary": "None", "logo": "None", "latitude": 49.81309070327219, "longitude": -97.1637550367593}, "887517399RR0001": {"name": "CAISSE D ENTRAIDE DU DIOCESE DE SAINT HYACINTHE", "designationCode": "C", "categoryCode": "38", "address": "CP 190 1900 GIROUARD OUEST", "city": "SAINT-HYACINTHE", "province": "QC", "country": "CA", "postalCode": "J2S7B4", "twitter": "None", "instagram": "None", "facebook": "None", "youtube": "None", "website": "None", "summary": "None", "logo": "None", "latitude": 45.62391797590707, "longitude": -72.94864985033708}, "118822717RR0001": {"name": "CAISSE D'ENTRAIDE DES PRETRES DU DIOCESE DE TROIS-RIVIERES", "designationCode": "C", "categoryCode": "09", "address": "362 RUE BONAVENTURE", "city": "TROIS-RIVIERES", "province": "QC", "country": "CA", "postalCode": "G9A5J9", "twitter": "None", "instagram": "None", "facebook": "None", "youtube": "None", "website": "None", "summary": "None", "logo": "None", "latitude": 46.34404310744968, "longitude": -72.54272521008151}, "889835591RR0001": {"name": "CAISSE DE COMPENSATION DIOCESE DE HEARST", "designationCode": "C", "categoryCode": "49", "address": "CP 1330", "city": "HEARST", "province": "ON", "country": "CA", "postalCode": "P0L1N0", "twitter": "None", "instagram": "None", "facebook": "None", "youtube": "None", "website": "None", "summary": "None", "logo": "None", "latitude": 49.68503700000005, "longitude": -83.65433749999994}, "887668465RR0001": {"name": "CAISSE SACERDOTALE D'ENTRAIDE ET DE CHARITE DU CLERGE DE SAINT JEROME", "designationCode": "C", "categoryCode": "49", "address": "355 PLACE DU CURE LABELLE", "city": "ST JEROME", "province": "QC", "country": "CA", "postalCode": "J7Z5A9", "twitter": "None", "instagram": "None", "facebook": "None", "youtube": "None", "website": "None", "summary": "None", "logo": "None", "latitude": 45.77841057112399, "longitude": -74.00216483501633}, "118931641RR0001": {"name": "CAISTOR CENTRE FREE METHODIST CHURCH", "designationCode": "C", "categoryCode": "39", "address": "RR#2", "city": "CAISTOR CENTRE", "province": "ON", "country": "CA", "postalCode": "L0R1E0", "twitter": "None", "instagram": "None", "facebook": "None", "youtube": "None", "website": "None", "summary": "None", "logo": "None", "latitude": 43.070426173965366, "longitude": -79.6517751378081}, "886872795RR0001": {"name": "CAISTORVILLE PASTORAL CHARGE,", "designationCode": "C", "categoryCode": "44", "address": "64-34 SOUTHBROOK DR", "city": "BINBROOK", "province": "ON", "country": "CA", "postalCode": "L0R1C0", "twitter": "None", "instagram": "None", "facebook": "None", "youtube": "None", "website": "None", "summary": "None", "logo": "None", "latitude": 43.11769571117904, "longitude": -79.80232543611972}, "875828808RR0001": {"name": "CAL BOMBAY MINISTRIES INC.", "designationCode": "C", "categoryCode": "47", "address": "P.O. BOX 22021                794 COLBORNE STREET EAST", "city": "BRANTFORD", "province": "ON", "country": "CA", "postalCode": "N3S7V1", "twitter": "None", "instagram": "None", "facebook": "None", "youtube": "None", "website": "None", "summary": "None", "logo": "None", "latitude": 43.143912044139725, "longitude": -80.22602760888155}, "853981348RR0001": {"name": "CAL WENZEL FAMILY FOUNDATION", "designationCode": "B", "categoryCode": "03", "address": "329 PINNACLE RIDGE PLACE", "city": "CALGARY", "province": "AB", "country": "CA", "postalCode": "T3Z3N8", "twitter": "None", "instagram": "None", "facebook": "None", "youtube": "None", "website": "None", "summary": "None", "logo": "None", "latitude": 51.0635494990421, "longitude": -114.26745101218438}, "867696643RR0001": {"name": "CALABOGIE & AREA HOME SUPPORT PROGRAM INC.", "designationCode": "C", "categoryCode": "09", "address": "PO BOX 163", "city": "CALABOGIE", "province": "ON", "country": "CA", "postalCode": "K0J1H0", "twitter": "None", "instagram": "None", "facebook": "None", "youtube": "None", "website": "None", "summary": "None", "logo": "None", "latitude": 45.390308555409, "longitude": -76.57315519536785}, "841397573RR0001": {"name": "CALACS du T\u00e9miscamingue", "designationCode": "C", "categoryCode": "09", "address": "28 NOTRE-DAME-DE-LOURDES", "city": "VILLE-MARIE", "province": "QC", "country": "CA", "postalCode": "J9V1X9", "twitter": "None", "instagram": "None", "facebook": "None", "youtube": "None", "website": "None", "summary": "None", "logo": "None", "latitude": 47.332994900340616, "longitude": -79.4387843233309}, "879722007RR0001": {"name": "CALACS DE CHARLEVOIX", "designationCode": "C", "categoryCode": "09", "address": "30 RUE PATRICK MORGAN         C.P.61", "city": "LA MALBAIE", "province": "QC", "country": "CA", "postalCode": "G5A1T6", "twitter": "None", "instagram": "None", "facebook": "None", "youtube": "None", "website": "None", "summary": "None", "logo": "None", "latitude": 47.655860311414344, "longitude": -70.15250895810482}, "865939714RR0001": {"name": "CALACS DE L'OUEST DE L'ILE", "designationCode": "C", "categoryCode": "09", "address": "4894 BOUL.DES SOURCES         C.P.43536 ROXBORO", "city": "DOLLARD-DES-ORMEAUX", "province": "QC", "country": "CA", "postalCode": "H8Y3P4", "twitter": "None", "instagram": "None", "facebook": "None", "youtube": "None", "website": "None", "summary": "None", "logo": "None", "latitude": 45.5045907218825, "longitude": -73.81796400753048}, "873597504RR0001": {"name": "CALACS Entraid'Action, centre d'aide et de lutte contre les agressions \u00e0 caract\u00e8re sexuel", "designationCode": "C", "categoryCode": "09", "address": "C.P. 10117 SUCC BUREAU-CHEF", "city": "GRAND-M\u00c8RE", "province": "QC", "country": "CA", "postalCode": "G9T5K7", "twitter": "None", "instagram": "None", "facebook": "None", "youtube": "None", "website": "None", "summary": "None", "logo": "None", "latitude": 46.59868500000006, "longitude": -72.70858699999994}, "861487866RR0001": {"name": "CALACS ENTRE ELLES", "designationCode": "C", "categoryCode": "09", "address": "C.P. 161", "city": "ROBERVAL", "province": "QC", "country": "CA", "postalCode": "G8H2N6", "twitter": "None", "instagram": "None", "facebook": "None", "youtube": "None", "website": "None", "summary": "None", "logo": "None", "latitude": 48.514913048705026, "longitude": -72.22279203897794}, "131710881RR0001": {"name": "CALACS LA PASSERELLE, CENTRE D'AIDE ET DE LUTTE CONTRE LES AGRESSIONS \u00c0 CARACT\u00c8RE SEXUEL", "designationCode": "C", "categoryCode": "59", "address": "C.P. 93", "city": "DRUMMONDVILLE", "province": "QC", "country": "CA", "postalCode": "J2B6V6", "twitter": "None", "instagram": "None", "facebook": "None", "youtube": "None", "website": "None", "summary": "None", "logo": "None", "latitude": 45.88082700000005, "longitude": -72.48417199999993}, "845241876RR0001": {"name": "CALACS-ABITIBI (CENTRE D'AIDE ET DE LUTTE CONTRE LES AGRESSIONS A CARACTERE SEXUEL-ABITIBI)", "designationCode": "C", "categoryCode": "09", "address": "C.P. 94", "city": "AMOS", "province": "QC", "country": "CA", "postalCode": "J9T3A5", "twitter": "None", "instagram": "None", "facebook": "None", "youtube": "None", "website": "None", "summary": "None", "logo": "None", "latitude": 48.66054900000006, "longitude": -78.01768249999994}, "788223287RR0001": {"name": "CALAHOO ALLIANCE CHURCH", "designationCode": "C", "categoryCode": "39", "address": "14 - 54500 RGE RD 275", "city": "STURGEON COUNTY", "province": "AB", "country": "CA", "postalCode": "T8R1Z1", "twitter": "None", "instagram": "None", "facebook": "None", "youtube": "None", "website": "None", "summary": "None", "logo": "None", "latitude": 53.70852510832182, "longitude": -113.96040254353393}, "860632926RR0001": {"name": "CALCUTTA RESCUE CANADA", "designationCode": "C", "categoryCode": "09", "address": "109 THORNDALE PLACE", "city": "WATERLOO", "province": "ON", "country": "CA", "postalCode": "N2L5Y8", "twitter": "None", "instagram": "None", "facebook": "None", "youtube": "None", "website": "None", "summary": "None", "logo": "None", "latitude": 43.45088459755326, "longitude": -80.54903404284748}, "878545722RR0001": {"name": "CALDOR FOUNDATION", "designationCode": "B", "categoryCode": "03", "address": "4750 BELMONT AVENUE", "city": "VANCOUVER", "province": "BC", "country": "CA", "postalCode": "V6T1A9", "twitter": "None", "instagram": "None", "facebook": "None", "youtube": "None", "website": "None", "summary": "None", "logo": "None", "latitude": 49.27461923561673, "longitude": -123.21717386626436}, "106897747RR0001": {"name": "CALDWELL FAMILY CENTRE INC./CENTRE FAMILIAL CALDWELL INC.", "designationCode": "C", "categoryCode": "01", "address": "20 - 1100 MEDFORD ST", "city": "OTTAWA", "province": "ON", "country": "CA", "postalCode": "K1Z8L5", "twitter": "None", "instagram": "None", "facebook": "None", "youtube": "None", "website": "None", "summary": "None", "logo": "None", "latitude": 45.37366255603317, "longitude": -75.73612307881922}, "866239841RR0001": {"name": "CALEB MINISTRIES ASSOCIATION OF ALBERTA", "designationCode": "C", "categoryCode": "49", "address": "PO BOX 321 STATION M", "city": "CALGARY", "province": "AB", "country": "CA", "postalCode": "T2P2H9", "twitter": "None", "instagram": "None", "facebook": "None", "youtube": "None", "website": "None", "summary": "None", "logo": "None", "latitude": 51.04531500000006, "longitude": -114.06301099999993}, "118822865RR0001": {"name": "CALEDON AGRICULTURAL SOCIETY", "designationCode": "C", "categoryCode": "56", "address": "20405 HEART LAKE RD", "city": "CALEDON VILLAGE", "province": "ON", "country": "CA", "postalCode": "L7K2A8", "twitter": "None", "instagram": "None", "facebook": "None", "youtube": "None", "website": "None", "summary": "None", "logo": "None", "latitude": 43.92157932050175, "longitude": -80.03131426614549}, "129569182RR0001": {"name": "CALEDON COMMUNITY SERVICES", "designationCode": "C", "categoryCode": "09", "address": "18 KING ST E UNIT D8", "city": "BOLTON", "province": "ON", "country": "CA", "postalCode": "L7E1E8", "twitter": "None", "instagram": "None", "facebook": "None", "youtube": "None", "website": "None", "summary": "None", "logo": "None", "latitude": 43.87977825425571, "longitude": -79.73799347134903}, "899292205RR0001": {"name": "CALEDON CONCERT BAND ASSOCIATION", "designationCode": "C", "categoryCode": "22", "address": "306 KINGSVIEW DRIVE", "city": "BOLTON", "province": "ON", "country": "CA", "postalCode": "L7E3X7", "twitter": "None", "instagram": "None", "facebook": "None", "youtube": "None", "website": "None", "summary": "None", "logo": "None"}, "118822873RR0001": {"name": "CALEDON CONTEMPORARIES", "designationCode": "C", "categoryCode": "56", "address": "1058 LOMBARDO AVE", "city": "LONDON", "province": "ON", "country": "CA", "postalCode": "N6A2X8", "twitter": "None", "instagram": "None", "facebook": "None", "youtube": "None", "website": "None", "summary": "None", "logo": "None", "latitude": 43.00223287844072, "longitude": -81.26516075226515}, "888993375RR0001": {"name": "CALEDON EAST PUBLIC CEMETERY", "designationCode": "C", "categoryCode": "59", "address": "15049 AIRPORT ROAD", "city": "CALEDON", "province": "ON", "country": "CA", "postalCode": "L7C2X9", "twitter": "None", "instagram": "None", "facebook": "None", "youtube": "None", "website": "None", "summary": "None", "logo": "None", "latitude": 43.852504279962886, "longitude": -79.84327396419486}, "889112843RR0001": {"name": "CALEDON EAST UNITED CHURCH", "designationCode": "C", "categoryCode": "44", "address": "6046 OLD CHURCH ROAD", "city": "CALEDON EAST", "province": "ON", "country": "CA", "postalCode": "L7C1H8", "twitter": "None", "instagram": "None", "facebook": "None", "youtube": "None", "website": "None", "summary": "None", "logo": "None", "latitude": 43.87121210909446, "longitude": -79.86583064227572}, "806974945RR0001": {"name": "CALEDON HILLS FELLOWSHIP BAPTIST CHURCH", "designationCode": "C", "categoryCode": "39", "address": "16591 AIRPORT RD              PO BOX 96 STN.", "city": "CALEDON EAST", "province": "ON", "country": "CA", "postalCode": "L7C3L8", "twitter": "None", "instagram": "None", "facebook": "None", "youtube": "None", "website": "None", "summary": "None", "logo": "None", "latitude": 43.88142629035118, "longitude": -79.88237517424584}, "106829948RR0001": {"name": "CALEDON MEALS ON WHEELS", "designationCode": "C", "categoryCode": "09", "address": "80 ALLAN DR", "city": "BOLTON", "province": "ON", "country": "CA", "postalCode": "L7E1P7", "twitter": "None", "instagram": "None", "facebook": "None", "youtube": "None", "website": "None", "summary": "None", "logo": "None", "latitude": 43.87400354922413, "longitude": -79.72521808194404}, "123538050RR0001": {"name": "CALEDON PARENT-CHILD CENTRE", "designationCode": "C", "categoryCode": "59", "address": "150 QUEEN ST S", "city": "BOLTON", "province": "ON", "country": "CA", "postalCode": "L7E1E3", "twitter": "None", "instagram": "None", "facebook": "None", "youtube": "None", "website": "None", "summary": "None", "logo": "None", "latitude": 43.87680715477736, "longitude": -79.7345309138883}, "892216375RR0002": {"name": "CALEDON SENIORS CENTRE", "designationCode": "C", "categoryCode": "56", "address": "7 ROTARIAN WAY", "city": "BOLTON", "province": "ON", "country": "CA", "postalCode": "L7E1Y2", "twitter": "None", "instagram": "None", "facebook": "None", "youtube": "None", "website": "None", "summary": "None", "logo": "None", "latitude": 43.89165651898569, "longitude": -79.75233116648423}, "106829849RR0001": {"name": "CALEDONIA AGRICULTURAL SOCIETY", "designationCode": "C", "categoryCode": "56", "address": "151 CAITHNESS ST E", "city": "CALEDONIA", "province": "ON", "country": "CA", "postalCode": "N3W1C2", "twitter": "None", "instagram": "None", "facebook": "None", "youtube": "None", "website": "None", "summary": "None", "logo": "None", "latitude": 43.072165713014066, "longitude": -79.94639369590938}, "140746694RR0001": {"name": "CALEDONIA AND DISTRICT FOOD BANK", "designationCode": "C", "categoryCode": "09", "address": "103 INVERNESS STREET", "city": "CALEDONIA", "province": "ON", "country": "CA", "postalCode": "N3W1B1", "twitter": "None", "instagram": "None", "facebook": "None", "youtube": "None", "website": "None", "summary": "None", "logo": "None", "latitude": 43.07695952152451, "longitude": -79.95590353641259}, "118822907RR0001": {"name": "CALEDONIA BAPTIST CHURCH", "designationCode": "C", "categoryCode": "31", "address": "PO BOX 2207 STN MAIN", "city": "CALEDONIA", "province": "ON", "country": "CA", "postalCode": "N3W2G6", "twitter": "None", "instagram": "None", "facebook": "None", "youtube": "None", "website": "None", "summary": "None", "logo": "None", "latitude": 43.07354700000006, "longitude": -79.95071149999994}, "118822923RR0001": {"name": "CALEDONIA CEMETERY FUND", "designationCode": "C", "categoryCode": "59", "address": "RR#1", "city": "MONTAGUE", "province": "PE", "country": "CA", "postalCode": "C0A1R0", "twitter": "None", "instagram": "None", "facebook": "None", "youtube": "None", "website": "None", "summary": "None", "logo": "None", "latitude": 46.14343222329997, "longitude": -62.75594020244682}, "891167660RR0001": {"name": "CALEDONIA CONGREGATIONAL CHURCH", "designationCode": "C", "categoryCode": "39", "address": "97 ARGYLE ST N", "city": "CALEDONIA", "province": "ON", "country": "CA", "postalCode": "N3W1B8", "twitter": "None", "instagram": "None", "facebook": "None", "youtube": "None", "website": "None", "summary": "None", "logo": "None", "latitude": 43.075654383637094, "longitude": -79.95102375271259}, "872943097RR0001": {"name": "CALEDONIA OLD MILL CORPORATION", "designationCode": "C", "categoryCode": "56", "address": "322 ARGYLE ST S", "city": "CALEDONIA", "province": "ON", "country": "CA", "postalCode": "N3W1K8", "twitter": "None", "instagram": "None", "facebook": "None", "youtube": "None", "website": "None", "summary": "None", "logo": "None", "latitude": 43.06373113243878, "longitude": -79.95973433188561}, "132412511RR0001": {"name": "CALEDONIA PASTORAL CHARGE,", "designationCode": "C", "categoryCode": "44", "address": "PO BOX 161", "city": "CALEDONIA", "province": "NS", "country": "CA", "postalCode": "B0T1B0", "twitter": "None", "instagram": "None", "facebook": "None", "youtube": "None", "website": "None", "summary": "None", "logo": "None", "latitude": 44.3565241005682, "longitude": -65.135905969237}, "118822972RR0001": {"name": "CALEDONIA PRESBYTERIAN CHURCH", "designationCode": "C", "categoryCode": "37", "address": "117 ARGYLE ST N", "city": "CALEDONIA", "province": "ON", "country": "CA", "postalCode": "N3W1B8", "twitter": "None", "instagram": "None", "facebook": "None", "youtube": "None", "website": "None", "summary": "None", "logo": "None", "latitude": 43.07615714365761, "longitude": -79.95078973076424}, "118822980RR0001": {"name": "CALEDONIA UNITED BAPTIST CHURCH", "designationCode": "C", "categoryCode": "39", "address": "41 FRAIL ROAD, RR 1", "city": "CALEDONIA", "province": "NS", "country": "CA", "postalCode": "B0T1B0", "twitter": "None", "instagram": "None", "facebook": "None", "youtube": "None", "website": "None", "summary": "None", "logo": "None", "latitude": 44.418378028305185, "longitude": -65.02235292925137}, "118822998RR0001": {"name": "CALEDONIA UNITED CHURCH", "designationCode": "C", "categoryCode": "44", "address": "174 CAITHNESS STREET EAST", "city": "CALEDONIA", "province": "ON", "country": "CA", "postalCode": "N3W1C2", "twitter": "None", "instagram": "None", "facebook": "None", "youtube": "None", "website": "None", "summary": "None", "logo": "None", "latitude": 43.071969931270544, "longitude": -79.94550161529759}, "886559590RR0001": {"name": "CALEDON\\DUFFERIN VICTIM SERVICES", "designationCode": "C", "categoryCode": "59", "address": "15924 INNIS LAKE ROAD", "city": "CALEDON EAST", "province": "ON", "country": "CA", "postalCode": "L7C2Z1", "twitter": "None", "instagram": "None", "facebook": "None", "youtube": "None", "website": "None", "summary": "None", "logo": "None", "latitude": 43.87689978957272, "longitude": -79.85260853393108}, "134647312RR0001": {"name": "CALGARY & DISTRICT FOSTER PARENTS ASSOCIATION", "designationCode": "C", "categoryCode": "01", "address": "140 - 4820 RICHARD RD SW", "city": "CALGARY", "province": "AB", "country": "CA", "postalCode": "T3E6L1", "twitter": "None", "instagram": "None", "facebook": "None", "youtube": "None", "website": "None", "summary": "None", "logo": "None", "latitude": 51.01134869216367, "longitude": -114.12432660225646}, "133502906RR0001": {"name": "CALGARY ACADEMY PARENTS ASSOCIATION", "designationCode": "C", "categoryCode": "21", "address": "4980 25TH ST SE", "city": "CALGARY", "province": "AB", "country": "CA", "postalCode": "T2B3M3", "twitter": "None", "instagram": "None", "facebook": "None", "youtube": "None", "website": "None", "summary": "None", "logo": "None", "latitude": 51.00940409186913, "longitude": -113.99855627961806}, "870422375RR0001": {"name": "CALGARY ACHIEVEMENT CENTRE FOR YOUTH", "designationCode": "C", "categoryCode": "09", "address": "200, 315 - 10 AVENUE SE", "city": "CALGARY", "province": "AB", "country": "CA", "postalCode": "T2G0W2", "twitter": "None", "instagram": "None", "facebook": "None", "youtube": "None", "website": "None", "summary": "None", "logo": "None", "latitude": 51.043085488458814, "longitude": -114.0567514730798}, "118823046RR0001": {"name": "CALGARY ALBERTA CONGREGATION OF JEHOVAH'S WITNESSES FOREST LAWN UNIT", "designationCode": "C", "categoryCode": "61", "address": "358 FONDA WAY SE", "city": "CALGARY", "province": "AB", "country": "CA", "postalCode": "T2A5V9", "twitter": "None", "instagram": "None", "facebook": "None", "youtube": "None", "website": "None", "summary": "None", "logo": "None", "latitude": 51.04873999974019, "longitude": -113.97345661449015}, "118823111RR0001": {"name": "CALGARY ALPHA HOUSE SOCIETY", "designationCode": "C", "categoryCode": "57", "address": "203 - 15 AVENUE SE", "city": "CALGARY", "province": "AB", "country": "CA", "postalCode": "T2G1G4", "twitter": "None", "instagram": "None", "facebook": "None", "youtube": "None", "website": "None", "summary": "None", "logo": "None", "latitude": 51.03847155785111, "longitude": -114.06064405689884}, "896149804RR0001": {"name": "CALGARY ANIMATED OBJECTS SOCIETY", "designationCode": "C", "categoryCode": "22", "address": "1030-20 AVE SE", "city": "CALGARY", "province": "AB", "country": "CA", "postalCode": "T2G1M6", "twitter": "None", "instagram": "None", "facebook": "None", "youtube": "None", "website": "None", "summary": "None", "logo": "None", "latitude": 51.03537548211082, "longitude": -114.037983}, "884460114RR0001": {"name": "CALGARY ARTS ACADEMY SOCIETY", "designationCode": "C", "categoryCode": "22", "address": "640 14 AVE SE", "city": "CALGARY", "province": "AB", "country": "CA", "postalCode": "T2G1E8", "twitter": "None", "instagram": "None", "facebook": "None", "youtube": "None", "website": "None", "summary": "None", "logo": "None", "latitude": 51.039126449362236, "longitude": -114.04922211379765}, "884906249RR0001": {"name": "CALGARY ARTS SUMMER SCHOOL ASSOCIATION", "designationCode": "C", "categoryCode": "21", "address": "201, 11420-27 ST. S.E.", "city": "CALGARY", "province": "AB", "country": "CA", "postalCode": "T2Z3R6", "twitter": "None", "instagram": "None", "facebook": "None", "youtube": "None", "website": "None", "summary": "None", "logo": "None", "latitude": 50.95348363419699, "longitude": -113.99645484748115}, "892460841RR0001": {"name": "CALGARY ASSOCIATION OF TEACHERS OF SINGING ENDOWMENT SOCIETY", "designationCode": "C", "categoryCode": "22", "address": "14 HIDDEN SPRING CRT NW", "city": "CALGARY", "province": "AB", "country": "CA", "postalCode": "T3A5J4", "twitter": "None", "instagram": "None", "facebook": "None", "youtube": "None", "website": "None", "summary": "None", "logo": "None", "latitude": 51.148740153759604, "longitude": -114.10686820105049}, "887977049RR0001": {"name": "CALGARY BACH FESTIVAL SOCIETY", "designationCode": "C", "categoryCode": "22", "address": "PO BOX 30032                  6455 MACLEOD TRAIL SOUTH", "city": "CALGARY", "province": "AB", "country": "CA", "postalCode": "T2H2V8", "twitter": "None", "instagram": "None", "facebook": "None", "youtube": "None", "website": "None", "summary": "None", "logo": "None", "latitude": 50.98923298743748, "longitude": -114.07168631722637}, "136152527RR0001": {"name": "CALGARY BETH TZEDEC CONGREGATION SOCIETY", "designationCode": "C", "categoryCode": "42", "address": "1325 GLENMORE TRAIL S.W.", "city": "CALGARY", "province": "AB", "country": "CA", "postalCode": "T2V4Y8", "twitter": "None", "instagram": "None", "facebook": "None", "youtube": "None", "website": "None", "summary": "None", "logo": "None", "latitude": 50.99387651457096, "longitude": -114.08801125387846}, "118823186RR0001": {"name": "CALGARY BIBLE AND GOSPEL HALLS SOCIETY", "designationCode": "C", "categoryCode": "47", "address": "641 COOPERS CRES SW", "city": "AIRDRIE", "province": "AB", "country": "CA", "postalCode": "T4B0X5", "twitter": "None", "instagram": "None", "facebook": "None", "youtube": "None", "website": "None", "summary": "None", "logo": "None", "latitude": 51.26447958921473, "longitude": -114.01459393132883}, "898874573RR0001": {"name": "CALGARY BIRD BANDING SOCIETY", "designationCode": "C", "categoryCode": "54", "address": "PO BOX 36111 RPO LAKEVIEW", "city": "CALGARY", "province": "AB", "country": "CA", "postalCode": "T3E7C6", "twitter": "None", "instagram": "None", "facebook": "None", "youtube": "None", "website": "None", "summary": "None", "logo": "None", "latitude": 51.001671511626654, "longitude": -114.13480631627729}, "891181349RR0001": {"name": "CALGARY BRANCH, NAVY LEAGUE OF CANADA", "designationCode": "C", "categoryCode": "29", "address": "1820-24TH STREET S W", "city": "CALGARY", "province": "AB", "country": "CA", "postalCode": "T2T0G6", "twitter": "None", "instagram": "None", "facebook": "None", "youtube": "None", "website": "None", "summary": "None", "logo": "None", "latitude": 51.03687516180969, "longitude": -114.1178693480294}, "118823228RR0001": {"name": "CALGARY BUDDHIST CHURCH", "designationCode": "C", "categoryCode": "35", "address": "207 6 STREET NE", "city": "CALGARY", "province": "AB", "country": "CA", "postalCode": "T2E3Y1", "twitter": "None", "instagram": "None", "facebook": "None", "youtube": "None", "website": "None", "summary": "None", "logo": "None", "latitude": 51.05349093395268, "longitude": -114.0483610644008}, "106830201RR0001": {"name": "CALGARY CATHOLIC CHARISMATIC RENEWAL SOCIETY", "designationCode": "C", "categoryCode": "39", "address": "11115 HARVEST HILLS GATE NE", "city": "CALGARY", "province": "AB", "country": "CA", "postalCode": "T3K3X3", "twitter": "None", "instagram": "None", "facebook": "None", "youtube": "None", "website": "None", "summary": "None", "logo": "None", "latitude": 51.151634748542904, "longitude": -114.04820579407344}, "118823244RR0001": {"name": "CALGARY CATHOLIC IMMIGRATION SOCIETY", "designationCode": "C", "categoryCode": "09", "address": "5TH FLOOR                     1111 11 AVE SW", "city": "CALGARY", "province": "AB", "country": "CA", "postalCode": "T2R0G5", "twitter": "None", "instagram": "None", "facebook": "None", "youtube": "None", "website": "None", "summary": "None", "logo": "None", "latitude": 51.043007495672164, "longitude": -114.08707230544174}, "870612066RR0001": {"name": "CALGARY CENTRAL FULL GOSPEL CHURCH", "designationCode": "C", "categoryCode": "39", "address": "2210 28 STREET S.W.", "city": "CALGARY", "province": "AB", "country": "CA", "postalCode": "T3E2H6", "twitter": "None", "instagram": "None", "facebook": "None", "youtube": "None", "website": "None", "summary": "None", "logo": "None", "latitude": 51.0344102514571, "longitude": -114.12800977531887}, "106887805RR0001": {"name": "CALGARY CENTRAL OFFICE ASSOCIATION OF ALCOHOLICS ANONYMOUS", "designationCode": "C", "categoryCode": "57", "address": "#2 - 4015 1ST STREET S.E.", "city": "CALGARY", "province": "AB", "country": "CA", "postalCode": "T2G4X7", "twitter": "None", "instagram": "None", "facebook": "None", "youtube": "None", "website": "None", "summary": "None", "logo": "None", "latitude": 51.017073201589916, "longitude": -114.06009566983491}, "106830227RR0001": {"name": "CALGARY CENTRAL SEVENTH-DAY ADVENTIST CHURCH", "designationCode": "C", "categoryCode": "41", "address": "5816 HIGHWAY 2A", "city": "LACOMBE", "province": "AB", "country": "CA", "postalCode": "T4L2G5", "twitter": "None", "instagram": "None", "facebook": "None", "youtube": "None", "website": "None", "summary": "None", "logo": "None", "latitude": 52.474063600197404, "longitude": -113.71692568401835}, "118823269RR0001": {"name": "CALGARY CENTRE FOR PERFORMING ARTS", "designationCode": "C", "categoryCode": "22", "address": "205 8 AVE SE", "city": "CALGARY", "province": "AB", "country": "CA", "postalCode": "T2G0K9", "twitter": "None", "instagram": "None", "facebook": "None", "youtube": "None", "website": "None", "summary": "None", "logo": "None", "latitude": 51.04534220984015, "longitude": -114.05999708058519}, "106897903RR0001": {"name": "CALGARY CENTRE FOR SPIRITUAL LIVING", "designationCode": "C", "categoryCode": "99", "address": "4411 MANITOBA RD SE", "city": "CALGARY", "province": "AB", "country": "CA", "postalCode": "T2G4B9", "twitter": "None", "instagram": "None", "facebook": "None", "youtube": "None", "website": "None", "summary": "None", "logo": "None", "latitude": 51.01369651485942, "longitude": -114.05408332944775}, "118823277RR0001": {"name": "CALGARY CEREBRAL PALSY ASSOCIATION", "designationCode": "C", "categoryCode": "11", "address": "121-7015 MACLEOD TRAIL SW", "city": "CALGARY", "province": "AB", "country": "CA", "postalCode": "T2H2K6", "twitter": "None", "instagram": "None", "facebook": "None", "youtube": "None", "website": "None", "summary": "None", "logo": "None", "latitude": 50.99439991848855, "longitude": -114.0716953460148}, "868004706RR0001": {"name": "CALGARY CHAMBER OF VOLUNTARY ORGANIZATIONS", "designationCode": "C", "categoryCode": "59", "address": "1175 - 105 12 AVE SE", "city": "CALGARY", "province": "AB", "country": "CA", "postalCode": "T2G1A1", "twitter": "None", "instagram": "None", "facebook": "None", "youtube": "None", "website": "None", "summary": "None", "logo": "None", "latitude": 51.04112640495218, "longitude": -114.05409219389539}, "877252098RR0001": {"name": "CALGARY CHAPTER PHEASANTS FOREVER CANADA SOCIETY", "designationCode": "C", "categoryCode": "52", "address": "PO BOX 1659 STN MAIN", "city": "OKOTOKS", "province": "AB", "country": "CA", "postalCode": "T1S1B5", "twitter": "None", "instagram": "None", "facebook": "None", "youtube": "None", "website": "None", "summary": "None", "logo": "None", "latitude": 50.72589600000006, "longitude": -113.97494149999994}, "893573378RR0001": {"name": "CALGARY CHILDREN'S CHOIR ASSOCIATION", "designationCode": "C", "categoryCode": "22", "address": "637 ALEXANDER CRESCENT N.W.", "city": "CALGARY", "province": "AB", "country": "CA", "postalCode": "T2M4B4", "twitter": "None", "instagram": "None", "facebook": "None", "youtube": "None", "website": "None", "summary": "None", "logo": "None", "latitude": 51.06311961281672, "longitude": -114.07666940590917}, "775532914RR0001": {"name": "CALGARY CHIN CHRISTIAN CHURCH", "designationCode": "C", "categoryCode": "39", "address": "167 WHITEFIELD DR NE", "city": "CALGARY", "province": "AB", "country": "CA", "postalCode": "T1Y5X1", "twitter": "None", "instagram": "None", "facebook": "None", "youtube": "None", "website": "None", "summary": "None", "logo": "None", "latitude": 51.0883424851406, "longitude": -113.97923983236194}, "126698281RR0001": {"name": "CALGARY CHINATOWN SENIORS' CENTRE FOUNDATION", "designationCode": "C", "categoryCode": "59", "address": "111 RIVERFRONT AVE SW", "city": "CALGARY", "province": "AB", "country": "CA", "postalCode": "T2P4Y8", "twitter": "None", "instagram": "None", "facebook": "None", "youtube": "None", "website": "None", "summary": "None", "logo": "None", "latitude": 51.05212541284046, "longitude": -114.06308465087191}, "106830268RR0001": {"name": "CALGARY CHINESE ALLIANCE CHURCH", "designationCode": "C", "categoryCode": "39", "address": "150 BEDDINGTON BLVD NE", "city": "CALGARY", "province": "AB", "country": "CA", "postalCode": "T3K2E2", "twitter": "None", "instagram": "None", "facebook": "None", "youtube": "None", "website": "None", "summary": "None", "logo": "None", "latitude": 51.125271463788955, "longitude": -114.0678135}, "106830276RR0001": {"name": "CALGARY CHINESE BAPTIST CHURCH", "designationCode": "C", "categoryCode": "31", "address": "3907 44 AVE NE", "city": "CALGARY", "province": "AB", "country": "CA", "postalCode": "T1Y6R5", "twitter": "None", "instagram": "None", "facebook": "None", "youtube": "None", "website": "None", "summary": "None", "logo": "None", "latitude": 51.09121659781306, "longitude": -113.97797658505978}, "106830284RR0001": {"name": "CALGARY CHINESE CATHOLIC MISSION", "designationCode": "C", "categoryCode": "38", "address": "400 EDMONTON TRAIL NE", "city": "CALGARY", "province": "AB", "country": "CA", "postalCode": "T2E3S4", "twitter": "None", "instagram": "None", "facebook": "None", "youtube": "None", "website": "None", "summary": "None", "logo": "None", "latitude": 51.05518341355523, "longitude": -114.05178342281741}, "865020614RR0001": {"name": "CALGARY CHINESE CHRISTIAN BLESSED HARVEST CHURCH", "designationCode": "C", "categoryCode": "39", "address": "16 COUNTRY VILLAGE BAY NE     SUITE 2108", "city": "CALGARY", "province": "AB", "country": "CA", "postalCode": "T3K5Y9", "twitter": "None", "instagram": "None", "facebook": "None", "youtube": "None", "website": "None", "summary": "None", "logo": "None", "latitude": 51.15611017929484, "longitude": -114.0544756408621}, "889888467RR0001": {"name": "CALGARY CHINESE CHRISTIAN BUSINESS AND PROFESSIONAL ASSOCIATION", "designationCode": "C", "categoryCode": "49", "address": "4062 EDGEVALLEY LANDING NW", "city": "CALGARY", "province": "AB", "country": "CA", "postalCode": "T3A5H5", "twitter": "None", "instagram": "None", "facebook": "None", "youtube": "None", "website": "None", "summary": "None", "logo": "None", "latitude": 51.132884489324205, "longitude": -114.147414}, "891098592RR0001": {"name": "CALGARY CHINESE COMMUNITY SERVICE ASSOCIATION", "designationCode": "C", "categoryCode": "56", "address": "1406 CENTRE ST NE", "city": "CALGARY", "province": "AB", "country": "CA", "postalCode": "T2E2R9", "twitter": "None", "instagram": "None", "facebook": "None", "youtube": "None", "website": "None", "summary": "None", "logo": "None", "latitude": 51.064486378297815, "longitude": -114.0610859882365}, "106830292RR0001": {"name": "CALGARY CHINESE CULTURAL CENTRE ASSOCIATION", "designationCode": "C", "categoryCode": "22", "address": "197 1 ST SW", "city": "CALGARY", "province": "AB", "country": "CA", "postalCode": "T2P4M4", "twitter": "None", "instagram": "None", "facebook": "None", "youtube": "None", "website": "None", "summary": "None", "logo": "None", "latitude": 51.05130323091355, "longitude": -114.06508615684668}, "892748567RR0001": {"name": "CALGARY CHINESE EVANGELICAL MINISTERIAL ASSOCIATION", "designationCode": "C", "categoryCode": "47", "address": "UNIT 269, 919 CENTRE STREET NW", "city": "CALGARY", "province": "AB", "country": "CA", "postalCode": "T2E2P6", "twitter": "None", "instagram": "None", "facebook": "None", "youtube": "None", "website": "None", "summary": "None", "logo": "None", "latitude": 51.05386350000001, "longitude": -114.062508}, "892797770RR0001": {"name": "CALGARY CHINESE MENNONITE CHURCH", "designationCode": "C", "categoryCode": "34", "address": "1237 28 ST SE", "city": "CALGARY", "province": "AB", "country": "CA", "postalCode": "T2A7G4", "twitter": "None", "instagram": "None", "facebook": "None", "youtube": "None", "website": "None", "summary": "None", "logo": "None", "latitude": 51.042556089647405, "longitude": -113.99324468082403}, "118824010RR0001": {"name": "CALGARY CHINOOK SCOUT FOUNDATION", "designationCode": "A", "categoryCode": "23", "address": "2140 BROWNSEA DRIVE N.W.", "city": "CALGARY", "province": "AB", "country": "CA", "postalCode": "T2N3G9", "twitter": "None", "instagram": "None", "facebook": "None", "youtube": "None", "website": "None", "summary": "None", "logo": "None", "latitude": 51.04934348211083, "longitude": -114.1095417171793}, "118823335RR0001": {"name": "CALGARY CHORAL SOCIETY", "designationCode": "C", "categoryCode": "22", "address": "PO BOX 16101                  815 17TH AVENUE SW", "city": "LOWER CALGARY", "province": "AB", "country": "CA", "postalCode": "T2T5H7", "twitter": "None", "instagram": "None", "facebook": "None", "youtube": "None", "website": "None", "summary": "None", "logo": "None", "latitude": 51.037796536211026, "longitude": -114.0799815}, "106830326RR0001": {"name": "CALGARY CHRISTIAN ASSEMBLY", "designationCode": "C", "categoryCode": "39", "address": "2504-16 ST.S.E.", "city": "CALGARY", "province": "AB", "country": "CA", "postalCode": "T2G3R3", "twitter": "None", "instagram": "None", "facebook": "None", "youtube": "None", "website": "None", "summary": "None", "logo": "None"}, "795140698RR0001": {"name": "CALGARY CHRISTIAN FESTIVAL MINISTRY (CCFM)", "designationCode": "C", "categoryCode": "22", "address": "PO BOX 98219 FALCONRIDGE PO", "city": "CALGARY", "province": "AB", "country": "CA", "postalCode": "T3J0K6", "twitter": "None", "instagram": "None", "facebook": "None", "youtube": "None", "website": "None", "summary": "None", "logo": "None", "latitude": 51.09973897787671, "longitude": -113.94595993144962}, "871795159RR0001": {"name": "CALGARY CHRISTIAN LIFE FELLOWSHIP OF CALGARY, ALBERTA", "designationCode": "C", "categoryCode": "39", "address": "3620 RADCLIFFE DR SE", "city": "CALGARY", "province": "AB", "country": "CA", "postalCode": "T2A5X4", "twitter": "None", "instagram": "None", "facebook": "None", "youtube": "None", "website": "None", "summary": "None", "logo": "None", "latitude": 51.0481605004327, "longitude": -113.98278052553522}, "107868499RR0001": {"name": "CALGARY CHRISTIAN WORSHIP CENTRE MINISTRIES", "designationCode": "C", "categoryCode": "39", "address": "98 COVEHAVEN VIEW NE", "city": "CALGARY", "province": "AB", "country": "CA", "postalCode": "T3K5S5", "twitter": "None", "instagram": "None", "facebook": "None", "youtube": "None", "website": "None", "summary": "None", "logo": "None", "latitude": 51.16413299278664, "longitude": -114.06092157328744}}