{"846488294RR0001": {"name": "Mount Zion Apostolic Church - Toronto", "designationCode": "C", "categoryCode": "39", "address": "30 PEMICAN COURT", "city": "TORONTO", "province": "ON", "country": "CA", "postalCode": "M9M2Z3", "twitter": "None", "instagram": "None", "facebook": "None", "youtube": "None", "website": "None", "summary": "None", "logo": "None", "latitude": 43.74963394702498, "longitude": -79.53162096047073}, "897400339RR0001": {"name": "Mount Zion Assembly of Kitchener", "designationCode": "C", "categoryCode": "39", "address": "PO BOX 27016                  RPO FOREST HILL", "city": "KITCHENER", "province": "ON", "country": "CA", "postalCode": "N2E3K2", "twitter": "None", "instagram": "None", "facebook": "None", "youtube": "None", "website": "None", "summary": "None", "logo": "None"}, "779637495RR0001": {"name": "Mount Zion Church The Apostle Doctrine of God", "designationCode": "C", "categoryCode": "39", "address": "15 HORTON STREET,", "city": "AJAX", "province": "ON", "country": "CA", "postalCode": "L1Z1E3", "twitter": "None", "instagram": "None", "facebook": "None", "youtube": "None", "website": "None", "summary": "None", "logo": "None", "latitude": 43.862844929770965, "longitude": -79.01132428336895}, "887745750RR0001": {"name": "Mount Zion Full Gospel Deliverance Ministries Inc.", "designationCode": "C", "categoryCode": "39", "address": "5 WRIGHT AVE", "city": "ACTON", "province": "ON", "country": "CA", "postalCode": "L7J2T6", "twitter": "None", "instagram": "None", "facebook": "None", "youtube": "None", "website": "None", "summary": "None", "logo": "None", "latitude": 43.62580860892158, "longitude": -80.04459511962602}, "805952611RR0001": {"name": "Mount Zion Gospel Church", "designationCode": "C", "categoryCode": "39", "address": "16 MARYHILL DR", "city": "TORONTO", "province": "ON", "country": "CA", "postalCode": "M9B3B9", "twitter": "None", "instagram": "None", "facebook": "None", "youtube": "None", "website": "None", "summary": "None", "logo": "None", "latitude": 43.75247465000869, "longitude": -79.58752211867375}, "814239307RR0001": {"name": "Mount Zion International Church of God", "designationCode": "C", "categoryCode": "39", "address": "24 DOLSON CRT", "city": "MARKHAM", "province": "ON", "country": "CA", "postalCode": "L3S1M1", "twitter": "None", "instagram": "None", "facebook": "None", "youtube": "None", "website": "None", "summary": "None", "logo": "None", "latitude": 43.83624117958328, "longitude": -79.28876653652816}, "836085613RR0001": {"name": "Mount Zion Ministries Canada Incorporated", "designationCode": "C", "categoryCode": "39", "address": "105 & 107 KENHARD DR", "city": "NORTH YORK", "province": "ON", "country": "CA", "postalCode": "M9L1N5", "twitter": "None", "instagram": "None", "facebook": "None", "youtube": "None", "website": "None", "summary": "None", "logo": "None", "latitude": 43.761325314698965, "longitude": -79.54591770782649}, "852490408RR0001": {"name": "Mountain of Fire and Miracles Ottawa (MFM-Ottawa)/ Montagne de feu et des miracles Ottawa (MFM-Ottawa)", "designationCode": "C", "categoryCode": "39", "address": "202-380 TERMINAL AVENUE", "city": "OTTAWA", "province": "ON", "country": "CA", "postalCode": "K1G0Z3", "twitter": "None", "instagram": "None", "facebook": "None", "youtube": "None", "website": "None", "summary": "None", "logo": "None", "latitude": 45.41447854284749, "longitude": -75.65303102830518}, "836903989RR0001": {"name": "Mountain of Victory International Ministries Edmonton", "designationCode": "C", "categoryCode": "39", "address": "2311 CASSELMAN CRES SOUTHWEST", "city": "EDMONTON", "province": "AB", "country": "CA", "postalCode": "T6W0W1", "twitter": "None", "instagram": "None", "facebook": "None", "youtube": "None", "website": "None", "summary": "None", "logo": "None", "latitude": 53.40447848845881, "longitude": -113.52931272300768}, "826078081RR0001": {"name": "Mountain Gorilla Conservation Society of Canada", "designationCode": "C", "categoryCode": "21", "address": "13040 137 AVE NW", "city": "EDMONTON", "province": "AB", "country": "CA", "postalCode": "T5L5E3", "twitter": "None", "instagram": "None", "facebook": "None", "youtube": "None", "website": "None", "summary": "None", "logo": "None", "latitude": 53.59959451211811, "longitude": -113.54610149999999}, "119288918RR1652": {"name": "Mountain Highway Iloko Congregation of Jehovah's Witnesses, Vancouver, British Columbia", "designationCode": "C", "categoryCode": "61", "address": "101-7088 SALISBURY AVENUE", "city": "BURNABY", "province": "BC", "country": "CA", "postalCode": "V5E0A4", "twitter": "None", "instagram": "None", "facebook": "None", "youtube": "None", "website": "None", "summary": "None", "logo": "None", "latitude": 49.21975800000001, "longitude": -122.95749040062907}, "812777357RR0001": {"name": "Mountain Lake Seniors Society", "designationCode": "C", "categoryCode": "09", "address": "908 ELEVENTH STREET", "city": "NELSON", "province": "BC", "country": "CA", "postalCode": "V1L7A6", "twitter": "None", "instagram": "None", "facebook": "None", "youtube": "None", "website": "None", "summary": "None", "logo": "None", "latitude": 49.508336536211026, "longitude": -117.26621138773154}, "119288918RR1508": {"name": "Mountain Spanish Congregation of Jehovah's Witnesses, Hamilton, Ontario", "designationCode": "C", "categoryCode": "61", "address": "648 LIME RIDGE ROAD EAST", "city": "HAMILTON", "province": "ON", "country": "CA", "postalCode": "L8W1A1", "twitter": "None", "instagram": "None", "facebook": "None", "youtube": "None", "website": "None", "summary": "None", "logo": "None", "latitude": 43.21267699079609, "longitude": -79.856757008627}, "834127854RR0001": {"name": "Mountain Springs Calvary Chapel", "designationCode": "C", "categoryCode": "39", "address": "UNIT 306                      7930 BOWNESS RD. NW", "city": "CALGARY", "province": "AB", "country": "CA", "postalCode": "T3B0H3", "twitter": "None", "instagram": "None", "facebook": "None", "youtube": "None", "website": "None", "summary": "None", "logo": "None", "latitude": 51.088987504904765, "longitude": -114.20143361365342}, "839251063RR0001": {"name": "Mountain Valley Mission", "designationCode": "C", "categoryCode": "30", "address": "7 - 46791 HUDSON RD", "city": "CHILLIWACK", "province": "BC", "country": "CA", "postalCode": "V2R0L5", "twitter": "None", "instagram": "None", "facebook": "None", "youtube": "None", "website": "None", "summary": "None", "logo": "None", "latitude": 49.10578527981024, "longitude": -121.9293858747172}, "882304504RR0001": {"name": "Mountain View Christian Academy", "designationCode": "C", "categoryCode": "20", "address": "3306 GRIFFITH ST", "city": "TERRACE", "province": "BC", "country": "CA", "postalCode": "V8G0C6", "twitter": "None", "instagram": "None", "facebook": "None", "youtube": "None", "website": "None", "summary": "None", "logo": "None", "latitude": 54.520194552311196, "longitude": -128.646160642738}, "815174891RR0001": {"name": "Mountain View Emergency Shelter Society", "designationCode": "C", "categoryCode": "01", "address": "PO BOX 3931", "city": "OLDS", "province": "AB", "country": "CA", "postalCode": "T4H1P6", "twitter": "None", "instagram": "None", "facebook": "None", "youtube": "None", "website": "None", "summary": "None", "logo": "None", "latitude": 51.791613000000055, "longitude": -114.11061199999993}, "107945503RR0001": {"name": "Mountainview Christian Fellowship Baptist Church", "designationCode": "C", "categoryCode": "31", "address": "791 EAST 27TH AVENUE", "city": "VANCOUVER", "province": "BC", "country": "CA", "postalCode": "V5V2K8", "twitter": "None", "instagram": "None", "facebook": "None", "youtube": "None", "website": "None", "summary": "None", "logo": "None", "latitude": 49.24665953318128, "longitude": -123.08819302553522}, "119288918RR1504": {"name": "Mountainview Congregation of Jehovah's Witnesses, Kelowna, British Columbia", "designationCode": "C", "categoryCode": "61", "address": "625 FRANKLYN RD", "city": "KELOWNA", "province": "BC", "country": "CA", "postalCode": "V1X3T9", "twitter": "None", "instagram": "None", "facebook": "None", "youtube": "None", "website": "None", "summary": "None", "logo": "None", "latitude": 49.896423251457094, "longitude": -119.40093783495901}, "839970795RR0001": {"name": "Mountrose Foundation/Fondation Mountrose", "designationCode": "B", "categoryCode": "56", "address": "600-7077 DU PARC AVENUE", "city": "MONTREAL", "province": "QC", "country": "CA", "postalCode": "H3N1X7", "twitter": "None", "instagram": "None", "facebook": "None", "youtube": "None", "website": "None", "summary": "None", "logo": "None", "latitude": 45.52978333005333, "longitude": -73.62014924006013}, "823459730RR0001": {"name": "Moustache Adoption de Chats / Whiskers Cat Adoption", "designationCode": "C", "categoryCode": "54", "address": "175 56E AV", "city": "LACHINE", "province": "QC", "country": "CA", "postalCode": "H8T3B8", "twitter": "None", "instagram": "None", "facebook": "None", "youtube": "None", "website": "None", "summary": "None", "logo": "None", "latitude": 45.44203789203073, "longitude": -73.71960587901764}, "743539496RR0001": {"name": "Mouvement communitas", "designationCode": "C", "categoryCode": "59", "address": "3974B RUE NOTRE-DAME O", "city": "MONTREAL", "province": "QC", "country": "CA", "postalCode": "H4C1R1", "twitter": "None", "instagram": "None", "facebook": "None", "youtube": "None", "website": "None", "summary": "None", "logo": "None", "latitude": 45.47797666696916, "longitude": -73.58380623679433}, "851204156RR0001": {"name": "Mouvement d'entraide communautaire \u00e0 l'emploi Inc.", "designationCode": "C", "categoryCode": "01", "address": "97 RUE BROADWAY E", "city": "GATINEAU", "province": "QC", "country": "CA", "postalCode": "J8P0B8", "twitter": "None", "instagram": "None", "facebook": "None", "youtube": "None", "website": "None", "summary": "None", "logo": "None", "latitude": 45.484407752726504, "longitude": -75.64861355355195}, "817859234RR0001": {"name": "Mouvement d'entraide communautaire et social de Victoriaville (M.E.C.S.)", "designationCode": "C", "categoryCode": "09", "address": "30 RUE ST-DOMINIQUE", "city": "VICTORIAVILLE", "province": "QC", "country": "CA", "postalCode": "G6P8B6", "twitter": "None", "instagram": "None", "facebook": "None", "youtube": "None", "website": "None", "summary": "None", "logo": "None", "latitude": 46.055965790725594, "longitude": -71.95646645166946}, "893279679RR0001": {"name": "Mouvement d'Action Solidaire des Sans-Emploi des Chenaux inc.", "designationCode": "C", "categoryCode": "59", "address": "44 RIVIERE-A-VEILLET", "city": "STE-GENEVIEVE-DE-BATISCAN", "province": "QC", "country": "CA", "postalCode": "G0X2R0", "twitter": "None", "instagram": "None", "facebook": "None", "youtube": "None", "website": "None", "summary": "None", "logo": "None", "latitude": 46.539452032200316, "longitude": -72.34180426236405}, "129956264RR0001": {"name": "Mouvement d'Implication Francophone d'Orl\u00e9ans (MIFO)", "designationCode": "C", "categoryCode": "56", "address": "6600 RUE CARRIERE", "city": "ORLEANS", "province": "ON", "country": "CA", "postalCode": "K1C1J4", "twitter": "None", "instagram": "None", "facebook": "None", "youtube": "None", "website": "None", "summary": "None", "logo": "None", "latitude": 45.466218987477866, "longitude": -75.52350475823776}, "892608035RR0001": {"name": "Mouvement des personnes d'abord de Lachute", "designationCode": "C", "categoryCode": "11", "address": "177 AV BETHANY", "city": "LACHUTE", "province": "QC", "country": "CA", "postalCode": "J8H2M2", "twitter": "None", "instagram": "None", "facebook": "None", "youtube": "None", "website": "None", "summary": "None", "logo": "None", "latitude": 45.65443145850883, "longitude": -74.33123560502642}, "817955503RR0001": {"name": "Mouvement pour chats errants", "designationCode": "C", "categoryCode": "54", "address": "112 RUE CR\u00c9MAZIE EST", "city": "QU\u00c9BEC", "province": "QC", "country": "CA", "postalCode": "G1R1Y2", "twitter": "None", "instagram": "None", "facebook": "None", "youtube": "None", "website": "None", "summary": "None", "logo": "None", "latitude": 46.806334689162576, "longitude": -71.22483686637993}, "125752832RR0001": {"name": "Mouvement sant\u00e9 mentale Qu\u00e9bec", "designationCode": "C", "categoryCode": "11", "address": "911 JEAN TALON EST            BUREAU 326", "city": "MONTREAL", "province": "QC", "country": "CA", "postalCode": "H2R1V5", "twitter": "None", "instagram": "None", "facebook": "None", "youtube": "None", "website": "None", "summary": "None", "logo": "None", "latitude": 45.54149052013953, "longitude": -73.61280380287332}, "871239612RR0001": {"name": "Mouvement Action Ch\u00f4mage Lac-St-Jean", "designationCode": "C", "categoryCode": "09", "address": "275 BOUL DEQUEN NORD", "city": "ALMA", "province": "QC", "country": "CA", "postalCode": "G8B5N8", "twitter": "None", "instagram": "None", "facebook": "None", "youtube": "None", "website": "None", "summary": "None", "logo": "None", "latitude": 48.55645500000006, "longitude": -71.64824749999994}, "803368828RR0001": {"name": "Move Adapted Fitness and Rehabilitation Society of B.C.", "designationCode": "C", "categoryCode": "11", "address": "302-531 YATES STREET", "city": "VICTORIA", "province": "BC", "country": "CA", "postalCode": "V8W1K7", "twitter": "None", "instagram": "None", "facebook": "None", "youtube": "None", "website": "None", "summary": "None", "logo": "None", "latitude": 48.4268085905997, "longitude": -123.36950506134222}, "827364597RR0001": {"name": "Move Pet Foundation", "designationCode": "C", "categoryCode": "54", "address": "2285 BRISTOL CIR", "city": "OAKVILLE", "province": "ON", "country": "CA", "postalCode": "L6H6P8", "twitter": "None", "instagram": "None", "facebook": "None", "youtube": "None", "website": "None", "summary": "None", "logo": "None", "latitude": 43.51543600920392, "longitude": -79.67541172188344}, "807015573RR0001": {"name": "Movein Vision Team", "designationCode": "C", "categoryCode": "47", "address": "PO BOX 93582                  RPO SHOPPERS WORLD", "city": "TORONTO", "province": "ON", "country": "CA", "postalCode": "M4C5R4", "twitter": "None", "instagram": "None", "facebook": "None", "youtube": "None", "website": "None", "summary": "None", "logo": "None", "latitude": 43.68981300000006, "longitude": -79.31036149999993}, "848215604RR0001": {"name": "Movember Canada", "designationCode": "A", "categoryCode": "11", "address": "119 SPADINA AVENUE            BOX 65", "city": "TORONTO", "province": "ON", "country": "CA", "postalCode": "M5V2L1", "twitter": "None", "instagram": "None", "facebook": "None", "youtube": "None", "website": "None", "summary": "None", "logo": "None", "latitude": 43.647058487650746, "longitude": -79.39553888369218}, "830215703RR0001": {"name": "Movement of Truth Mission", "designationCode": "C", "categoryCode": "39", "address": "10 TANGREEN CRT, 3106", "city": "TORONTO", "province": "ON", "country": "CA", "postalCode": "M2M4B9", "twitter": "None", "instagram": "None", "facebook": "None", "youtube": "None", "website": "None", "summary": "None", "logo": "None", "latitude": 43.796037542587676, "longitude": -79.42634641084258}, "817698665RR0001": {"name": "Moving Beyond Prejudice", "designationCode": "C", "categoryCode": "21", "address": "1296 LAKESHORE ROAD WEST", "city": "OAKVILLE", "province": "ON", "country": "CA", "postalCode": "L6L1G2", "twitter": "None", "instagram": "None", "facebook": "None", "youtube": "None", "website": "None", "summary": "None", "logo": "None", "latitude": 43.41386277768481, "longitude": -79.69132684927015}, "829960814RR0001": {"name": "Moving Forward for Children Development Through Education", "designationCode": "C", "categoryCode": "20", "address": "1042 PAPE AVENUE", "city": "TORONTO", "province": "ON", "country": "CA", "postalCode": "M4K3W2", "twitter": "None", "instagram": "None", "facebook": "None", "youtube": "None", "website": "None", "summary": "None", "logo": "None", "latitude": 43.68984349264242, "longitude": -79.34901787067909}, "760671891RR0001": {"name": "Moving Forward Family Services Society", "designationCode": "C", "categoryCode": "10", "address": "101 - 12827 76 AVE", "city": "SURREY", "province": "BC", "country": "CA", "postalCode": "V3W2V3", "twitter": "None", "instagram": "None", "facebook": "None", "youtube": "None", "website": "None", "summary": "None", "logo": "None", "latitude": 49.14108646378896, "longitude": -122.86715358090484}, "847373669RR0001": {"name": "Moving Forward Together: A Campaign for Healing and reconciliation/Avan\u00e7ons ensemble: Une campagne de gu\u00e9rison et de r\u00e9conciliation", "designationCode": "A", "categoryCode": "53", "address": "109,RUE WRIGHT", "city": "GATINEAU", "province": "QC", "country": "CA", "postalCode": "J8X2G7", "twitter": "None", "instagram": "None", "facebook": "None", "youtube": "None", "website": "None", "summary": "None", "logo": "None", "latitude": 45.42702050432782, "longitude": -75.71872264071786}, "803891852RR0001": {"name": "Moving Forward 2015 Foundation", "designationCode": "C", "categoryCode": "09", "address": "316 BLACKBURN BLVD", "city": "WOODBRIDGE", "province": "ON", "country": "CA", "postalCode": "L4L8K3", "twitter": "None", "instagram": "None", "facebook": "None", "youtube": "None", "website": "None", "summary": "None", "logo": "None", "latitude": 43.81632121619836, "longitude": -79.56601701024313}, "836873505RR0001": {"name": "Mozambique in Motion Inc.", "designationCode": "C", "categoryCode": "09", "address": "2 ROSEWOOD PLACE", "city": "STEINBACH", "province": "MB", "country": "CA", "postalCode": "R5G0H6", "twitter": "None", "instagram": "None", "facebook": "None", "youtube": "None", "website": "None", "summary": "None", "logo": "None", "latitude": 49.528395008737874, "longitude": -96.67028899623347}, "817902174RR0001": {"name": "Mozart Project", "designationCode": "C", "categoryCode": "22", "address": "33 LOMBARD ST.                SUITE 1509", "city": "TORONTO", "province": "ON", "country": "CA", "postalCode": "M5C3H8", "twitter": "None", "instagram": "None", "facebook": "None", "youtube": "None", "website": "None", "summary": "None", "logo": "None", "latitude": 43.6516527948815, "longitude": -79.3758151470945}, "855381083RR0001": {"name": "Mr. Lube Foundation / Fondation de M. Lube", "designationCode": "A", "categoryCode": "03", "address": "6900 GRAYBAR ROAD             UNIT 2330", "city": "RICHMOND", "province": "BC", "country": "CA", "postalCode": "V6W0A5", "twitter": "None", "instagram": "None", "facebook": "None", "youtube": "None", "website": "None", "summary": "None", "logo": "None", "latitude": 49.16433749627776, "longitude": -122.98946543663855}, "840976047RR0001": {"name": "Msaada Charity Inc.", "designationCode": "C", "categoryCode": "21", "address": "156 LARGE CRESCENT,", "city": "AJAX", "province": "ON", "country": "CA", "postalCode": "L1T2S4", "twitter": "None", "instagram": "None", "facebook": "None", "youtube": "None", "website": "None", "summary": "None", "logo": "None", "latitude": 43.87416203580701, "longitude": -79.04717944627515}, "837823483RR0001": {"name": "Mt. Zion Apostolic Ark Church of Jesus Christ", "designationCode": "C", "categoryCode": "39", "address": "41 SEWELLS LANE,", "city": "BRAMPTON", "province": "ON", "country": "CA", "postalCode": "L7A2Z9", "twitter": "None", "instagram": "None", "facebook": "None", "youtube": "None", "website": "None", "summary": "None", "logo": "None", "latitude": 43.696299688585654, "longitude": -79.83049570814826}, "855413662RR0001": {"name": "Mu Omicron Zeta Association du Canada / Mu Omicron Zeta Association of Canada", "designationCode": "A", "categoryCode": "03", "address": "306, RUE DES BUISSONS", "city": "PINCOURT", "province": "QC", "country": "CA", "postalCode": "J7V0B5", "twitter": "None", "instagram": "None", "facebook": "None", "youtube": "None", "website": "None", "summary": "None", "logo": "None", "latitude": 45.3726594676841, "longitude": -73.97999394907377}, "811229756RR0001": {"name": "Mu.", "designationCode": "C", "categoryCode": "22", "address": "1 - 81 BOUL DE MAISONNEUVE E", "city": "MONTREAL", "province": "QC", "country": "CA", "postalCode": "H2X1J6", "twitter": "None", "instagram": "None", "facebook": "None", "youtube": "None", "website": "None", "summary": "None", "logo": "None", "latitude": 45.51246067208801, "longitude": -73.56360149999999}, "822877213RR0001": {"name": "Muckle Creek Piobaireachd Society", "designationCode": "C", "categoryCode": "22", "address": "3940 VANCOUVER CRESCENT       NORTH WEST", "city": "CALGARY", "province": "AB", "country": "CA", "postalCode": "T3A0M1", "twitter": "None", "instagram": "None", "facebook": "None", "youtube": "None", "website": "None", "summary": "None", "logo": "None", "latitude": 51.091266781579954, "longitude": -114.14405285985906}, "875497000RR0001": {"name": "Mudge Island Citizen's Society", "designationCode": "C", "categoryCode": "59", "address": "590 NORTH ROAD                BOX 4", "city": "GABRIOLA ISLAND", "province": "BC", "country": "CA", "postalCode": "V0R1X3", "twitter": "None", "instagram": "None", "facebook": "None", "youtube": "None", "website": "None", "summary": "None", "logo": "None", "latitude": 49.174074972969336, "longitude": -123.84519736142491}, "823642269RR0001": {"name": "Muehlenfeld Family Foundation", "designationCode": "B", "categoryCode": "03", "address": "39 SIGNAL RIDGE PLACE", "city": "CALGARY", "province": "AB", "country": "CA", "postalCode": "T3H2P2", "twitter": "None", "instagram": "None", "facebook": "None", "youtube": "None", "website": "None", "summary": "None", "logo": "None", "latitude": 51.027307658895495, "longitude": -114.174409380778}, "820345734RR0001": {"name": "Mukti Volunteer Village", "designationCode": "C", "categoryCode": "20", "address": "66 - 2555 THOMAS ST", "city": "MISSISSAUGA", "province": "ON", "country": "CA", "postalCode": "L5M5P6", "twitter": "None", "instagram": "None", "facebook": "None", "youtube": "None", "website": "None", "summary": "None", "logo": "None"}, "839277951RR0001": {"name": "Mulgrave School Foundation", "designationCode": "A", "categoryCode": "23", "address": "2330 CYPRESS LANE", "city": "WEST VANCOUVER", "province": "BC", "country": "CA", "postalCode": "V7S3H9", "twitter": "None", "instagram": "None", "facebook": "None", "youtube": "None", "website": "None", "summary": "None", "logo": "None", "latitude": 49.34973600000001, "longitude": -123.19607982835215}, "837467208RR0001": {"name": "Multi Generational Housing and Community Centre", "designationCode": "C", "categoryCode": "09", "address": "3300, 421-7TH AVENUE SW", "city": "CALGARY", "province": "AB", "country": "CA", "postalCode": "T2P4K9", "twitter": "None", "instagram": "None", "facebook": "None", "youtube": "None", "website": "None", "summary": "None", "logo": "None", "latitude": 51.04682342625144, "longitude": -114.07570373231476}, "807375670RR0001": {"name": "Multi-nation Missions Foundation", "designationCode": "C", "categoryCode": "47", "address": "PO BOX 2401 STN A", "city": "ABBOTSFORD", "province": "BC", "country": "CA", "postalCode": "V2T4X3", "twitter": "None", "instagram": "None", "facebook": "None", "youtube": "None", "website": "None", "summary": "None", "logo": "None", "latitude": 49.05161700000005, "longitude": -122.32930399999994}, "120260187RR0001": {"name": "Multicultural Association of Wood Buffalo", "designationCode": "C", "categoryCode": "59", "address": "P.O. BOX 5298", "city": "FORT MCMURRAY", "province": "AB", "country": "CA", "postalCode": "T9H3G3", "twitter": "None", "instagram": "None", "facebook": "None", "youtube": "None", "website": "None", "summary": "None", "logo": "None", "latitude": 56.72719500000005, "longitude": -111.38028199999994}, "831665500RR0001": {"name": "Multicultural Christian Church of Edmonton", "designationCode": "C", "categoryCode": "39", "address": "8603-175 STREET", "city": "EDMONTON", "province": "AB", "country": "CA", "postalCode": "T5T0M3", "twitter": "None", "instagram": "None", "facebook": "None", "youtube": "None", "website": "None", "summary": "None", "logo": "None", "latitude": 53.51922744962204, "longitude": -113.62406539061708}, "803439124RR0001": {"name": "Multicultural Council of Windsor & Essex County Foundation", "designationCode": "C", "categoryCode": "59", "address": "245 JANETTE AVE", "city": "WINDSOR", "province": "ON", "country": "CA", "postalCode": "N9A4Z2", "twitter": "None", "instagram": "None", "facebook": "None", "youtube": "None", "website": "None", "summary": "None", "logo": "None", "latitude": 42.31616480737497, "longitude": -83.046327923423}, "824327472RR0001": {"name": "Multicultural Family Resource Society", "designationCode": "C", "categoryCode": "09", "address": "9538 107 AVE NW", "city": "EDMONTON", "province": "AB", "country": "CA", "postalCode": "T5H0T7", "twitter": "None", "instagram": "None", "facebook": "None", "youtube": "None", "website": "None", "summary": "None", "logo": "None", "latitude": 53.55289940218694, "longitude": -113.48388591355524}, "830616488RR0001": {"name": "Multidisciplinary Association for Psychedelic Studies Canada, Incorporated", "designationCode": "C", "categoryCode": "11", "address": "9 - 1301 JOHNSTON ST", "city": "VANCOUVER", "province": "BC", "country": "CA", "postalCode": "V6H3R9", "twitter": "None", "instagram": "None", "facebook": "None", "youtube": "None", "website": "None", "summary": "None", "logo": "None", "latitude": 49.269711058024015, "longitude": -123.13209997414766}, "799254487RR0001": {"name": "Multiply Church Calgary", "designationCode": "C", "categoryCode": "39", "address": "150 AUTUMN CIR SE", "city": "CALGARY", "province": "AB", "country": "CA", "postalCode": "T3M0J7", "twitter": "None", "instagram": "None", "facebook": "None", "youtube": "None", "website": "None", "summary": "None", "logo": "None", "latitude": 50.899015194010005, "longitude": -113.96614641410349}, "815076922RR0001": {"name": "Munch Cafe and Catering Inc.", "designationCode": "C", "categoryCode": "59", "address": "PO BOX 427, RM OF SOUTH       QUAPPELLE SE 29 18 16 W2", "city": "BALGONIE", "province": "SK", "country": "CA", "postalCode": "S0G0E0", "twitter": "None", "instagram": "None", "facebook": "None", "youtube": "None", "website": "None", "summary": "None", "logo": "None", "latitude": 50.48934832095261, "longitude": -104.26029879340685}, "827390428RR0001": {"name": "Muni-Spec Mont-Laurier", "designationCode": "C", "categoryCode": "22", "address": "543 RUE DU PONT", "city": "MONT-LAURIER", "province": "QC", "country": "CA", "postalCode": "J9L0L4", "twitter": "None", "instagram": "None", "facebook": "None", "youtube": "None", "website": "None", "summary": "None", "logo": "None", "latitude": 46.552959000000016, "longitude": -75.50002347835992}, "814171427RR0001": {"name": "Municipality of Chester Transportation Society", "designationCode": "C", "categoryCode": "59", "address": "23 COLLICUTT ROAD, BOX 187", "city": "CHESTER", "province": "NS", "country": "CA", "postalCode": "B0J1J0", "twitter": "None", "instagram": "None", "facebook": "None", "youtube": "None", "website": "None", "summary": "None", "logo": "None", "latitude": 44.59352165361538, "longitude": -64.2692797840901}, "847423555RR0001": {"name": "Muniria Juba Tabligue Committee (Canada) Inc.", "designationCode": "C", "categoryCode": "60", "address": "250 WARDEN AVE", "city": "SCARBOROUGH", "province": "ON", "country": "CA", "postalCode": "M1N3A1", "twitter": "None", "instagram": "None", "facebook": "None", "youtube": "None", "website": "None", "summary": "None", "logo": "None", "latitude": 43.69019560338164, "longitude": -79.27197471123534}, "868737610RR0001": {"name": "Munson and Area Community Association", "designationCode": "C", "categoryCode": "56", "address": "BOX 13", "city": "MUNSON", "province": "AB", "country": "CA", "postalCode": "T0J2C0", "twitter": "None", "instagram": "None", "facebook": "None", "youtube": "None", "website": "None", "summary": "None", "logo": "None", "latitude": 51.56683000000004, "longitude": -112.75186999999994}, "870393378RR0001": {"name": "Muriel Lake Basin Management Society", "designationCode": "C", "categoryCode": "59", "address": "PO BOX 6003 STN MAIN", "city": "BONNYVILLE", "province": "AB", "country": "CA", "postalCode": "T9N2G7", "twitter": "None", "instagram": "None", "facebook": "None", "youtube": "None", "website": "None", "summary": "None", "logo": "None", "latitude": 54.267945000000054, "longitude": -110.75332399999994}, "106814429RR0001": {"name": "Murphy Centre Inc.", "designationCode": "C", "categoryCode": "20", "address": "PO BOX 21157                  1 PRINCE PHILLIP DR", "city": "ST JOHN'S", "province": "NL", "country": "CA", "postalCode": "A1A5B2", "twitter": "None", "instagram": "None", "facebook": "None", "youtube": "None", "website": "None", "summary": "None", "logo": "None", "latitude": 47.600088000000056, "longitude": -52.692861499999935}, "843824640RR0001": {"name": "Murray Harbour North Community Cemetery Inc.", "designationCode": "C", "categoryCode": "59", "address": "4267 ROUTE 17, RR4", "city": "MONTAGUE", "province": "PE", "country": "CA", "postalCode": "C0A1R0", "twitter": "None", "instagram": "None", "facebook": "None", "youtube": "None", "website": "None", "summary": "None", "logo": "None", "latitude": 46.08334595697963, "longitude": -62.46270859795729}, "824615280RR0001": {"name": "Murray Lake Charitable Trust", "designationCode": "B", "categoryCode": "45", "address": "3425 2ND AVENUE SOUTH", "city": "LETHBRIDGE", "province": "AB", "country": "CA", "postalCode": "T1J4V1", "twitter": "None", "instagram": "None", "facebook": "None", "youtube": "None", "website": "None", "summary": "None", "logo": "None", "latitude": 49.696839530439966, "longitude": -112.78914308381903}, "844072850RR0001": {"name": "Mursue Charitable Foundation", "designationCode": "B", "categoryCode": "03", "address": "22 BREANNA COURT", "city": "WILLOWDALE", "province": "ON", "country": "CA", "postalCode": "M2H3N8", "twitter": "None", "instagram": "None", "facebook": "None", "youtube": "None", "website": "None", "summary": "None", "logo": "None", "latitude": 43.806385772664505, "longitude": -79.3787570923018}, "122621006RR0001": {"name": "Mus\u00e9e acadien du Qu\u00e9bec", "designationCode": "C", "categoryCode": "50", "address": "95 AVENUE PORT-ROYAL", "city": "BONAVENTURE", "province": "QC", "country": "CA", "postalCode": "G0C1E0", "twitter": "None", "instagram": "None", "facebook": "None", "youtube": "None", "website": "None", "summary": "None", "logo": "None", "latitude": 48.04472904302037, "longitude": -65.49296925950718}, "817012826RR0001": {"name": "Mus\u00e9e de l'imprimerie du Qu\u00e9bec", "designationCode": "C", "categoryCode": "50", "address": "613 - 125 RUE CHABANEL O", "city": "MONTREAL", "province": "QC", "country": "CA", "postalCode": "H2N1E4", "twitter": "None", "instagram": "None", "facebook": "None", "youtube": "None", "website": "None", "summary": "None", "logo": "None", "latitude": 45.54041906166311, "longitude": -73.65343028173487}, "847760337RR0001": {"name": "Mus\u00e9e de l'Isle-aux-Grues", "designationCode": "C", "categoryCode": "50", "address": "223 CHEMIN DU ROI", "city": "L'ISLE-AUX-GRUES", "province": "QC", "country": "CA", "postalCode": "G0R1P0", "twitter": "None", "instagram": "None", "facebook": "None", "youtube": "None", "website": "None", "summary": "None", "logo": "None", "latitude": 47.066859638092126, "longitude": -70.54493848294754}, "118922681RR0001": {"name": "Mus\u00e9e de la mode / Fashion Museum", "designationCode": "C", "categoryCode": "50", "address": "385 RUE DE LA COMMUNE EST", "city": "MONTREAL", "province": "QC", "country": "CA", "postalCode": "H2Y1J3", "twitter": "None", "instagram": "None", "facebook": "None", "youtube": "None", "website": "None", "summary": "None", "logo": "None", "latitude": 45.509471360266076, "longitude": -73.55094952836112}, "836325654RR0001": {"name": "Mus\u00e9e de la p\u00eache \u00e0 la mouche du Canada / Canadian Fly Fishing Museum", "designationCode": "C", "categoryCode": "50", "address": "650, RUE DE LA COUR", "city": "WATERLOO", "province": "QC", "country": "CA", "postalCode": "J0E2N0", "twitter": "None", "instagram": "None", "facebook": "None", "youtube": "None", "website": "None", "summary": "None", "logo": "None", "latitude": 45.34651549515258, "longitude": -72.5162040341049}, "837426576RR0001": {"name": "Mus\u00e9e de la Femme", "designationCode": "C", "categoryCode": "50", "address": "2380 BOUL ROLAND-THERRIEN", "city": "LONGUEUIL", "province": "QC", "country": "CA", "postalCode": "J4L1V9", "twitter": "None", "instagram": "None", "facebook": "None", "youtube": "None", "website": "None", "summary": "None", "logo": "None", "latitude": 45.53536162724342, "longitude": -73.46629715098963}, "107989386RR0001": {"name": "Mus\u00e9e de la Gasp\u00e9sie", "designationCode": "C", "categoryCode": "50", "address": "80 BOUL GASP\u00c9", "city": "GASP\u00c9", "province": "QC", "country": "CA", "postalCode": "G4X1A9", "twitter": "None", "instagram": "None", "facebook": "None", "youtube": "None", "website": "None", "summary": "None", "logo": "None", "latitude": 48.83676997697495, "longitude": -64.47540270682153}, "101563096RR0001": {"name": "Mus\u00e9e de soci\u00e9t\u00e9 des Deux-Rives", "designationCode": "C", "categoryCode": "50", "address": "21 RUE DUFFERIN", "city": "VALLEYFIELD", "province": "QC", "country": "CA", "postalCode": "J6S1Y1", "twitter": "None", "instagram": "None", "facebook": "None", "youtube": "None", "website": "None", "summary": "None", "logo": "None", "latitude": 45.261494244532194, "longitude": -74.13084689774354}, "102489283RR0001": {"name": "Mus\u00e9e des Cultures Fondatrices Inc./Founding Cultures Museum Inc.", "designationCode": "C", "categoryCode": "50", "address": "184 RUE ACADIE", "city": "GRANDE-ANSE", "province": "NB", "country": "CA", "postalCode": "E8N1A6", "twitter": "None", "instagram": "None", "facebook": "None", "youtube": "None", "website": "None", "summary": "None", "logo": "None", "latitude": 47.80788959458083, "longitude": -65.19505257403726}, "820261576RR0001": {"name": "Mus\u00e9e du panth\u00e9on des sports du Qu\u00e9bec", "designationCode": "C", "categoryCode": "50", "address": "8110, BOULEVARD SAINT-MICHEL", "city": "MONTR\u00c9AL", "province": "QC", "country": "CA", "postalCode": "H1Z3E2", "twitter": "None", "instagram": "None", "facebook": "None", "youtube": "None", "website": "None", "summary": "None", "logo": "None", "latitude": 45.56391277127952, "longitude": -73.61007417695755}, "103811352RR0001": {"name": "Mus\u00e9e du ski des Laurentides", "designationCode": "C", "categoryCode": "50", "address": "30,AVENUE FILION", "city": "SAINT-SAUVEUR", "province": "QC", "country": "CA", "postalCode": "J0R1R0", "twitter": "None", "instagram": "None", "facebook": "None", "youtube": "None", "website": "None", "summary": "None", "logo": "None", "latitude": 45.895833566189665, "longitude": -74.15907809132085}, "822122909RR0001": {"name": "Mus\u00e9e pour enfants de Montr\u00e9al", "designationCode": "C", "categoryCode": "50", "address": "73 CH DES COULEURS", "city": "SAINT-SAUVEUR", "province": "QC", "country": "CA", "postalCode": "J0R1R2", "twitter": "None", "instagram": "None", "facebook": "None", "youtube": "None", "website": "None", "summary": "None", "logo": "None", "latitude": 45.866694374949624, "longitude": -74.20969762089544}, "847532298RR0001": {"name": "Mus\u00e9e Renaissance", "designationCode": "B", "categoryCode": "50", "address": "281, RUE DES ROITELETS", "city": "L\u00c9VIS", "province": "QC", "country": "CA", "postalCode": "G7A3B7", "twitter": "None", "instagram": "None", "facebook": "None", "youtube": "None", "website": "None", "summary": "None", "logo": "None", "latitude": 46.733407681632116, "longitude": -71.30244553303703}, "107755837RR0001": {"name": "Muscular Dystrophy Canada / Dystrophie musculaire Canada", "designationCode": "C", "categoryCode": "11", "address": "900-2345 YONGE ST", "city": "TORONTO", "province": "ON", "country": "CA", "postalCode": "M4P2E5", "twitter": "None", "instagram": "None", "facebook": "None", "youtube": "None", "website": "None", "summary": "None", "logo": "None", "latitude": 43.70885846961736, "longitude": -79.39875583894106}, "832263222RR0001": {"name": "Museum for the Pioneers of the Grovedale Area Society", "designationCode": "C", "categoryCode": "53", "address": "BOX 63", "city": "GROVEDALE", "province": "AB", "country": "CA", "postalCode": "T0H1X0", "twitter": "None", "instagram": "None", "facebook": "None", "youtube": "None", "website": "None", "summary": "None", "logo": "None", "latitude": 55.02513000000005, "longitude": -118.86218999999994}, "878914118RR0001": {"name": "Museum of Contemporary Canadian Art Corporation/Corporation musee d'art contemporain Canadien", "designationCode": "C", "categoryCode": "50", "address": "80 WARD ST", "city": "TORONTO", "province": "ON", "country": "CA", "postalCode": "M6H4A6", "twitter": "None", "instagram": "None", "facebook": "None", "youtube": "None", "website": "None", "summary": "None", "logo": "None", "latitude": 43.664161442956946, "longitude": -79.44674604027907}, "820469575RR0001": {"name": "Museum of Toronto History", "designationCode": "C", "categoryCode": "50", "address": "215 - 401 RICHMOND ST W", "city": "TORONTO", "province": "ON", "country": "CA", "postalCode": "M5V3A8", "twitter": "None", "instagram": "None", "facebook": "None", "youtube": "None", "website": "None", "summary": "None", "logo": "None", "latitude": 43.64792255983254, "longitude": -79.39538964100468}, "107756199RR0001": {"name": "Museum Association of Newfoundland and Labrador", "designationCode": "C", "categoryCode": "50", "address": "PO BOX 5785", "city": "ST. JOHN'S", "province": "NL", "country": "CA", "postalCode": "A1C5X3", "twitter": "None", "instagram": "None", "facebook": "None", "youtube": "None", "website": "None", "summary": "None", "logo": "None", "latitude": 47.56082100000006, "longitude": -52.71219349999993}, "823241856RR0001": {"name": "Music and Beyond Performing Arts", "designationCode": "C", "categoryCode": "22", "address": "BOX 20585                     RPO RIDEAU EAST", "city": "OTTAWA", "province": "ON", "country": "CA", "postalCode": "K1N1A3", "twitter": "None", "instagram": "None", "facebook": "None", "youtube": "None", "website": "None", "summary": "None", "logo": "None", "latitude": 45.43351429640926, "longitude": -75.67334911134408}, "819461575RR0001": {"name": "Music at Port Milford Canada Incorporated", "designationCode": "C", "categoryCode": "22", "address": "3835 COUNTY ROAD 10           BOX 102", "city": "MILFORD", "province": "ON", "country": "CA", "postalCode": "K0K2P0", "twitter": "None", "instagram": "None", "facebook": "None", "youtube": "None", "website": "None", "summary": "None", "logo": "None", "latitude": 43.92433596610377, "longitude": -77.08103929895609}, "829061373RR0001": {"name": "Music for Kids", "designationCode": "C", "categoryCode": "22", "address": "75 MANNING COURT", "city": "OTTAWA", "province": "ON", "country": "CA", "postalCode": "K2K3N2", "twitter": "None", "instagram": "None", "facebook": "None", "youtube": "None", "website": "None", "summary": "None", "logo": "None", "latitude": 45.32727235250148, "longitude": -75.92617916942707}, "846495489RR0001": {"name": "Music Heals Charitable Foundation", "designationCode": "B", "categoryCode": "03", "address": "400-1788 5TH AVE W", "city": "VANCOUVER", "province": "BC", "country": "CA", "postalCode": "V6J1P2", "twitter": "None", "instagram": "None", "facebook": "None", "youtube": "None", "website": "None", "summary": "None", "logo": "None", "latitude": 49.2671245100989, "longitude": -123.14515274715794}, "844093567RR0001": {"name": "Music On Main Society", "designationCode": "C", "categoryCode": "22", "address": "110 - 750 HAMILTON ST", "city": "VANCOUVER", "province": "BC", "country": "CA", "postalCode": "V6B2R5", "twitter": "None", "instagram": "None", "facebook": "None", "youtube": "None", "website": "None", "summary": "None", "logo": "None", "latitude": 49.279332216453, "longitude": -123.11504688704757}, "783622681RR0001": {"name": "Music Seeds International Inc.", "designationCode": "C", "categoryCode": "22", "address": "643 WOODSWORTH RD SE", "city": "CALGARY", "province": "AB", "country": "CA", "postalCode": "T2J1M6", "twitter": "None", "instagram": "None", "facebook": "None", "youtube": "None", "website": "None", "summary": "None", "logo": "None", "latitude": 50.962211999999994, "longitude": -114.04976784081605}, "131621500RR0001": {"name": "Musical Theatre Productions", "designationCode": "C", "categoryCode": "22", "address": "5-1195 DUNDAS STREET EAST", "city": "LONDON", "province": "ON", "country": "CA", "postalCode": "N5W3A9", "twitter": "None", "instagram": "None", "facebook": "None", "youtube": "None", "website": "None", "summary": "None", "logo": "None", "latitude": 42.99521206408353, "longitude": -81.20947624811022}, "822241766RR0001": {"name": "Musicians' Dream Aid", "designationCode": "C", "categoryCode": "21", "address": "2452 RATHLIN CRT", "city": "MISSISSAUGA", "province": "ON", "country": "CA", "postalCode": "L5K2S4", "twitter": "None", "instagram": "None", "facebook": "None", "youtube": "None", "website": "None", "summary": "None", "logo": "None", "latitude": 43.53471547960066, "longitude": -79.66116098343848}, "841246416RR0001": {"name": "Musikay Chamber Ensemble", "designationCode": "C", "categoryCode": "22", "address": "22 HOLMES AVENUE", "city": "HAMILTON", "province": "ON", "country": "CA", "postalCode": "L8S2K6", "twitter": "None", "instagram": "None", "facebook": "None", "youtube": "None", "website": "None", "summary": "None", "logo": "None", "latitude": 43.25316715794319, "longitude": -79.92251496113458}, "819206566RR0001": {"name": "Musique Saint-Joachim Inc.", "designationCode": "C", "categoryCode": "22", "address": "635 CH DES BOUDREAU", "city": "BERTRAND", "province": "NB", "country": "CA", "postalCode": "E1W1J7", "twitter": "None", "instagram": "None", "facebook": "None", "youtube": "None", "website": "None", "summary": "None", "logo": "None", "latitude": 47.76371023919476, "longitude": -65.09509256688308}, "857096358RR0001": {"name": "Muskoka Bible Foundation", "designationCode": "A", "categoryCode": "03", "address": "PO BOX 10020", "city": "HUNTSVILLE", "province": "ON", "country": "CA", "postalCode": "P1H1B6", "twitter": "None", "instagram": "None", "facebook": "None", "youtube": "None", "website": "None", "summary": "None", "logo": "None", "latitude": 45.34138500000006, "longitude": -79.18912249999994}, "849338439RR0002": {"name": "Muskoka Bible Ministries", "designationCode": "C", "categoryCode": "39", "address": "PO BOX 10020", "city": "HUNTSVILLE", "province": "ON", "country": "CA", "postalCode": "P1H2K1", "twitter": "None", "instagram": "None", "facebook": "None", "youtube": "None", "website": "None", "summary": "None", "logo": "None", "latitude": 45.326544000000055, "longitude": -79.21800349999994}}