{"119288918RR0613": {"name": "MARKHAM WEST CONGREGATION OF JEHOVAH'S WITNESSES", "designationCode": "C", "categoryCode": "61", "address": "57 NICHOLS BLVD", "city": "MARKHAM", "province": "ON", "country": "CA", "postalCode": "L6C3A2", "twitter": "None", "instagram": "None", "facebook": "None", "youtube": "None", "website": "None", "summary": "None", "logo": "None", "latitude": 43.88443022898029, "longitude": -79.36989651177232}, "107671018RR0001": {"name": "MARKHAVEN INCORPORATED", "designationCode": "C", "categoryCode": "01", "address": "54 PARKWAY AVENUE", "city": "MARKHAM", "province": "ON", "country": "CA", "postalCode": "L3P2G4", "twitter": "None", "instagram": "None", "facebook": "None", "youtube": "None", "website": "None", "summary": "None", "logo": "None", "latitude": 43.88307510081323, "longitude": -79.25393907219093}, "134471598RR0001": {"name": "MARKSTAY GOLDEN AGE SENIOR CITIZENS CLUB", "designationCode": "C", "categoryCode": "09", "address": "BOX 11", "city": "MARKSTAY", "province": "ON", "country": "CA", "postalCode": "P0M2G0", "twitter": "None", "instagram": "None", "facebook": "None", "youtube": "None", "website": "None", "summary": "None", "logo": "None", "latitude": 46.492020000000025, "longitude": -80.54236999999995}, "119033645RR0001": {"name": "MARKSTAY PENTECOSTAL CHURCH", "designationCode": "C", "categoryCode": "36", "address": "12 MILLICHAMP ST. P.O.BOX 279", "city": "MARKSTAY", "province": "ON", "country": "CA", "postalCode": "P0M2G0", "twitter": "None", "instagram": "None", "facebook": "None", "youtube": "None", "website": "None", "summary": "None", "logo": "None", "latitude": 46.490365148041086, "longitude": -80.54076366308645}, "119033652RR0001": {"name": "MARKSTAY UNION CHURCH", "designationCode": "C", "categoryCode": "39", "address": "BOX 332", "city": "MARKSTAY", "province": "ON", "country": "CA", "postalCode": "P0M2G0", "twitter": "None", "instagram": "None", "facebook": "None", "youtube": "None", "website": "None", "summary": "None", "logo": "None", "latitude": 46.492020000000025, "longitude": -80.54236999999995}, "868858564RR0001": {"name": "MARL-TINY-MATCHEDASH CONSERVATION ASSOCIATION", "designationCode": "C", "categoryCode": "52", "address": "P.O. BOX 171", "city": "WYEVALE", "province": "ON", "country": "CA", "postalCode": "L0L2T0", "twitter": "None", "instagram": "None", "facebook": "None", "youtube": "None", "website": "None", "summary": "None", "logo": "None", "latitude": 44.65425000000005, "longitude": -79.92689999999999}, "119288918RR0924": {"name": "MARLBOROUGH CONGREGATION OF JEHOVAH'S WITNESSES, CALGARY,ALBERTA", "designationCode": "C", "categoryCode": "61", "address": "358 ABOYNE PL.N.E", "city": "CALGARY", "province": "AB", "country": "CA", "postalCode": "T2A5Y9", "twitter": "None", "instagram": "None", "facebook": "None", "youtube": "None", "website": "None", "summary": "None", "logo": "None", "latitude": 51.06268877491486, "longitude": -113.93013325965141}, "134236652RR0001": {"name": "MARMORA & LAKE PUBLIC LIBRARY", "designationCode": "C", "categoryCode": "50", "address": "37 FORSYTH STREET             BOX 340", "city": "MARMORA", "province": "ON", "country": "CA", "postalCode": "K0K2M0", "twitter": "None", "instagram": "None", "facebook": "None", "youtube": "None", "website": "None", "summary": "None", "logo": "None", "latitude": 44.48254003468182, "longitude": -77.68205039456954}, "107672099RR0001": {"name": "MARMORA FREE METHODIST CHURCH", "designationCode": "C", "categoryCode": "39", "address": "30 MCGILL ST                  P.O. BOX 189", "city": "MARMORA", "province": "ON", "country": "CA", "postalCode": "K0K2M0", "twitter": "None", "instagram": "None", "facebook": "None", "youtube": "None", "website": "None", "summary": "None", "logo": "None", "latitude": 44.48629494033121, "longitude": -77.68500549971154}, "861532828RR0001": {"name": "MARMORA HELPING HANDS FOOD BANK", "designationCode": "C", "categoryCode": "09", "address": "364 TANNERY ROAD              RR#2", "city": "MADOC", "province": "ON", "country": "CA", "postalCode": "K0K2K0", "twitter": "None", "instagram": "None", "facebook": "None", "youtube": "None", "website": "None", "summary": "None", "logo": "None", "latitude": 44.53796957085827, "longitude": -77.43691507610743}, "119033702RR0001": {"name": "MARMORA HISTORICAL FOUNDATION INC.", "designationCode": "C", "categoryCode": "52", "address": "BOX 489", "city": "MARMORA", "province": "ON", "country": "CA", "postalCode": "K0K2M0", "twitter": "None", "instagram": "None", "facebook": "None", "youtube": "None", "website": "None", "summary": "None", "logo": "None", "latitude": 44.424105000000054, "longitude": -77.62367149999993}, "872512876RR0001": {"name": "MARMORA PENTECOSTAL CHURCH", "designationCode": "C", "categoryCode": "36", "address": "BOX 60", "city": "MARMORA", "province": "ON", "country": "CA", "postalCode": "K0K2M0", "twitter": "None", "instagram": "None", "facebook": "None", "youtube": "None", "website": "None", "summary": "None", "logo": "None", "latitude": 44.424105000000054, "longitude": -77.62367149999993}, "889980629RR0001": {"name": "MARMOT RECOVERY FOUNDATION", "designationCode": "C", "categoryCode": "54", "address": "BOX 2332 STN A", "city": "NANAIMO", "province": "BC", "country": "CA", "postalCode": "V9R6X9", "twitter": "None", "instagram": "None", "facebook": "None", "youtube": "None", "website": "None", "summary": "None", "logo": "None", "latitude": 49.14474900000006, "longitude": -123.94599649999994}, "119033710RR0001": {"name": "MARNE UNITED BAPTIST CHURCH", "designationCode": "C", "categoryCode": "31", "address": "1413 HARTIN SETTLEMENT", "city": "HARTIN SETTLEMENT", "province": "NB", "country": "CA", "postalCode": "E6H1S4", "twitter": "None", "instagram": "None", "facebook": "None", "youtube": "None", "website": "None", "summary": "None", "logo": "None", "latitude": 45.89805650946093, "longitude": -67.5463430350304}, "107672172RR0001": {"name": "MARONITE ASSOCIATION OF OTTAWA", "designationCode": "C", "categoryCode": "38", "address": "243 DONALD ST.", "city": "OTTAWA", "province": "ON", "country": "CA", "postalCode": "K1K1N1", "twitter": "None", "instagram": "None", "facebook": "None", "youtube": "None", "website": "None", "summary": "None", "logo": "None", "latitude": 45.427689424980855, "longitude": -75.65774221302436}, "834532699RR0001": {"name": "MARONITE CATHOLIC PARISH OF CALGARY", "designationCode": "C", "categoryCode": "38", "address": "504-30TH AVENUE NW", "city": "CALGARY", "province": "AB", "country": "CA", "postalCode": "T2M2N6", "twitter": "None", "instagram": "None", "facebook": "None", "youtube": "None", "website": "None", "summary": "None", "logo": "None", "latitude": 51.07960048600597, "longitude": -114.07206111226844}, "872700364RR0001": {"name": "MARONITE CATHOLIC PARISH OF EDMONTON", "designationCode": "C", "categoryCode": "38", "address": "9809 76 AVE NW", "city": "EDMONTON", "province": "AB", "country": "CA", "postalCode": "T6E1K6", "twitter": "None", "instagram": "None", "facebook": "None", "youtube": "None", "website": "None", "summary": "None", "logo": "None", "latitude": 53.51225048124544, "longitude": -113.48334352553522}, "119033744RR0001": {"name": "MARPA GOMPA MEDITATION SOCIETY", "designationCode": "C", "categoryCode": "39", "address": "77 GOVERNOR DR S W", "city": "CALGARY", "province": "AB", "country": "CA", "postalCode": "T3E4Y8", "twitter": "None", "instagram": "None", "facebook": "None", "youtube": "None", "website": "None", "summary": "None", "logo": "None", "latitude": 51.01314249708582, "longitude": -114.15031618471917}, "119033751RR0001": {"name": "MARPOLE BAPTIST CHURCH", "designationCode": "C", "categoryCode": "31", "address": "8010 OSLER ST", "city": "VANCOUVER", "province": "BC", "country": "CA", "postalCode": "V6P4E2", "twitter": "None", "instagram": "None", "facebook": "None", "youtube": "None", "website": "None", "summary": "None", "logo": "None", "latitude": 49.21260491756596, "longitude": -123.1314195094064}, "888863529RR0001": {"name": "MARPOLE MUSEUM AND HISTORICAL SOCIETY", "designationCode": "C", "categoryCode": "52", "address": "7749 ANGUS DRIVE", "city": "VANCOUVER", "province": "BC", "country": "CA", "postalCode": "V6P5K6", "twitter": "None", "instagram": "None", "facebook": "None", "youtube": "None", "website": "None", "summary": "None", "logo": "None", "latitude": 49.21552867055226, "longitude": -123.14845302002395}, "119033769RR0001": {"name": "MARPOLE OAKRIDGE AREA COUNCIL SOCIETY", "designationCode": "C", "categoryCode": "09", "address": "306 - 8989 HUDSON ST", "city": "VANCOUVER", "province": "BC", "country": "CA", "postalCode": "V6P6Y1", "twitter": "None", "instagram": "None", "facebook": "None", "youtube": "None", "website": "None", "summary": "None", "logo": "None", "latitude": 49.203550204830066, "longitude": -123.13480188513448}, "119033777RR0001": {"name": "MARPOLE OAKRIDGE DAYCARE SOCIETY", "designationCode": "C", "categoryCode": "01", "address": "990 W. 59TH AVE", "city": "VANCOUVER", "province": "BC", "country": "CA", "postalCode": "V6P1X9", "twitter": "None", "instagram": "None", "facebook": "None", "youtube": "None", "website": "None", "summary": "None", "logo": "None", "latitude": 49.217042550164884, "longitude": -123.12908764994503}, "140888116RR0001": {"name": "MARPOLE OAKRIDGE FAMILY PLACE SOCIETY", "designationCode": "C", "categoryCode": "09", "address": "8877 SELKIRK STREET", "city": "VANCOUVER", "province": "BC", "country": "CA", "postalCode": "V6P4J6", "twitter": "None", "instagram": "None", "facebook": "None", "youtube": "None", "website": "None", "summary": "None", "logo": "None", "latitude": 49.204613915249936, "longitude": -123.1334803568353}, "107672255RR0001": {"name": "MARPOLE UNITED CHURCH", "designationCode": "C", "categoryCode": "44", "address": "1296 WEST 67TH AVENUE", "city": "VANCOUVER", "province": "BC", "country": "CA", "postalCode": "V6P2T2", "twitter": "None", "instagram": "None", "facebook": "None", "youtube": "None", "website": "None", "summary": "None", "logo": "None", "latitude": 49.2107845100989, "longitude": -123.13393005107045}, "887137792RR0001": {"name": "MARPOLE WOMEN'S AUXILIARY TO GEORGE PEARSON CENTRE AND G.F. STRONG CENTRE", "designationCode": "C", "categoryCode": "19", "address": "700 57TH AVE W", "city": "VANCOUVER", "province": "BC", "country": "CA", "postalCode": "V6P1S1", "twitter": "None", "instagram": "None", "facebook": "None", "youtube": "None", "website": "None", "summary": "None", "logo": "None", "latitude": 49.2190234268256, "longitude": -123.1204123133387}, "119033801RR0001": {"name": "MARQUIS FOUNDATION (PETER DAWSON LODGE)", "designationCode": "A", "categoryCode": "01", "address": "BOX 750", "city": "VULCAN", "province": "AB", "country": "CA", "postalCode": "T0L2B0", "twitter": "None", "instagram": "None", "facebook": "None", "youtube": "None", "website": "None", "summary": "None", "logo": "None", "latitude": 50.39734000000004, "longitude": -113.25817999999998}, "891307019RR0001": {"name": "MARRAINE TENDRESSE DE L'ESTRIE", "designationCode": "C", "categoryCode": "09", "address": "128-1255 RUE DANIEL", "city": "SHERBROOKE", "province": "QC", "country": "CA", "postalCode": "J1H5X3", "twitter": "None", "instagram": "None", "facebook": "None", "youtube": "None", "website": "None", "summary": "None", "logo": "None", "latitude": 45.38691347547438, "longitude": -71.90707461226845}, "891965253RR0001": {"name": "MARRAINES COUP DE POUCE", "designationCode": "C", "categoryCode": "09", "address": "222 BOUL. NOTRE-DAME-DES-CHAMP", "city": "REPENTIGNY", "province": "QC", "country": "CA", "postalCode": "J6A3B5", "twitter": "None", "instagram": "None", "facebook": "None", "youtube": "None", "website": "None", "summary": "None", "logo": "None", "latitude": 45.71615383651689, "longitude": -73.47703426507576}, "139657639RR0001": {"name": "MARRINGHURST HISTORICAL SOCIETY INC", "designationCode": "C", "categoryCode": "52", "address": "PO BOX 72", "city": "PILOT MOUND", "province": "MB", "country": "CA", "postalCode": "R0G1P0", "twitter": "None", "instagram": "None", "facebook": "None", "youtube": "None", "website": "None", "summary": "None", "logo": "None", "latitude": 49.20280000000008, "longitude": -98.89433999999994}, "876682717RR0001": {"name": "MARS DISCOVERY DISTRICT", "designationCode": "C", "categoryCode": "13", "address": "401 - 101 COLLEGE ST", "city": "TORONTO", "province": "ON", "country": "CA", "postalCode": "M5G1L7", "twitter": "None", "instagram": "None", "facebook": "None", "youtube": "None", "website": "None", "summary": "None", "logo": "None", "latitude": 43.66017488533698, "longitude": -79.38889641727748}, "119033959RR0001": {"name": "MARS HILL RADIO (CANADA) INC.", "designationCode": "C", "categoryCode": "47", "address": "893 ATWOOD PLACE", "city": "KINGSTON", "province": "ON", "country": "CA", "postalCode": "K7P1N9", "twitter": "None", "instagram": "None", "facebook": "None", "youtube": "None", "website": "None", "summary": "None", "logo": "None", "latitude": 44.25280667441873, "longitude": -76.58501653107514}, "897781191RR0001": {"name": "MARS HILL URBAN MISSIONS SOCIETY", "designationCode": "C", "categoryCode": "36", "address": "6030-88 STREET                SUITE 101", "city": "EDMONTON", "province": "AB", "country": "CA", "postalCode": "T6E6G4", "twitter": "None", "instagram": "None", "facebook": "None", "youtube": "None", "website": "None", "summary": "None", "logo": "None", "latitude": 53.49634099417162, "longitude": -113.46255665600997}, "119033868RR0001": {"name": "MARSBORO MILLS CEMETERY INC.", "designationCode": "C", "categoryCode": "59", "address": "568 MAIN STREET", "city": "BURY", "province": "QC", "country": "CA", "postalCode": "J0B1J0", "twitter": "None", "instagram": "None", "facebook": "None", "youtube": "None", "website": "None", "summary": "None", "logo": "None", "latitude": 45.47349243883066, "longitude": -71.50149247293557}, "119033884RR0001": {"name": "MARSDEN GOLDEN AGE GROUP", "designationCode": "C", "categoryCode": "56", "address": "BOX 13", "city": "MARSDEN", "province": "SK", "country": "CA", "postalCode": "S0M1P0", "twitter": "None", "instagram": "None", "facebook": "None", "youtube": "None", "website": "None", "summary": "None", "logo": "None", "latitude": 52.85016000000007, "longitude": -109.81822999999997}, "107672560RR0001": {"name": "MARSH STREET BAPTIST CHURCH", "designationCode": "C", "categoryCode": "31", "address": "144 MAIN ST W", "city": "RIDGETOWN", "province": "ON", "country": "CA", "postalCode": "N0P2C0", "twitter": "None", "instagram": "None", "facebook": "None", "youtube": "None", "website": "None", "summary": "None", "logo": "None", "latitude": 42.43261257144113, "longitude": -81.89654548141834}, "874688526RR0001": {"name": "MARSH STREET COMMUNITY CENTRE", "designationCode": "C", "categoryCode": "56", "address": "P.O BOX 307", "city": "CLARKSBURG", "province": "ON", "country": "CA", "postalCode": "N0H1J0", "twitter": "None", "instagram": "None", "facebook": "None", "youtube": "None", "website": "None", "summary": "None", "logo": "None", "latitude": 38.41646000000003, "longitude": -121.52724999999998}, "876511023RR0001": {"name": "MARSHA & TAMARA OTTEY YOUTH SOLUTIONS", "designationCode": "C", "categoryCode": "21", "address": "400 PASSMORE AVENUE", "city": "TORONTO", "province": "ON", "country": "CA", "postalCode": "M1V4B2", "twitter": "None", "instagram": "None", "facebook": "None", "youtube": "None", "website": "None", "summary": "None", "logo": "None", "latitude": 43.828946117981275, "longitude": -79.25802600611684}, "107672495RR0001": {"name": "MARSHALL MEMORIAL UNITED CHURCH", "designationCode": "C", "categoryCode": "44", "address": "20 GILBERT AVE", "city": "ANCASTER", "province": "ON", "country": "CA", "postalCode": "L9G1R4", "twitter": "None", "instagram": "None", "facebook": "None", "youtube": "None", "website": "None", "summary": "None", "logo": "None", "latitude": 43.21392970716732, "longitude": -79.98697596266378}, "867031338RR0001": {"name": "MARSHALL S HUZEVKA FOUNDATION", "designationCode": "B", "categoryCode": "05", "address": "2642 PETROLIA LINE", "city": "PETROLIA", "province": "ON", "country": "CA", "postalCode": "N0N1R0", "twitter": "None", "instagram": "None", "facebook": "None", "youtube": "None", "website": "None", "summary": "None", "logo": "None", "latitude": 42.884712263013235, "longitude": -82.26208591314862}, "886695998RR0001": {"name": "MARSHFIELD PIONEER CEMETERY TRUST FUND", "designationCode": "C", "categoryCode": "59", "address": "48 BEAU VIEW LANE", "city": "MARSHFIELD", "province": "PE", "country": "CA", "postalCode": "C1C0C9", "twitter": "None", "instagram": "None", "facebook": "None", "youtube": "None", "website": "None", "summary": "None", "logo": "None", "latitude": 46.302601610046736, "longitude": -63.061962977523194}, "119033942RR0001": {"name": "MARSHFIELD PRESBYTERIAN CHURCH", "designationCode": "C", "categoryCode": "37", "address": "127 BEAVER RUN ROAD", "city": "STANHOPE", "province": "PE", "country": "CA", "postalCode": "C0A1P0", "twitter": "None", "instagram": "None", "facebook": "None", "youtube": "None", "website": "None", "summary": "None", "logo": "None", "latitude": 46.398800860118875, "longitude": -63.08232890492823}, "865123392RR0001": {"name": "MARSHVILLE HERITAGE SOCIETY INC.", "designationCode": "C", "categoryCode": "52", "address": "PO BOX 54", "city": "WAINFLEET", "province": "ON", "country": "CA", "postalCode": "L0S1V0", "twitter": "None", "instagram": "None", "facebook": "None", "youtube": "None", "website": "None", "summary": "None", "logo": "None", "latitude": 42.922780000000046, "longitude": -79.37501999999995}, "890380884RR0001": {"name": "MARSID FAMILY FOUNDATION", "designationCode": "B", "categoryCode": "03", "address": "6622 TURNBERRY CRESCENT", "city": "VANCOUVER", "province": "BC", "country": "CA", "postalCode": "V5X4M8", "twitter": "None", "instagram": "None", "facebook": "None", "youtube": "None", "website": "None", "summary": "None", "logo": "None", "latitude": 49.22432489136802, "longitude": -123.11560716366174}, "856864236RR0001": {"name": "MARTA MARTA HOP SOCIETY", "designationCode": "C", "categoryCode": "22", "address": "1424 COMMERCIAL DRIVE         PO BOX 21647", "city": "VANCOUVER", "province": "BC", "country": "CA", "postalCode": "V5L5G3", "twitter": "None", "instagram": "None", "facebook": "None", "youtube": "None", "website": "None", "summary": "None", "logo": "None", "latitude": 49.271858533335184, "longitude": -123.06953653292588}, "130244148RR0001": {"name": "MARTENSVILLE ALLIANCE CHURCH", "designationCode": "C", "categoryCode": "39", "address": "BOX 98", "city": "MARTENSVILLE", "province": "SK", "country": "CA", "postalCode": "S0K2T0", "twitter": "None", "instagram": "None", "facebook": "None", "youtube": "None", "website": "None", "summary": "None", "logo": "None", "latitude": 52.28949000000006, "longitude": -106.66201999999998}, "119034015RR0001": {"name": "MARTENSVILLE BAPTIST CHURCH", "designationCode": "C", "categoryCode": "31", "address": "PO BOX 389", "city": "MARTENSVILLE", "province": "SK", "country": "CA", "postalCode": "S0K2T0", "twitter": "None", "instagram": "None", "facebook": "None", "youtube": "None", "website": "None", "summary": "None", "logo": "None", "latitude": 52.28949000000006, "longitude": -106.66201999999998}, "131520868RR0001": {"name": "MARTENSVILLE MISSION CHURCH (MMC)", "designationCode": "C", "categoryCode": "34", "address": "BOX 103", "city": "MARTENSVILLE", "province": "SK", "country": "CA", "postalCode": "S0K2T0", "twitter": "None", "instagram": "None", "facebook": "None", "youtube": "None", "website": "None", "summary": "None", "logo": "None", "latitude": 52.28949000000006, "longitude": -106.66201999999998}, "896948361RR0001": {"name": "MARTHA HOUSE INC.", "designationCode": "C", "categoryCode": "10", "address": "1855-2ND AVE NORTH", "city": "REGINA", "province": "SK", "country": "CA", "postalCode": "S4R0Y1", "twitter": "None", "instagram": "None", "facebook": "None", "youtube": "None", "website": "None", "summary": "None", "logo": "None", "latitude": 50.472376473455185, "longitude": -104.60752102553522}, "119034064RR0001": {"name": "MARTHA LOU HENLEY CHARITABLE FOUNDATION", "designationCode": "B", "categoryCode": "03", "address": "PO BOX 10085                  PACIFIC CENTRE", "city": "VANCOUVER", "province": "BC", "country": "CA", "postalCode": "V7Y1B6", "twitter": "None", "instagram": "None", "facebook": "None", "youtube": "None", "website": "None", "summary": "None", "logo": "None", "latitude": 49.28299000000004, "longitude": -123.11890999999997}, "859331258RR0001": {"name": "MARTHA'S TABLE COMMUNITY PROGRAM", "designationCode": "C", "categoryCode": "09", "address": "629 PRINCESS ST", "city": "KINGSTON", "province": "ON", "country": "CA", "postalCode": "K7L1E2", "twitter": "None", "instagram": "None", "facebook": "None", "youtube": "None", "website": "None", "summary": "None", "logo": "None", "latitude": 44.236863312539526, "longitude": -76.5013224692133}, "890990849RR0001": {"name": "MARTIN COURCELLES TRUST FUND", "designationCode": "C", "categoryCode": "09", "address": "30B DAWSON RD.", "city": "STE ANNE", "province": "MB", "country": "CA", "postalCode": "R5H1B5", "twitter": "None", "instagram": "None", "facebook": "None", "youtube": "None", "website": "None", "summary": "None", "logo": "None", "latitude": 49.67192580452926, "longitude": -96.65589762077121}, "805569019RR0001": {"name": "MARTIN FAMILY INITIATIVE/INITIATIVE DE LA FAMILLE MARTIN", "designationCode": "B", "categoryCode": "21", "address": "759 VICTORIA SQUARE           SUITE 300", "city": "MONTREAL", "province": "QC", "country": "CA", "postalCode": "H2Y2J7", "twitter": "None", "instagram": "None", "facebook": "None", "youtube": "None", "website": "None", "summary": "None", "logo": "None", "latitude": 45.50162462617556, "longitude": -73.56122378362876}, "119118289RR0001": {"name": "MARTIN GROVE UNITED CHURCH", "designationCode": "C", "categoryCode": "44", "address": "75 PERGOLA ROAD", "city": "ETOBICOKE", "province": "ON", "country": "CA", "postalCode": "M9W5K4", "twitter": "None", "instagram": "None", "facebook": "None", "youtube": "None", "website": "None", "summary": "None", "logo": "None", "latitude": 43.72549037443, "longitude": -79.58746955935166}, "890060973RR0001": {"name": "MARTIN KILFOIL MEMORIAL FUND", "designationCode": "C", "categoryCode": "19", "address": "436 NORTH JOHNVILLE ROAD", "city": "JOHNVILLE", "province": "NB", "country": "CA", "postalCode": "E7J1M1", "twitter": "None", "instagram": "None", "facebook": "None", "youtube": "None", "website": "None", "summary": "None", "logo": "None", "latitude": 46.57449950329051, "longitude": -67.54496348285502}, "132879438RR0001": {"name": "MARTIN LUTHER EVANGELICAL CHURCH, INC.", "designationCode": "C", "categoryCode": "32", "address": "53 CHURCH ST.", "city": "KITCHENER", "province": "ON", "country": "CA", "postalCode": "N2G2S1", "twitter": "None", "instagram": "None", "facebook": "None", "youtube": "None", "website": "None", "summary": "None", "logo": "None", "latitude": 43.447180737145956, "longitude": -80.48818662075122}, "107673337RR0001": {"name": "MARTIN LUTHER EVANGELICAL LUTHERAN CHURCH", "designationCode": "C", "categoryCode": "32", "address": "2379 LAKE SHORE BLVD W", "city": "TORONTO", "province": "ON", "country": "CA", "postalCode": "M8W1B7", "twitter": "None", "instagram": "None", "facebook": "None", "youtube": "None", "website": "None", "summary": "None", "logo": "None", "latitude": 43.6154363233309, "longitude": -79.48837379124615}, "107673345RR0001": {"name": "MARTIN LUTHER EVANGELICAL LUTHERAN CHURCH", "designationCode": "C", "categoryCode": "32", "address": "505 EAST 46TH AVENUE", "city": "VANCOUVER", "province": "BC", "country": "CA", "postalCode": "V5W2A2", "twitter": "None", "instagram": "None", "facebook": "None", "youtube": "None", "website": "None", "summary": "None", "logo": "None", "latitude": 49.22841352596792, "longitude": -123.0936297485429}, "132503830RR0001": {"name": "MARTIN LUTHER HOUSING CORPORATION", "designationCode": "C", "categoryCode": "01", "address": "#106 - 2536 PARLIAMENT AVENUE", "city": "REGINA", "province": "SK", "country": "CA", "postalCode": "S4S4H1", "twitter": "None", "instagram": "None", "facebook": "None", "youtube": "None", "website": "None", "summary": "None", "logo": "None", "latitude": 50.415552468261026, "longitude": -104.61607030252755}, "119034155RR0001": {"name": "MARTIN MEMORIAL EVANGELISTIC CHURCH OF BERRYMOOR", "designationCode": "C", "categoryCode": "39", "address": "BOX 5316", "city": "DRAYTON VALLEY", "province": "AB", "country": "CA", "postalCode": "T7A1R5", "twitter": "None", "instagram": "None", "facebook": "None", "youtube": "None", "website": "None", "summary": "None", "logo": "None", "latitude": 53.22798600000006, "longitude": -114.98692399999993}, "119034171RR0001": {"name": "MARTIN WISE GOODMAN TRUST", "designationCode": "C", "categoryCode": "21", "address": "1705 - 63 ST CLAIR AVE W", "city": "TORONTO", "province": "ON", "country": "CA", "postalCode": "M4V2Y9", "twitter": "None", "instagram": "None", "facebook": "None", "youtube": "None", "website": "None", "summary": "None", "logo": "None", "latitude": 43.68788710460182, "longitude": -79.39487415272116}, "119288918RR0265": {"name": "MARTINDALE CONGREGATION OF JEHOVAH'S WITNESSES, ST. CATHARINES, ONTARIO", "designationCode": "C", "categoryCode": "61", "address": "93 MOFFATT ST", "city": "ST CATHARINES", "province": "ON", "country": "CA", "postalCode": "L2P2L6", "twitter": "None", "instagram": "None", "facebook": "None", "youtube": "None", "website": "None", "summary": "None", "logo": "None", "latitude": 43.14680848263043, "longitude": -79.22274884075779}, "890003221RR0001": {"name": "MARTINGROVE COLLEGIATE INSTITUTE MUSIC PARENTS' COUNCIL", "designationCode": "C", "categoryCode": "22", "address": "50 WINTERTON DRIVE", "city": "ETOBICOKE", "province": "ON", "country": "CA", "postalCode": "M9B3G7", "twitter": "None", "instagram": "None", "facebook": "None", "youtube": "None", "website": "None", "summary": "None", "logo": "None", "latitude": 43.67281023902093, "longitude": -79.56047744881397}, "119298701RR0002": {"name": "MARTINTOWN - ST ANDREWS UNITED CHURCH", "designationCode": "C", "categoryCode": "44", "address": "PO BOX 43", "city": "MARTINTOWN", "province": "ON", "country": "CA", "postalCode": "K0C1S0", "twitter": "None", "instagram": "None", "facebook": "None", "youtube": "None", "website": "None", "summary": "None", "logo": "None", "latitude": 45.15416000000005, "longitude": -74.71110999999996}, "119034189RR0001": {"name": "MARTY SKUP MEMORIAL FUND", "designationCode": "C", "categoryCode": "21", "address": "56 RIVERWOOD TERRACE", "city": "BOLTON", "province": "ON", "country": "CA", "postalCode": "L7E1S4", "twitter": "None", "instagram": "None", "facebook": "None", "youtube": "None", "website": "None", "summary": "None", "logo": "None", "latitude": 43.879999284494154, "longitude": -79.71999844200465}, "806552428RR0001": {"name": "MARVELLOUS WORKS MINISTRIES", "designationCode": "B", "categoryCode": "47", "address": "401 TANSLEY ST", "city": "SHELBURNE", "province": "ON", "country": "CA", "postalCode": "L9V2S6", "twitter": "None", "instagram": "None", "facebook": "None", "youtube": "None", "website": "None", "summary": "None", "logo": "None", "latitude": 44.087633337806125, "longitude": -80.1947331112075}, "119123552RR0001": {"name": "MARVIN & RHODA ROSENBLOOM FAMILY FOUNDATION", "designationCode": "B", "categoryCode": "03", "address": "3 WESTMOUNT SQUARE            SUITE 1713", "city": "WESTMOUNT", "province": "QC", "country": "CA", "postalCode": "H3Z2S5", "twitter": "None", "instagram": "None", "facebook": "None", "youtube": "None", "website": "None", "summary": "None", "logo": "None", "latitude": 45.48721710794821, "longitude": -73.5869757183324}, "888935467RR0001": {"name": "MARVIN A. DRIMER FOUNDATION/FONDATION MARVIN A. DRIMER", "designationCode": "B", "categoryCode": "03", "address": "4999 STE CATHERINE ST W #250", "city": "WESTMOUNT", "province": "QC", "country": "CA", "postalCode": "H3Z1T3", "twitter": "None", "instagram": "None", "facebook": "None", "youtube": "None", "website": "None", "summary": "None", "logo": "None", "latitude": 45.475565373244415, "longitude": -73.60103759623976}, "119034205RR0001": {"name": "MARWAYNE CEMETERY", "designationCode": "C", "categoryCode": "59", "address": "BOX 509", "city": "MARWAYNE", "province": "AB", "country": "CA", "postalCode": "T0B2X0", "twitter": "None", "instagram": "None", "facebook": "None", "youtube": "None", "website": "None", "summary": "None", "logo": "None", "latitude": 53.53347000000008, "longitude": -110.33490999999998}, "870522687RR0001": {"name": "MARY A TIDLUND CHARITABLE FOUNDATION", "designationCode": "A", "categoryCode": "03", "address": "PO BOX 8125 STN MAIN", "city": "CANMORE", "province": "AB", "country": "CA", "postalCode": "T1W2T8", "twitter": "None", "instagram": "None", "facebook": "None", "youtube": "None", "website": "None", "summary": "None", "logo": "None", "latitude": 51.08922900000002, "longitude": -115.35869075104875}, "851559369RR0001": {"name": "MARY AND GORDON CHRISTOPHER FOUNDATION", "designationCode": "B", "categoryCode": "03", "address": "850 - 1040 GEORGIA ST W", "city": "VANCOUVER", "province": "BC", "country": "CA", "postalCode": "V6E4H1", "twitter": "None", "instagram": "None", "facebook": "None", "youtube": "None", "website": "None", "summary": "None", "logo": "None", "latitude": 49.28530146015363, "longitude": -123.12258915309577}, "889582466RR0001": {"name": "MARY ANNE ALICE MCLEAN ESTATE TRUST", "designationCode": "B", "categoryCode": "25", "address": "1402-1 KING ST W", "city": "HAMILTON", "province": "ON", "country": "CA", "postalCode": "L8P1A4", "twitter": "None", "instagram": "None", "facebook": "None", "youtube": "None", "website": "None", "summary": "None", "logo": "None", "latitude": 43.26019321073324, "longitude": -79.88135629363086}, "118966340RR0001": {"name": "MARY BERGLUND COMMUNITY HEALTH CENTRE", "designationCode": "C", "categoryCode": "11", "address": "PO BOX 450", "city": "IGNACE", "province": "ON", "country": "CA", "postalCode": "P0T1T0", "twitter": "None", "instagram": "None", "facebook": "None", "youtube": "None", "website": "None", "summary": "None", "logo": "None", "latitude": 49.41689000000008, "longitude": -91.66378999999995}, "128923737RR0001": {"name": "MARY CENTRE OF THE ARCHDIOCESE OF TORONTO", "designationCode": "C", "categoryCode": "01", "address": "842 WILSON AVE, SECOND FLOOR", "city": "NORTH YORK", "province": "ON", "country": "CA", "postalCode": "M3K1E5", "twitter": "None", "instagram": "None", "facebook": "None", "youtube": "None", "website": "None", "summary": "None", "logo": "None", "latitude": 43.73055009244604, "longitude": -79.46722684139296}, "889861597RR0001": {"name": "MARY DONALDSON MEMORIAL TRUST FUND", "designationCode": "C", "categoryCode": "50", "address": "#15 2010 7TH AVE", "city": "REGINA", "province": "SK", "country": "CA", "postalCode": "S4R1C2", "twitter": "None", "instagram": "None", "facebook": "None", "youtube": "None", "website": "None", "summary": "None", "logo": "None", "latitude": 50.458295460470744, "longitude": -104.60978044463039}, "119288918RR1224": {"name": "MARY HILL CONGREGATION OF JEHOVAH'S WITNESSES", "designationCode": "C", "categoryCode": "61", "address": "308 - 2393 WELCHER AVENUE", "city": "PORT COQUITLAM", "province": "BC", "country": "CA", "postalCode": "V3C1X6", "twitter": "None", "instagram": "None", "facebook": "None", "youtube": "None", "website": "None", "summary": "None", "logo": "None", "latitude": 49.258185522193926, "longitude": -122.7850573148384}, "119109817RR0021": {"name": "MARY IMMACULATE CHURCH", "designationCode": "C", "categoryCode": "38", "address": "1980 TRAFALGAR ST", "city": "LONDON", "province": "ON", "country": "CA", "postalCode": "N5V1A2", "twitter": "None", "instagram": "None", "facebook": "None", "youtube": "None", "website": "None", "summary": "None", "logo": "None", "latitude": 42.99346591095817, "longitude": -81.1663211975011}, "119110450RR0123": {"name": "MARY IMMACULATE CHURCH", "designationCode": "C", "categoryCode": "38", "address": "39 CONC 6", "city": "CHEPSTOW", "province": "ON", "country": "CA", "postalCode": "N0G1K0", "twitter": "None", "instagram": "None", "facebook": "None", "youtube": "None", "website": "None", "summary": "None", "logo": "None", "latitude": 44.15335447134933, "longitude": -81.28059369521523}, "888828662RR0001": {"name": "MARY IMMACULATE COUNCIL NO 4499 CHARITABLE WELFARE TRUST", "designationCode": "A", "categoryCode": "65", "address": "45 SPRUCE AVENUE", "city": "ELLIOT LAKE", "province": "ON", "country": "CA", "postalCode": "P5A2B7", "twitter": "None", "instagram": "None", "facebook": "None", "youtube": "None", "website": "None", "summary": "None", "logo": "None", "latitude": 46.3851656887001, "longitude": -82.65446887028504}, "827572470RR0001": {"name": "MARY IMMACULATE HOSPITAL (MUNDARE) FOUNDATION", "designationCode": "A", "categoryCode": "03", "address": "BOX 349", "city": "MUNDARE", "province": "AB", "country": "CA", "postalCode": "T0B3H0", "twitter": "None", "instagram": "None", "facebook": "None", "youtube": "None", "website": "None", "summary": "None", "logo": "None", "latitude": 53.594760000000065, "longitude": -112.33641999999998}, "890604242RR0001": {"name": "MARY JANE COLGAN MEMORIAL AWARD FUND", "designationCode": "C", "categoryCode": "21", "address": "32 HUGH ALLEN DRIVE", "city": "DARTMOUTH", "province": "NS", "country": "CA", "postalCode": "B2W2K8", "twitter": "None", "instagram": "None", "facebook": "None", "youtube": "None", "website": "None", "summary": "None", "logo": "None", "latitude": 44.67485801664843, "longitude": -63.4959267623058}, "872202429RR0001": {"name": "MARY JANE'S COOKING SCHOOL, INC.", "designationCode": "C", "categoryCode": "20", "address": "252 ARLINGTON ST", "city": "WINNIPEG", "province": "MB", "country": "CA", "postalCode": "R3G1Y8", "twitter": "None", "instagram": "None", "facebook": "None", "youtube": "None", "website": "None", "summary": "None", "logo": "None", "latitude": 49.88478779156327, "longitude": -97.16952589858025}, "852963438RR0001": {"name": "MARY K. LAWLOR ESTATE", "designationCode": "B", "categoryCode": "03", "address": "1709 HOLLIS STREET,5TH FLOOR  P.O.BOX 457", "city": "HALIFAX CENTRAL", "province": "NS", "country": "CA", "postalCode": "B3J2P8", "twitter": "None", "instagram": "None", "facebook": "None", "youtube": "None", "website": "None", "summary": "None", "logo": "None", "latitude": 44.647722827370295, "longitude": -63.57286089243476}, "131690778RR0001": {"name": "MARY KARDASH CHILD CARE CENTRE INC.", "designationCode": "C", "categoryCode": "20", "address": "111 POLSON AVENUE", "city": "WINNIPEG", "province": "MB", "country": "CA", "postalCode": "R2W0M5", "twitter": "None", "instagram": "None", "facebook": "None", "youtube": "None", "website": "None", "summary": "None", "logo": "None", "latitude": 49.92418191038125, "longitude": -97.1193718988114}, "806756276RR0001": {"name": "MARY KATZ CLAMAN FOUNDATION / FOUNDATION MARY KATZ CLAYMAN", "designationCode": "C", "categoryCode": "11", "address": "6555 COTE DE LIESSE, SUITE 200", "city": "MONTREAL", "province": "QC", "country": "CA", "postalCode": "H4T1E5", "twitter": "None", "instagram": "None", "facebook": "None", "youtube": "None", "website": "None", "summary": "None", "logo": "None", "latitude": 45.485160680592905, "longitude": -73.6927197795598}, "863841995RR0001": {"name": "MARY KAY ASH CHARITABLE FOUNDATION - CANADA", "designationCode": "C", "categoryCode": "09", "address": "2020 MEADOWVALE BLVD", "city": "MISSISSAUGA", "province": "ON", "country": "CA", "postalCode": "L5N6Y2", "twitter": "None", "instagram": "None", "facebook": "None", "youtube": "None", "website": "None", "summary": "None", "logo": "None", "latitude": 43.61179485838811, "longitude": -79.75594186724624}, "836617365RR0001": {"name": "MARY LYNN HIGGINS YOUTH FUND", "designationCode": "C", "categoryCode": "21", "address": "PO BOX 41061 RPO ROCKWOOD MALL", "city": "MISSISSAUGA", "province": "ON", "country": "CA", "postalCode": "L4W5C9", "twitter": "None", "instagram": "None", "facebook": "None", "youtube": "None", "website": "None", "summary": "None", "logo": "None", "latitude": 43.624750004472084, "longitude": -79.60489998831453}, "891869075RR0001": {"name": "MARY MOTHER OF GOD", "designationCode": "C", "categoryCode": "38", "address": "2745 NORTH RIDGE TRAIL", "city": "OAKVILLE", "province": "ON", "country": "CA", "postalCode": "L6H7A3", "twitter": "None", "instagram": "None", "facebook": "None", "youtube": "None", "website": "None", "summary": "None", "logo": "None", "latitude": 43.488662059957264, "longitude": -79.71261182030115}, "107676009RR0001": {"name": "MARY MOTHER OF THE CHURCH ROMAN CATHOLIC PARISH", "designationCode": "C", "categoryCode": "38", "address": "85 KIRKBRIDGE DRIVE", "city": "WINNIPEG", "province": "MB", "country": "CA", "postalCode": "R3T5S7", "twitter": "None", "instagram": "None", "facebook": "None", "youtube": "None", "website": "None", "summary": "None", "logo": "None", "latitude": 49.78847679770878, "longitude": -97.16001232670644}, "858156706RR0001": {"name": "MARY MOTHER OF THE POOR", "designationCode": "C", "categoryCode": "09", "address": "56 DERSINGHAM CRES", "city": "THORNHILL", "province": "ON", "country": "CA", "postalCode": "L3T4E8", "twitter": "None", "instagram": "None", "facebook": "None", "youtube": "None", "website": "None", "summary": "None", "logo": "None", "latitude": 43.81601913240799, "longitude": -79.36124806440064}, "107910176RR0023": {"name": "MARY QUEEN OF PEACE PARISH", "designationCode": "C", "categoryCode": "38", "address": "PO BOX 1363 STN C", "city": "ST JOHN'S", "province": "NL", "country": "CA", "postalCode": "A1C5N5", "twitter": "None", "instagram": "None", "facebook": "None", "youtube": "None", "website": "None", "summary": "None", "logo": "None", "latitude": 47.56082100000006, "longitude": -52.71219349999993}, "107910176RR0035": {"name": "MARY QUEEN OF THE WORLD PARISH", "designationCode": "C", "categoryCode": "38", "address": "PO BOX 1363 STN C", "city": "ST. JOHN'S", "province": "NL", "country": "CA", "postalCode": "A1C5N5", "twitter": "None", "instagram": "None", "facebook": "None", "youtube": "None", "website": "None", "summary": "None", "logo": "None", "latitude": 47.56082100000006, "longitude": -52.71219349999993}, "107664070RR0001": {"name": "MARY ROGERS MARANATHA FELLOWSHIP MINISTRIES", "designationCode": "C", "categoryCode": "47", "address": "15863 29A AVE", "city": "SURREY", "province": "BC", "country": "CA", "postalCode": "V3Z0N3", "twitter": "None", "instagram": "None", "facebook": "None", "youtube": "None", "website": "None", "summary": "None", "logo": "None", "latitude": 49.05574624245157, "longitude": -122.71823550324531}, "891314544RR0001": {"name": "MARY, ARCHIBALD, NELLIE AND MARGARET CAMERON MEMORIAL TRUST FUND", "designationCode": "B", "categoryCode": "25", "address": "PO BOX 10085", "city": "VANCOUVER", "province": "BC", "country": "CA", "postalCode": "V7Y1B6", "twitter": "None", "instagram": "None", "facebook": "None", "youtube": "None", "website": "None", "summary": "None", "logo": "None", "latitude": 49.26037200000006, "longitude": -123.11336149999994}, "139520530RR0001": {"name": "MARY, MOTHER OF GOD SCHOOL", "designationCode": "C", "categoryCode": "20", "address": "1515A QUEEN ST.W.", "city": "TORONTO", "province": "ON", "country": "CA", "postalCode": "M6R1A5", "twitter": "None", "instagram": "None", "facebook": "None", "youtube": "None", "website": "None", "summary": "None", "logo": "None", "latitude": 43.63956700864108, "longitude": -79.4414103899619}, "881375018RR0001": {"name": "MARY'S HOPE FOUNDATION INC.", "designationCode": "B", "categoryCode": "03", "address": "829 46TH ST W", "city": "SASKATOON", "province": "SK", "country": "CA", "postalCode": "S7L7C5", "twitter": "None", "instagram": "None", "facebook": "None", "youtube": "None", "website": "None", "summary": "None", "logo": "None", "latitude": 52.165496209239386, "longitude": -106.6807258994897}, "107690141RR0001": {"name": "MARYFIELD ASSOCIATED GOSPEL CHURCH INC.", "designationCode": "C", "categoryCode": "39", "address": "BOX 72", "city": "MARYFIELD", "province": "SK", "country": "CA", "postalCode": "S0G3K0", "twitter": "None", "instagram": "None", "facebook": "None", "youtube": "None", "website": "None", "summary": "None", "logo": "None", "latitude": 49.67794879240291, "longitude": -103.02358407574349}, "107675043RR0001": {"name": "MARYFIELD FAIRLIGHT PASTORAL CHARGE", "designationCode": "C", "categoryCode": "44", "address": "BOX 55", "city": "MARYFIELD", "province": "SK", "country": "CA", "postalCode": "S0G3K0", "twitter": "None", "instagram": "None", "facebook": "None", "youtube": "None", "website": "None", "summary": "None", "logo": "None", "latitude": 49.67794879240291, "longitude": -103.02358407574349}, "119034254RR0001": {"name": "MARYFIELD SENIOR CITIZENS' ORGANIZATION INC.", "designationCode": "C", "categoryCode": "56", "address": "BOX 186", "city": "MARYFIELD", "province": "SK", "country": "CA", "postalCode": "S0G3K0", "twitter": "None", "instagram": "None", "facebook": "None", "youtube": "None", "website": "None", "summary": "None", "logo": "None", "latitude": 49.67794879240291, "longitude": -103.02358407574349}, "892847047RR0001": {"name": "MARYHILL COMMUNITY RECREATION COMMITTEE", "designationCode": "C", "categoryCode": "56", "address": "58 ST. CHARLES ST E.", "city": "MARYHILL", "province": "ON", "country": "CA", "postalCode": "N0B2B0", "twitter": "None", "instagram": "None", "facebook": "None", "youtube": "None", "website": "None", "summary": "None", "logo": "None", "latitude": 43.53617604607878, "longitude": -80.38589352276526}, "119034296RR0001": {"name": "MARYHOUSE", "designationCode": "C", "categoryCode": "01", "address": "504 COOK STREET", "city": "WHITEHORSE", "province": "YT", "country": "CA", "postalCode": "Y1A2R4", "twitter": "None", "instagram": "None", "facebook": "None", "youtube": "None", "website": "None", "summary": "None", "logo": "None", "latitude": 60.72439538718329, "longitude": -135.06460887261233}}