{"890798945RR0001": {"name": "SOCIETE D'ASSISTANCE MATANE BASSETER BESSIMHA", "designationCode": "C", "categoryCode": "09", "address": "5753 AV MAPLERIDGE", "city": "COTE SAINT-LUC", "province": "QC", "country": "CA", "postalCode": "H4W1B4", "twitter": "None", "instagram": "None", "facebook": "None", "youtube": "None", "website": "None", "summary": "None", "logo": "None", "latitude": 45.470002630590315, "longitude": -73.66648844061966}, "130964786RR0001": {"name": "SOCIETE D'EDUCATION POUR LE CYCLISME A MONTREAL", "designationCode": "C", "categoryCode": "59", "address": "8717, 8E AVENUE", "city": "MONTR\u00c9AL", "province": "QC", "country": "CA", "postalCode": "H1Z2X4", "twitter": "None", "instagram": "None", "facebook": "None", "youtube": "None", "website": "None", "summary": "None", "logo": "None", "latitude": 45.566768345288104, "longitude": -73.6222000928214}, "120776307RR0001": {"name": "SOCIETE D'ENTRAIDE VEILLEUX INC", "designationCode": "C", "categoryCode": "09", "address": "11000 STE-JULIE", "city": "POINTE-AUX-TREMBLES", "province": "QC", "country": "CA", "postalCode": "H1B0A7", "twitter": "None", "instagram": "None", "facebook": "None", "youtube": "None", "website": "None", "summary": "None", "logo": "None", "latitude": 45.62872223091354, "longitude": -73.49704710378568}, "127390417RR0001": {"name": "SOCIETE D'HABITATION CARDINAL-VACHON", "designationCode": "C", "categoryCode": "01", "address": "2900 BOUL. ALEXANDRA", "city": "BEAUPORT", "province": "QC", "country": "CA", "postalCode": "G1E7C7", "twitter": "None", "instagram": "None", "facebook": "None", "youtube": "None", "website": "None", "summary": "None", "logo": "None", "latitude": 46.85373288030459, "longitude": -71.22356827444813}, "104911839RR0001": {"name": "SOCIETE D'HABITATION CHAMBRELLE", "designationCode": "C", "categoryCode": "09", "address": "3578 RUE SAINT FAMILLE        PORTE 1", "city": "MONTREAL", "province": "QC", "country": "CA", "postalCode": "H2X2L1", "twitter": "None", "instagram": "None", "facebook": "None", "youtube": "None", "website": "None", "summary": "None", "logo": "None", "latitude": 45.511516928386, "longitude": -73.57404488357662}, "132058744RR0001": {"name": "SOCIETE D'HABITATION DE ST-ANTOINE, INC.", "designationCode": "C", "categoryCode": "01", "address": "7 AVENUE DE L'EGLISE", "city": "SAINT-ANTOINE", "province": "NB", "country": "CA", "postalCode": "E4V1L6", "twitter": "None", "instagram": "None", "facebook": "None", "youtube": "None", "website": "None", "summary": "None", "logo": "None", "latitude": 46.362864494518334, "longitude": -64.75360160505508}, "125501650RR0001": {"name": "SOCIETE D'HABITATIONS COMMUNAUTAIRES LOGIQUE INC", "designationCode": "C", "categoryCode": "09", "address": "3250 BOUL SAINT-JOSEPH E", "city": "MONTREAL", "province": "QC", "country": "CA", "postalCode": "H1Y3G2", "twitter": "None", "instagram": "None", "facebook": "None", "youtube": "None", "website": "None", "summary": "None", "logo": "None", "latitude": 45.54912939549317, "longitude": -73.56840154131827}, "107988719RR0001": {"name": "SOCIETE D'HISTOIRE D'AMOS", "designationCode": "C", "categoryCode": "50", "address": "222, 1ERE AVENUE EST", "city": "AMOS", "province": "QC", "country": "CA", "postalCode": "J9T1H3", "twitter": "None", "instagram": "None", "facebook": "None", "youtube": "None", "website": "None", "summary": "None", "logo": "None", "latitude": 48.571896532315904, "longitude": -78.1105407485429}, "119153682RR0001": {"name": "SOCIETE D'HISTOIRE D'OKA INC.", "designationCode": "C", "categoryCode": "50", "address": "2017 CH. OKA                  C.P. 3931", "city": "OKA", "province": "QC", "country": "CA", "postalCode": "J0N1E0", "twitter": "None", "instagram": "None", "facebook": "None", "youtube": "None", "website": "None", "summary": "None", "logo": "None", "latitude": 45.47730001584038, "longitude": -74.05757798211083}, "141330365RR0001": {"name": "SOCIETE D'HISTOIRE D'OUTREMONT", "designationCode": "C", "categoryCode": "52", "address": "999, AVENUE MCEACHRAN", "city": "OUTREMONT", "province": "QC", "country": "CA", "postalCode": "H2V3E6", "twitter": "None", "instagram": "None", "facebook": "None", "youtube": "None", "website": "None", "summary": "None", "logo": "None", "latitude": 45.51968113047475, "longitude": -73.61969833455498}, "124590019RR0001": {"name": "SOCIETE D'HISTOIRE DE BELOEIL-MONT-ST-HILAIRE INC", "designationCode": "C", "categoryCode": "50", "address": "CP 85010", "city": "MONT-SAINT-HILAIRE", "province": "QC", "country": "CA", "postalCode": "J3H5W1", "twitter": "None", "instagram": "None", "facebook": "None", "youtube": "None", "website": "None", "summary": "None", "logo": "None", "latitude": 45.56431500000005, "longitude": -73.19111299999993}, "898712468RR0001": {"name": "SOCIETE D'HISTOIRE DE BUCKINGHAM", "designationCode": "C", "categoryCode": "50", "address": "379 AVENUE DE BUCKINGHAM", "city": "GATINEAU", "province": "QC", "country": "CA", "postalCode": "J8L2G6", "twitter": "None", "instagram": "None", "facebook": "None", "youtube": "None", "website": "None", "summary": "None", "logo": "None", "latitude": 45.59039807216229, "longitude": -75.4176633487219}, "136960267RR0001": {"name": "SOCIETE D'HISTOIRE DE CHARLEVOIX (SHC)", "designationCode": "C", "categoryCode": "50", "address": "156 DE L'\u00c9GLISE", "city": "LA MALBAIE", "province": "QC", "country": "CA", "postalCode": "G5A1R4", "twitter": "None", "instagram": "None", "facebook": "None", "youtube": "None", "website": "None", "summary": "None", "logo": "None", "latitude": 47.654071701627394, "longitude": -70.15330064795987}, "895383537RR0001": {"name": "SOCIETE D'HISTOIRE DE COATICOOK", "designationCode": "C", "categoryCode": "52", "address": "34 RUE MAIN EST               1ER ETAGE", "city": "COATICOOK", "province": "QC", "country": "CA", "postalCode": "J1A1N2", "twitter": "None", "instagram": "None", "facebook": "None", "youtube": "None", "website": "None", "summary": "None", "logo": "None", "latitude": 45.13249049956731, "longitude": -71.80452}, "891913964RR0001": {"name": "SOCIETE D'HISTOIRE DE DEUX-MONTAGNES", "designationCode": "C", "categoryCode": "50", "address": "C.P.91 SUCC BUREAU CHEF", "city": "ST-EUSTACHE", "province": "QC", "country": "CA", "postalCode": "J7R4K5", "twitter": "None", "instagram": "None", "facebook": "None", "youtube": "None", "website": "None", "summary": "None", "logo": "None", "latitude": 45.55822200000006, "longitude": -73.88871199999993}, "889836995RR0001": {"name": "SOCIETE D'HISTOIRE DE GEORGEVILLE/GEORGEVILLE HISTORICAL SOCIETY", "designationCode": "C", "categoryCode": "50", "address": "201 CH PARTINGTON", "city": "GEORGEVILLE", "province": "QC", "country": "CA", "postalCode": "J0B1T0", "twitter": "None", "instagram": "None", "facebook": "None", "youtube": "None", "website": "None", "summary": "None", "logo": "None", "latitude": 45.128299547319536, "longitude": -72.25098202553522}, "104911961RR0001": {"name": "SOCIETE D'HISTOIRE DE JOLIETTE-DE LANAUDIERE", "designationCode": "C", "categoryCode": "50", "address": "585, RUE ARCHAMBAULT", "city": "JOLIETTE", "province": "QC", "country": "CA", "postalCode": "J6E2W7", "twitter": "None", "instagram": "None", "facebook": "None", "youtube": "None", "website": "None", "summary": "None", "logo": "None", "latitude": 46.02555498860305, "longitude": -73.44467344321673}, "107989444RR0001": {"name": "SOCIETE D'HISTOIRE DE LA HAUTE-YAMASKA", "designationCode": "C", "categoryCode": "50", "address": "135 - 1, RUE PRINCIPALE", "city": "GRANBY", "province": "QC", "country": "CA", "postalCode": "J2G2V1", "twitter": "None", "instagram": "None", "facebook": "None", "youtube": "None", "website": "None", "summary": "None", "logo": "None", "latitude": 45.39747549580914, "longitude": -72.72005313769444}, "137362661RR0001": {"name": "SOCIETE D'HISTOIRE DE LA PRAIRIE DE LA MAGDELEINE", "designationCode": "C", "categoryCode": "50", "address": "249, RUE SAINTE-MARIE", "city": "LA PRAIRIE", "province": "QC", "country": "CA", "postalCode": "J5R1G1", "twitter": "None", "instagram": "None", "facebook": "None", "youtube": "None", "website": "None", "summary": "None", "logo": "None", "latitude": 45.419618211206696, "longitude": -73.49642590423575}, "107707226RR0001": {"name": "SOCIETE D'HISTOIRE DE MISSISQUOI/ MISSISQUOI HISTORICAL SOCIETY", "designationCode": "C", "categoryCode": "50", "address": "2 RIVER STREET", "city": "STANBRIDGE EAST", "province": "QC", "country": "CA", "postalCode": "J0J2H0", "twitter": "None", "instagram": "None", "facebook": "None", "youtube": "None", "website": "None", "summary": "None", "logo": "None", "latitude": 45.12131789644546, "longitude": -72.91503852735288}, "884634619RR0001": {"name": "SOCIETE D'HISTOIRE DE MONTMAGNY", "designationCode": "C", "categoryCode": "50", "address": "4 RUE DE LA STATION", "city": "MONTMAGNY", "province": "QC", "country": "CA", "postalCode": "G5V3T2", "twitter": "None", "instagram": "None", "facebook": "None", "youtube": "None", "website": "None", "summary": "None", "logo": "None", "latitude": 46.97350765860705, "longitude": -70.5595010456461}, "892924937RR0001": {"name": "SOCIETE D'HISTOIRE DE NEUVILLE INC.", "designationCode": "C", "categoryCode": "50", "address": "912 ROUTE 138", "city": "NEUVILLE", "province": "QC", "country": "CA", "postalCode": "G0A2R0", "twitter": "None", "instagram": "None", "facebook": "None", "youtube": "None", "website": "None", "summary": "None", "logo": "None", "latitude": 46.69911959797167, "longitude": -71.59673355633134}, "885071811RR0001": {"name": "SOCIETE D'HISTOIRE DE POINTE SAINT-CHARLES", "designationCode": "C", "categoryCode": "50", "address": "206-2390 RUE DE RYDE", "city": "MONTR\u00c9AL", "province": "QC", "country": "CA", "postalCode": "H3K1R6", "twitter": "None", "instagram": "None", "facebook": "None", "youtube": "None", "website": "None", "summary": "None", "logo": "None", "latitude": 45.477137326937594, "longitude": -73.56333938118202}, "889033353RR0001": {"name": "SOCIETE D'HISTOIRE DE SAINTE-MARGUERITE DU LAC MASSON", "designationCode": "C", "categoryCode": "50", "address": "7 RUE ANTOINE-LANDREVILLE", "city": "STE-MARGUERITE-DU-LAC-MASSON", "province": "QC", "country": "CA", "postalCode": "J0T1L0", "twitter": "None", "instagram": "None", "facebook": "None", "youtube": "None", "website": "None", "summary": "None", "logo": "None", "latitude": 46.021487700242425, "longitude": -74.07289558355923}, "864277231RR0001": {"name": "SOCIETE D'HISTOIRE DE STONEHAM-TEWKESBURY", "designationCode": "C", "categoryCode": "50", "address": "144 1RE AV", "city": "STONEHAM-ET-TEWKESBURY", "province": "QC", "country": "CA", "postalCode": "G3C0L6", "twitter": "None", "instagram": "None", "facebook": "None", "youtube": "None", "website": "None", "summary": "None", "logo": "None", "latitude": 47.00239992007611, "longitude": -71.36262779242864}, "119153690RR0001": {"name": "SOCIETE D'HISTOIRE DU HAUT-RICHELIEU", "designationCode": "C", "categoryCode": "52", "address": "203 JACQUES-CARTIER N CP 212", "city": "SAINT-JEAN-SUR-RICHELIEU", "province": "QC", "country": "CA", "postalCode": "J3B6Z4", "twitter": "None", "instagram": "None", "facebook": "None", "youtube": "None", "website": "None", "summary": "None", "logo": "None", "latitude": 45.306270167638075, "longitude": -73.25343492532757}, "133773341RR0001": {"name": "SOCIETE D'HISTOIRE DU TEMISCAMINGUE", "designationCode": "C", "categoryCode": "50", "address": "8 ST-GABRIEL NORD SOUS-SOL", "city": "VILLE-MARIE", "province": "QC", "country": "CA", "postalCode": "J9V1Z9", "twitter": "None", "instagram": "None", "facebook": "None", "youtube": "None", "website": "None", "summary": "None", "logo": "None", "latitude": 47.33177729920933, "longitude": -79.44012465551995}, "107988735RR0001": {"name": "SOCIETE D'HISTOIRE ET D'ARCHEOLOGIE DE MASHTEUIATSH", "designationCode": "C", "categoryCode": "50", "address": "1787, AMISHK                  MASHTEUIATSH", "city": "POINTE-BLEUE", "province": "QC", "country": "CA", "postalCode": "G0W2H0", "twitter": "None", "instagram": "None", "facebook": "None", "youtube": "None", "website": "None", "summary": "None", "logo": "None", "latitude": 48.58065284341311, "longitude": -72.23325726888491}, "138929906RR0001": {"name": "SOCIETE D'HISTOIRE ET DE GENEALOGIE DE L'ILE JESUS", "designationCode": "C", "categoryCode": "50", "address": "4290 BOUL. SAMSON", "city": "LAVAL", "province": "QC", "country": "CA", "postalCode": "H7W2G9", "twitter": "None", "instagram": "None", "facebook": "None", "youtube": "None", "website": "None", "summary": "None", "logo": "None", "latitude": 45.53267194725611, "longitude": -73.75150183040003}, "890881964RR0001": {"name": "SOCIETE D'HISTOIRE ET DE GENEALOGIE DE LA MATAPEDIA", "designationCode": "C", "categoryCode": "50", "address": "24 PROMENADE DE L'HOTEL       DE VILLE", "city": "AMQUI", "province": "QC", "country": "CA", "postalCode": "G5J3E1", "twitter": "None", "instagram": "None", "facebook": "None", "youtube": "None", "website": "None", "summary": "None", "logo": "None", "latitude": 48.46224069776091, "longitude": -67.43354827312584}, "898401484RR0001": {"name": "SOCIETE D'HISTOIRE ET DE GENEALOGIE DE RIVIERE-DU-LOUP INC.", "designationCode": "C", "categoryCode": "50", "address": "67 DU ROCHER", "city": "RIVIERE DU LOUP", "province": "QC", "country": "CA", "postalCode": "G5R1J8", "twitter": "None", "instagram": "None", "facebook": "None", "youtube": "None", "website": "None", "summary": "None", "logo": "None", "latitude": 47.83750294474595, "longitude": -69.53657710404548}, "897623823RR0001": {"name": "SOCIETE D'HISTOIRE ET DE GENEALOGIE DE SAINT-CASIMIR", "designationCode": "C", "categoryCode": "50", "address": "510 BOUL DE LA MONTAGNE", "city": "SAINT-CASIMIR", "province": "QC", "country": "CA", "postalCode": "G0A3L0", "twitter": "None", "instagram": "None", "facebook": "None", "youtube": "None", "website": "None", "summary": "None", "logo": "None", "latitude": 46.658950427981964, "longitude": -72.14464353759601}, "886565753RR0001": {"name": "SOCIETE D'HISTOIRE ET DE GENEALOGIE DE SALABERRY", "designationCode": "C", "categoryCode": "52", "address": "80, RUE SAINT-THOMAS", "city": "SALABERRY-DE-VALLEYFIELD", "province": "QC", "country": "CA", "postalCode": "J6T4J7", "twitter": "None", "instagram": "None", "facebook": "None", "youtube": "None", "website": "None", "summary": "None", "logo": "None", "latitude": 45.25228629280402, "longitude": -74.13119964198727}, "889101176RR0001": {"name": "SOCIETE D'HISTOIRE ET DE GENEALOGIE DES MILLE-ILES", "designationCode": "C", "categoryCode": "50", "address": "6, RUE BLAINVILLE EST", "city": "SAINTE-THERESE", "province": "QC", "country": "CA", "postalCode": "J7E3L6", "twitter": "None", "instagram": "None", "facebook": "None", "youtube": "None", "website": "None", "summary": "None", "logo": "None", "latitude": 45.63949345071832, "longitude": -73.84071760584251}, "855212338RR0001": {"name": "SOCIETE D'HISTOIRE ET DE GENEALOGIE DU GRANIT", "designationCode": "C", "categoryCode": "50", "address": "582 RUE PRINCIPALE LOCAL 102", "city": "ST-SEBASTIEN-DE-FRONTENAC", "province": "QC", "country": "CA", "postalCode": "G0Y1M0", "twitter": "None", "instagram": "None", "facebook": "None", "youtube": "None", "website": "None", "summary": "None", "logo": "None", "latitude": 45.78184899226704, "longitude": -70.96965956301567}, "854971561RR0001": {"name": "SOCIETE D'HISTOIRE ET DE GENEALOGIE DU PLATEAU MONT-ROYAL", "designationCode": "C", "categoryCode": "50", "address": "419 - 4450 RUE SAINT-HUBERT", "city": "MONTREAL", "province": "QC", "country": "CA", "postalCode": "H2J2W9", "twitter": "None", "instagram": "None", "facebook": "None", "youtube": "None", "website": "None", "summary": "None", "logo": "None", "latitude": 45.52513365803011, "longitude": -73.58025329450612}, "814452140RR0001": {"name": "SOCIETE D'HISTOIRE ET DE GENEALOGIE LEVRARD-BECQUET", "designationCode": "C", "categoryCode": "50", "address": "110 RUE DES LOISIRS", "city": "SAINT-PIERRE-LES-BECQUETS", "province": "QC", "country": "CA", "postalCode": "G0X2Z0", "twitter": "None", "instagram": "None", "facebook": "None", "youtube": "None", "website": "None", "summary": "None", "logo": "None", "latitude": 46.5065324235099, "longitude": -72.20335833441075}, "131621534RR0001": {"name": "SOCIETE D'HISTOIRE ET DE GENEALOGIE MARIA-CHAPDELAINE", "designationCode": "C", "categoryCode": "50", "address": "1024 AVENUE DES COPAINS", "city": "DOLBEAU-MISTASSI", "province": "QC", "country": "CA", "postalCode": "G8L3N5", "twitter": "None", "instagram": "None", "facebook": "None", "youtube": "None", "website": "None", "summary": "None", "logo": "None", "latitude": 48.876512280599, "longitude": -72.22486768275726}, "860682681RR0001": {"name": "SOCIETE D'HISTOIRE ET DU PATRIMOINE DE BURY / BURY HISTORICAL AND HERITAGE SOCIETY", "designationCode": "C", "categoryCode": "50", "address": "569 RUE MAIN,", "city": "BURY", "province": "QC", "country": "CA", "postalCode": "J0B1J0", "twitter": "None", "instagram": "None", "facebook": "None", "youtube": "None", "website": "None", "summary": "None", "logo": "None", "latitude": 45.47339853563411, "longitude": -71.50058375007212}, "865582811RR0001": {"name": "SOCIETE D'HISTOIRE ET DU PATRIMOINE DE LA REGION DE LA SARRE", "designationCode": "C", "categoryCode": "50", "address": "187  RUE PRINCIPALE", "city": "LA SARRE", "province": "QC", "country": "CA", "postalCode": "J9Z1Y3", "twitter": "None", "instagram": "None", "facebook": "None", "youtube": "None", "website": "None", "summary": "None", "logo": "None"}, "865030944RR0001": {"name": "SOCIETE D'HISTOIRE MILTAIRE MAURICIENNE", "designationCode": "C", "categoryCode": "52", "address": "CASE POSTALE 21042            1 PLAZA DE LA MAURICIE", "city": "SHAWINIGAN", "province": "QC", "country": "CA", "postalCode": "G9N2M7", "twitter": "None", "instagram": "None", "facebook": "None", "youtube": "None", "website": "None", "summary": "None", "logo": "None", "latitude": 46.56165228781237, "longitude": -72.73906060589181}, "131581761RR0001": {"name": "SOCIETE D'HISTOIRE NATURELLE DE LA VALLEE DU SAINT-LAURENT ST-LAWRENCE VALLEY NATURAL HISTORY SOCIETY", "designationCode": "C", "categoryCode": "59", "address": "21125 CH SAINTE-MARIE", "city": "SAINTE-ANNE-DE-BELLEVUE", "province": "QC", "country": "CA", "postalCode": "H9X3Y7", "twitter": "None", "instagram": "None", "facebook": "None", "youtube": "None", "website": "None", "summary": "None", "logo": "None", "latitude": 45.42818984569215, "longitude": -73.91975652429447}, "119153070RR0001": {"name": "SOCIETE DE BIENFAISANCE G.E.H. INC.", "designationCode": "C", "categoryCode": "09", "address": "266 14E AV", "city": "LA GUADELOUPE", "province": "QC", "country": "CA", "postalCode": "G0M1G0", "twitter": "None", "instagram": "None", "facebook": "None", "youtube": "None", "website": "None", "summary": "None", "logo": "None", "latitude": 45.95673566417561, "longitude": -70.93450271132225}, "107987877RR0001": {"name": "SOCIETE DE BIOLOGIE DE MONTREAL INC.", "designationCode": "C", "categoryCode": "21", "address": "7670 BOUL MILAN", "city": "BROSSARD", "province": "QC", "country": "CA", "postalCode": "J4Y1H5", "twitter": "None", "instagram": "None", "facebook": "None", "youtube": "None", "website": "None", "summary": "None", "logo": "None", "latitude": 45.4527292939292, "longitude": -73.45624778547509}, "882212186RR0001": {"name": "SOCIETE DE CONSERVATION DES MILIEUX HUMIDES DU QUEBEC", "designationCode": "C", "categoryCode": "52", "address": "2174 18E RUE", "city": "QUEBEC", "province": "QC", "country": "CA", "postalCode": "G1J2A7", "twitter": "None", "instagram": "None", "facebook": "None", "youtube": "None", "website": "None", "summary": "None", "logo": "None", "latitude": 46.840760948641105, "longitude": -71.21850490325478}, "878822501RR0001": {"name": "SOCIETE DE CONSERVATION DU CORRIDOR NATUREL DE LA RIVIERE AU SAUMON (S.C.C.N.R.S.)", "designationCode": "C", "categoryCode": "52", "address": "912 CHEMIN VALLEY             RR1 KINGSBURY", "city": "CANTON DE MELBOURNE", "province": "QC", "country": "CA", "postalCode": "J0B1X0", "twitter": "None", "instagram": "None", "facebook": "None", "youtube": "None", "website": "None", "summary": "None", "logo": "None", "latitude": 45.61368147665727, "longitude": -72.14005247294642}, "140775958RR0001": {"name": "SOCIETE DE CONSERVATION ET D'AMENAGEMENT DU BASSIN DE LA RIVIERE CHATEAUGUAY INC", "designationCode": "C", "categoryCode": "59", "address": "624 NOTRE-DAME, BUREAU 40     4E ETAGE", "city": "SAINT-CHRYSOSTOME", "province": "QC", "country": "CA", "postalCode": "J0S1R0", "twitter": "None", "instagram": "None", "facebook": "None", "youtube": "None", "website": "None", "summary": "None", "logo": "None", "latitude": 45.10653000000005, "longitude": -73.76139799999993}, "891469769RR0001": {"name": "SOCIETE DE CONSERVATION ET DE MISE EN VALEUR DE LA GRANDE PLEE BLEUE", "designationCode": "C", "categoryCode": "52", "address": "C.P. 153", "city": "LEVIS", "province": "QC", "country": "CA", "postalCode": "G6V6N8", "twitter": "None", "instagram": "None", "facebook": "None", "youtube": "None", "website": "None", "summary": "None", "logo": "None", "latitude": 46.82003812232347, "longitude": -71.18137858257397}, "898350640RR0001": {"name": "SOCIETE DE CONSERVATION, D'INTERPRETATION ET DE RECHERCHE DE BERTHIER ET SES ILES", "designationCode": "C", "categoryCode": "52", "address": "121 RUE DE L'\u00c9GLISE", "city": "LA-VISITATION-DE-L'\u00ceLE-DUPAS", "province": "QC", "country": "CA", "postalCode": "J0K2P0", "twitter": "None", "instagram": "None", "facebook": "None", "youtube": "None", "website": "None", "summary": "None", "logo": "None", "latitude": 46.08559412213619, "longitude": -73.14242243585915}, "894653088RR0001": {"name": "SOCIETE DE CRIMINOLOGIE DU QUEBEC", "designationCode": "C", "categoryCode": "21", "address": "2000, BOULEVARD ST-JOSEPH EST", "city": "MONTREAL", "province": "QC", "country": "CA", "postalCode": "H2H1E4", "twitter": "None", "instagram": "None", "facebook": "None", "youtube": "None", "website": "None", "summary": "None", "logo": "None", "latitude": 45.53709590394728, "longitude": -73.57761807669257}, "119153104RR0001": {"name": "SOCIETE DE CULTURE HINDOU DE MONTREAL", "designationCode": "C", "categoryCode": "48", "address": "332 LAFLEUR", "city": "LA SALLE", "province": "QC", "country": "CA", "postalCode": "H8R3H5", "twitter": "None", "instagram": "None", "facebook": "None", "youtube": "None", "website": "None", "summary": "None", "logo": "None", "latitude": 45.43018480711519, "longitude": -73.64748306249606}, "894916071RR0001": {"name": "SOCIETE DE DEVELOPPEMENT COMMUNAUTAIRE DE MONTREAL, (SODECM)", "designationCode": "C", "categoryCode": "21", "address": "3516 AVENUE DU PARC", "city": "MONTREAL", "province": "QC", "country": "CA", "postalCode": "H2X2H7", "twitter": "None", "instagram": "None", "facebook": "None", "youtube": "None", "website": "None", "summary": "None", "logo": "None", "latitude": 45.50973071689086, "longitude": -73.57428208924338}, "120777339RR0001": {"name": "SOCIETE DE DEVELOPPEMENT CULTUREL DE TERREBONNE", "designationCode": "C", "categoryCode": "22", "address": "866 RUE ST-PIERRE", "city": "TERREBONNE", "province": "QC", "country": "CA", "postalCode": "J6W1E5", "twitter": "None", "instagram": "None", "facebook": "None", "youtube": "None", "website": "None", "summary": "None", "logo": "None", "latitude": 45.69259753895235, "longitude": -73.63551213918865}, "126809128RR0001": {"name": "SOCIETE DE DEVELOPPEMENT DE LA GORGE DE COATICOOK INC.", "designationCode": "C", "categoryCode": "56", "address": "135 MICHAUD - 400 ST-MARC     CASIER POSTAL 245", "city": "COATICOOK", "province": "QC", "country": "CA", "postalCode": "J1A2T7", "twitter": "None", "instagram": "None", "facebook": "None", "youtube": "None", "website": "None", "summary": "None", "logo": "None"}, "138078597RR0001": {"name": "SOCIETE DE DEVELOPPEMENT DES EQUIPEMENTS RECREO-TOURISTIQUESDE BONAVENTURE (S O D E R B )", "designationCode": "C", "categoryCode": "52", "address": "123 RUE DES VIEUX-PONTS", "city": "BONAVENTURE", "province": "QC", "country": "CA", "postalCode": "G0C1E0", "twitter": "None", "instagram": "None", "facebook": "None", "youtube": "None", "website": "None", "summary": "None", "logo": "None", "latitude": 48.04097954177963, "longitude": -65.46446577439525}, "888835493RR0001": {"name": "SOCIETE DE GENEALOGIE DE DRUMMONDVILLE", "designationCode": "C", "categoryCode": "50", "address": "545,RUE DES ECOLES", "city": "DRUMMONDVILLE", "province": "QC", "country": "CA", "postalCode": "J2B1J6", "twitter": "None", "instagram": "None", "facebook": "None", "youtube": "None", "website": "None", "summary": "None", "logo": "None", "latitude": 45.877628390761316, "longitude": -72.48051481199126}, "119153146RR0001": {"name": "SOCIETE DE GENEALOGIE DE LANAUDIERE", "designationCode": "C", "categoryCode": "50", "address": "CP 221", "city": "JOLIETTE", "province": "QC", "country": "CA", "postalCode": "J6E3Z6", "twitter": "None", "instagram": "None", "facebook": "None", "youtube": "None", "website": "None", "summary": "None", "logo": "None", "latitude": 46.02356700000006, "longitude": -73.44196099999994}, "863019063RR0001": {"name": "SOCIETE DE GENEALOGIE DE LEVIS", "designationCode": "C", "categoryCode": "50", "address": "C.P.50012                     PLACE MONT-MARIE", "city": "LEVIS", "province": "QC", "country": "CA", "postalCode": "G6V8T2", "twitter": "None", "instagram": "None", "facebook": "None", "youtube": "None", "website": "None", "summary": "None", "logo": "None", "latitude": 46.81413937404519, "longitude": -71.17490428062878}, "132152844RR0001": {"name": "SOCIETE DE GENEALOGIE DE QUEBEC", "designationCode": "C", "categoryCode": "50", "address": "C.P. 9066 SUCC. STE-FOY", "city": "QUEBEC", "province": "QC", "country": "CA", "postalCode": "G1V4A8", "twitter": "None", "instagram": "None", "facebook": "None", "youtube": "None", "website": "None", "summary": "None", "logo": "None", "latitude": 46.78481673911341, "longitude": -71.28547031164715}, "104906003RR0001": {"name": "SOCIETE DE GENEALOGIE DES LAURENTIDES", "designationCode": "C", "categoryCode": "50", "address": "500 BOUL DES LAURENTIDES", "city": "SAINT-JEROME", "province": "QC", "country": "CA", "postalCode": "J7Z4M2", "twitter": "None", "instagram": "None", "facebook": "None", "youtube": "None", "website": "None", "summary": "None", "logo": "None", "latitude": 45.76254666340356, "longitude": -73.99269031621277}, "891603276RR0001": {"name": "SOCIETE DE GENEALOGIE ET D'HISTOIRE DE LA REGION DE THETFORDMINES", "designationCode": "C", "categoryCode": "50", "address": "671 BOUL FRONTENAC OUEST", "city": "THETFORD MINES", "province": "QC", "country": "CA", "postalCode": "G6G1N1", "twitter": "None", "instagram": "None", "facebook": "None", "youtube": "None", "website": "None", "summary": "None", "logo": "None", "latitude": 46.097582117177026, "longitude": -71.32218017328836}, "890121742RR0001": {"name": "SOCIETE DE GEOGRAPHIE DE LA MAURICIE", "designationCode": "C", "categoryCode": "21", "address": "3600 BOUL. LAVIOLETTE", "city": "TROIS-RIVIERES", "province": "QC", "country": "CA", "postalCode": "G8Z1G2", "twitter": "None", "instagram": "None", "facebook": "None", "youtube": "None", "website": "None", "summary": "None", "logo": "None", "latitude": 46.360239661145854, "longitude": -72.56935090435131}, "890848559RR0001": {"name": "SOCIETE DE GESTION ENVIRONNEMENTALE (SGE)", "designationCode": "C", "categoryCode": "52", "address": "1332, RUE DES CYPR\u00c8S", "city": "DOLBEAU-MISTASSINI", "province": "QC", "country": "CA", "postalCode": "G8L1A4", "twitter": "None", "instagram": "None", "facebook": "None", "youtube": "None", "website": "None", "summary": "None", "logo": "None", "latitude": 48.879402976859545, "longitude": -72.22379728935228}, "892237827RR0001": {"name": "SOCIETE DE GUITARE DE MONTREAL", "designationCode": "C", "categoryCode": "22", "address": "228 RUE D'ILE-DE-FRANCE", "city": "SAINT-BASILE-LE-GRAND", "province": "QC", "country": "CA", "postalCode": "J3N1V4", "twitter": "None", "instagram": "None", "facebook": "None", "youtube": "None", "website": "None", "summary": "None", "logo": "None", "latitude": 45.537607342201035, "longitude": -73.2956208511165}, "857384937RR0001": {"name": "SOCIETE DE L'AUTISME ET DES T.E.D. DE L'ESTRIE (S.A.T.E.D.E.)", "designationCode": "C", "categoryCode": "11", "address": "210-1335 RUE KING W", "city": "SHERBROOKE", "province": "QC", "country": "CA", "postalCode": "J1J2B8", "twitter": "None", "instagram": "None", "facebook": "None", "youtube": "None", "website": "None", "summary": "None", "logo": "None", "latitude": 45.398793290574076, "longitude": -71.90956758759978}, "886796366RR0001": {"name": "SOCIETE DE L'AUTISME ET DES TED (LAVAL)", "designationCode": "C", "categoryCode": "11", "address": "2285, AV.FRANCIS HUGUES       SUITE 200", "city": "LAVAL", "province": "QC", "country": "CA", "postalCode": "H7S1N5", "twitter": "None", "instagram": "None", "facebook": "None", "youtube": "None", "website": "None", "summary": "None", "logo": "None", "latitude": 45.58450134222968, "longitude": -73.72729025947852}, "872518360RR0001": {"name": "SOCIETE DE L'AUTISME REGION DE LANAUDIERE", "designationCode": "C", "categoryCode": "09", "address": "144 RUE ST-JOSEPH", "city": "JOLIETTE", "province": "QC", "country": "CA", "postalCode": "J6E5C4", "twitter": "None", "instagram": "None", "facebook": "None", "youtube": "None", "website": "None", "summary": "None", "logo": "None", "latitude": 46.026606530122855, "longitude": -73.44158207325879}, "855180766RR0001": {"name": "SOCIETE DE LA GELINOTTE HUPPEE INC.", "designationCode": "C", "categoryCode": "54", "address": "274 RUE MARCEL-CANTIN", "city": "QUEBEC", "province": "QC", "country": "CA", "postalCode": "G2A1L3", "twitter": "None", "instagram": "None", "facebook": "None", "youtube": "None", "website": "None", "summary": "None", "logo": "None", "latitude": 46.85826524508046, "longitude": -71.36281964721007}, "119153179RR0001": {"name": "SOCIETE DE LA PLACE DES ARTS DE MONTREAL", "designationCode": "C", "categoryCode": "22", "address": "260 BOUL DE MAISONNEUVE OUEST", "city": "MONTREAL", "province": "QC", "country": "CA", "postalCode": "H2X1Z9", "twitter": "None", "instagram": "None", "facebook": "None", "youtube": "None", "website": "None", "summary": "None", "logo": "None", "latitude": 45.508406327708435, "longitude": -73.56812827526383}, "895197762RR0001": {"name": "SOCIETE DE LA PREMATERNELLE \"LES P'TITS AMIS\"", "designationCode": "C", "categoryCode": "20", "address": "10715 131A AVENUE NW", "city": "EDMONTON", "province": "AB", "country": "CA", "postalCode": "T5E0X4", "twitter": "None", "instagram": "None", "facebook": "None", "youtube": "None", "website": "None", "summary": "None", "logo": "None", "latitude": 53.591070494518334, "longitude": -113.50529108381903}, "119153187RR0001": {"name": "SOCIETE DE LA SCLEROSE LATERALE AMYOTROPHIQUE DU QUEBEC - AMYOTROPHIC LATERAL SCLEROSIS SOCIETY OF QUEBEC", "designationCode": "C", "categoryCode": "11", "address": "200-5415 RUE PAR\u00c9", "city": "MONT-ROYAL", "province": "QC", "country": "CA", "postalCode": "H4P1P7", "twitter": "None", "instagram": "None", "facebook": "None", "youtube": "None", "website": "None", "summary": "None", "logo": "None", "latitude": 45.494311042212296, "longitude": -73.65780011189308}, "119153195RR0001": {"name": "SOCIETE DE LOISIR ORNITHOLOGIQUE DE L'ESTRIE", "designationCode": "C", "categoryCode": "54", "address": "C.P. 1263,                    SUCCURSALE PLACE DE LA CIT\u00c9", "city": "SHERBROOKE", "province": "QC", "country": "CA", "postalCode": "J1H5L7", "twitter": "None", "instagram": "None", "facebook": "None", "youtube": "None", "website": "None", "summary": "None", "logo": "None", "latitude": 45.39993924181269, "longitude": -71.89518081045317}, "119153203RR0001": {"name": "SOCIETE DE MARIE, MERE DE L'EGLISE", "designationCode": "C", "categoryCode": "49", "address": "371 3E RANG E", "city": "SAINT-JOACHIM-DE-SHEFFORD", "province": "QC", "country": "CA", "postalCode": "J0E2G0", "twitter": "None", "instagram": "None", "facebook": "None", "youtube": "None", "website": "None", "summary": "None", "logo": "None", "latitude": 45.48177849120012, "longitude": -72.5089613366611}, "139188742RR0001": {"name": "SOCIETE DE PROTECTION FONCIERE DE SAINTE-ADELE", "designationCode": "C", "categoryCode": "52", "address": "210-1695 BOUL. LAVAL", "city": "LAVAL", "province": "QC", "country": "CA", "postalCode": "H7S2G2", "twitter": "None", "instagram": "None", "facebook": "None", "youtube": "None", "website": "None", "summary": "None", "logo": "None", "latitude": 45.56929519900169, "longitude": -73.7200242682211}, "855749081RR0001": {"name": "SOCIETE DE PROTECTION FONCIERE DU LAC MONTJOIE", "designationCode": "C", "categoryCode": "52", "address": "C.P. 228", "city": "SAINT DENIS DE BROMPTON", "province": "QC", "country": "CA", "postalCode": "J0B2P0", "twitter": "None", "instagram": "None", "facebook": "None", "youtube": "None", "website": "None", "summary": "None", "logo": "None", "latitude": 45.458380051070485, "longitude": -72.07946004385705}, "104910989RR0001": {"name": "SOCIETE DE RECHERCHE EN ORIENTATION HUMAINE INC.", "designationCode": "C", "categoryCode": "21", "address": "212-2120 RUE SHERBROOKE EST", "city": "MONTREAL", "province": "QC", "country": "CA", "postalCode": "H2K1C3", "twitter": "None", "instagram": "None", "facebook": "None", "youtube": "None", "website": "None", "summary": "None", "logo": "None", "latitude": 45.53400108533833, "longitude": -73.56199564861863}, "119153245RR0001": {"name": "SOCIETE DE RENOVATION MAILLOU", "designationCode": "C", "categoryCode": "52", "address": "17 RUE SAINT-LOUIS", "city": "QUEBEC", "province": "QC", "country": "CA", "postalCode": "G1R3Y8", "twitter": "None", "instagram": "None", "facebook": "None", "youtube": "None", "website": "None", "summary": "None", "logo": "None", "latitude": 46.81192034886612, "longitude": -71.20654193782104}, "132410671RR0023": {"name": "SOCIETE DE SAINT-VINCENT DE PAUL - CONFERENCE ISOLEE ST. CYPRIEN", "designationCode": "C", "categoryCode": "09", "address": "459 RUE SAINT-JACQUES", "city": "NAPIERVILLE", "province": "QC", "country": "CA", "postalCode": "J0J1L0", "twitter": "None", "instagram": "None", "facebook": "None", "youtube": "None", "website": "None", "summary": "None", "logo": "None", "latitude": 45.19164162196331, "longitude": -73.40846160465105}, "132410671RR0444": {"name": "SOCIETE DE SAINT-VINCENT DE PAUL - CONFERENCE ST-PAUL D'AYLMER", "designationCode": "C", "categoryCode": "09", "address": "BP 110", "city": "GATINEAU", "province": "QC", "country": "CA", "postalCode": "J9H5E4", "twitter": "None", "instagram": "None", "facebook": "None", "youtube": "None", "website": "None", "summary": "None", "logo": "None", "latitude": 45.39902100000006, "longitude": -75.85311499999993}, "119153260RR0001": {"name": "SOCIETE DE SAINT-VINCENT DE PAUL - CONSEIL CENTRAL DE QUEBEC", "designationCode": "C", "categoryCode": "09", "address": "2225 BD. HENRI-BOURASSA", "city": "QUEBEC", "province": "QC", "country": "CA", "postalCode": "G1J3X1", "twitter": "None", "instagram": "None", "facebook": "None", "youtube": "None", "website": "None", "summary": "None", "logo": "None", "latitude": 46.838440258382015, "longitude": -71.22966915364402}, "132410671RR0311": {"name": "SOCIETE DE SAINT-VINCENT DE PAUL CONFERENCE ST-JEROME", "designationCode": "C", "categoryCode": "09", "address": "3739 YPRES", "city": "WINDSOR", "province": "ON", "country": "CA", "postalCode": "N8W1S9", "twitter": "None", "instagram": "None", "facebook": "None", "youtube": "None", "website": "None", "summary": "None", "logo": "None", "latitude": 42.302461540885574, "longitude": -82.9771529117089}, "881357818RR0001": {"name": "SOCIETE DE SAINT-VINCENT DE PAUL DE MERCIER CONFERENCE SAINTE-PHILOMENE", "designationCode": "C", "categoryCode": "09", "address": "6, DES CH\u00caNES", "city": "MERCIER", "province": "QC", "country": "CA", "postalCode": "J6R1X1", "twitter": "None", "instagram": "None", "facebook": "None", "youtube": "None", "website": "None", "summary": "None", "logo": "None", "latitude": 45.30582181155859, "longitude": -73.7438136397369}, "132410671RR0001": {"name": "SOCIETE DE SAINT-VINCENT DE PAUL-CONSEIL NATIONAL DU CANADA/SOCIETY OF SAINT-VINCENT DE PAUL-NATIONAL COUNCIL OF CANADA", "designationCode": "C", "categoryCode": "09", "address": "2463 INNES RD", "city": "GLOUCESTER", "province": "ON", "country": "CA", "postalCode": "K1B3K3", "twitter": "None", "instagram": "None", "facebook": "None", "youtube": "None", "website": "None", "summary": "None", "logo": "None", "latitude": 45.42886953846139, "longitude": -75.57170323371216}, "132410671RR0113": {"name": "SOCIETE DE SAINT-VINCENT DE PAUL, CONFERENCE SAINT-LOUIS/SAINT-YVES", "designationCode": "C", "categoryCode": "09", "address": "1576 ROUTE DE L'\u00c9GLISE", "city": "QU\u00c9BEC", "province": "QC", "country": "CA", "postalCode": "G1W3P5", "twitter": "None", "instagram": "None", "facebook": "None", "youtube": "None", "website": "None", "summary": "None", "logo": "None", "latitude": 46.76007403381646, "longitude": -71.27918310485259}, "132410671RR0157": {"name": "SOCIETE DE SAINT-VINCENT DE PAUL, CONSEIL CENTRAL DU SAGUENAY-LAC-SAINT-JEAN", "designationCode": "C", "categoryCode": "09", "address": "602 RUE RACINE E", "city": "CHICOUTIMI", "province": "QC", "country": "CA", "postalCode": "G7H1V1", "twitter": "None", "instagram": "None", "facebook": "None", "youtube": "None", "website": "None", "summary": "None", "logo": "None", "latitude": 48.42955548009162, "longitude": -71.04963086081135}, "132410671RR0280": {"name": "SOCIETE DE SAINT-VINCENT-DE-PAUL - CONFERENCE DE SAINT-PATRICE (RIVIERE DU LOUP) (MASCULINE)", "designationCode": "C", "categoryCode": "09", "address": "121, RUE LAFONTAINE", "city": "RIVIERE-DU-LOUP", "province": "QC", "country": "CA", "postalCode": "G5R3A3", "twitter": "None", "instagram": "None", "facebook": "None", "youtube": "None", "website": "None", "summary": "None", "logo": "None", "latitude": 47.83671611865566, "longitude": -69.53794491268654}, "890981087RR0001": {"name": "SOCIETE DE SAINT-VINCENT-DE-PAUL - CONFERENCE NOTRE-DAME-DE-LORETTE A HULL", "designationCode": "C", "categoryCode": "09", "address": "48, RUE PRUD'HOMME", "city": "GATINEAU", "province": "QC", "country": "CA", "postalCode": "J8Y5V5", "twitter": "None", "instagram": "None", "facebook": "None", "youtube": "None", "website": "None", "summary": "None", "logo": "None", "latitude": 45.437363349991315, "longitude": -75.7475552993249}, "132410671RR0138": {"name": "SOCIETE DE SAINT-VINCENT-DE-PAUL CONFERENCE DE LA NATIVITE DE NOTRE-DAME DE BEAUPORT", "designationCode": "C", "categoryCode": "09", "address": "2 - 51 AV JUCHEREAU", "city": "QUEBEC", "province": "QC", "country": "CA", "postalCode": "G1E2M3", "twitter": "None", "instagram": "None", "facebook": "None", "youtube": "None", "website": "None", "summary": "None", "logo": "None", "latitude": 46.859007278665764, "longitude": -71.19612247642668}, "132410671RR0331": {"name": "SOCIETE DE SAINT-VINCENT-DE-PAUL CONFERENCE SAINTE-AGNES - DONNACONA (QUEBEC)", "designationCode": "C", "categoryCode": "09", "address": "CP #4001", "city": "DONNACONA", "province": "QC", "country": "CA", "postalCode": "G3M2X2", "twitter": "None", "instagram": "None", "facebook": "None", "youtube": "None", "website": "None", "summary": "None", "logo": "None", "latitude": 46.67671500000006, "longitude": -71.73534049999994}, "132410671RR0393": {"name": "SOCIETE DE SAINT-VINCENT-DE-PAUL DES TROIS-RIVIERES CONFERENCE SAINT-PIE-X", "designationCode": "C", "categoryCode": "09", "address": "2580 RUE ROYALE", "city": "TROIS-RIVERES", "province": "QC", "country": "CA", "postalCode": "G9A4L5", "twitter": "None", "instagram": "None", "facebook": "None", "youtube": "None", "website": "None", "summary": "None", "logo": "None", "latitude": 46.33429938885674, "longitude": -72.54925499365201}, "132410671RR0378": {"name": "SOCIETE DE SAINT-VINCENT-DE-PAUL/CONFERENCE SAINT-BENOIT ABBE", "designationCode": "C", "categoryCode": "09", "address": "3420 DE ROCHAMBEAU", "city": "ST-FOY", "province": "QC", "country": "CA", "postalCode": "G1X2H1", "twitter": "None", "instagram": "None", "facebook": "None", "youtube": "None", "website": "None", "summary": "None", "logo": "None", "latitude": 46.76689197201194, "longitude": -71.32305679107233}, "132410671RR0252": {"name": "SOCIETE DE SAINT-VINCENT-DE-PAUL, CONFERENCE SAINT-JOSEPH-DE-BEAUCE", "designationCode": "C", "categoryCode": "09", "address": "1172 ROUTE 276", "city": "ST-JOSEPH DE BEAUCE", "province": "QC", "country": "CA", "postalCode": "G0S2V0", "twitter": "None", "instagram": "None", "facebook": "None", "youtube": "None", "website": "None", "summary": "None", "logo": "None", "latitude": 46.359197855874186, "longitude": -70.79646407840133}, "132410671RR0210": {"name": "SOCIETE DE SAINT-VINCENT-DE-PAUL, CONFERENCE SAINTE-JEANNE-DE-NEUVILLE", "designationCode": "C", "categoryCode": "09", "address": "141 BOUL NOTRE-DAME", "city": "PONT-ROUGE", "province": "QC", "country": "CA", "postalCode": "G3H3L1", "twitter": "None", "instagram": "None", "facebook": "None", "youtube": "None", "website": "None", "summary": "None", "logo": "None", "latitude": 46.76378890204272, "longitude": -71.71056644030254}, "132410671RR0209": {"name": "SOCIETE DE SAINT-VINCENT-DE-PAUL, CONFERENCE ST-JEAN-VIANNEY", "designationCode": "C", "categoryCode": "09", "address": "1103 BEAUREGARD APP#1", "city": "LONGUEUIL", "province": "QC", "country": "CA", "postalCode": "J4K2L2", "twitter": "None", "instagram": "None", "facebook": "None", "youtube": "None", "website": "None", "summary": "None", "logo": "None", "latitude": 45.51433509048413, "longitude": -73.4840321214437}, "132410671RR0282": {"name": "SOCIETE DE SAINT-VINCENT-DE-PAUL, CONFERENCE ST-PATRICE (RIVIERE-DU-LOUP)", "designationCode": "C", "categoryCode": "09", "address": "121 RUE LAFONTAINE", "city": "RIVIERE-DU-LOUP", "province": "QC", "country": "CA", "postalCode": "G5R3A3", "twitter": "None", "instagram": "None", "facebook": "None", "youtube": "None", "website": "None", "summary": "None", "logo": "None", "latitude": 47.83671611865566, "longitude": -69.53794491268654}, "890701956RR0001": {"name": "SOCIETE DE SAUVEGARDE DE LA VIEILLE PRISON DE SHERBROOKE", "designationCode": "C", "categoryCode": "52", "address": "271 RUE WINTER", "city": "SHERBROOKE", "province": "QC", "country": "CA", "postalCode": "J1H4E7", "twitter": "None", "instagram": "None", "facebook": "None", "youtube": "None", "website": "None", "summary": "None", "logo": "None", "latitude": 45.40434917179302, "longitude": -71.89747282627376}, "140943390RR0001": {"name": "SOCIETE DE SCLEROSE EN PLAQUES DE L'ABITIBI-TEMISCAMINGUE", "designationCode": "C", "categoryCode": "11", "address": "60 RUE CLOUTIER", "city": "VAL D'OR", "province": "QC", "country": "CA", "postalCode": "J9P5Y9", "twitter": "None", "instagram": "None", "facebook": "None", "youtube": "None", "website": "None", "summary": "None", "logo": "None", "latitude": 48.098311281435734, "longitude": -77.81626827549177}, "898089693RR0001": {"name": "SOCIETE DE SCLEROSE SYSTEMIQUE (SCLERODERMIE) DU QUEBEC INC.", "designationCode": "C", "categoryCode": "11", "address": "550 CHEMIN CHAMBLY, BUREAU 040", "city": "LONGUEUIL", "province": "QC", "country": "CA", "postalCode": "J4H3L8", "twitter": "None", "instagram": "None", "facebook": "None", "youtube": "None", "website": "None", "summary": "None", "logo": "None", "latitude": 45.53773062917667, "longitude": -73.50181462297292}, "132410671RR0270": {"name": "SOCIETE DE ST VINCENT DE PAUL CONFERENCE STE-GERTRUDE DE BEAUPORT (QUEBEC)", "designationCode": "C", "categoryCode": "09", "address": "775, AV. DE L'\u00c9DUCATION", "city": "QU\u00c9BEC", "province": "QC", "country": "CA", "postalCode": "G1E1J2", "twitter": "None", "instagram": "None", "facebook": "None", "youtube": "None", "website": "None", "summary": "None", "logo": "None", "latitude": 46.869429494373165, "longitude": -71.18754562920533}, "132410671RR0235": {"name": "SOCIETE DE ST VINCENT DE PAUL DE L ASSOMPTION", "designationCode": "C", "categoryCode": "09", "address": "12425 1E AVENUE", "city": "VILLE ST-GEORGES", "province": "QC", "country": "CA", "postalCode": "G5Y2E3", "twitter": "None", "instagram": "None", "facebook": "None", "youtube": "None", "website": "None", "summary": "None", "logo": "None", "latitude": 46.11837431060628, "longitude": -70.66947754339573}}