{"129908125RR0001": {"name": "LA COOPERATIVE DES TRAVAILLEUSES ET TRAVAILLEURS DE THEATRE DES BOIS-FRANCS", "designationCode": "C", "categoryCode": "22", "address": "CP 158 150 BOUL. BOIS-FRANCS N", "city": "VICTORIAVILLE", "province": "QC", "country": "CA", "postalCode": "G6P6S8", "twitter": "None", "instagram": "None", "facebook": "None", "youtube": "None", "website": "None", "summary": "None", "logo": "None", "latitude": 46.0610634701083, "longitude": -71.9553647722022}, "118989318RR0001": {"name": "LA COOPERATIVE DU CLUB D'AGE D'OR DE L'ASSOMPTION DE GRAND-SAULT LIMITEE", "designationCode": "C", "categoryCode": "56", "address": "125, RUE MANSE", "city": "GRAND FALLS", "province": "NB", "country": "CA", "postalCode": "E3Z2X4", "twitter": "None", "instagram": "None", "facebook": "None", "youtube": "None", "website": "None", "summary": "None", "logo": "None", "latitude": 47.04516372457132, "longitude": -67.73553035609872}, "132388141RR0001": {"name": "LA COOPERATIVE FRANCAISE GARD'AMIS", "designationCode": "C", "categoryCode": "01", "address": "1601 COWAN CR.", "city": "REGINA", "province": "SK", "country": "CA", "postalCode": "S4S4C4", "twitter": "None", "instagram": "None", "facebook": "None", "youtube": "None", "website": "None", "summary": "None", "logo": "None", "latitude": 50.4183394800916, "longitude": -104.60359952983438}, "870909975RR0001": {"name": "LA COOPERATIVE L'ECOLE DES PETITS", "designationCode": "C", "categoryCode": "01", "address": "2051 - 15 AVE EAST", "city": "PRINCE ALBERT", "province": "SK", "country": "CA", "postalCode": "S6V6T5", "twitter": "None", "instagram": "None", "facebook": "None", "youtube": "None", "website": "None", "summary": "None", "logo": "None", "latitude": 53.19553511056695, "longitude": -105.70940053693444}, "136328937RR0001": {"name": "LA COOPERATIVE RADIO CHETICAMP LIMITEE", "designationCode": "C", "categoryCode": "21", "address": "CP 699", "city": "CHETICAMP", "province": "NS", "country": "CA", "postalCode": "B0E1H0", "twitter": "None", "instagram": "None", "facebook": "None", "youtube": "None", "website": "None", "summary": "None", "logo": "None", "latitude": 46.605684008258, "longitude": -61.05158107090711}, "129816096RR0001": {"name": "LA CORBEILLE-BORDEAUX-CARTIERVILLE", "designationCode": "C", "categoryCode": "09", "address": "5090 RUE DUDEMAINE", "city": "MONTREAL", "province": "QC", "country": "CA", "postalCode": "H4J1N6", "twitter": "None", "instagram": "None", "facebook": "None", "youtube": "None", "website": "None", "summary": "None", "logo": "None", "latitude": 45.52812493614762, "longitude": -73.70119307796199}, "871775110RR0001": {"name": "LA CORNE D'ABONDANCE ENTRAIDE ALIMENTAIRE ET SOLIDARITE", "designationCode": "C", "categoryCode": "09", "address": "2391 BOURGOGNE", "city": "CHAMBLY", "province": "QC", "country": "CA", "postalCode": "J3L2A5", "twitter": "None", "instagram": "None", "facebook": "None", "youtube": "None", "website": "None", "summary": "None", "logo": "None", "latitude": 45.444279257573925, "longitude": -73.26469052011088}, "132503574RR0001": {"name": "LA CORPORATION \u00c9PISCOPALE CATHOLIQUE ROMAINE DE SAINT-HYACINTHE", "designationCode": "C", "categoryCode": "49", "address": "1900 RUE GIROUARD OUEST       CP 190", "city": "SAINT-HYACINTHE", "province": "QC", "country": "CA", "postalCode": "J2S7B4", "twitter": "None", "instagram": "None", "facebook": "None", "youtube": "None", "website": "None", "summary": "None", "logo": "None", "latitude": 45.62391797590707, "longitude": -72.94864985033708}, "130101454RR0001": {"name": "LA CORPORATION \u00c9PISCOPALE CATHOLIQUE ROMAINE DE VALLEYFIELD", "designationCode": "C", "categoryCode": "38", "address": "11 RUE DE L'EGLISE", "city": "VALLEYFIELD", "province": "QC", "country": "CA", "postalCode": "J6T1J5", "twitter": "None", "instagram": "None", "facebook": "None", "youtube": "None", "website": "None", "summary": "None", "logo": "None", "latitude": 45.25527761749124, "longitude": -74.13554232537972}, "129476610RR0001": {"name": "LA CORPORATION ARCHIEPISCOPALE CATHOLIQUE ROMAINE DE SHERBROOKE", "designationCode": "C", "categoryCode": "49", "address": "130, RUE DE LA CATH\u00c9DRALE", "city": "SHERBROOKE", "province": "QC", "country": "CA", "postalCode": "J1H4M1", "twitter": "None", "instagram": "None", "facebook": "None", "youtube": "None", "website": "None", "summary": "None", "logo": "None", "latitude": 45.40215780019028, "longitude": -71.89345627151064}, "118989359RR0001": {"name": "LA CORPORATION ARCHIEPISCOPALE CATHOLIQUE ROMAINE DE ST-BONIFACE", "designationCode": "C", "categoryCode": "38", "address": "151, AV DE LA CATH\u00c9DRALE", "city": "SAINT-BONIFACE", "province": "MB", "country": "CA", "postalCode": "R2H0H6", "twitter": "None", "instagram": "None", "facebook": "None", "youtube": "None", "website": "None", "summary": "None", "logo": "None", "latitude": 49.889649973311, "longitude": -97.12234995614286}, "118989375RR0001": {"name": "LA CORPORATION CITE-JOIE INC.", "designationCode": "C", "categoryCode": "63", "address": "28 CHEMIN DES CASCADES        CP 1009", "city": "LAC BEAUPORT", "province": "QC", "country": "CA", "postalCode": "G3B0C4", "twitter": "None", "instagram": "None", "facebook": "None", "youtube": "None", "website": "None", "summary": "None", "logo": "None", "latitude": 46.99060797279133, "longitude": -71.28931230916398}, "106975451RR0001": {"name": "LA CORPORATION COLOMBIENNE JEAN DOLBEAU INC.", "designationCode": "C", "categoryCode": "01", "address": "2020 RUE PROVENCHER", "city": "DOLBEAU-MISTASSINI", "province": "QC", "country": "CA", "postalCode": "G8L3E6", "twitter": "None", "instagram": "None", "facebook": "None", "youtube": "None", "website": "None", "summary": "None", "logo": "None", "latitude": 48.88633815211481, "longitude": -72.24219868232458}, "845759943RR0001": {"name": "LA CORPORATION D'AMENAGEMENT DE LA RIVIERE BLANCHE DE GATINEAU INC.", "designationCode": "C", "categoryCode": "52", "address": "269 DES JACINTHES", "city": "GATINEAU", "province": "QC", "country": "CA", "postalCode": "J8R1L9", "twitter": "None", "instagram": "None", "facebook": "None", "youtube": "None", "website": "None", "summary": "None", "logo": "None", "latitude": 45.505653537884484, "longitude": -75.60151458517534}, "102926607RR0001": {"name": "LA CORPORATION D'HABITATION PORTE JAUNE", "designationCode": "C", "categoryCode": "01", "address": "3509 JEANNE MANCE SUITE 5", "city": "MONTREAL", "province": "QC", "country": "CA", "postalCode": "H2X2K2", "twitter": "None", "instagram": "None", "facebook": "None", "youtube": "None", "website": "None", "summary": "None", "logo": "None", "latitude": 45.510504097149244, "longitude": -73.57358025852622}, "106980410RR0001": {"name": "LA CORPORATION DE L'\u00c9TINCELLE (SAINT-HENRI)", "designationCode": "C", "categoryCode": "21", "address": "75 SIR GEORGES-ETIENNE CARTIERLOCAL 200", "city": "MONTREAL", "province": "QC", "country": "CA", "postalCode": "H4C3A1", "twitter": "None", "instagram": "None", "facebook": "None", "youtube": "None", "website": "None", "summary": "None", "logo": "None", "latitude": 45.47273916322333, "longitude": -73.58398005326347}, "107585226RR0001": {"name": "LA CORPORATION DE L'ECOLE POLYTECHNIQUE DE MONTREAL", "designationCode": "C", "categoryCode": "20", "address": "CASE POSTALE 6079             SUCCURSALE CENTRE-VILLE", "city": "MONTREAL", "province": "QC", "country": "CA", "postalCode": "H3C3A7", "twitter": "None", "instagram": "None", "facebook": "None", "youtube": "None", "website": "None", "summary": "None", "logo": "None", "latitude": 45.49833600000005, "longitude": -73.55148649999994}, "134815968RR0001": {"name": "LA CORPORATION DE L'ENTRE-JEUNES DE RIVIERE-DU-LOUP", "designationCode": "C", "categoryCode": "09", "address": "79, RUE FRONTENAC, C.P. 314", "city": "RIVIERE-DU-LOUP", "province": "QC", "country": "CA", "postalCode": "G5R3Y9", "twitter": "None", "instagram": "None", "facebook": "None", "youtube": "None", "website": "None", "summary": "None", "logo": "None", "latitude": 47.827081488199, "longitude": -69.53772251206078}, "131984593RR0001": {"name": "LA CORPORATION DE L'OBSERVATOIRE DU T\u00c9MISCOUATA INC.", "designationCode": "C", "categoryCode": "59", "address": "170 CH JACQUES-PELLETIER", "city": "SAINT-LOUIS-DU-HA-HA", "province": "QC", "country": "CA", "postalCode": "G0L3S0", "twitter": "None", "instagram": "None", "facebook": "None", "youtube": "None", "website": "None", "summary": "None", "logo": "None", "latitude": 47.66161950000001, "longitude": -69.008958}, "118989417RR0001": {"name": "LA CORPORATION DE LA COMMUNAUTE CATHOLIQUE MERE DES CHRETIENS", "designationCode": "C", "categoryCode": "38", "address": "1600 THIERRY", "city": "LASALLE", "province": "QC", "country": "CA", "postalCode": "H8N1H5", "twitter": "None", "instagram": "None", "facebook": "None", "youtube": "None", "website": "None", "summary": "None", "logo": "None", "latitude": 45.43598991476734, "longitude": -73.62367806010148}, "898224977RR0002": {"name": "LA CORPORATION DE LA COMMUNAUTE MARONITE CATHOLIQUE ROMAINE DU QUEBEC", "designationCode": "C", "categoryCode": "38", "address": "1625, MONTEE MASSON           R.R.#2", "city": "LAVAL", "province": "QC", "country": "CA", "postalCode": "H7E4P2", "twitter": "None", "instagram": "None", "facebook": "None", "youtube": "None", "website": "None", "summary": "None", "logo": "None", "latitude": 45.64572455147447, "longitude": -73.64311834312373}, "880159751RR0001": {"name": "LA CORPORATION DE LA COMMUNAUTE MARONITE DE MONTREAL", "designationCode": "C", "categoryCode": "38", "address": "12475 RUE GRENET", "city": "MONTREAL", "province": "QC", "country": "CA", "postalCode": "H4J2K4", "twitter": "None", "instagram": "None", "facebook": "None", "youtube": "None", "website": "None", "summary": "None", "logo": "None", "latitude": 45.53465803303704, "longitude": -73.72288791727748}, "132240110RR0001": {"name": "LA CORPORATION DE LA MAISON DE R\u00c9PIT-D\u00c9PANNAGE \"LA CHRYSALIDE\"", "designationCode": "C", "categoryCode": "01", "address": "35-5E AVENUE O", "city": "LA SARRE", "province": "QC", "country": "CA", "postalCode": "J9Z1K2", "twitter": "None", "instagram": "None", "facebook": "None", "youtube": "None", "website": "None", "summary": "None", "logo": "None", "latitude": 48.80529052510253, "longitude": -79.20743399999999}, "890609944RR0001": {"name": "LA CORPORATION DE LA MAISON DES JEUNES \"ACTION-JEUNESSE\" INC", "designationCode": "C", "categoryCode": "09", "address": "5585 RUE JEAN-PAUL-LAVERGNE", "city": "TROIS-RIVIERES", "province": "QC", "country": "CA", "postalCode": "G8Y3Y5", "twitter": "None", "instagram": "None", "facebook": "None", "youtube": "None", "website": "None", "summary": "None", "logo": "None", "latitude": 46.357001980004696, "longitude": -72.60660333002465}, "830344529RR0001": {"name": "LA CORPORATION DES AINES DE ST-ANTOINE-DE-TILLY", "designationCode": "C", "categoryCode": "09", "address": "957 RUE DE L'\u00c9GLISE", "city": "ST-ANTOINE-DE-TILLY", "province": "QC", "country": "CA", "postalCode": "G0S2C0", "twitter": "None", "instagram": "None", "facebook": "None", "youtube": "None", "website": "None", "summary": "None", "logo": "None", "latitude": 46.66205563780368, "longitude": -71.5719669837556}, "101157659RR0001": {"name": "LA CORPORATION DES CIMETIERES CATHOLIQUES DE CHICOUTIMI (1976)", "designationCode": "C", "categoryCode": "59", "address": "599, CHEMIN ST-THOMAS", "city": "CHICOUTIMI", "province": "QC", "country": "CA", "postalCode": "G7H2P9", "twitter": "None", "instagram": "None", "facebook": "None", "youtube": "None", "website": "None", "summary": "None", "logo": "None"}, "823516125RR0001": {"name": "LA CORPORATION DES HABITATIONS POUR AINES DE BREAKEYVILLE", "designationCode": "C", "categoryCode": "09", "address": "2270 RUE STE-H\u00c9L\u00c8NE CASIER 21", "city": "L\u00c9VIS", "province": "QC", "country": "CA", "postalCode": "G6Z7L6", "twitter": "None", "instagram": "None", "facebook": "None", "youtube": "None", "website": "None", "summary": "None", "logo": "None", "latitude": 46.679557855786584, "longitude": -71.21820902969472}, "118989508RR0001": {"name": "LA CORPORATION DES LOISIRS DE ST-ZEPHIRIN", "designationCode": "C", "categoryCode": "56", "address": "1232 RANG SAINT-PIERRE", "city": "SAINT-ZEPHIRIN-DE-COURVAL", "province": "QC", "country": "CA", "postalCode": "J0G1V0", "twitter": "None", "instagram": "None", "facebook": "None", "youtube": "None", "website": "None", "summary": "None", "logo": "None", "latitude": 46.05568172110308, "longitude": -72.6209565046344}, "141734285RR0001": {"name": "LA CORPORATION DES MONUMENTS PUBLICS DE RIMOUSKI INC", "designationCode": "C", "categoryCode": "52", "address": "205, AVENUE DE LA CATH\u00c9DRALE  CASE POSTALE 710,SUCC.BUR CHEF", "city": "RIMOUSKI", "province": "QC", "country": "CA", "postalCode": "G5L5J1", "twitter": "None", "instagram": "None", "facebook": "None", "youtube": "None", "website": "None", "summary": "None", "logo": "None", "latitude": 48.44932860225648, "longitude": -68.5247779883719}, "129941787RR0003": {"name": "LA CORPORATION DES P\u00c8RES MARISTES", "designationCode": "C", "categoryCode": "46", "address": "1520 AVE DU PARC-BEAUVOIR", "city": "SILLERY", "province": "QC", "country": "CA", "postalCode": "G1T2M4", "twitter": "None", "instagram": "None", "facebook": "None", "youtube": "None", "website": "None", "summary": "None", "logo": "None", "latitude": 46.769623742166274, "longitude": -71.26167258909915}, "862906633RR0001": {"name": "LA CORPORATION DES SENIORS SECTEUR NEW CARLISLE / SENIORS CORPORATION NEW CARLISLE SECTOR", "designationCode": "C", "categoryCode": "09", "address": "46 RUE NOTRE-DAME", "city": "NEW CARLISLE", "province": "QC", "country": "CA", "postalCode": "G0C1Z0", "twitter": "None", "instagram": "None", "facebook": "None", "youtube": "None", "website": "None", "summary": "None", "logo": "None", "latitude": 48.00989561945317, "longitude": -65.33886700124074}, "106975691RR0001": {"name": "LA CORPORATION DES SERVICES AUX HANDICAPES DU COMTE ROBERVAL INC.", "designationCode": "C", "categoryCode": "09", "address": "609 SCOTT                     CP 221", "city": "ROBERVAL", "province": "QC", "country": "CA", "postalCode": "G8H2N6", "twitter": "None", "instagram": "None", "facebook": "None", "youtube": "None", "website": "None", "summary": "None", "logo": "None", "latitude": 48.51155929447748, "longitude": -72.22313520679195}, "120766696RR0001": {"name": "LA CORPORATION DES TRANSPORTS ADAPTE ET COLLECTIF DE PAPINEAU INC.", "designationCode": "C", "categoryCode": "09", "address": "201- 188 RUE JEANNE-D'ARC", "city": "PAPINEAUVILLE", "province": "QC", "country": "CA", "postalCode": "J0V1R0", "twitter": "None", "instagram": "None", "facebook": "None", "youtube": "None", "website": "None", "summary": "None", "logo": "None", "latitude": 45.61918390674591, "longitude": -75.01849406685349}, "131164584RR0001": {"name": "LA CORPORATION DU CENTRE CULTUREL ET COMMUNAUTAIRE THERESE DE BLAINVILLE INC", "designationCode": "C", "categoryCode": "56", "address": "120 BOULEVARD DU SEMINAIRE", "city": "SAINTE-THERESE", "province": "QC", "country": "CA", "postalCode": "J7E1Z2", "twitter": "None", "instagram": "None", "facebook": "None", "youtube": "None", "website": "None", "summary": "None", "logo": "None", "latitude": 45.64433718119941, "longitude": -73.83923354518475}, "118876721RR0001": {"name": "LA CORPORATION DU CENTRE DES HAUTES ETUDES TALMUDIQUE DU MONT SION/CORPORATION OF MOUNT-ZION CENTRE FOR HIGHER EDUCATION", "designationCode": "C", "categoryCode": "49", "address": "6927 PARK AVE SUITE 200", "city": "MONTREAL", "province": "QC", "country": "CA", "postalCode": "H3N1X7", "twitter": "None", "instagram": "None", "facebook": "None", "youtube": "None", "website": "None", "summary": "None", "logo": "None", "latitude": 45.52943369499095, "longitude": -73.61848342241338}, "136490166RR0001": {"name": "LA CORPORATION DU CENTRE DU SABLON", "designationCode": "C", "categoryCode": "56", "address": "755 CH. DU SABLON", "city": "LAVAL", "province": "QC", "country": "CA", "postalCode": "H7W4H5", "twitter": "None", "instagram": "None", "facebook": "None", "youtube": "None", "website": "None", "summary": "None", "logo": "None", "latitude": 45.53192418590261, "longitude": -73.7689084306946}, "107491581RR0001": {"name": "LA CORPORATION DU CENTRE HOSPITALIER PIERRE JANET", "designationCode": "C", "categoryCode": "10", "address": "20 RUE PHARAND", "city": "GATINEAU", "province": "QC", "country": "CA", "postalCode": "J9A1K7", "twitter": "None", "instagram": "None", "facebook": "None", "youtube": "None", "website": "None", "summary": "None", "logo": "None", "latitude": 45.42468144892863, "longitude": -75.74027385180898}, "106980840RR0001": {"name": "LA CORPORATION DU COLLEGE DE L'ASSOMPTION", "designationCode": "C", "categoryCode": "20", "address": "270, BOUL. L'ANGE-GARDIEN", "city": "L'ASSOMPTION", "province": "QC", "country": "CA", "postalCode": "J5W1R7", "twitter": "None", "instagram": "None", "facebook": "None", "youtube": "None", "website": "None", "summary": "None", "logo": "None", "latitude": 45.829080916702104, "longitude": -73.42142456060286}, "106953409RR0001": {"name": "LA CORPORATION DU COLLEGE JEAN-DE-BREBEUF", "designationCode": "C", "categoryCode": "20", "address": "3200 CH COTE-SAINTE-CATHERINE", "city": "MONTREAL", "province": "QC", "country": "CA", "postalCode": "H3T1C1", "twitter": "None", "instagram": "None", "facebook": "None", "youtube": "None", "website": "None", "summary": "None", "logo": "None", "latitude": 45.50212326661807, "longitude": -73.62422173074884}, "140232919RR0001": {"name": "LA CORPORATION DU MOULIN BERNIER", "designationCode": "C", "categoryCode": "50", "address": "100 RUE DU MOULIN             CP 171", "city": "COURCELLES", "province": "QC", "country": "CA", "postalCode": "G0M1C0", "twitter": "None", "instagram": "None", "facebook": "None", "youtube": "None", "website": "None", "summary": "None", "logo": "None", "latitude": 45.87188791142045, "longitude": -70.98483637067909}, "889667077RR0001": {"name": "LA CORPORATION DU MUS\u00c9E DU SAGUENAY LAC ST-JEAN ET DU SITE DE LA PULPERIE", "designationCode": "C", "categoryCode": "50", "address": "300 RUE DUBUC", "city": "CHICOUTIMI", "province": "QC", "country": "CA", "postalCode": "G7J4M1", "twitter": "None", "instagram": "None", "facebook": "None", "youtube": "None", "website": "None", "summary": "None", "logo": "None", "latitude": 48.42373028080487, "longitude": -71.08035934240712}, "118989607RR0001": {"name": "LA CORPORATION DU MUSEE REGIONAL DE RIMOUSKI INC.", "designationCode": "C", "categoryCode": "22", "address": "35 RUE ST-GERMAIN OUEST", "city": "RIMOUSKI", "province": "QC", "country": "CA", "postalCode": "G5L4B4", "twitter": "None", "instagram": "None", "facebook": "None", "youtube": "None", "website": "None", "summary": "None", "logo": "None", "latitude": 48.45058350025483, "longitude": -68.52944712963783}, "118989615RR0001": {"name": "LA CORPORATION DU PATRIMOINE DE BERTHIER INC.", "designationCode": "C", "categoryCode": "52", "address": "461 RUE DE BIENVILLE", "city": "BERTHIERVILLE", "province": "QC", "country": "CA", "postalCode": "J0K1A0", "twitter": "None", "instagram": "None", "facebook": "None", "youtube": "None", "website": "None", "summary": "None", "logo": "None", "latitude": 46.09020085751236, "longitude": -73.17522377176216}, "134573757RR0001": {"name": "LA CORPORATION DU PATRIMOINE ET DU TOURISME RELIGIEUX DE QUEBEC", "designationCode": "C", "categoryCode": "49", "address": "20 RUE BUADE", "city": "QUEBEC", "province": "QC", "country": "CA", "postalCode": "G1R4A1", "twitter": "None", "instagram": "None", "facebook": "None", "youtube": "None", "website": "None", "summary": "None", "logo": "None", "latitude": 46.81358939107843, "longitude": -71.20603913183106}, "844952945RR0001": {"name": "LA CORPORATION DU PATRIMOINE ET DU TOURISME RELIGIEUX DES TROIS-PISTOLES", "designationCode": "C", "categoryCode": "50", "address": "30A RUE NOTRE-DAME O", "city": "TROIS-PISTOLES", "province": "QC", "country": "CA", "postalCode": "G0L4K0", "twitter": "None", "instagram": "None", "facebook": "None", "youtube": "None", "website": "None", "summary": "None", "logo": "None", "latitude": 48.12478166994629, "longitude": -69.17639775250922}, "107967036RR0001": {"name": "LA CORPORATION DU PETIT SEMINAIRE DE SAINT-GEORGES DE BEAUCE", "designationCode": "C", "categoryCode": "20", "address": "11575 14E AVENUE", "city": "VILLE ST GEORGES BEAUCE", "province": "QC", "country": "CA", "postalCode": "G5Y7Z7", "twitter": "None", "instagram": "None", "facebook": "None", "youtube": "None", "website": "None", "summary": "None", "logo": "None", "latitude": 46.12662600000006, "longitude": -70.66797649999994}, "132389172RR0001": {"name": "LA CORPORATION DU SEMINAIRE DE ST-HYACINTHE D'YAMASKA", "designationCode": "C", "categoryCode": "20", "address": "650 RUE GIROUARD EST", "city": "SAINT-HYACINTHE", "province": "QC", "country": "CA", "postalCode": "J2S2Y2", "twitter": "None", "instagram": "None", "facebook": "None", "youtube": "None", "website": "None", "summary": "None", "logo": "None", "latitude": 45.63261623495506, "longitude": -72.94180957057556}, "118989631RR0001": {"name": "LA CORPORATION DU VILLAGE MINIER DE BOURLAMAQUE", "designationCode": "C", "categoryCode": "50", "address": "90 AV PERREAULT CP 212", "city": "VAL-D'OR", "province": "QC", "country": "CA", "postalCode": "J9P4P3", "twitter": "None", "instagram": "None", "facebook": "None", "youtube": "None", "website": "None", "summary": "None", "logo": "None", "latitude": 48.09426976934628, "longitude": -77.7658444428127}, "118989748RR0001": {"name": "LA CORPORATION EPISCOPALE CATHOLIQUE ROMAINE DE GROUARD", "designationCode": "C", "categoryCode": "38", "address": "10301 102 ST", "city": "GRAND PRARIE", "province": "AB", "country": "CA", "postalCode": "T8V2W2", "twitter": "None", "instagram": "None", "facebook": "None", "youtube": "None", "website": "None", "summary": "None", "logo": "None", "latitude": 55.1737344970858, "longitude": -118.80125340836202}, "118989672RR0001": {"name": "LA CORPORATION EPISCOPALE CATHOLIQUE ROMAINE DE JOLIETTE", "designationCode": "C", "categoryCode": "49", "address": "2 RUE SAINT-CHARLES-BORROMEE N", "city": "JOLIETTE", "province": "QC", "country": "CA", "postalCode": "J6E4R2", "twitter": "None", "instagram": "None", "facebook": "None", "youtube": "None", "website": "None", "summary": "None", "logo": "None", "latitude": 46.02706174689812, "longitude": -73.43820616406099}, "107910267RR0001": {"name": "LA CORPORATION EPISCOPALE CATHOLIQUE ROMAINE DE LA BAIE D'HUDSON", "designationCode": "C", "categoryCode": "38", "address": "PO BOX 10", "city": "CHURCHILL", "province": "MB", "country": "CA", "postalCode": "R0B0E0", "twitter": "None", "instagram": "None", "facebook": "None", "youtube": "None", "website": "None", "summary": "None", "logo": "None", "latitude": 53.705411999999995, "longitude": -100.31297540286681}, "131275927RR0001": {"name": "LA CORPORATION EPISCOPALE CATHOLIQUE ROMAINE DE MONT-LAURIER", "designationCode": "C", "categoryCode": "49", "address": "435 DE LA MADONE", "city": "MONT-LAURIER CTE LABELLE", "province": "QC", "country": "CA", "postalCode": "J9L1S1", "twitter": "None", "instagram": "None", "facebook": "None", "youtube": "None", "website": "None", "summary": "None", "logo": "None", "latitude": 46.55167978270512, "longitude": -75.50047181170281}, "106981145RR0001": {"name": "LA CORPORATION EPISCOPALE CATHOLIQUE ROMAINE DE NICOLET", "designationCode": "C", "categoryCode": "38", "address": "49 MGR BRUNAULT", "city": "NICOLET", "province": "QC", "country": "CA", "postalCode": "J3T1X7", "twitter": "None", "instagram": "None", "facebook": "None", "youtube": "None", "website": "None", "summary": "None", "logo": "None", "latitude": 46.231826101044376, "longitude": -72.61666041935496}, "107585085RR0001": {"name": "LA CORPORATION EPISCOPALE CATHOLIQUE ROMAINE DE PRINCE ALBERT", "designationCode": "C", "categoryCode": "38", "address": "1415 4TH AVE W", "city": "PRINCE ALBERT", "province": "SK", "country": "CA", "postalCode": "S6V5H1", "twitter": "None", "instagram": "None", "facebook": "None", "youtube": "None", "website": "None", "summary": "None", "logo": "None", "latitude": 53.20023396622778, "longitude": -105.76517447481041}, "130920556RR0001": {"name": "LA CORPORATION EPISCOPALE CATHOLIQUE ROMAINE DE TROIS RIVIERES", "designationCode": "C", "categoryCode": "38", "address": "362 RUE BONAVENTURE           CP 879", "city": "TROIS-RIVIERES", "province": "QC", "country": "CA", "postalCode": "G9A2J9", "twitter": "None", "instagram": "None", "facebook": "None", "youtube": "None", "website": "None", "summary": "None", "logo": "None", "latitude": 46.34404310744968, "longitude": -72.54272521008151}, "130599442RR0007": {"name": "LA CORPORATION EPISCOPALE CATHOLIQUE ROMAINE DU DIOCESE DE TIMMINS /THE ROMAN CATHOLIC EPISCOPAL CORPORATION OF THE DIOCESE OF TIMMINS", "designationCode": "C", "categoryCode": "49", "address": "65 EST JUBILEE", "city": "TIMMINS", "province": "ON", "country": "CA", "postalCode": "P4N5W4", "twitter": "None", "instagram": "None", "facebook": "None", "youtube": "None", "website": "None", "summary": "None", "logo": "None", "latitude": 48.48682927382802, "longitude": -81.33397261573177}, "868705369RR0001": {"name": "LA CORPORATION EVEIL DU SAGUENAY", "designationCode": "C", "categoryCode": "09", "address": "602 RACINE EST", "city": "CHICOUTIMI", "province": "QC", "country": "CA", "postalCode": "G7H1V1", "twitter": "None", "instagram": "None", "facebook": "None", "youtube": "None", "website": "None", "summary": "None", "logo": "None", "latitude": 48.42955548009162, "longitude": -71.04963086081135}, "119015642RR0001": {"name": "LA CORPORATION JEAN-BRILLANT", "designationCode": "C", "categoryCode": "46", "address": "3800 JEAN-BRILLANT", "city": "MONTREAL", "province": "QC", "country": "CA", "postalCode": "H3T1P1", "twitter": "None", "instagram": "None", "facebook": "None", "youtube": "None", "website": "None", "summary": "None", "logo": "None", "latitude": 45.49525553121937, "longitude": -73.62241695155528}, "864314935RR0001": {"name": "LA CORPORATION LE HAVRE DE SAINT-JEAN-CHRYSOSTOME", "designationCode": "C", "categoryCode": "09", "address": "1016, RUE ALPHONSE-FERLAND    PORTE 17", "city": "LEVIS", "province": "QC", "country": "CA", "postalCode": "G6Z3H6", "twitter": "None", "instagram": "None", "facebook": "None", "youtube": "None", "website": "None", "summary": "None", "logo": "None", "latitude": 46.71884525226517, "longitude": -71.19490686476381}, "101161776RR0001": {"name": "LA CORPORATION LOISIRS & SPORTS STE-CLAIRE INC.", "designationCode": "C", "categoryCode": "56", "address": "160, RUE DE L'EGLISE", "city": "SAINTE-CLAIRE", "province": "QC", "country": "CA", "postalCode": "G0R2V0", "twitter": "None", "instagram": "None", "facebook": "None", "youtube": "None", "website": "None", "summary": "None", "logo": "None", "latitude": 46.606727044116894, "longitude": -70.8588809454967}, "106994627RR0001": {"name": "LA CORPORATION REGIONALE DU SERVICE DE PREPARATION AU MARIAGE DE L'ESTRIE INC.", "designationCode": "C", "categoryCode": "59", "address": "78 OZIAS-LEDUC", "city": "SHERBROOKE", "province": "QC", "country": "CA", "postalCode": "J1H1M7", "twitter": "None", "instagram": "None", "facebook": "None", "youtube": "None", "website": "None", "summary": "None", "logo": "None", "latitude": 45.402157361648065, "longitude": -71.89192065693359}, "882261365RR0001": {"name": "LA COURTEPOINTE", "designationCode": "C", "categoryCode": "09", "address": "3180 AVE D'AMOURS", "city": "STE-FOY", "province": "QC", "country": "CA", "postalCode": "G1X1L9", "twitter": "None", "instagram": "None", "facebook": "None", "youtube": "None", "website": "None", "summary": "None", "logo": "None", "latitude": 46.775442968116806, "longitude": -71.31813876885532}, "107585887RR0001": {"name": "LA CRETE AGRICULTURAL SOCIETY", "designationCode": "C", "categoryCode": "56", "address": "PO BOX 791", "city": "LA CRETE", "province": "AB", "country": "CA", "postalCode": "T0H2H0", "twitter": "None", "instagram": "None", "facebook": "None", "youtube": "None", "website": "None", "summary": "None", "logo": "None", "latitude": 58.18348000000003, "longitude": -116.40267999999998}, "851560979RR0001": {"name": "LA CRETE BIBLE SCHOOL SOCIETY", "designationCode": "C", "categoryCode": "20", "address": "PO BOX 2208", "city": "LA CRETE", "province": "AB", "country": "CA", "postalCode": "T0H2H0", "twitter": "None", "instagram": "None", "facebook": "None", "youtube": "None", "website": "None", "summary": "None", "logo": "None", "latitude": 58.18348000000003, "longitude": -116.40267999999998}, "129912770RR0001": {"name": "LA CRETE CHRISTIAN FELLOWSHIP", "designationCode": "C", "categoryCode": "49", "address": "BOX 385", "city": "LACRETE", "province": "AB", "country": "CA", "postalCode": "T0H2H0", "twitter": "None", "instagram": "None", "facebook": "None", "youtube": "None", "website": "None", "summary": "None", "logo": "None", "latitude": 58.19540100000006, "longitude": -116.40586399999994}, "132644089RR0001": {"name": "LA CRETE COMMUNITY LIBRARY", "designationCode": "C", "categoryCode": "50", "address": "10102-100 AVE", "city": "LA CRETE", "province": "AB", "country": "CA", "postalCode": "T0H2H0", "twitter": "None", "instagram": "None", "facebook": "None", "youtube": "None", "website": "None", "summary": "None", "logo": "None", "latitude": 58.18713245325739, "longitude": -116.40768299999999}, "860709633RR0001": {"name": "LA CRETE LONG TERM CARE AUXILIARY SOCIETY", "designationCode": "A", "categoryCode": "13", "address": "POST OFFICE BOX 1813", "city": "LA CRETE", "province": "AB", "country": "CA", "postalCode": "T0H2H0", "twitter": "None", "instagram": "None", "facebook": "None", "youtube": "None", "website": "None", "summary": "None", "logo": "None", "latitude": 58.18348000000003, "longitude": -116.40267999999998}, "899748917RR0001": {"name": "LA CRETE MEALS FOR SENIORS SOCIETY", "designationCode": "C", "categoryCode": "09", "address": "PO BOX 1775", "city": "LA CRETE", "province": "AB", "country": "CA", "postalCode": "T0H2H0", "twitter": "None", "instagram": "None", "facebook": "None", "youtube": "None", "website": "None", "summary": "None", "logo": "None", "latitude": 58.18348000000003, "longitude": -116.40267999999998}, "134302686RR0001": {"name": "LA CRETE MUNICIPAL NURSING ASSOCIATION", "designationCode": "C", "categoryCode": "01", "address": "BOX 544", "city": "LA CRETE", "province": "AB", "country": "CA", "postalCode": "T0H2H0", "twitter": "None", "instagram": "None", "facebook": "None", "youtube": "None", "website": "None", "summary": "None", "logo": "None", "latitude": 58.18348000000003, "longitude": -116.40267999999998}, "107307696RR0001": {"name": "LA CROISEE DE LONGUEUIL INC.", "designationCode": "C", "categoryCode": "09", "address": "1230 RUE GREEN", "city": "LONGUEUIL", "province": "QC", "country": "CA", "postalCode": "J4K4Z5", "twitter": "None", "instagram": "None", "facebook": "None", "youtube": "None", "website": "None", "summary": "None", "logo": "None", "latitude": 45.51627692255762, "longitude": -73.50050120840807}, "118879964RR0001": {"name": "LA CROISEE DES CHEMINS", "designationCode": "C", "categoryCode": "57", "address": "18480 BOULEVARD LACROIX", "city": "ST-GEORGES BEAUCE", "province": "QC", "country": "CA", "postalCode": "G5Y5B8", "twitter": "None", "instagram": "None", "facebook": "None", "youtube": "None", "website": "None", "summary": "None", "logo": "None", "latitude": 46.09409010825653, "longitude": -70.63185904828386}, "140156472RR0001": {"name": "LA CROISEE DES SENTIERS", "designationCode": "C", "categoryCode": "09", "address": "241 BOUL MORIN", "city": "ASBESTOS", "province": "QC", "country": "CA", "postalCode": "J1T3B3", "twitter": "None", "instagram": "None", "facebook": "None", "youtube": "None", "website": "None", "summary": "None", "logo": "None", "latitude": 45.77102157536493, "longitude": -71.93446281031781}, "102927894RR0001": {"name": "LA CROISEE S.I.T. INC.", "designationCode": "C", "categoryCode": "59", "address": "105 - 5000 BOUL DES GRADINS", "city": "QUEBEC", "province": "QC", "country": "CA", "postalCode": "G2J1N3", "twitter": "None", "instagram": "None", "facebook": "None", "youtube": "None", "website": "None", "summary": "None", "logo": "None", "latitude": 46.83648102002395, "longitude": -71.27148947048366}, "141444190RR0001": {"name": "LA CROISEE-REGROUPEMENT DE PARENTS, AMIS ET AMIES DE LA PERSONNE ATTEINTE DE MALADIE MENTALE-REGION AMIANTE", "designationCode": "C", "categoryCode": "09", "address": "1197, RUE NOTRE-DAME EST      BUREAU 700", "city": "THETFORD-MINES", "province": "QC", "country": "CA", "postalCode": "G6G2V2", "twitter": "None", "instagram": "None", "facebook": "None", "youtube": "None", "website": "None", "summary": "None", "logo": "None", "latitude": 46.10476196228842, "longitude": -71.28188942942425}, "107692709RR0001": {"name": "LA CROISEE, UN ORGANISME DE JUSTICE ALTERNATIVE", "designationCode": "C", "categoryCode": "59", "address": "652, AVENUE DE QUEN           2E ETAGE", "city": "SEPT-ILES", "province": "QC", "country": "CA", "postalCode": "G4R2R5", "twitter": "None", "instagram": "None", "facebook": "None", "youtube": "None", "website": "None", "summary": "None", "logo": "None", "latitude": 50.212348270067416, "longitude": -66.38952449858635}, "118989839RR0001": {"name": "LA CROIX D'OR-THE GOLD CROSS", "designationCode": "C", "categoryCode": "21", "address": "130 AVENUE DE L'EPEE", "city": "OUTREMONT", "province": "QC", "country": "CA", "postalCode": "H2V3T2", "twitter": "None", "instagram": "None", "facebook": "None", "youtube": "None", "website": "None", "summary": "None", "logo": "None", "latitude": 45.5174456658204, "longitude": -73.59933130503771}, "891139545RR0001": {"name": "LA CROIX DE SECOURS ARMENIENNE DE LAVAL INC / THE ARMENIAN RELIEF SOCIETY OF LAVAL INC", "designationCode": "C", "categoryCode": "21", "address": "397 BOULEVARD DES PRAIRIES", "city": "LAVAL-DES-RAPIDES", "province": "QC", "country": "CA", "postalCode": "H7N2W6", "twitter": "None", "instagram": "None", "facebook": "None", "youtube": "None", "website": "None", "summary": "None", "logo": "None", "latitude": 45.545539135754865, "longitude": -73.7095698612727}, "893656454RR0001": {"name": "LA CUISINE AMITIE DE LA MRC D'ASBESTOS", "designationCode": "C", "categoryCode": "09", "address": "412, BOUL SIMONEAU", "city": "ASBESTOS", "province": "QC", "country": "CA", "postalCode": "J1T3H7", "twitter": "None", "instagram": "None", "facebook": "None", "youtube": "None", "website": "None", "summary": "None", "logo": "None", "latitude": 45.77376152677598, "longitude": -71.92732339826314}, "866297419RR0001": {"name": "LA CUISINE COLLECTIVE CROC-ENSEMBLE DES BASQUES", "designationCode": "C", "categoryCode": "09", "address": "15 RUE NOTRE-DAME E", "city": "TROIS-PISTOLES", "province": "QC", "country": "CA", "postalCode": "G0L4K0", "twitter": "None", "instagram": "None", "facebook": "None", "youtube": "None", "website": "None", "summary": "None", "logo": "None", "latitude": 48.12569411157596, "longitude": -69.17449370053087}, "140843855RR0001": {"name": "LA CUISINE COLLECTIVE DE LA R\u00c9GION DE MATANE", "designationCode": "C", "categoryCode": "09", "address": "221 RUE DE LA FABRIQUE        C.P. 671", "city": "MATANE", "province": "QC", "country": "CA", "postalCode": "G4W3P6", "twitter": "None", "instagram": "None", "facebook": "None", "youtube": "None", "website": "None", "summary": "None", "logo": "None", "latitude": 48.847802819262874, "longitude": -67.53575556699772}, "118989862RR0001": {"name": "LA DAUPHINELLE", "designationCode": "C", "categoryCode": "09", "address": "C.P. 55512                    CENTRE DE MAISONNEUVE", "city": "MONTR\u00c9AL", "province": "QC", "country": "CA", "postalCode": "H1W0A1", "twitter": "None", "instagram": "None", "facebook": "None", "youtube": "None", "website": "None", "summary": "None", "logo": "None", "latitude": 45.51239400000006, "longitude": -73.55469049999994}, "107585978RR0001": {"name": "LA DEBROUILLE INC.", "designationCode": "C", "categoryCode": "09", "address": "CASE POSTALE 1477", "city": "RIMOUSKI", "province": "QC", "country": "CA", "postalCode": "G5L8M3", "twitter": "None", "instagram": "None", "facebook": "None", "youtube": "None", "website": "None", "summary": "None", "logo": "None", "latitude": 48.44933700000006, "longitude": -68.52474349999993}, "892383969RR0001": {"name": "LA DEMELEE", "designationCode": "C", "categoryCode": "09", "address": "C.P. 7501 SUCC. TOURELLE", "city": "SAINTE-ANNE-DES-MONTS", "province": "QC", "country": "CA", "postalCode": "G4V3N2", "twitter": "None", "instagram": "None", "facebook": "None", "youtube": "None", "website": "None", "summary": "None", "logo": "None", "latitude": 49.12917900000005, "longitude": -66.48636049999993}, "130355415RR0001": {"name": "LA DESSERTE DE CARILLON", "designationCode": "C", "categoryCode": "38", "address": "8 RTE DU LONG-SAULT", "city": "ST-ANDR\u00c9-D'ARGENTEUIL", "province": "QC", "country": "CA", "postalCode": "J0V1X0", "twitter": "None", "instagram": "None", "facebook": "None", "youtube": "None", "website": "None", "summary": "None", "logo": "None", "latitude": 45.56605064360338, "longitude": -74.37413111965469}, "118989979RR0001": {"name": "LA DESSERTE ST-BERNARD", "designationCode": "C", "categoryCode": "38", "address": "DIOC\u00c8SE DE SAINT-J\u00c9R\u00d4ME       355, PLACE DU CUR\u00c9-LABELLE", "city": "SAINT-J\u00c9R\u00d4ME", "province": "QC", "country": "CA", "postalCode": "J7Z5A9", "twitter": "None", "instagram": "None", "facebook": "None", "youtube": "None", "website": "None", "summary": "None", "logo": "None", "latitude": 45.77841057112399, "longitude": -74.00216483501633}, "132734898RR0001": {"name": "LA DEUXIEME EGLISE DU CHRIST DU DISTRICT DE MONTREAL INC.", "designationCode": "C", "categoryCode": "39", "address": "2500 AV CHARLAND", "city": "MONTREAL", "province": "QC", "country": "CA", "postalCode": "H1Z1C5", "twitter": "None", "instagram": "None", "facebook": "None", "youtube": "None", "website": "None", "summary": "None", "logo": "None", "latitude": 45.571965622251774, "longitude": -73.63855830555731}, "119106912RR0001": {"name": "LA F\u00c9D\u00c9RATION DES AVEUGLES DU QU\u00c9BEC INC. QUEBEC FEDERATION OF THE BLIND INC.", "designationCode": "C", "categoryCode": "01", "address": "7000 SHERBROOKE ST W", "city": "MONTREAL", "province": "QC", "country": "CA", "postalCode": "H4B1R3", "twitter": "None", "instagram": "None", "facebook": "None", "youtube": "None", "website": "None", "summary": "None", "logo": "None", "latitude": 45.45961074422747, "longitude": -73.63654321021599}, "119106904RR0001": {"name": "LA F\u00c9D\u00c9RATION QU\u00c9B\u00c9COISE DES ASSOCIATIONS FOYERS-\u00c9COLES/QU\u00c9BEC FEDERATION OF HOME AND SCHOOL ASSOCIATIONS", "designationCode": "C", "categoryCode": "21", "address": "3285 CAVENDISH BOULEVARD      SUITE 560", "city": "MONTREAL", "province": "QC", "country": "CA", "postalCode": "H4B2L9", "twitter": "None", "instagram": "None", "facebook": "None", "youtube": "None", "website": "None", "summary": "None", "logo": "None", "latitude": 45.46306528368609, "longitude": -73.62741051232058}, "129795944RR0001": {"name": "LA Fabrique de la paroisse de Notre-Dame-de-la-Rouge", "designationCode": "C", "categoryCode": "38", "address": "125, RUE L'ANNONCIATION SUD", "city": "RIVI\u00c8RE-ROUGE", "province": "QC", "country": "CA", "postalCode": "J0T1T0", "twitter": "None", "instagram": "None", "facebook": "None", "youtube": "None", "website": "None", "summary": "None", "logo": "None", "latitude": 46.40873935524279, "longitude": -74.8694228652834}, "118996545RR0001": {"name": "LA Fabrique de la paroisse de Notre-Dame-de-L'Acadie", "designationCode": "C", "categoryCode": "38", "address": "102 RUE ST-JACQUES", "city": "ST JACQUES CTE MONTCALM", "province": "QC", "country": "CA", "postalCode": "J0K2R0", "twitter": "None", "instagram": "None", "facebook": "None", "youtube": "None", "website": "None", "summary": "None", "logo": "None", "latitude": 45.94878979326537, "longitude": -73.57153287754669}, "107369795RR0001": {"name": "LA FABARIQUE DE ST-ONESIME", "designationCode": "C", "categoryCode": "38", "address": "20 RUE DE L'\u00c9GLISE", "city": "SAINT-ON\u00c9SIME", "province": "QC", "country": "CA", "postalCode": "G0R3W0", "twitter": "None", "instagram": "None", "facebook": "None", "youtube": "None", "website": "None", "summary": "None", "logo": "None", "latitude": 47.32568381017056, "longitude": -69.98070006830731}, "107358020RR0001": {"name": "LA FABRIQUE DE BAIE DES SABLES", "designationCode": "C", "categoryCode": "38", "address": "90, AV. DE LA MER             C.P. 8", "city": "BAIE-DES-SABLES", "province": "QC", "country": "CA", "postalCode": "G0J1C0", "twitter": "None", "instagram": "None", "facebook": "None", "youtube": "None", "website": "None", "summary": "None", "logo": "None", "latitude": 48.72111489757064, "longitude": -67.89724304965681}, "130525843RR0001": {"name": "LA FABRIQUE DE LA DE PAROISSE SAINTE-ROSE-DE-LIMA", "designationCode": "C", "categoryCode": "38", "address": "861 BOUL SAINT-RENE EST", "city": "GATINEAU", "province": "QC", "country": "CA", "postalCode": "J8P1V1", "twitter": "None", "instagram": "None", "facebook": "None", "youtube": "None", "website": "None", "summary": "None", "logo": "None", "latitude": 45.49825245109301, "longitude": -75.60778478963003}, "118905116RR0001": {"name": "LA FABRIQUE DE LA DESSERTE DE NOTRE-DAME-DE-LA-GARDE", "designationCode": "C", "categoryCode": "38", "address": "19 CHEMIN DE LA CHAPELLE", "city": "ST DONAT", "province": "QC", "country": "CA", "postalCode": "J0T2C0", "twitter": "None", "instagram": "None", "facebook": "None", "youtube": "None", "website": "None", "summary": "None", "logo": "None", "latitude": 46.35190767773695, "longitude": -74.10345738372084}, "133682682RR0001": {"name": "LA FABRIQUE DE LA DESSERTE DE SAINT-LEOPOLD", "designationCode": "C", "categoryCode": "38", "address": "331 RUE SAINT-JACQUES", "city": "SAINTE-THECLE", "province": "QC", "country": "CA", "postalCode": "G0X3G0", "twitter": "None", "instagram": "None", "facebook": "None", "youtube": "None", "website": "None", "summary": "None", "logo": "None", "latitude": 46.81546295402095, "longitude": -72.50564949482514}, "118905074RR0001": {"name": "LA FABRIQUE DE LA DESSERTE DE SAINT-MARC DE LATOUR", "designationCode": "C", "categoryCode": "38", "address": "CP 4037", "city": "FORESTVILLE", "province": "QC", "country": "CA", "postalCode": "G0T1E0", "twitter": "None", "instagram": "None", "facebook": "None", "youtube": "None", "website": "None", "summary": "None", "logo": "None", "latitude": 48.74620200000005, "longitude": -69.06983299999993}, "118990548RR0001": {"name": "LA FABRIQUE DE LA DESSERTE IMMACULEE-CONCEPTION", "designationCode": "C", "categoryCode": "38", "address": "1657 ROUTE 199", "city": "POINTE-AUX-LOUPS", "province": "QC", "country": "CA", "postalCode": "G4T8A4", "twitter": "None", "instagram": "None", "facebook": "None", "youtube": "None", "website": "None", "summary": "None", "logo": "None", "latitude": 47.528117222206745, "longitude": -61.70834933395166}, "889362570RR0001": {"name": "LA FABRIQUE DE LA DESSERTE OUR LADY OF SORROWS DE VENOSTA", "designationCode": "C", "categoryCode": "38", "address": "925 RTE 105", "city": "VENOSTA", "province": "QC", "country": "CA", "postalCode": "J0X3E0", "twitter": "None", "instagram": "None", "facebook": "None", "youtube": "None", "website": "None", "summary": "None", "logo": "None", "latitude": 45.876048997991475, "longitude": -76.0258634007867}, "873509624RR0001": {"name": "LA FABRIQUE DE LA MISSION DE SAINT-COLUMBAN / SAINT COLUMBAN MISSION", "designationCode": "C", "categoryCode": "39", "address": "300, RUE L'ABB\u00c9 MURRAY", "city": "GATINEAU", "province": "QC", "country": "CA", "postalCode": "J8P4Z4", "twitter": "None", "instagram": "None", "facebook": "None", "youtube": "None", "website": "None", "summary": "None", "logo": "None", "latitude": 45.48805435720467, "longitude": -75.64659301869723}, "118910041RR0001": {"name": "LA FABRIQUE DE LA PAROISE DE SAINT-SYLVESTRE", "designationCode": "C", "categoryCode": "38", "address": "423 B PRINICIPALE CP 40", "city": "SAINT-SYLVESTRE", "province": "QC", "country": "CA", "postalCode": "G0S3C0", "twitter": "None", "instagram": "None", "facebook": "None", "youtube": "None", "website": "None", "summary": "None", "logo": "None", "latitude": 46.36533258725282, "longitude": -71.22353828374433}}