{"892976671RR0001": {"name": "HILLSVALE CHARITABLE TRUST", "designationCode": "B", "categoryCode": "39", "address": "3425 2 AVENUE SOUTH", "city": "LETHBRIDGE", "province": "AB", "country": "CA", "postalCode": "T1J4V1", "twitter": "None", "instagram": "None", "facebook": "None", "youtube": "None", "website": "None", "summary": "None", "logo": "None", "latitude": 49.696839530439966, "longitude": -112.78914308381903}, "107483109RR0001": {"name": "HILLTOP BAPTIST CHURCH", "designationCode": "C", "categoryCode": "31", "address": "BOX 574", "city": "ERICKSON", "province": "MB", "country": "CA", "postalCode": "R0J0P0", "twitter": "None", "instagram": "None", "facebook": "None", "youtube": "None", "website": "None", "summary": "None", "logo": "None", "latitude": 50.49852000000004, "longitude": -99.90785999999997}, "118958164RR0001": {"name": "HILLTOP CHAPEL (INC.)", "designationCode": "C", "categoryCode": "39", "address": "241 LA ROSE AVE", "city": "ETOBICOKE", "province": "ON", "country": "CA", "postalCode": "M9P1G6", "twitter": "None", "instagram": "None", "facebook": "None", "youtube": "None", "website": "None", "summary": "None", "logo": "None", "latitude": 43.68336563003815, "longitude": -79.53055033802859}, "867946196RR0001": {"name": "HILLTOP CONGREGATE MEALS PROGRAM INC.", "designationCode": "C", "categoryCode": "09", "address": "BOX 144", "city": "STONY MOUNTAIN", "province": "MB", "country": "CA", "postalCode": "R0C3A0", "twitter": "None", "instagram": "None", "facebook": "None", "youtube": "None", "website": "None", "summary": "None", "logo": "None", "latitude": 50.085920000000044, "longitude": -97.21850999999998}, "118958172RR0001": {"name": "HILLTOP GOSPEL CHAPEL", "designationCode": "C", "categoryCode": "39", "address": "3017 164 ST", "city": "SURREY", "province": "BC", "country": "CA", "postalCode": "V3Z9X4", "twitter": "None", "instagram": "None", "facebook": "None", "youtube": "None", "website": "None", "summary": "None", "logo": "None", "latitude": 49.056749999999994, "longitude": -122.76812544284137}, "887832269RR0001": {"name": "HILLTOP HOUSE SUPPORT SOCIETY", "designationCode": "C", "categoryCode": "09", "address": "38146 BEHRNER DR.", "city": "SQUAMISH", "province": "BC", "country": "CA", "postalCode": "V8B0C8", "twitter": "None", "instagram": "None", "facebook": "None", "youtube": "None", "website": "None", "summary": "None", "logo": "None", "latitude": 49.69809691135015, "longitude": -123.14187842656531}, "107483190RR0001": {"name": "HILLTOP TABERNACLE", "designationCode": "C", "categoryCode": "36", "address": "RR 3", "city": "GRIFFITH", "province": "ON", "country": "CA", "postalCode": "K0J2R0", "twitter": "None", "instagram": "None", "facebook": "None", "youtube": "None", "website": "None", "summary": "None", "logo": "None", "latitude": 45.244530000000054, "longitude": -77.16464999999994}, "107483208RR0001": {"name": "HILLVIEW BAPTIST CHURCH", "designationCode": "C", "categoryCode": "31", "address": "253 WOODVALE ROAD WEST", "city": "EDMONTON", "province": "AB", "country": "CA", "postalCode": "T6L1E5", "twitter": "None", "instagram": "None", "facebook": "None", "youtube": "None", "website": "None", "summary": "None", "logo": "None", "latitude": 53.46853354980396, "longitude": -113.43302449544026}, "107483216RR0001": {"name": "HILLVIEW CONSERVATIVE MENNONITE CHURCH", "designationCode": "C", "categoryCode": "34", "address": "RR 4", "city": "BANCROFT", "province": "ON", "country": "CA", "postalCode": "K0L1C0", "twitter": "None", "instagram": "None", "facebook": "None", "youtube": "None", "website": "None", "summary": "None", "logo": "None", "latitude": 44.40232377275159, "longitude": -78.1827114745639}, "107483257RR0001": {"name": "HILLVIEW PARENT PARTICIPATION PRESCHOOL", "designationCode": "C", "categoryCode": "20", "address": "8-4340 CARSON ST", "city": "BURNABY", "province": "BC", "country": "CA", "postalCode": "V5J2X9", "twitter": "None", "instagram": "None", "facebook": "None", "youtube": "None", "website": "None", "summary": "None", "logo": "None", "latitude": 49.21002986014976, "longitude": -123.00700524923141}, "884376021RR0001": {"name": "HILLVIEW PASTORAL CHARGE", "designationCode": "C", "categoryCode": "44", "address": "PO BOX 116", "city": "HILLVIEW", "province": "NL", "country": "CA", "postalCode": "A0E2A0", "twitter": "None", "instagram": "None", "facebook": "None", "youtube": "None", "website": "None", "summary": "None", "logo": "None", "latitude": 48.039711000000054, "longitude": -53.928264499999926}, "118958222RR0001": {"name": "HILLVIEW PIONEER MEMORIAL UNITED CHURCH", "designationCode": "C", "categoryCode": "44", "address": "884402 HWY 65 W", "city": "NEW LISKEARD", "province": "ON", "country": "CA", "postalCode": "P0J1P0", "twitter": "None", "instagram": "None", "facebook": "None", "youtube": "None", "website": "None", "summary": "None", "logo": "None", "latitude": 47.536973294728114, "longitude": -79.72922541480705}, "118958255RR0001": {"name": "HILLVIEW UNITED CEMETERY", "designationCode": "C", "categoryCode": "59", "address": "825 SPRINGBANK AVE N", "city": "WOODSTOCK", "province": "ON", "country": "CA", "postalCode": "N4T1T5", "twitter": "None", "instagram": "None", "facebook": "None", "youtube": "None", "website": "None", "summary": "None", "logo": "None", "latitude": 43.15601388439155, "longitude": -80.7273849584269}, "827829631RR0001": {"name": "HIM Church", "designationCode": "C", "categoryCode": "39", "address": "23 LEILA JACKSON TERR", "city": "NORTH YORK", "province": "ON", "country": "CA", "postalCode": "M3L0B2", "twitter": "None", "instagram": "None", "facebook": "None", "youtube": "None", "website": "None", "summary": "None", "logo": "None", "latitude": 43.728866067170614, "longitude": -79.5214973100007}, "865320212RR0001": {"name": "HIMALAYA FOUNDATION", "designationCode": "B", "categoryCode": "01", "address": "34-7695 ST.ALBANS RD", "city": "RICHMOND", "province": "BC", "country": "CA", "postalCode": "V6Y3W8", "twitter": "None", "instagram": "None", "facebook": "None", "youtube": "None", "website": "None", "summary": "None", "logo": "None", "latitude": 49.15693998770809, "longitude": -123.13095081264181}, "119288918RR1396": {"name": "HINDI CONGREGATION OF JEHOVAH'S WITNESSES, TORONTO, ONTARIO", "designationCode": "C", "categoryCode": "61", "address": "1985 NORTH PARK DR", "city": "BRAMPTON", "province": "ON", "country": "CA", "postalCode": "L6S4G2", "twitter": "None", "instagram": "None", "facebook": "None", "youtube": "None", "website": "None", "summary": "None", "logo": "None", "latitude": 43.74423230584577, "longitude": -79.73238545764346}, "866720568RR0001": {"name": "HINDI PUNJABI FRASERVIEW GOSPEL CHAPE", "designationCode": "C", "categoryCode": "39", "address": "2095 EAST 40TH AVE", "city": "VANCOUVER", "province": "BC", "country": "CA", "postalCode": "V5P1J4", "twitter": "None", "instagram": "None", "facebook": "None", "youtube": "None", "website": "None", "summary": "None", "logo": "None", "latitude": 49.23395346047074, "longitude": -123.06386199708581}, "118958297RR0001": {"name": "HINDU CULTURAL CENTRE", "designationCode": "C", "categoryCode": "48", "address": "62 CHARTERHOUSE CRESC", "city": "LONDON", "province": "ON", "country": "CA", "postalCode": "N5W5V5", "twitter": "None", "instagram": "None", "facebook": "None", "youtube": "None", "website": "None", "summary": "None", "logo": "None", "latitude": 42.988819724681136, "longitude": -81.17116825012944}, "108184987RR0001": {"name": "HINDU CULTURAL SOCIETY AND COMMUNITY CENTRE OF B.C.", "designationCode": "C", "categoryCode": "62", "address": "3885 ALBERT ST", "city": "BURNABY", "province": "BC", "country": "CA", "postalCode": "V5C2C8", "twitter": "None", "instagram": "None", "facebook": "None", "youtube": "None", "website": "None", "summary": "None", "logo": "None", "latitude": 49.28203446768411, "longitude": -123.01927183236194}, "123605883RR0001": {"name": "HINDU CULTURAL SOCIETY SCARBOROUGH ONTARIO", "designationCode": "C", "categoryCode": "48", "address": "1 MORNINGVIEW TRAIL", "city": "SCARBOROUGH", "province": "ON", "country": "CA", "postalCode": "M1B5A8", "twitter": "None", "instagram": "None", "facebook": "None", "youtube": "None", "website": "None", "summary": "None", "logo": "None", "latitude": 43.81390091866247, "longitude": -79.20544395822039}, "870894961RR0001": {"name": "HINDU DHARMASRAM", "designationCode": "C", "categoryCode": "48", "address": "1510 BIRCHMOUNT ROAD          UNIT 100-101", "city": "TORONTO", "province": "ON", "country": "CA", "postalCode": "M1P2G6", "twitter": "None", "instagram": "None", "facebook": "None", "youtube": "None", "website": "None", "summary": "None", "logo": "None", "latitude": 43.758444365774345, "longitude": -79.28933457980739}, "890078462RR0001": {"name": "HINDU INSTITUTE OF LEARNING", "designationCode": "C", "categoryCode": "20", "address": "2411 A DUNDAS ST. WEST", "city": "TORONTO", "province": "ON", "country": "CA", "postalCode": "M6P1X3", "twitter": "None", "instagram": "None", "facebook": "None", "youtube": "None", "website": "None", "summary": "None", "logo": "None", "latitude": 43.658371079375634, "longitude": -79.45303570595522}, "836920470RR0001": {"name": "HINDU JYOTI SATSANG OF MONTREAL", "designationCode": "C", "categoryCode": "48", "address": "7037 L'ACADIE BLVD.", "city": "MONTREAL", "province": "QC", "country": "CA", "postalCode": "H3N2V5", "twitter": "None", "instagram": "None", "facebook": "None", "youtube": "None", "website": "None", "summary": "None", "logo": "None", "latitude": 45.524080004731864, "longitude": -73.62531253621104}, "890324643RR0001": {"name": "HINDU MANDIR WINDSOR", "designationCode": "C", "categoryCode": "48", "address": "7007 ENTERPRISE WAY", "city": "WINDSOR", "province": "ON", "country": "CA", "postalCode": "N8T3N6", "twitter": "None", "instagram": "None", "facebook": "None", "youtube": "None", "website": "None", "summary": "None", "logo": "None", "latitude": 42.3085051887299, "longitude": -82.93933960413145}, "886232198RR0001": {"name": "HINDU MISSION OF MISSISSAUGA", "designationCode": "C", "categoryCode": "48", "address": "1808 DREW ROAD", "city": "MISSISSAUGA", "province": "ON", "country": "CA", "postalCode": "L5S1J6", "twitter": "None", "instagram": "None", "facebook": "None", "youtube": "None", "website": "None", "summary": "None", "logo": "None", "latitude": 43.68649243516666, "longitude": -79.6738423341223}, "890056682RR0001": {"name": "HINDU PRARTHANA SAMAJ", "designationCode": "C", "categoryCode": "48", "address": "62 FERN AVE", "city": "TORONTO", "province": "ON", "country": "CA", "postalCode": "M6R1K1", "twitter": "None", "instagram": "None", "facebook": "None", "youtube": "None", "website": "None", "summary": "None", "logo": "None", "latitude": 43.645726172369926, "longitude": -79.44268723633789}, "869799502RR0001": {"name": "HINDU PRARTHANA SAMAJ OF THOMPSON", "designationCode": "C", "categoryCode": "48", "address": "BOX 611", "city": "THOMPSON", "province": "MB", "country": "CA", "postalCode": "R8N1N4", "twitter": "None", "instagram": "None", "facebook": "None", "youtube": "None", "website": "None", "summary": "None", "logo": "None", "latitude": 55.74417900000006, "longitude": -97.85067199999993}, "891212748RR0001": {"name": "HINDU RELIGIOUS AND SPIRTUAL CENTRE", "designationCode": "B", "categoryCode": "48", "address": "130 SUNRISE CRESCENT", "city": "LONDON", "province": "ON", "country": "CA", "postalCode": "N5V4V6", "twitter": "None", "instagram": "None", "facebook": "None", "youtube": "None", "website": "None", "summary": "None", "logo": "None", "latitude": 42.99596189927274, "longitude": -81.15257073356793}, "107483414RR0001": {"name": "HINDU SABHA", "designationCode": "C", "categoryCode": "48", "address": "9225 THE GORE RD", "city": "BRAMPTON", "province": "ON", "country": "CA", "postalCode": "L6P0B6", "twitter": "None", "instagram": "None", "facebook": "None", "youtube": "None", "website": "None", "summary": "None", "logo": "None", "latitude": 43.77670800729933, "longitude": -79.66921446531911}, "131630071RR0001": {"name": "HINDU SAMAJ OF HAMILTON AND REGION", "designationCode": "C", "categoryCode": "48", "address": "6297 TWENTY ROAD EAST", "city": "HANNON", "province": "ON", "country": "CA", "postalCode": "L0R1P0", "twitter": "None", "instagram": "None", "facebook": "None", "youtube": "None", "website": "None", "summary": "None", "logo": "None", "latitude": 43.18049790365884, "longitude": -79.85493908272251}, "135488302RR0001": {"name": "HINDU SAMAJ OF SOUTHERN SASKATCHEWAN INC", "designationCode": "C", "categoryCode": "48", "address": "3307 PASQUA ST", "city": "REGINA", "province": "SK", "country": "CA", "postalCode": "S4S7G8", "twitter": "None", "instagram": "None", "facebook": "None", "youtube": "None", "website": "None", "summary": "None", "logo": "None", "latitude": 50.426528291154824, "longitude": -104.64084658687351}, "118958362RR0001": {"name": "HINDU SANSTHA OF NOVA SCOTIA", "designationCode": "C", "categoryCode": "22", "address": "RR #2 AULDS COVE", "city": "HAVRE BOUCHER", "province": "NS", "country": "CA", "postalCode": "B0H1P0", "twitter": "None", "instagram": "None", "facebook": "None", "youtube": "None", "website": "None", "summary": "None", "logo": "None", "latitude": 45.621447122845275, "longitude": -61.495352461841065}, "118958370RR0001": {"name": "HINDU SOCIETY OF ALBERTA", "designationCode": "C", "categoryCode": "22", "address": "14225 133 AVE NW", "city": "EDMONTON", "province": "AB", "country": "CA", "postalCode": "T5L4W3", "twitter": "None", "instagram": "None", "facebook": "None", "youtube": "None", "website": "None", "summary": "None", "logo": "None", "latitude": 53.593553883951984, "longitude": -113.56736557201803}, "118958388RR0001": {"name": "HINDU SOCIETY OF CALGARY", "designationCode": "C", "categoryCode": "48", "address": "2225 - 24TH AVENUE NE", "city": "CALGARY", "province": "AB", "country": "CA", "postalCode": "T2E8M2", "twitter": "None", "instagram": "None", "facebook": "None", "youtube": "None", "website": "None", "summary": "None", "logo": "None", "latitude": 51.07421252842077, "longitude": -114.00826041618096}, "118958396RR0001": {"name": "HINDU SOCIETY OF MANITOBA", "designationCode": "C", "categoryCode": "48", "address": "854 ELLICE AVENUE", "city": "WINNIPEG", "province": "MB", "country": "CA", "postalCode": "R3C0C4", "twitter": "None", "instagram": "None", "facebook": "None", "youtube": "None", "website": "None", "summary": "None", "logo": "None", "latitude": 49.893285532315886, "longitude": -97.17068244754458}, "118958461RR0001": {"name": "HINDU SOCIETY OF SASKATCHEWAN", "designationCode": "C", "categoryCode": "49", "address": "107 LARONGE RD", "city": "SASKATOON", "province": "SK", "country": "CA", "postalCode": "S7K4T3", "twitter": "None", "instagram": "None", "facebook": "None", "youtube": "None", "website": "None", "summary": "None", "logo": "None", "latitude": 52.17097200000006, "longitude": -106.62956899999993}, "892878638RR0001": {"name": "HINDU SOCIETY OF THIRUPATHY VENGADASALAPPATHY", "designationCode": "C", "categoryCode": "48", "address": "1240 ELLESMERE RD             UNIT 204", "city": "SCARBOROUGH", "province": "ON", "country": "CA", "postalCode": "M1P2X4", "twitter": "None", "instagram": "None", "facebook": "None", "youtube": "None", "website": "None", "summary": "None", "logo": "None", "latitude": 43.76885112577154, "longitude": -79.26701706829579}, "892285248RR0001": {"name": "HINDU SWAYAMSEVAK SANGH", "designationCode": "C", "categoryCode": "48", "address": "25 LAMBETH STREET", "city": "BRAMPTON", "province": "ON", "country": "CA", "postalCode": "L6S4M3", "twitter": "None", "instagram": "None", "facebook": "None", "youtube": "None", "website": "None", "summary": "None", "logo": "None", "latitude": 43.712648592273155, "longitude": -79.73311257602874}, "140709908RR0001": {"name": "HINDU TEMPLE (ST JOHN'S) ASSOCIATION CORPORATION", "designationCode": "C", "categoryCode": "48", "address": "26 PENNEY LANE", "city": "ST. JOHN'S", "province": "NL", "country": "CA", "postalCode": "A1A5C9", "twitter": "None", "instagram": "None", "facebook": "None", "youtube": "None", "website": "None", "summary": "None", "logo": "None", "latitude": 47.60408366998462, "longitude": -52.71896266504411}, "133049593RR0001": {"name": "HINDU TEMPLE OF OTTAWA-CARLETON INC", "designationCode": "C", "categoryCode": "48", "address": "4835 BANK ST                  HIGHWAY 31", "city": "GLOUCESTER", "province": "ON", "country": "CA", "postalCode": "K1X1G6", "twitter": "None", "instagram": "None", "facebook": "None", "youtube": "None", "website": "None", "summary": "None", "logo": "None", "latitude": 45.31012767311972, "longitude": -75.58769349365387}, "118958420RR0001": {"name": "HINDU TEMPLE SOCIETY OF CANADA", "designationCode": "C", "categoryCode": "48", "address": "10865 BAYVIEW AVE", "city": "RICHMOND HILL", "province": "ON", "country": "CA", "postalCode": "L4S1M1", "twitter": "None", "instagram": "None", "facebook": "None", "youtube": "None", "website": "None", "summary": "None", "logo": "None", "latitude": 43.8962660152368, "longitude": -79.4203869552242}, "118958453RR0001": {"name": "HINDU-MAHA-SABHA OF BURLINGTON AND OAKVILLE", "designationCode": "C", "categoryCode": "48", "address": "3259 HIGHWAY #25", "city": "OAKVILLE", "province": "ON", "country": "CA", "postalCode": "L6M4J3", "twitter": "None", "instagram": "None", "facebook": "None", "youtube": "None", "website": "None", "summary": "None", "logo": "None", "latitude": 43.423957340193354, "longitude": -79.76025414860727}, "895636066RR0001": {"name": "HINODE TAIKO INC.", "designationCode": "C", "categoryCode": "22", "address": "180 MCPHILLIPS ST", "city": "WINNIPEG", "province": "MB", "country": "CA", "postalCode": "R3E2J9", "twitter": "None", "instagram": "None", "facebook": "None", "youtube": "None", "website": "None", "summary": "None", "logo": "None", "latitude": 49.90993368665243, "longitude": -97.17110304945432}, "107483489RR0001": {"name": "HINTON ALLIANCE CHURCH", "designationCode": "C", "categoryCode": "39", "address": "147 SWANSON DRIVE", "city": "HINTON", "province": "AB", "country": "CA", "postalCode": "T7V1H1", "twitter": "None", "instagram": "None", "facebook": "None", "youtube": "None", "website": "None", "summary": "None", "logo": "None", "latitude": 53.4135695656414, "longitude": -117.56332386663973}, "895007532RR0001": {"name": "HINTON AND DISTRICT SOCIETY FOR THE PREVENTION OF CRUELTY TO ANIMALS", "designationCode": "C", "categoryCode": "54", "address": "209 KELLEY ROAD", "city": "HINTON", "province": "AB", "country": "CA", "postalCode": "T7V1H2", "twitter": "None", "instagram": "None", "facebook": "None", "youtube": "None", "website": "None", "summary": "None", "logo": "None", "latitude": 53.4056348892321, "longitude": -117.57990362334829}, "118958503RR0001": {"name": "HINTON CONGREGATION OF JEHOVAH'S WITNESSES", "designationCode": "C", "categoryCode": "61", "address": "115 WANYANDIE AVE", "city": "HINTON", "province": "AB", "country": "CA", "postalCode": "T7V1M6", "twitter": "None", "instagram": "None", "facebook": "None", "youtube": "None", "website": "None", "summary": "None", "logo": "None", "latitude": 53.392010512609055, "longitude": -117.60015116691692}, "889893186RR0001": {"name": "HINTON CRISIS PREGNANCY ASSOCIATION", "designationCode": "C", "categoryCode": "01", "address": "BOX 30077", "city": "EDSON", "province": "AB", "country": "CA", "postalCode": "T7E1Y2", "twitter": "None", "instagram": "None", "facebook": "None", "youtube": "None", "website": "None", "summary": "None", "logo": "None", "latitude": 53.58212700000006, "longitude": -116.43412399999994}, "864922554RR0001": {"name": "HINTON FOOD BANK ASSOCIATION", "designationCode": "C", "categoryCode": "09", "address": "11-107 SWANSON DRIVE", "city": "HINTON", "province": "AB", "country": "CA", "postalCode": "T7V1H1", "twitter": "None", "instagram": "None", "facebook": "None", "youtube": "None", "website": "None", "summary": "None", "logo": "None", "latitude": 53.41609022701841, "longitude": -117.56013534399004}, "899030548RR0001": {"name": "HINTON FRIENDSHIP CENTRE SOCIETY", "designationCode": "C", "categoryCode": "56", "address": "PO BOX 6270 STN MAIN          965 SWITZER DR", "city": "HINTON", "province": "AB", "country": "CA", "postalCode": "T7V1X6", "twitter": "None", "instagram": "None", "facebook": "None", "youtube": "None", "website": "None", "summary": "None", "logo": "None", "latitude": 53.40881752415119, "longitude": -117.5708393358521}, "891722977RR0001": {"name": "HINTON GOOD COMPANIONS", "designationCode": "C", "categoryCode": "56", "address": "250 HARDISTY AVE", "city": "HINTON", "province": "AB", "country": "CA", "postalCode": "T7V1B9", "twitter": "None", "instagram": "None", "facebook": "None", "youtube": "None", "website": "None", "summary": "None", "logo": "None", "latitude": 53.41902885651219, "longitude": -117.55088060055343}, "889846390RR0001": {"name": "HINTON HEALTH CARE FOUNDATION", "designationCode": "A", "categoryCode": "15", "address": "11-107 SWANSON DRIVE", "city": "HINTON", "province": "AB", "country": "CA", "postalCode": "T7V1H1", "twitter": "None", "instagram": "None", "facebook": "None", "youtube": "None", "website": "None", "summary": "None", "logo": "None", "latitude": 53.41609022701841, "longitude": -117.56013534399004}, "882299902RR0001": {"name": "HINTON HISTORICAL SOCIETY", "designationCode": "C", "categoryCode": "50", "address": "225 GREGG AVE", "city": "HINTON", "province": "AB", "country": "CA", "postalCode": "T7V2B7", "twitter": "None", "instagram": "None", "facebook": "None", "youtube": "None", "website": "None", "summary": "None", "logo": "None", "latitude": 53.40103925857714, "longitude": -117.58482971598534}, "886847391RR0001": {"name": "HINTON LIVE-IN RETREAT SOCIETY", "designationCode": "C", "categoryCode": "49", "address": "BOX 6388", "city": "HINTON", "province": "AB", "country": "CA", "postalCode": "T7V1X6", "twitter": "None", "instagram": "None", "facebook": "None", "youtube": "None", "website": "None", "summary": "None", "logo": "None", "latitude": 53.40093900000005, "longitude": -117.57696199999994}, "130058688RR0001": {"name": "HINTON PASTORAL CHARGE,", "designationCode": "C", "categoryCode": "44", "address": "101 MUSKUTA DRIVE", "city": "HINTON", "province": "AB", "country": "CA", "postalCode": "T7V1E7", "twitter": "None", "instagram": "None", "facebook": "None", "youtube": "None", "website": "None", "summary": "None", "logo": "None", "latitude": 53.41765800053028, "longitude": -117.5542637548387}, "873901953RR0001": {"name": "HINTON SEARCH AND RESCUE ASSOCIATION", "designationCode": "C", "categoryCode": "59", "address": "P.O.BOX 5092", "city": "HINTON", "province": "AB", "country": "CA", "postalCode": "T7V1X3", "twitter": "None", "instagram": "None", "facebook": "None", "youtube": "None", "website": "None", "summary": "None", "logo": "None", "latitude": 53.40093900000005, "longitude": -117.57696199999994}, "898934435RR0001": {"name": "HINTON UNITED WAY SOCIETY", "designationCode": "A", "categoryCode": "03", "address": "BOX 6625", "city": "HINTON", "province": "AB", "country": "CA", "postalCode": "T7V1X8", "twitter": "None", "instagram": "None", "facebook": "None", "youtube": "None", "website": "None", "summary": "None", "logo": "None", "latitude": 53.40093900000005, "longitude": -117.57696199999994}, "885709212RR0001": {"name": "HIP (Honouring Indigenous Peoples) Charitable Corporation", "designationCode": "A", "categoryCode": "03", "address": "110 - 100 SIMCOE ST", "city": "TORONTO", "province": "ON", "country": "CA", "postalCode": "M5H3G2", "twitter": "None", "instagram": "None", "facebook": "None", "youtube": "None", "website": "None", "summary": "None", "logo": "None", "latitude": 43.648227765191315, "longitude": -79.3864855406831}, "837847813RR0001": {"name": "HIPPY OAKVILLE HOME-BASED PROGRAM INC.", "designationCode": "C", "categoryCode": "21", "address": "1124 ARGYLE DRIVE", "city": "OAKVILLE", "province": "ON", "country": "CA", "postalCode": "L6J1A7", "twitter": "None", "instagram": "None", "facebook": "None", "youtube": "None", "website": "None", "summary": "None", "logo": "None", "latitude": 43.455394421085714, "longitude": -79.65363955834206}, "868921016RR0001": {"name": "HIS MINISTRIES ABOUND SOCIETY", "designationCode": "C", "categoryCode": "49", "address": "407-290 REGINA AVENUE", "city": "VICTORIA", "province": "BC", "country": "CA", "postalCode": "V8Z6S6", "twitter": "None", "instagram": "None", "facebook": "None", "youtube": "None", "website": "None", "summary": "None", "logo": "None", "latitude": 48.4564511912687, "longitude": -123.391023906169}, "856406947RR0001": {"name": "HIS PATH CHRISTIAN CENTRE", "designationCode": "B", "categoryCode": "36", "address": "#1 - 12227 SKILLEN STREET", "city": "MAPLE RIDGE", "province": "BC", "country": "CA", "postalCode": "V2X4X4", "twitter": "None", "instagram": "None", "facebook": "None", "youtube": "None", "website": "None", "summary": "None", "logo": "None", "latitude": 49.22477994754459, "longitude": -122.6442850461361}, "708414123RR0001": {"name": "HIS PRAYER HOUSE INTERNATIONAL CHURCH", "designationCode": "C", "categoryCode": "39", "address": "33 ROUNDSTONE DRIVE", "city": "BRAMPTON", "province": "ON", "country": "CA", "postalCode": "L6X0K7", "twitter": "None", "instagram": "None", "facebook": "None", "youtube": "None", "website": "None", "summary": "None", "logo": "None", "latitude": 43.67583224202203, "longitude": -79.80263395181508}, "892895848RR0001": {"name": "HIS WAY MINISTRIES", "designationCode": "C", "categoryCode": "39", "address": "1774 BOND ST", "city": "REGINA", "province": "SK", "country": "CA", "postalCode": "S4N1X6", "twitter": "None", "instagram": "None", "facebook": "None", "youtube": "None", "website": "None", "summary": "None", "logo": "None", "latitude": 50.45052633527612, "longitude": -104.56793515684667}, "860250745RR0001": {"name": "HIS WORD FOR HIS PEOPLE ASSOCIATION", "designationCode": "C", "categoryCode": "49", "address": "6 DIMOCK ROAD                 RR 1", "city": "MARGARETSVILLE", "province": "NS", "country": "CA", "postalCode": "B0S1N0", "twitter": "None", "instagram": "None", "facebook": "None", "youtube": "None", "website": "None", "summary": "None", "logo": "None", "latitude": 45.04018422344037, "longitude": -65.0609294929882}, "118958602RR0001": {"name": "HISLACAN HOMES KITCHENER-WATERLOO INC.", "designationCode": "C", "categoryCode": "09", "address": "85 BRECKENRIDGE DRIVE UNIT 50", "city": "KITCHENER", "province": "ON", "country": "CA", "postalCode": "N2B3P8", "twitter": "None", "instagram": "None", "facebook": "None", "youtube": "None", "website": "None", "summary": "None", "logo": "None", "latitude": 43.45323067690023, "longitude": -80.44408158482864}, "891937179RR0001": {"name": "HISTIOCYTOSIS ASSOCIATION OF CANADA / L'ASSOCIATION CANADIENNE DE LA HISTIOCYTOSE", "designationCode": "C", "categoryCode": "11", "address": "P.O. BOX 221", "city": "SUNDERLAND", "province": "ON", "country": "CA", "postalCode": "L0C1H0", "twitter": "None", "instagram": "None", "facebook": "None", "youtube": "None", "website": "None", "summary": "None", "logo": "None", "latitude": 44.19987900000005, "longitude": -79.03574449999994}, "106950710RR0001": {"name": "HISTORIC COBALT CORPORATION", "designationCode": "C", "categoryCode": "50", "address": "24 SILVER STREET              P. O. BOX 215", "city": "COBALT", "province": "ON", "country": "CA", "postalCode": "P0J1C0", "twitter": "None", "instagram": "None", "facebook": "None", "youtube": "None", "website": "None", "summary": "None", "logo": "None", "latitude": 47.39545969615369, "longitude": -79.68584273375969}, "896830494RR0001": {"name": "HISTORIC MARINE ASSOCIATION OF CANADA", "designationCode": "C", "categoryCode": "50", "address": "BOX 573", "city": "MIDLAND", "province": "ON", "country": "CA", "postalCode": "L4R4L3", "twitter": "None", "instagram": "None", "facebook": "None", "youtube": "None", "website": "None", "summary": "None", "logo": "None", "latitude": 44.74989600000005, "longitude": -79.88850349999993}, "119054955RR0001": {"name": "HISTORIC SITES ASSOCIATION OF NEWFOUNDLAND AND LABRADOR INC.", "designationCode": "C", "categoryCode": "52", "address": "204 - 10 FORBES ST", "city": "ST. JOHN'S", "province": "NL", "country": "CA", "postalCode": "A1E3L5", "twitter": "None", "instagram": "None", "facebook": "None", "youtube": "None", "website": "None", "summary": "None", "logo": "None", "latitude": 47.53631698863171, "longitude": -52.7450116086331}, "107997785RR0001": {"name": "HISTORIC VEHICLE SOCIETY OF ONTARIO", "designationCode": "C", "categoryCode": "50", "address": "6155 ARNER TOWNLINE", "city": "KINGSVILLE", "province": "ON", "country": "CA", "postalCode": "N9Y2E5", "twitter": "None", "instagram": "None", "facebook": "None", "youtube": "None", "website": "None", "summary": "None", "logo": "None", "latitude": 42.08038659026167, "longitude": -82.82003678426352}, "854741337RR0001": {"name": "HISTORICAL CHAPELLE SOCIETY OF PLAMONDON", "designationCode": "C", "categoryCode": "52", "address": "PO BOX 178", "city": "PLAMONDON", "province": "AB", "country": "CA", "postalCode": "T0A2T0", "twitter": "None", "instagram": "None", "facebook": "None", "youtube": "None", "website": "None", "summary": "None", "logo": "None", "latitude": 54.84978000000007, "longitude": -112.34449999999998}, "868334624RR0001": {"name": "HISTORICAL DIVING SOCIETY - CANADA", "designationCode": "C", "categoryCode": "50", "address": "216 EAST ESPLANADE", "city": "NORTH VANCOUVER", "province": "BC", "country": "CA", "postalCode": "V7L1A3", "twitter": "None", "instagram": "None", "facebook": "None", "youtube": "None", "website": "None", "summary": "None", "logo": "None"}, "118958636RR0001": {"name": "HISTORICAL SOCIETY OF ALBERTA", "designationCode": "C", "categoryCode": "52", "address": "BOX 4035 STATION C", "city": "CALGARY", "province": "AB", "country": "CA", "postalCode": "T2T5M9", "twitter": "None", "instagram": "None", "facebook": "None", "youtube": "None", "website": "None", "summary": "None", "logo": "None", "latitude": 51.01989900000005, "longitude": -114.09929449999993}, "864330089RR0001": {"name": "HISTORICAL SOCIETY OF GERMANS FROM POLAND AND VOLHYNIA", "designationCode": "C", "categoryCode": "50", "address": "10014 - 81 AVE", "city": "EDMONTON", "province": "AB", "country": "CA", "postalCode": "T6E1W8", "twitter": "None", "instagram": "None", "facebook": "None", "youtube": "None", "website": "None", "summary": "None", "logo": "None", "latitude": 53.51708247157926, "longitude": -113.48921241618096}, "107484073RR0001": {"name": "HISTORICAL SOCIETY OF MECKLENBURG UPPER CANADA", "designationCode": "C", "categoryCode": "50", "address": "PO BOX 24502                  136 ORTON PARK RD", "city": "TORONTO", "province": "ON", "country": "CA", "postalCode": "M1G3V8", "twitter": "None", "instagram": "None", "facebook": "None", "youtube": "None", "website": "None", "summary": "None", "logo": "None", "latitude": 43.771673661665446, "longitude": -79.20886333169811}, "861764181RR0001": {"name": "HISTORICAL TOY AND DOLL SOCIETY OF SOUTHWESTERN ONTARIO", "designationCode": "C", "categoryCode": "50", "address": "184 ELLIS ST", "city": "CHATHAM", "province": "ON", "country": "CA", "postalCode": "N7L2M1", "twitter": "None", "instagram": "None", "facebook": "None", "youtube": "None", "website": "None", "summary": "None", "logo": "None", "latitude": 42.421491535374315, "longitude": -82.21743297694627}, "886643592RR0001": {"name": "HISTORY OF UKRAINIANS IN CANADA PUBLICATION FUND UKRAINIAN SELF-RELIANCE LEAGUE OF CANADA", "designationCode": "C", "categoryCode": "25", "address": "455 HABKIRK DR.", "city": "REGINA", "province": "SK", "country": "CA", "postalCode": "S4S6B2", "twitter": "None", "instagram": "None", "facebook": "None", "youtube": "None", "website": "None", "summary": "None", "logo": "None", "latitude": 50.40664050043269, "longitude": -104.6377832216227}, "891026957RR0001": {"name": "HIV & AIDS LEGAL CLINIC (ONTARIO)", "designationCode": "C", "categoryCode": "59", "address": "1400 - 55 UNIVERSITY AVE", "city": "TORONTO", "province": "ON", "country": "CA", "postalCode": "M5J2H7", "twitter": "None", "instagram": "None", "facebook": "None", "youtube": "None", "website": "None", "summary": "None", "logo": "None", "latitude": 43.64683659867845, "longitude": -79.38431430818304}, "106689813RR0001": {"name": "HIV Community Link Society", "designationCode": "C", "categoryCode": "11", "address": "110 1603 10 AVENUE SW", "city": "CALGARY", "province": "AB", "country": "CA", "postalCode": "T3C0J7", "twitter": "None", "instagram": "None", "facebook": "None", "youtube": "None", "website": "None", "summary": "None", "logo": "None", "latitude": 51.04424049567218, "longitude": -114.09715510796927}, "130392020RR0001": {"name": "HIV NETWORK OF EDMONTON SOCIETY", "designationCode": "C", "categoryCode": "11", "address": "9702 111 AVE NW", "city": "EDMONTON", "province": "AB", "country": "CA", "postalCode": "T5G0B1", "twitter": "None", "instagram": "None", "facebook": "None", "youtube": "None", "website": "None", "summary": "None", "logo": "None", "latitude": 53.559023446044016, "longitude": -113.49214474438797}, "131465387RR0001": {"name": "HIV NORTH SOCIETY", "designationCode": "C", "categoryCode": "11", "address": "9607 102 ST", "city": "GRANDE PRAIRIE", "province": "AB", "country": "CA", "postalCode": "T8V2T8", "twitter": "None", "instagram": "None", "facebook": "None", "youtube": "None", "website": "None", "summary": "None", "logo": "None", "latitude": 55.167503301690836, "longitude": -118.80116384286487}, "134884048RR0001": {"name": "HIV WEST YELLOWHEAD SOCIETY", "designationCode": "C", "categoryCode": "11", "address": "PO BOX 5005 STN MAIN", "city": "HINTON", "province": "AB", "country": "CA", "postalCode": "T7V1X3", "twitter": "None", "instagram": "None", "facebook": "None", "youtube": "None", "website": "None", "summary": "None", "logo": "None", "latitude": 53.40093900000005, "longitude": -117.57696199999994}, "129745139RR0001": {"name": "HIV/AIDS REGIONAL SERVICES (HARS)", "designationCode": "C", "categoryCode": "11", "address": "844A PRINCESS ST", "city": "KINGSTON", "province": "ON", "country": "CA", "postalCode": "K7L1G5", "twitter": "None", "instagram": "None", "facebook": "None", "youtube": "None", "website": "None", "summary": "None", "logo": "None", "latitude": 44.23990818402133, "longitude": -76.50882757061687}, "106689821RR0001": {"name": "HIV/AIDS RESOURCES AND COMMUNITY HEALTH", "designationCode": "C", "categoryCode": "09", "address": "115-89 DAWSON RD", "city": "GUELPH", "province": "ON", "country": "CA", "postalCode": "N1H1B1", "twitter": "None", "instagram": "None", "facebook": "None", "youtube": "None", "website": "None", "summary": "None", "logo": "None", "latitude": 43.54896125038923, "longitude": -80.27864316313733}, "747038297RR0001": {"name": "HIWAY PENTECOSTAL CHURCH", "designationCode": "C", "categoryCode": "36", "address": "50 ANNE STREET NORTH", "city": "BARRIE", "province": "ON", "country": "CA", "postalCode": "L4N2B6", "twitter": "None", "instagram": "None", "facebook": "None", "youtube": "None", "website": "None", "summary": "None", "logo": "None", "latitude": 44.38418031251088, "longitude": -79.706677619222}, "118958743RR0001": {"name": "HIWHOIS ASSISTANCE GROUP", "designationCode": "C", "categoryCode": "09", "address": "11 FERRIS LANE, SUITE 101", "city": "BARRIE", "province": "ON", "country": "CA", "postalCode": "L4M4V1", "twitter": "None", "instagram": "None", "facebook": "None", "youtube": "None", "website": "None", "summary": "None", "logo": "None", "latitude": 44.40307968414225, "longitude": -79.70030884817363}, "118958750RR0001": {"name": "HIXON COMMUNITY ASSOCIATION", "designationCode": "C", "categoryCode": "56", "address": "P.O. BOX 445", "city": "HIXON", "province": "BC", "country": "CA", "postalCode": "V0K1S0", "twitter": "None", "instagram": "None", "facebook": "None", "youtube": "None", "website": "None", "summary": "None", "logo": "None", "latitude": 53.42845024316912, "longitude": -122.57878615885444}, "107493439RR0001": {"name": "H\u00f4tel-Dieu Grace Healthcare", "designationCode": "C", "categoryCode": "01", "address": "1453 PRINCE ROAD", "city": "WINDSOR", "province": "ON", "country": "CA", "postalCode": "N9C3Z4", "twitter": "None", "instagram": "None", "facebook": "None", "youtube": "None", "website": "None", "summary": "None", "logo": "None", "latitude": 42.28670496958962, "longitude": -83.06319772225693}, "142674936RR0001": {"name": "H\u00f4tellerie Pavillon Marguerite d'Youville", "designationCode": "A", "categoryCode": "13", "address": "2725 CH. SAINTE-FOY", "city": "QU\u00c9BEC", "province": "QC", "country": "CA", "postalCode": "G1V4G5", "twitter": "None", "instagram": "None", "facebook": "None", "youtube": "None", "website": "None", "summary": "None", "logo": "None", "latitude": 46.78043799535239, "longitude": -71.30019857327315}, "883594095RR0001": {"name": "HMCS/CFB CORNWALLIS MILITARY HISTORICAL ASSOCIATION", "designationCode": "C", "categoryCode": "50", "address": "P.O. BOX 31", "city": "CLEMENTSPORT", "province": "NS", "country": "CA", "postalCode": "B0S1E0", "twitter": "None", "instagram": "None", "facebook": "None", "youtube": "None", "website": "None", "summary": "None", "logo": "None", "latitude": 44.65360023264739, "longitude": -65.58874467073602}, "118958834RR0001": {"name": "HNAUSA CEMETERY ASSOCIATION INC.", "designationCode": "C", "categoryCode": "59", "address": "PO BOX 716", "city": "RIVERTON", "province": "MB", "country": "CA", "postalCode": "R0C2R0", "twitter": "None", "instagram": "None", "facebook": "None", "youtube": "None", "website": "None", "summary": "None", "logo": "None", "latitude": 50.99757300000002, "longitude": -97.00410710537368}, "843173121RR0001": {"name": "HO-PROCHAIN", "designationCode": "C", "categoryCode": "09", "address": "53 DE QUEN", "city": "DOLBEAU-MISTASSINI", "province": "QC", "country": "CA", "postalCode": "G8L4Z1", "twitter": "None", "instagram": "None", "facebook": "None", "youtube": "None", "website": "None", "summary": "None", "logo": "None", "latitude": 48.88941621593856, "longitude": -72.20582686384111}, "875569964RR0001": {"name": "HOADLEY EVANGELICAL MISSIONARY CHURCH OF CANADA", "designationCode": "C", "categoryCode": "39", "address": "BOX 1, SITE 7, RR#2", "city": "BLUFFTON", "province": "AB", "country": "CA", "postalCode": "T0C0M0", "twitter": "None", "instagram": "None", "facebook": "None", "youtube": "None", "website": "None", "summary": "None", "logo": "None", "latitude": 52.74980100665576, "longitude": -114.2905129512279}, "118958842RR0001": {"name": "HOBART CANADA INC. EMPLOYEES' CHARITY TRUST", "designationCode": "C", "categoryCode": "75", "address": "105 GORDON BAKER, SUITE 801", "city": "NORTH YORK", "province": "ON", "country": "CA", "postalCode": "M2H3P8", "twitter": "None", "instagram": "None", "facebook": "None", "youtube": "None", "website": "None", "summary": "None", "logo": "None", "latitude": 43.80126600666511, "longitude": -79.34443604146249}, "891707242RR0001": {"name": "HOBART CHURCH CEMETERY BOARD", "designationCode": "C", "categoryCode": "59", "address": "3608 LINE 9N RR4", "city": "COLDWATER", "province": "ON", "country": "CA", "postalCode": "L0K1E0", "twitter": "None", "instagram": "None", "facebook": "None", "youtube": "None", "website": "None", "summary": "None", "logo": "None"}, "890635022RR0001": {"name": "HOBOCAT ADOPTIONS INC", "designationCode": "C", "categoryCode": "54", "address": "RR #2", "city": "MEAFORD", "province": "ON", "country": "CA", "postalCode": "N4L1W6", "twitter": "None", "instagram": "None", "facebook": "None", "youtube": "None", "website": "None", "summary": "None", "logo": "None", "latitude": 44.50986600000006, "longitude": -80.63805949999994}, "865311609RR0001": {"name": "HOBOCAT SPAY / NEUTER PROJECT", "designationCode": "C", "categoryCode": "54", "address": "9 - 1514 LANCASTER DR", "city": "OAKVILLE", "province": "ON", "country": "CA", "postalCode": "L6H2Z2", "twitter": "None", "instagram": "None", "facebook": "None", "youtube": "None", "website": "None", "summary": "None", "logo": "None", "latitude": 43.48082757536491, "longitude": -79.69289053041132}, "880806716RR0001": {"name": "HOCKEY ALBERTA FOUNDATION", "designationCode": "A", "categoryCode": "21", "address": "100 COLLEGE BLVD              BOX 5005 ROOM 2606", "city": "RED DEER", "province": "AB", "country": "CA", "postalCode": "T4N5H5", "twitter": "None", "instagram": "None", "facebook": "None", "youtube": "None", "website": "None", "summary": "None", "logo": "None", "latitude": 52.24659952392004, "longitude": -113.82752705629323}, "890484561RR0001": {"name": "HOCKEY ASSOCIATION FOR THE DEVELOPMENTALLY CHALLENGED", "designationCode": "C", "categoryCode": "09", "address": "78 SONGWOOD DRIVE", "city": "WESTON", "province": "ON", "country": "CA", "postalCode": "M9M1X3", "twitter": "None", "instagram": "None", "facebook": "None", "youtube": "None", "website": "None", "summary": "None", "logo": "None", "latitude": 43.74719810242936, "longitude": -79.56163766362735}, "877195610RR0001": {"name": "HOCKEY EDUCATION REACHING OUT SOCIETY", "designationCode": "C", "categoryCode": "29", "address": "1857 4TH AVE W", "city": "VANCOUVER", "province": "BC", "country": "CA", "postalCode": "V6J1M4", "twitter": "None", "instagram": "None", "facebook": "None", "youtube": "None", "website": "None", "summary": "None", "logo": "None", "latitude": 49.268114886995285, "longitude": -123.1469321088871}, "118958883RR0001": {"name": "HOCKEY HALL OF FAME AND MUSEUM", "designationCode": "C", "categoryCode": "50", "address": "BROOKFIELD PLACE              30 YONGE ST", "city": "TORONTO", "province": "ON", "country": "CA", "postalCode": "M5E1X8", "twitter": "None", "instagram": "None", "facebook": "None", "youtube": "None", "website": "None", "summary": "None", "logo": "None", "latitude": 43.647138545097825, "longitude": -79.37709365295154}}