{"823221130RR0001": {"name": "Hindu Cultural Society of Central Alberta", "designationCode": "C", "categoryCode": "48", "address": "205 VAN SLYKE WAY", "city": "RED DEER", "province": "AB", "country": "CA", "postalCode": "T4R0N7", "twitter": "None", "instagram": "None", "facebook": "None", "youtube": "None", "website": "None", "summary": "None", "logo": "None", "latitude": 52.23420381239531, "longitude": -113.74767968466186}, "875424715RR0001": {"name": "Hindu Federation", "designationCode": "C", "categoryCode": "49", "address": "270 EXPORT BLVD.", "city": "MISSISSAUGA", "province": "ON", "country": "CA", "postalCode": "L5S1Y9", "twitter": "None", "instagram": "None", "facebook": "None", "youtube": "None", "website": "None", "summary": "None", "logo": "None", "latitude": 43.652025780397466, "longitude": -79.70262207080688}, "889969390RR0001": {"name": "Hindu Society of Ottawa-Carleton", "designationCode": "C", "categoryCode": "09", "address": "PO BOX 65122, MERIVALE P.O.", "city": "OTTAWA", "province": "ON", "country": "CA", "postalCode": "K2G5Y3", "twitter": "None", "instagram": "None", "facebook": "None", "youtube": "None", "website": "None", "summary": "None", "logo": "None", "latitude": 45.29701695693335, "longitude": -75.70271334015752}, "831253117RR0001": {"name": "Hinton Adult Learning Society", "designationCode": "C", "categoryCode": "21", "address": "110E BREWSTER DR", "city": "HINTON", "province": "AB", "country": "CA", "postalCode": "T7V1B4", "twitter": "None", "instagram": "None", "facebook": "None", "youtube": "None", "website": "None", "summary": "None", "logo": "None", "latitude": 53.42452312480542, "longitude": -117.54156349005862}, "851376996RR0001": {"name": "Hinton Mountain Bike Association", "designationCode": "C", "categoryCode": "56", "address": "P.O. BOX 6556", "city": "HINTON", "province": "AB", "country": "CA", "postalCode": "T7V1X8", "twitter": "None", "instagram": "None", "facebook": "None", "youtube": "None", "website": "None", "summary": "None", "logo": "None", "latitude": 53.40093900000005, "longitude": -117.57696199999994}, "849153879RR0001": {"name": "Hinton Pine Valley Senior Lodge Society", "designationCode": "C", "categoryCode": "09", "address": "177 BOUTIN AVE", "city": "HINTON", "province": "AB", "country": "CA", "postalCode": "T7V2E3", "twitter": "None", "instagram": "None", "facebook": "None", "youtube": "None", "website": "None", "summary": "None", "logo": "None", "latitude": 53.42345752322662, "longitude": -117.5383237939292}, "893262774RR0001": {"name": "Hinton Victim Support Services Society", "designationCode": "C", "categoryCode": "59", "address": "111 CIVIC CENTRE ROAD", "city": "HINTON", "province": "AB", "country": "CA", "postalCode": "T7V1T8", "twitter": "None", "instagram": "None", "facebook": "None", "youtube": "None", "website": "None", "summary": "None", "logo": "None", "latitude": 53.39816289757065, "longitude": -117.57456871443799}, "839057635RR0001": {"name": "His Church", "designationCode": "C", "categoryCode": "39", "address": "12856 YOUNG RD", "city": "CHESTERVILLE", "province": "ON", "country": "CA", "postalCode": "K0C1H0", "twitter": "None", "instagram": "None", "facebook": "None", "youtube": "None", "website": "None", "summary": "None", "logo": "None", "latitude": 45.01227141104508, "longitude": -75.22058003274857}, "849942420RR0001": {"name": "His Glorious Church", "designationCode": "C", "categoryCode": "39", "address": "44 STUDEBAKER TRAIL", "city": "BRAMPTON", "province": "ON", "country": "CA", "postalCode": "L7A3A5", "twitter": "None", "instagram": "None", "facebook": "None", "youtube": "None", "website": "None", "summary": "None", "logo": "None", "latitude": 43.69105659507176, "longitude": -79.83581411867374}, "810051250RR0001": {"name": "His Hearts Cry", "designationCode": "C", "categoryCode": "09", "address": "34 CENTRAL AVE W", "city": "BROCKVILLE", "province": "ON", "country": "CA", "postalCode": "K6V4N3", "twitter": "None", "instagram": "None", "facebook": "None", "youtube": "None", "website": "None", "summary": "None", "logo": "None", "latitude": 44.600679250360564, "longitude": -75.69239503095957}, "860448810RR0001": {"name": "His Place Ministries", "designationCode": "C", "categoryCode": "39", "address": "1933 CARDIGAN RD.", "city": "ST. PETERS BAY", "province": "PE", "country": "CA", "postalCode": "C0A2A0", "twitter": "None", "instagram": "None", "facebook": "None", "youtube": "None", "website": "None", "summary": "None", "logo": "None", "latitude": 46.41414598945123, "longitude": -62.580419075258305}, "800919003RR0001": {"name": "His Secret Place Inc.", "designationCode": "C", "categoryCode": "49", "address": "4 STATION ROAD", "city": "ST. ANDREWS", "province": "NL", "country": "CA", "postalCode": "A0N1W0", "twitter": "None", "instagram": "None", "facebook": "None", "youtube": "None", "website": "None", "summary": "None", "logo": "None", "latitude": 48.42637783608454, "longitude": -58.490819429295364}, "119288918RR1457": {"name": "Hispana Congregation of Jehovah's Witnesses, Montreal, Quebec", "designationCode": "C", "categoryCode": "61", "address": "2567 ONTARIO STREET EAST", "city": "MONTREAL", "province": "QC", "country": "CA", "postalCode": "H2K1W6", "twitter": "None", "instagram": "None", "facebook": "None", "youtube": "None", "website": "None", "summary": "None", "logo": "None", "latitude": 45.53326957092151, "longitude": -73.55244527534754}, "801665209RR0001": {"name": "Hispanic International Christian Mission Inc.", "designationCode": "C", "categoryCode": "39", "address": "923 GLENVIEW COVE", "city": "MARTENSVILLE", "province": "SK", "country": "CA", "postalCode": "S0K0A2", "twitter": "None", "instagram": "None", "facebook": "None", "youtube": "None", "website": "None", "summary": "None", "logo": "None", "latitude": 52.27994134943745, "longitude": -106.65048167245331}, "841699218RR0001": {"name": "Historic Joy Kogawa House Society", "designationCode": "C", "categoryCode": "50", "address": "8107 CARTIER ST", "city": "VANCOUVER", "province": "BC", "country": "CA", "postalCode": "V6P4T6", "twitter": "None", "instagram": "None", "facebook": "None", "youtube": "None", "website": "None", "summary": "None", "logo": "None", "latitude": 49.212225199001665, "longitude": -123.13776350891546}, "870451465RR0001": {"name": "Historic Sherbrooke Village Development Society", "designationCode": "C", "categoryCode": "52", "address": "P.O. BOX 87                   42 MAIN STREET", "city": "SHERBROOKE", "province": "NS", "country": "CA", "postalCode": "B0J3C0", "twitter": "None", "instagram": "None", "facebook": "None", "youtube": "None", "website": "None", "summary": "None", "logo": "None", "latitude": 45.14085293311787, "longitude": -61.984128288389286}, "885434720RR0001": {"name": "Historica Canada", "designationCode": "C", "categoryCode": "21", "address": "2 CARLTON STREET              EAST MEZZANINE", "city": "TORONTO", "province": "ON", "country": "CA", "postalCode": "M5B1J3", "twitter": "None", "instagram": "None", "facebook": "None", "youtube": "None", "website": "None", "summary": "None", "logo": "None", "latitude": 43.66142348211082, "longitude": -79.38282201832186}, "889330536RR0001": {"name": "Historical Construction Equipment Association of Canada", "designationCode": "C", "categoryCode": "50", "address": "1392 BRANT RD. #54            R.R.#2", "city": "CALEDONIA", "province": "ON", "country": "CA", "postalCode": "N3W2G9", "twitter": "None", "instagram": "None", "facebook": "None", "youtube": "None", "website": "None", "summary": "None", "logo": "None", "latitude": 43.06232400000006, "longitude": -79.92160549999993}, "763681525RR0001": {"name": "History & Heroes Foundation", "designationCode": "C", "categoryCode": "21", "address": "1900 - 520 3 AVE SW", "city": "CALGARY", "province": "AB", "country": "CA", "postalCode": "T2P0R3", "twitter": "None", "instagram": "None", "facebook": "None", "youtube": "None", "website": "None", "summary": "None", "logo": "None", "latitude": 51.050585259196545, "longitude": -114.07240492388776}, "823454582RR0001": {"name": "History Makers Society", "designationCode": "C", "categoryCode": "39", "address": "89 GARDEN ST", "city": "WHITBY", "province": "ON", "country": "CA", "postalCode": "L1N9E7", "twitter": "None", "instagram": "None", "facebook": "None", "youtube": "None", "website": "None", "summary": "None", "logo": "None", "latitude": 43.87918236969814, "longitude": -78.93112097374363}, "825393176RR0001": {"name": "Hive Charitable Foundation", "designationCode": "A", "categoryCode": "03", "address": "44 LAIRD DRIVE", "city": "TORONTO", "province": "ON", "country": "CA", "postalCode": "M4G3T2", "twitter": "None", "instagram": "None", "facebook": "None", "youtube": "None", "website": "None", "summary": "None", "logo": "None", "latitude": 43.70410951956261, "longitude": -79.36103518570012}, "835898172RR0001": {"name": "Hobbes and Mortimer Foundation", "designationCode": "B", "categoryCode": "03", "address": "159 WOODHAVEN PARK DRIVE", "city": "OAKVILLE", "province": "ON", "country": "CA", "postalCode": "L6L4K4", "twitter": "None", "instagram": "None", "facebook": "None", "youtube": "None", "website": "None", "summary": "None", "logo": "None", "latitude": 43.412303471839046, "longitude": -79.6959266344568}, "835211178RR0001": {"name": "Hobbitstee Wildlife Refuge", "designationCode": "C", "categoryCode": "54", "address": "1226, CONCESSION 4, RR 3", "city": "JARVIS", "province": "ON", "country": "CA", "postalCode": "N0A1J0", "twitter": "None", "instagram": "None", "facebook": "None", "youtube": "None", "website": "None", "summary": "None", "logo": "None", "latitude": 42.86098914211193, "longitude": -80.00881581030016}, "786834697RR0001": {"name": "Hobgoblin Foundation", "designationCode": "B", "categoryCode": "03", "address": "210 - 104 13 ST N", "city": "LETHBRIDGE", "province": "AB", "country": "CA", "postalCode": "T1H2R4", "twitter": "None", "instagram": "None", "facebook": "None", "youtube": "None", "website": "None", "summary": "None", "logo": "None", "latitude": 49.69920120181805, "longitude": -112.82422828118233}, "837377084RR0001": {"name": "Hoby Canada", "designationCode": "C", "categoryCode": "29", "address": "199 RATHOWEN STREET", "city": "LONDON", "province": "ON", "country": "CA", "postalCode": "N6H2E9", "twitter": "None", "instagram": "None", "facebook": "None", "youtube": "None", "website": "None", "summary": "None", "logo": "None", "latitude": 42.98905007882737, "longitude": -81.26709351483075}, "865494694RR0001": {"name": "Hockey Canada Foundation/Fondation Hockey Canada", "designationCode": "A", "categoryCode": "03", "address": "151 CANADA OLYMPIC RD. SW     SUITE 201", "city": "CALGARY", "province": "AB", "country": "CA", "postalCode": "T3B6B7", "twitter": "None", "instagram": "None", "facebook": "None", "youtube": "None", "website": "None", "summary": "None", "logo": "None", "latitude": 51.08357935720468, "longitude": -114.21939957744239}, "801001942RR0001": {"name": "Hockey Stem Cell Institute Society", "designationCode": "C", "categoryCode": "11", "address": "2270-8788 MCKIM WAY", "city": "RICHMOND", "province": "BC", "country": "CA", "postalCode": "V6X4E2", "twitter": "None", "instagram": "None", "facebook": "None", "youtube": "None", "website": "None", "summary": "None", "logo": "None", "latitude": 49.18355124548406, "longitude": -123.12499307544691}, "835093592RR0001": {"name": "Hoffnung Fuer Alle Church Inc.", "designationCode": "C", "categoryCode": "39", "address": "BOX 124", "city": "STEINBACH", "province": "MB", "country": "CA", "postalCode": "R5G1M1", "twitter": "None", "instagram": "None", "facebook": "None", "youtube": "None", "website": "None", "summary": "None", "logo": "None", "latitude": 49.52572800000006, "longitude": -96.68393449999994}, "843771437RR0001": {"name": "Holdbest Foundation", "designationCode": "B", "categoryCode": "03", "address": "24 MELLOWOOD DRIVE", "city": "TORONTO", "province": "ON", "country": "CA", "postalCode": "M2L2E3", "twitter": "None", "instagram": "None", "facebook": "None", "youtube": "None", "website": "None", "summary": "None", "logo": "None", "latitude": 43.756683308615735, "longitude": -79.3682649476888}, "832467930RR0001": {"name": "Holden Charitable Trust", "designationCode": "B", "categoryCode": "45", "address": "3425 2 AVENUE SOUTH", "city": "LETHBRIDGE", "province": "AB", "country": "CA", "postalCode": "T1J4V1", "twitter": "None", "instagram": "None", "facebook": "None", "youtube": "None", "website": "None", "summary": "None", "logo": "None", "latitude": 49.696839530439966, "longitude": -112.78914308381903}, "751781725RR0001": {"name": "Holding Hands With Brazil Foundation", "designationCode": "C", "categoryCode": "09", "address": "415 MATHERS AVE", "city": "WEST VANCOUVER", "province": "BC", "country": "CA", "postalCode": "V7S1H2", "twitter": "None", "instagram": "None", "facebook": "None", "youtube": "None", "website": "None", "summary": "None", "logo": "None", "latitude": 49.33795047157925, "longitude": -123.12651133236193}, "849770854RR0001": {"name": "Holiday Beach Migration Observatory", "designationCode": "C", "categoryCode": "54", "address": "66 RICHMOND ST.               P.O. BOX 92", "city": "AMHERSTBURG", "province": "ON", "country": "CA", "postalCode": "N9V2Z3", "twitter": "None", "instagram": "None", "facebook": "None", "youtube": "None", "website": "None", "summary": "None", "logo": "None", "latitude": 42.10267917684198, "longitude": -83.11179618194922}, "833273022RR0001": {"name": "Holiday Helpers Canada", "designationCode": "B", "categoryCode": "09", "address": "133 YARMOUTH ROAD", "city": "TORONTO", "province": "ON", "country": "CA", "postalCode": "M6G1X3", "twitter": "None", "instagram": "None", "facebook": "None", "youtube": "None", "website": "None", "summary": "None", "logo": "None", "latitude": 43.66930480209485, "longitude": -79.4241363985516}, "119288918RR1102": {"name": "Holiday Park Congregation of Jehovah's Witnesses, Saskatoon, Saskatchewan", "designationCode": "C", "categoryCode": "61", "address": "1030 AVE O S", "city": "SASKATOON", "province": "SK", "country": "CA", "postalCode": "S7M2T2", "twitter": "None", "instagram": "None", "facebook": "None", "youtube": "None", "website": "None", "summary": "None", "logo": "None", "latitude": 52.11487833527613, "longitude": -106.6917282250565}, "827137290RR0001": {"name": "Holiness Apostolic Tabernacle Inc.", "designationCode": "C", "categoryCode": "39", "address": "21 GORERIDGE CRESCENT", "city": "BRAMPTON", "province": "ON", "country": "CA", "postalCode": "L6P1P1", "twitter": "None", "instagram": "None", "facebook": "None", "youtube": "None", "website": "None", "summary": "None", "logo": "None", "latitude": 43.78193127145241, "longitude": -79.66376313875595}, "814387205RR0001": {"name": "Holiness Kingdom Ambassadors Ministries", "designationCode": "C", "categoryCode": "39", "address": "1 ANCESTOR DR", "city": "BRAMPTON", "province": "ON", "country": "CA", "postalCode": "L6X4Y2", "twitter": "None", "instagram": "None", "facebook": "None", "youtube": "None", "website": "None", "summary": "None", "logo": "None", "latitude": 43.680469631138585, "longitude": -79.8087173593977}, "822110466RR0001": {"name": "Holiness Power Church of Jesus Christ Apostolic Inc.", "designationCode": "C", "categoryCode": "39", "address": "29 BELLROCK DRIVE", "city": "TORONTO", "province": "ON", "country": "CA", "postalCode": "M1V2V8", "twitter": "None", "instagram": "None", "facebook": "None", "youtube": "None", "website": "None", "summary": "None", "logo": "None", "latitude": 43.81531395755656, "longitude": -79.29027643407014}, "829572353RR0001": {"name": "Holiness Worship Centre Inc", "designationCode": "C", "categoryCode": "39", "address": "3 GIFFORD GATE", "city": "BRAMPTON", "province": "ON", "country": "CA", "postalCode": "L6R0M1", "twitter": "None", "instagram": "None", "facebook": "None", "youtube": "None", "website": "None", "summary": "None", "logo": "None", "latitude": 43.77635471940101, "longitude": -79.74244597403208}, "813116316RR0001": {"name": "Holland Child Care Centre Inc.", "designationCode": "C", "categoryCode": "01", "address": "102 THOMPSON STREET", "city": "HOLLAND", "province": "MB", "country": "CA", "postalCode": "R0G0X0", "twitter": "None", "instagram": "None", "facebook": "None", "youtube": "None", "website": "None", "summary": "None", "logo": "None", "latitude": 49.59657000000001, "longitude": -98.88293924999999}, "838734812RR0001": {"name": "Holland Emmanuel Friends, Inc.", "designationCode": "C", "categoryCode": "52", "address": "PO BOX 236", "city": "HOLLAND", "province": "MB", "country": "CA", "postalCode": "R0G0X0", "twitter": "None", "instagram": "None", "facebook": "None", "youtube": "None", "website": "None", "summary": "None", "logo": "None", "latitude": 49.7686281543147, "longitude": -97.632704369717}, "838854081RR0001": {"name": "Holland Family Charitable Foundation", "designationCode": "B", "categoryCode": "03", "address": "2800 - 1280 RICHARDS ST", "city": "VANCOUVER", "province": "BC", "country": "CA", "postalCode": "V6B1S2", "twitter": "None", "instagram": "None", "facebook": "None", "youtube": "None", "website": "None", "summary": "None", "logo": "None", "latitude": 49.275090671648776, "longitude": -123.12539765471189}, "769409921RR0001": {"name": "Hollywood Arts Foundation", "designationCode": "A", "categoryCode": "03", "address": "1250 - 1500 GEORGIA ST W", "city": "VANCOUVER", "province": "BC", "country": "CA", "postalCode": "V6G2Z6", "twitter": "None", "instagram": "None", "facebook": "None", "youtube": "None", "website": "None", "summary": "None", "logo": "None", "latitude": 49.29013479542975, "longitude": -123.1300069287031}, "701575896RR0001": {"name": "Holmfield Charitable Trust", "designationCode": "B", "categoryCode": "45", "address": "1401 PRINCESS AVE", "city": "BRANDON", "province": "MB", "country": "CA", "postalCode": "R7A7L7", "twitter": "None", "instagram": "None", "facebook": "None", "youtube": "None", "website": "None", "summary": "None", "logo": "None", "latitude": 49.84694947489748, "longitude": -99.957294}, "890404163RR0001": {"name": "Holocaust Education and Genocide Prevention Foundation", "designationCode": "C", "categoryCode": "23", "address": "1438 RUE FULLUM", "city": "MONTREAL", "province": "QC", "country": "CA", "postalCode": "H2K3M1", "twitter": "None", "instagram": "None", "facebook": "None", "youtube": "None", "website": "None", "summary": "None", "logo": "None", "latitude": 45.527526891742276, "longitude": -73.54895464322803}, "767206923RR0001": {"name": "Holy of Holies Tabernacle Fire of God", "designationCode": "C", "categoryCode": "39", "address": "2154 CODLIN CRESCENT,", "city": "TORONTO", "province": "ON", "country": "CA", "postalCode": "M9W5K7", "twitter": "None", "instagram": "None", "facebook": "None", "youtube": "None", "website": "None", "summary": "None", "logo": "None", "latitude": 43.74950226787437, "longitude": -79.6362963415945}, "848623575RR0003": {"name": "Holy Angels Catholic Church", "designationCode": "C", "categoryCode": "38", "address": "40 CENTRE STREET              PO BOX 329", "city": "BRIGHTON", "province": "ON", "country": "CA", "postalCode": "K0K1H0", "twitter": "None", "instagram": "None", "facebook": "None", "youtube": "None", "website": "None", "summary": "None", "logo": "None", "latitude": 44.03794595446948, "longitude": -77.74058333325597}, "107910259RR0050": {"name": "Holy Angels Parish", "designationCode": "C", "categoryCode": "38", "address": "61 JUTLAND RD", "city": "TORONTO", "province": "ON", "country": "CA", "postalCode": "M8Z2G6", "twitter": "None", "instagram": "None", "facebook": "None", "youtube": "None", "website": "None", "summary": "None", "logo": "None", "latitude": 43.62838980873131, "longitude": -79.51934550830988}, "818775199RR0001": {"name": "Holy Apostles Orthodox Church", "designationCode": "C", "categoryCode": "39", "address": "114 - 51096 FALLS CRT", "city": "CHILLIWACK", "province": "BC", "country": "CA", "postalCode": "V4Z1K7", "twitter": "None", "instagram": "None", "facebook": "None", "youtube": "None", "website": "None", "summary": "None", "logo": "None", "latitude": 49.14993943493551, "longitude": -121.81788511241267}, "836868679RR0001": {"name": "Holy Apostles Renews - Cappahayden Cemetery Committee", "designationCode": "C", "categoryCode": "59", "address": "GENERAL DELIVERY", "city": "CAPPAHAYDEN", "province": "NL", "country": "CA", "postalCode": "A0A1S0", "twitter": "None", "instagram": "None", "facebook": "None", "youtube": "None", "website": "None", "summary": "None", "logo": "None", "latitude": 46.86285300000006, "longitude": -52.95747049999993}, "800855173RR0001": {"name": "Holy Community Covenant Church Incorporated", "designationCode": "C", "categoryCode": "39", "address": "1061 ELLICE AVENUE", "city": "WINNIPEG", "province": "MB", "country": "CA", "postalCode": "R3G0C9", "twitter": "None", "instagram": "None", "facebook": "None", "youtube": "None", "website": "None", "summary": "None", "logo": "None", "latitude": 49.89366351875456, "longitude": -97.18174308090484}, "824939243RR0001": {"name": "Holy Cross Historical Trust", "designationCode": "C", "categoryCode": "52", "address": "POST OFFICE BOX 8684", "city": "HALIFAX", "province": "NS", "country": "CA", "postalCode": "B3K5M4", "twitter": "None", "instagram": "None", "facebook": "None", "youtube": "None", "website": "None", "summary": "None", "logo": "None", "latitude": 44.645478000000054, "longitude": -63.576552499999934}, "107910259RR0051": {"name": "Holy Cross Parish", "designationCode": "C", "categoryCode": "38", "address": "291 COSBURN AVE", "city": "TORONTO", "province": "ON", "country": "CA", "postalCode": "M4J2M4", "twitter": "None", "instagram": "None", "facebook": "None", "youtube": "None", "website": "None", "summary": "None", "logo": "None", "latitude": 43.691270900340605, "longitude": -79.34101490285076}, "107910259RR0131": {"name": "Holy Cross Parish", "designationCode": "C", "categoryCode": "38", "address": "373 SIMCOE STREET SOUTH", "city": "OSHAWA", "province": "ON", "country": "CA", "postalCode": "L1H4J2", "twitter": "None", "instagram": "None", "facebook": "None", "youtube": "None", "website": "None", "summary": "None", "logo": "None", "latitude": 43.88790666890748, "longitude": -78.85915173457846}, "107585085RR0060": {"name": "Holy Cross Parish, Glaslyn Saskatchewan", "designationCode": "C", "categoryCode": "38", "address": "POST OFFICE BOX 385", "city": "GLASLYN", "province": "SK", "country": "CA", "postalCode": "S0M0Y0", "twitter": "None", "instagram": "None", "facebook": "None", "youtube": "None", "website": "None", "summary": "None", "logo": "None", "latitude": 53.36687000000006, "longitude": -108.35134999999997}, "848386553RR0001": {"name": "Holy Cross-St. Nektarios Greek Orthodox Parish of Barrie, Midland, Orillia and District", "designationCode": "C", "categoryCode": "39", "address": "P.O. BOX 453", "city": "BARRIE", "province": "ON", "country": "CA", "postalCode": "L4M4T7", "twitter": "None", "instagram": "None", "facebook": "None", "youtube": "None", "website": "None", "summary": "None", "logo": "None", "latitude": 44.38929300000005, "longitude": -79.68626449999994}, "128978772RR0001": {"name": "Holy Face Association - Association de la Sainte-Face", "designationCode": "C", "categoryCode": "47", "address": "124-10500 COTE DE LIESSE", "city": "LACHINE", "province": "QC", "country": "CA", "postalCode": "H8T1A5", "twitter": "None", "instagram": "None", "facebook": "None", "youtube": "None", "website": "None", "summary": "None", "logo": "None", "latitude": 45.46419160808485, "longitude": -73.71993492336566}, "836570952RR0001": {"name": "Holy Family Academy (Peterborough) Inc.", "designationCode": "C", "categoryCode": "20", "address": "17 DOURO SEVENTH LINE", "city": "DOURO-DUMMER", "province": "ON", "country": "CA", "postalCode": "K9J6Y1", "twitter": "None", "instagram": "None", "facebook": "None", "youtube": "None", "website": "None", "summary": "None", "logo": "None", "latitude": 44.33934260765143, "longitude": -78.22791589040455}, "848623575RR0004": {"name": "Holy Family Church", "designationCode": "C", "categoryCode": "38", "address": "HIGHWAY 526                   PO BOX 70", "city": "BRITT", "province": "ON", "country": "CA", "postalCode": "P0G1A0", "twitter": "None", "instagram": "None", "facebook": "None", "youtube": "None", "website": "None", "summary": "None", "logo": "None", "latitude": 45.78373291048947, "longitude": -80.54662992657347}, "107910259RR0226": {"name": "Holy Family Coptic Catholic Parish", "designationCode": "C", "categoryCode": "39", "address": "62 LUNNESS RD", "city": "ETOBICOKE", "province": "ON", "country": "CA", "postalCode": "M8W4M6", "twitter": "None", "instagram": "None", "facebook": "None", "youtube": "None", "website": "None", "summary": "None", "logo": "None", "latitude": 43.60681077101971, "longitude": -79.54621634612482}, "107910259RR0052": {"name": "Holy Family Parish", "designationCode": "C", "categoryCode": "38", "address": "1372 KING ST W", "city": "TORONTO", "province": "ON", "country": "CA", "postalCode": "M6K1H3", "twitter": "None", "instagram": "None", "facebook": "None", "youtube": "None", "website": "None", "summary": "None", "logo": "None", "latitude": 43.637559169051706, "longitude": -79.43425661977025}, "107910259RR0186": {"name": "Holy Family Parish", "designationCode": "C", "categoryCode": "38", "address": "60 ALLAN DRIVE", "city": "BOLTON", "province": "ON", "country": "CA", "postalCode": "L7E1P7", "twitter": "None", "instagram": "None", "facebook": "None", "youtube": "None", "website": "None", "summary": "None", "logo": "None", "latitude": 43.873439941976, "longitude": -79.72581215733761}, "107910259RR0187": {"name": "Holy Family Parish", "designationCode": "C", "categoryCode": "38", "address": "91 RIBBLESDALE DRIVE", "city": "WHITBY", "province": "ON", "country": "CA", "postalCode": "L1N6Z3", "twitter": "None", "instagram": "None", "facebook": "None", "youtube": "None", "website": "None", "summary": "None", "logo": "None", "latitude": 43.89370369637595, "longitude": -78.92953016495501}, "804359578RR0001": {"name": "Holy Fire Fellowship of Edmonton", "designationCode": "C", "categoryCode": "39", "address": "15015-118 AVENUE              PO BOX 44063 GARSIDE", "city": "EDMONTON", "province": "AB", "country": "CA", "postalCode": "T5V1H9", "twitter": "None", "instagram": "None", "facebook": "None", "youtube": "None", "website": "None", "summary": "None", "logo": "None", "latitude": 53.570385484563666, "longitude": -113.58002152553523}, "855916789RR0001": {"name": "Holy Fire Ministries of Canada", "designationCode": "C", "categoryCode": "39", "address": "209-28 KING ST. WEST", "city": "STONEY CREEK", "province": "ON", "country": "CA", "postalCode": "L8G1H4", "twitter": "None", "instagram": "None", "facebook": "None", "youtube": "None", "website": "None", "summary": "None", "logo": "None", "latitude": 43.218073453034016, "longitude": -79.7628588452823}, "841372709RR0001": {"name": "Holy Flame Ministries", "designationCode": "C", "categoryCode": "49", "address": "13589 KING GEORGE BLVD", "city": "SURREY", "province": "BC", "country": "CA", "postalCode": "V3T2V1", "twitter": "None", "instagram": "None", "facebook": "None", "youtube": "None", "website": "None", "summary": "None", "logo": "None", "latitude": 49.19930640586371, "longitude": -122.84564345432979}, "807122262RR0001": {"name": "Holy Forty Martyrs of Sebaste", "designationCode": "C", "categoryCode": "39", "address": "33 MOSLEY STREET", "city": "AURORA", "province": "ON", "country": "CA", "postalCode": "L4G1G8", "twitter": "None", "instagram": "None", "facebook": "None", "youtube": "None", "website": "None", "summary": "None", "logo": "None", "latitude": 43.998418834843434, "longitude": -79.46514765430786}, "800648214RR0001": {"name": "Holy Ghost Revival Ministry", "designationCode": "B", "categoryCode": "39", "address": "GENERAL DELIVERY", "city": "FORT MCKAY", "province": "AB", "country": "CA", "postalCode": "T0P1C0", "twitter": "None", "instagram": "None", "facebook": "None", "youtube": "None", "website": "None", "summary": "None", "logo": "None", "latitude": 57.24867713875007, "longitude": -111.66609156748787}, "843925199RR0001": {"name": "Holy Ground Tabernacle", "designationCode": "B", "categoryCode": "39", "address": "1763 PINE GROVE AVE", "city": "PICKERING", "province": "ON", "country": "CA", "postalCode": "L1V1K7", "twitter": "None", "instagram": "None", "facebook": "None", "youtube": "None", "website": "None", "summary": "None", "logo": "None", "latitude": 43.81755240244674, "longitude": -79.14755753592257}, "807821715RR0001": {"name": "Holy Heart Heritage Fund", "designationCode": "C", "categoryCode": "21", "address": "55 BONAVENTURE AVE.", "city": "ST. JOHN'S", "province": "NL", "country": "CA", "postalCode": "A1C3Z3", "twitter": "None", "instagram": "None", "facebook": "None", "youtube": "None", "website": "None", "summary": "None", "logo": "None", "latitude": 47.56887406714196, "longitude": -52.715254103294725}, "846988525RR0001": {"name": "Holy Lady of Vladimir Inc.", "designationCode": "C", "categoryCode": "39", "address": "28 EDMONTON PLACE", "city": "ST. JOHN'S", "province": "NL", "country": "CA", "postalCode": "A1A2N7", "twitter": "None", "instagram": "None", "facebook": "None", "youtube": "None", "website": "None", "summary": "None", "logo": "None", "latitude": 47.593997329447745, "longitude": -52.71021275226515}, "107910259RR0116": {"name": "Holy Martyrs of Japan Parish", "designationCode": "C", "categoryCode": "38", "address": "P.O.BOX 1180", "city": "BRADFORD", "province": "ON", "country": "CA", "postalCode": "L3Z2B6", "twitter": "None", "instagram": "None", "facebook": "None", "youtube": "None", "website": "None", "summary": "None", "logo": "None", "latitude": 44.11482000000005, "longitude": -79.56249199999993}, "762151298RR0001": {"name": "Holy Myrrhbearers Orthodox Mission", "designationCode": "C", "categoryCode": "39", "address": "348 DELORAINE AVE", "city": "NORTH YORK", "province": "ON", "country": "CA", "postalCode": "M5M2B6", "twitter": "None", "instagram": "None", "facebook": "None", "youtube": "None", "website": "None", "summary": "None", "logo": "None", "latitude": 43.731303190691776, "longitude": -79.41695925895893}, "107910259RR0053": {"name": "Holy Name Parish", "designationCode": "C", "categoryCode": "38", "address": "71 GOUGH AVE", "city": "TORONTO", "province": "ON", "country": "CA", "postalCode": "M4K3N9", "twitter": "None", "instagram": "None", "facebook": "None", "youtube": "None", "website": "None", "summary": "None", "logo": "None", "latitude": 43.679337474609, "longitude": -79.3462891764962}, "804776912RR0001": {"name": "Holy Nations Revival Church Corp.", "designationCode": "C", "categoryCode": "39", "address": "110 MAITLAND STREET", "city": "BRAMPTON", "province": "ON", "country": "CA", "postalCode": "L6S3M9", "twitter": "None", "instagram": "None", "facebook": "None", "youtube": "None", "website": "None", "summary": "None", "logo": "None", "latitude": 43.73270804134693, "longitude": -79.73755838216297}, "872666110RR0001": {"name": "Holy Nativity Antiochian Orthodox Church", "designationCode": "C", "categoryCode": "39", "address": "9 - 19560 68 AVE", "city": "SURREY", "province": "BC", "country": "CA", "postalCode": "V4N5Y5", "twitter": "None", "instagram": "None", "facebook": "None", "youtube": "None", "website": "None", "summary": "None", "logo": "None", "latitude": 49.126316543424394, "longitude": -122.68142002553523}, "107910259RR0114": {"name": "Holy Redeemer Parish", "designationCode": "C", "categoryCode": "38", "address": "796 EYER DR", "city": "PICKERING", "province": "ON", "country": "CA", "postalCode": "L1W3C2", "twitter": "None", "instagram": "None", "facebook": "None", "youtube": "None", "website": "None", "summary": "None", "logo": "None", "latitude": 43.816351176841984, "longitude": -79.1101073751225}, "107910259RR0054": {"name": "Holy Rosary Parish", "designationCode": "C", "categoryCode": "38", "address": "354 ST CLAIR AVE W", "city": "YORK", "province": "ON", "country": "CA", "postalCode": "M5P1N4", "twitter": "None", "instagram": "None", "facebook": "None", "youtube": "None", "website": "None", "summary": "None", "logo": "None", "latitude": 43.68415519790516, "longitude": -79.4137890431646}, "119078855RR0001": {"name": "Holy Spirit Anglican Church", "designationCode": "C", "categoryCode": "30", "address": "27123 RIVER RD", "city": "MAPLE RIDGE", "province": "BC", "country": "CA", "postalCode": "V2W1M4", "twitter": "None", "instagram": "None", "facebook": "None", "youtube": "None", "website": "None", "summary": "None", "logo": "None", "latitude": 49.175400905937856, "longitude": -122.47046823082661}, "107910259RR0055": {"name": "Holy Spirit Parish", "designationCode": "C", "categoryCode": "38", "address": "3526 SHEPPARD AVE EAST", "city": "AGINCOURT", "province": "ON", "country": "CA", "postalCode": "M1T3K7", "twitter": "None", "instagram": "None", "facebook": "None", "youtube": "None", "website": "None", "summary": "None", "logo": "None", "latitude": 43.78011410744968, "longitude": -79.30223987803669}, "845547892RR0001": {"name": "Holy Transfiguration Monastic Fraternity", "designationCode": "C", "categoryCode": "39", "address": "7568 HIGH COUNTRY ROAD", "city": "LONE BUTTE", "province": "BC", "country": "CA", "postalCode": "V0K1X2", "twitter": "None", "instagram": "None", "facebook": "None", "youtube": "None", "website": "None", "summary": "None", "logo": "None", "latitude": 51.48217860308664, "longitude": -120.78569252785924}, "108084658RR0126": {"name": "Holy Trinity Anglican Church Radford", "designationCode": "C", "categoryCode": "30", "address": "C430 7TH CONCESSION", "city": "CLARENDON", "province": "QC", "country": "CA", "postalCode": "J0X2Y0", "twitter": "None", "instagram": "None", "facebook": "None", "youtube": "None", "website": "None", "summary": "None", "logo": "None", "latitude": 45.62850391589184, "longitude": -76.52573721145933}, "118961226RR0001": {"name": "Holy Trinity Church, Denison's Mills", "designationCode": "C", "categoryCode": "30", "address": "545 DENISON ROAD", "city": "RICHMOND", "province": "QC", "country": "CA", "postalCode": "J0B2H0", "twitter": "None", "instagram": "None", "facebook": "None", "youtube": "None", "website": "None", "summary": "None", "logo": "None", "latitude": 45.742110748867624, "longitude": -72.09974666934932}, "814003653RR0001": {"name": "Holy Trinity Ethiopian Orthodox Tewahedo Church Corporation", "designationCode": "C", "categoryCode": "39", "address": "420 ABERDEEN AVE", "city": "HAMILTON", "province": "ON", "country": "CA", "postalCode": "L8P2R5", "twitter": "None", "instagram": "None", "facebook": "None", "youtube": "None", "website": "None", "summary": "None", "logo": "None", "latitude": 43.250935074124165, "longitude": -79.89226570967749}, "119109817RR0035": {"name": "Holy Trinity Parish", "designationCode": "C", "categoryCode": "38", "address": "1420 DEVONSHIRE AVENUE", "city": "WOODSTOCK", "province": "ON", "country": "CA", "postalCode": "N4S7V9", "twitter": "None", "instagram": "None", "facebook": "None", "youtube": "None", "website": "None", "summary": "None", "logo": "None", "latitude": 43.14863665883817, "longitude": -80.71535702602617}, "108094392RR0035": {"name": "Holy Trinity Parish - Trail", "designationCode": "C", "categoryCode": "38", "address": "2012 THIRD AVENUE", "city": "TRAIL", "province": "BC", "country": "CA", "postalCode": "V1R1R7", "twitter": "None", "instagram": "None", "facebook": "None", "youtube": "None", "website": "None", "summary": "None", "logo": "None", "latitude": 49.09694384314592, "longitude": -117.69450679098716}, "883428203RR0001": {"name": "Holy Trinity Roumanian Orthodox Parish", "designationCode": "C", "categoryCode": "52", "address": "BOX 218", "city": "PIERCELAND", "province": "SK", "country": "CA", "postalCode": "S0M2K0", "twitter": "None", "instagram": "None", "facebook": "None", "youtube": "None", "website": "None", "summary": "None", "logo": "None", "latitude": 54.333480000000066, "longitude": -109.76833999999997}, "118863794RR0001": {"name": "Holy Trinity, Clearview", "designationCode": "C", "categoryCode": "30", "address": "460 TENTH ST", "city": "COLLINGWOOD", "province": "ON", "country": "CA", "postalCode": "L9Y2G8", "twitter": "None", "instagram": "None", "facebook": "None", "youtube": "None", "website": "None", "summary": "None", "logo": "None", "latitude": 44.48882437996995, "longitude": -80.22125365237463}, "865569842RR0001": {"name": "Hom'asculin Port Cartier", "designationCode": "C", "categoryCode": "11", "address": "3 RUE DES PINS", "city": "PORT-CARTIER", "province": "QC", "country": "CA", "postalCode": "G5B2A4", "twitter": "None", "instagram": "None", "facebook": "None", "youtube": "None", "website": "None", "summary": "None", "logo": "None", "latitude": 50.0202848751225, "longitude": -66.87586487027507}, "830513750RR0001": {"name": "Homburg Charitable Foundation", "designationCode": "B", "categoryCode": "03", "address": "1741 BRUNSWICK STREET         SUITE 600", "city": "HALIFAX", "province": "NS", "country": "CA", "postalCode": "B3J3X8", "twitter": "None", "instagram": "None", "facebook": "None", "youtube": "None", "website": "None", "summary": "None", "logo": "None", "latitude": 44.64724582737028, "longitude": -63.57701889243475}, "848475687RR0001": {"name": "Home for Every Child Adoption Society", "designationCode": "C", "categoryCode": "09", "address": "1250-1500 WEST GEORGIA ST     BOX 62", "city": "VANCOUVER", "province": "BC", "country": "CA", "postalCode": "V6G2Z6", "twitter": "None", "instagram": "None", "facebook": "None", "youtube": "None", "website": "None", "summary": "None", "logo": "None", "latitude": 49.290187500000016, "longitude": -123.130035}, "829784388RR0001": {"name": "Home of Good Hope in Namibia Foundation", "designationCode": "C", "categoryCode": "09", "address": "505 - 1178 BEACH DR", "city": "VICTORIA", "province": "BC", "country": "CA", "postalCode": "V8S2M9", "twitter": "None", "instagram": "None", "facebook": "None", "youtube": "None", "website": "None", "summary": "None", "logo": "None", "latitude": 48.41994721619835, "longitude": -123.29997858580958}, "846863082RR0001": {"name": "Home on the Hill Supportive Housing", "designationCode": "C", "categoryCode": "09", "address": "209 HARDING BOULEVARD WEST,", "city": "RICHMOND HILL", "province": "ON", "country": "CA", "postalCode": "L4C8X6", "twitter": "None", "instagram": "None", "facebook": "None", "youtube": "None", "website": "None", "summary": "None", "logo": "None", "latitude": 43.86720752120741, "longitude": -79.44694200054826}, "832588040RR0001": {"name": "Home on the Range Autism Ranch Society", "designationCode": "C", "categoryCode": "01", "address": "25-51107 RANGE ROAD 221", "city": "SHERWOOD PARK", "province": "AB", "country": "CA", "postalCode": "T8E1G8", "twitter": "None", "instagram": "None", "facebook": "None", "youtube": "None", "website": "None", "summary": "None", "logo": "None", "latitude": 53.382397466241805, "longitude": -113.119452}, "826650715RR0001": {"name": "Home Again", "designationCode": "C", "categoryCode": "54", "address": "R.R. #1", "city": "L'AMABLE", "province": "ON", "country": "CA", "postalCode": "K0L2L0", "twitter": "None", "instagram": "None", "facebook": "None", "youtube": "None", "website": "None", "summary": "None", "logo": "None", "latitude": 45.01671299465787, "longitude": -77.78741311963726}, "119091031RR0001": {"name": "Home Church - Red Deer, Alberta", "designationCode": "C", "categoryCode": "39", "address": "37557 HIGHWAY 2A", "city": "RED DEER COUNTY", "province": "AB", "country": "CA", "postalCode": "T4E1S2", "twitter": "None", "instagram": "None", "facebook": "None", "youtube": "None", "website": "None", "summary": "None", "logo": "None", "latitude": 52.22974494678577, "longitude": -113.81390447218878}, "846261220RR0001": {"name": "Home From The Sea Foundation Inc.", "designationCode": "C", "categoryCode": "52", "address": "P.O. BOX 187", "city": "ELLISTON", "province": "NL", "country": "CA", "postalCode": "A0C1N0", "twitter": "None", "instagram": "None", "facebook": "None", "youtube": "None", "website": "None", "summary": "None", "logo": "None", "latitude": 48.65709053651393, "longitude": -53.09103299191166}, "820756237RR0001": {"name": "Home Group Ministry Inc.", "designationCode": "C", "categoryCode": "39", "address": "P.O. BOX 1128", "city": "ALEXANDRIA", "province": "ON", "country": "CA", "postalCode": "K0C1A0", "twitter": "None", "instagram": "None", "facebook": "None", "youtube": "None", "website": "None", "summary": "None", "logo": "None", "latitude": 45.324006000000054, "longitude": -74.57325649999993}, "835877580RR0001": {"name": "Home Hospice Association", "designationCode": "C", "categoryCode": "11", "address": "3802 - 2220 LAKE SHORE BLVD W", "city": "ETOBICOKE", "province": "ON", "country": "CA", "postalCode": "M8V0C1", "twitter": "None", "instagram": "None", "facebook": "None", "youtube": "None", "website": "None", "summary": "None", "logo": "None", "latitude": 43.6086218892631, "longitude": -79.49033377478737}, "720891522RR0001": {"name": "Home Instead Senior Care Foundation of Canada", "designationCode": "A", "categoryCode": "03", "address": "21 BELMONT ST", "city": "TORONTO", "province": "ON", "country": "CA", "postalCode": "M5R1P9", "twitter": "None", "instagram": "None", "facebook": "None", "youtube": "None", "website": "None", "summary": "None", "logo": "None", "latitude": 43.67533285316529, "longitude": -79.38998467262972}, "805720794RR0001": {"name": "Homeless and Injured Animal Rescue of Canada Inc.", "designationCode": "C", "categoryCode": "54", "address": "210 LAUREL BAY", "city": "OAKBANK", "province": "MB", "country": "CA", "postalCode": "R0E1J1", "twitter": "None", "instagram": "None", "facebook": "None", "youtube": "None", "website": "None", "summary": "None", "logo": "None", "latitude": 49.933300643603395, "longitude": -96.85289090120598}}