{"811132455RR0001": {"name": "Canadian Association for Numismatic Education / Association Canadienne pour l'education numismatique", "designationCode": "C", "categoryCode": "29", "address": "5694 HIGHWAY 7 EAST           SUITE 432", "city": "MARKHAM", "province": "ON", "country": "CA", "postalCode": "L3P1B4", "twitter": "None", "instagram": "None", "facebook": "None", "youtube": "None", "website": "None", "summary": "None", "logo": "None", "latitude": 43.87119429489665, "longitude": -79.26849823775547}, "841384084RR0001": {"name": "Canadian Association for Osteopathic Research", "designationCode": "C", "categoryCode": "21", "address": "80 BURNS BLVD                 SUITE 233", "city": "KING CITY", "province": "ON", "country": "CA", "postalCode": "L7B0B3", "twitter": "None", "instagram": "None", "facebook": "None", "youtube": "None", "website": "None", "summary": "None", "logo": "None", "latitude": 43.92595345630624, "longitude": -79.53556621739764}, "812825735RR0001": {"name": "Canadian Association for Porphyria/ Association Canadi enne de Porphyrie", "designationCode": "C", "categoryCode": "11", "address": "13604 108 AVE NW", "city": "EDMONTON", "province": "AB", "country": "CA", "postalCode": "T5M2C8", "twitter": "None", "instagram": "None", "facebook": "None", "youtube": "None", "website": "None", "summary": "None", "logo": "None", "latitude": 53.552559518754556, "longitude": -113.557662}, "879710622RR0001": {"name": "Canadian Association for Prenatal Education", "designationCode": "C", "categoryCode": "11", "address": "7770 JAFFRAY-BAYNES LAKE RD   PO BOX 280", "city": "JAFFRAY", "province": "BC", "country": "CA", "postalCode": "V0B1T0", "twitter": "None", "instagram": "None", "facebook": "None", "youtube": "None", "website": "None", "summary": "None", "logo": "None", "latitude": 49.355841710384716, "longitude": -115.29862663718619}, "817041932RR0001": {"name": "Canadian Association for Single Parents/ Association canadi enne pour parents seuls", "designationCode": "C", "categoryCode": "59", "address": "2379 CORTINA DRIVE SOUTHWEST", "city": "CALGARY", "province": "AB", "country": "CA", "postalCode": "T3H0L7", "twitter": "None", "instagram": "None", "facebook": "None", "youtube": "None", "website": "None", "summary": "None", "logo": "None", "latitude": 51.0348692098217, "longitude": -114.22191481516525}, "118829449RR0001": {"name": "Canadian Association for Social Work Education / Association canadienne pour la formation en travail social", "designationCode": "C", "categoryCode": "21", "address": "410 - 383 PARKDALE AVE", "city": "OTTAWA", "province": "ON", "country": "CA", "postalCode": "K1Y4R4", "twitter": "None", "instagram": "None", "facebook": "None", "youtube": "None", "website": "None", "summary": "None", "logo": "None", "latitude": 45.40133627644406, "longitude": -75.72942224989922}, "118793835RR0001": {"name": "Canadian Association for Theatre Research/Association canadienne de la recherche th\u00e9\u00e2trale", "designationCode": "C", "categoryCode": "22", "address": "50 WOLFREY AVE", "city": "TORONTO", "province": "ON", "country": "CA", "postalCode": "M4K1K8", "twitter": "None", "instagram": "None", "facebook": "None", "youtube": "None", "website": "None", "summary": "None", "logo": "None", "latitude": 43.674699205118515, "longitude": -79.35484664960467}, "122205370RR0001": {"name": "Canadian Association for University Continuing Education- Association pour l'\u00e9ducation permanente dans les universit\u00e9s du Canada", "designationCode": "C", "categoryCode": "21", "address": "464 WILLIAMS BUILDING         221 CUMBERLAND AVE N", "city": "SASKATOON", "province": "SK", "country": "CA", "postalCode": "S7N1M3", "twitter": "None", "instagram": "None", "facebook": "None", "youtube": "None", "website": "None", "summary": "None", "logo": "None", "latitude": 52.12552500000001, "longitude": -106.63464672664395}, "108075003RR0001": {"name": "Canadian Association of the Deaf / Association des Sourds du Canada", "designationCode": "C", "categoryCode": "11", "address": "606-251 BANK ST", "city": "OTTAWA", "province": "ON", "country": "CA", "postalCode": "K2P1X3", "twitter": "None", "instagram": "None", "facebook": "None", "youtube": "None", "website": "None", "summary": "None", "logo": "None", "latitude": 45.41620551263771, "longitude": -75.69703608976297}, "872733217RR0001": {"name": "Canadian Association of Accredited Mortgage Professionals Foundation Fondation Association Canadienne Des Conseillers Hypoth\u00e9caires Accr\u00e9dit\u00e9s", "designationCode": "A", "categoryCode": "21", "address": "401 - 2005 SHEPPARD AVE E", "city": "NORTH YORK", "province": "ON", "country": "CA", "postalCode": "M2J5B4", "twitter": "None", "instagram": "None", "facebook": "None", "youtube": "None", "website": "None", "summary": "None", "logo": "None", "latitude": 43.77572210359478, "longitude": -79.34397475891957}, "806634754RR0001": {"name": "Canadian Association of Geographers/ L'association canadienne des g\u00e9ographes", "designationCode": "C", "categoryCode": "21", "address": "805 SHERBROOKE STREET WEST    ROOM 425", "city": "MONTR\u00c9AL", "province": "QC", "country": "CA", "postalCode": "H3A2K6", "twitter": "None", "instagram": "None", "facebook": "None", "youtube": "None", "website": "None", "summary": "None", "logo": "None", "latitude": 45.504376705434126, "longitude": -73.57417115774301}, "889243648RR0001": {"name": "Canadian Association of Schools of Nursing / Association Canadienne des \u00e9coles de sciences infirmi\u00e8res", "designationCode": "C", "categoryCode": "21", "address": "1145 HUNT CLUB ROAD           UNIT 450", "city": "OTTAWA", "province": "ON", "country": "CA", "postalCode": "K1V0Y3", "twitter": "None", "instagram": "None", "facebook": "None", "youtube": "None", "website": "None", "summary": "None", "logo": "None", "latitude": 45.35138339304035, "longitude": -75.65210229159193}, "802927103RR0001": {"name": "Canadian Atacama Telescope Consortium", "designationCode": "C", "categoryCode": "21", "address": "NEEDLES HALL 1101             UNIVERSITY OF WATERLOO", "city": "WATERLOO", "province": "ON", "country": "CA", "postalCode": "N2L3G1", "twitter": "None", "instagram": "None", "facebook": "None", "youtube": "None", "website": "None", "summary": "None", "logo": "None", "latitude": 43.46886000000006, "longitude": -80.53912999999994}, "106843055RR0001": {"name": "Canadian Authors Association", "designationCode": "C", "categoryCode": "81", "address": "6 WEST STREET NORTH", "city": "ORILLIA", "province": "ON", "country": "CA", "postalCode": "L3V5B8", "twitter": "None", "instagram": "None", "facebook": "None", "youtube": "None", "website": "None", "summary": "None", "logo": "None", "latitude": 44.60844708916149, "longitude": -79.41971939277369}, "820899193RR0001": {"name": "Canadian Aweil Youth Association", "designationCode": "C", "categoryCode": "21", "address": "65 HANSON AVE", "city": "KITCHENER", "province": "ON", "country": "CA", "postalCode": "N2C2H6", "twitter": "None", "instagram": "None", "facebook": "None", "youtube": "None", "website": "None", "summary": "None", "logo": "None", "latitude": 43.42534500885816, "longitude": -80.4717904158056}, "759947120RR0001": {"name": "Canadian Awqaf Foundation", "designationCode": "A", "categoryCode": "03", "address": "6911 142 AVE NW", "city": "EDMONTON", "province": "AB", "country": "CA", "postalCode": "T5C2P1", "twitter": "None", "instagram": "None", "facebook": "None", "youtube": "None", "website": "None", "summary": "None", "logo": "None", "latitude": 53.60428568552723, "longitude": -113.44851551041602}, "132258740RR0001": {"name": "Canadian AIDS Treatment Information Exchange / R\u00e9seau canadien d'info-traitements sida", "designationCode": "C", "categoryCode": "13", "address": "505-555 RICHMOND STREET WEST  BOX 1104", "city": "TORONTO", "province": "ON", "country": "CA", "postalCode": "M5V3B1", "twitter": "None", "instagram": "None", "facebook": "None", "youtube": "None", "website": "None", "summary": "None", "logo": "None", "latitude": 43.64792255983254, "longitude": -79.39538964100468}, "119276228RR0001": {"name": "Canadian Baptists of Atlantic Canada", "designationCode": "C", "categoryCode": "31", "address": "1655 MANAWAGONISH ROAD", "city": "SAINT JOHN", "province": "NB", "country": "CA", "postalCode": "E2M3Y2", "twitter": "None", "instagram": "None", "facebook": "None", "youtube": "None", "website": "None", "summary": "None", "logo": "None", "latitude": 45.23534426949051, "longitude": -66.12394540423574}, "892324849RR0001": {"name": "Canadian Baptists of Norfolk", "designationCode": "C", "categoryCode": "39", "address": "2 NORMANDY COURT, BOX 1313", "city": "WATERFORD", "province": "ON", "country": "CA", "postalCode": "N0E1Y0", "twitter": "None", "instagram": "None", "facebook": "None", "youtube": "None", "website": "None", "summary": "None", "logo": "None", "latitude": 42.92659761281671, "longitude": -80.28504737607479}, "118799071RR0001": {"name": "Canadian Baptists of Ontario and Quebec", "designationCode": "C", "categoryCode": "31", "address": "5 INTERNATIONAL BLVD", "city": "ETOBICOKE", "province": "ON", "country": "CA", "postalCode": "M9W6H3", "twitter": "None", "instagram": "None", "facebook": "None", "youtube": "None", "website": "None", "summary": "None", "logo": "None", "latitude": 43.67705782705315, "longitude": -79.59016536620705}, "119215036RR0001": {"name": "Canadian Baptists of Western Canada", "designationCode": "C", "categoryCode": "31", "address": "201 - 221 10 AVE SE", "city": "CALGARY", "province": "AB", "country": "CA", "postalCode": "T2G0V9", "twitter": "None", "instagram": "None", "facebook": "None", "youtube": "None", "website": "None", "summary": "None", "logo": "None"}, "825529282RR0001": {"name": "Canadian Bhutanese Society", "designationCode": "B", "categoryCode": "48", "address": "2810 5 AVE N", "city": "LETHBRIDGE", "province": "AB", "country": "CA", "postalCode": "T1H0P1", "twitter": "None", "instagram": "None", "facebook": "None", "youtube": "None", "website": "None", "summary": "None", "logo": "None", "latitude": 49.70552567653626, "longitude": -112.80128085297949}, "825738685RR0001": {"name": "Canadian Bible Centre", "designationCode": "C", "categoryCode": "39", "address": "52 BATEMAN DRIVE", "city": "OTTAWA", "province": "ON", "country": "CA", "postalCode": "K2G5H4", "twitter": "None", "instagram": "None", "facebook": "None", "youtube": "None", "website": "None", "summary": "None", "logo": "None", "latitude": 45.32545591369946, "longitude": -75.77659225921872}, "834195224RR0001": {"name": "Canadian Blind Hockey", "designationCode": "C", "categoryCode": "56", "address": "1929 BAYVIEW AVE", "city": "EAST YORK", "province": "ON", "country": "CA", "postalCode": "M4G3E8", "twitter": "None", "instagram": "None", "facebook": "None", "youtube": "None", "website": "None", "summary": "None", "logo": "None", "latitude": 43.71726697391652, "longitude": -79.37817360248759}, "873694863RR0001": {"name": "Canadian Blood and Marrow Transplant Group", "designationCode": "C", "categoryCode": "11", "address": "301 - 750 PENDER ST W", "city": "VANCOUVER", "province": "BC", "country": "CA", "postalCode": "V6C2T7", "twitter": "None", "instagram": "None", "facebook": "None", "youtube": "None", "website": "None", "summary": "None", "logo": "None", "latitude": 49.28504724089025, "longitude": -123.11557041748901}, "836612804RR0001": {"name": "Canadian Breast Cancer Support Fund", "designationCode": "C", "categoryCode": "11", "address": "1002-39 OLD MILL RD", "city": "ETOBICOKE", "province": "ON", "country": "CA", "postalCode": "M8X1G6", "twitter": "None", "instagram": "None", "facebook": "None", "youtube": "None", "website": "None", "summary": "None", "logo": "None", "latitude": 43.65116252669, "longitude": -79.49388553817293}, "836318303RR0001": {"name": "Canadian Bridge of Hope Society", "designationCode": "B", "categoryCode": "09", "address": "115 STRATTON ROAD SOUTHEAST", "city": "MEDICINE HAT", "province": "AB", "country": "CA", "postalCode": "T1B0G1", "twitter": "None", "instagram": "None", "facebook": "None", "youtube": "None", "website": "None", "summary": "None", "logo": "None", "latitude": 49.993440013878455, "longitude": -110.68201965638534}, "805509775RR0001": {"name": "Canadian Cancer Prevention Centre Foundation", "designationCode": "A", "categoryCode": "03", "address": "4653 DRUMMOND DR", "city": "VANCOUVER", "province": "BC", "country": "CA", "postalCode": "V6R1E8", "twitter": "None", "instagram": "None", "facebook": "None", "youtube": "None", "website": "None", "summary": "None", "logo": "None", "latitude": 49.271879775751565, "longitude": -123.21390928599469}, "834540882RR0001": {"name": "Canadian Cancer Survivor Network", "designationCode": "C", "categoryCode": "11", "address": "1750 COURTWOOD CRESENT        SUITE 210", "city": "OTTAWA", "province": "ON", "country": "CA", "postalCode": "K2C2B5", "twitter": "None", "instagram": "None", "facebook": "None", "youtube": "None", "website": "None", "summary": "None", "logo": "None", "latitude": 45.37135709908248, "longitude": -75.7496650590632}, "867857443RR0001": {"name": "Canadian Cardiovascular Society Academy/Acad\u00e9mie de la Soci\u00e9t\u00e9 canadienne de cardiologie", "designationCode": "C", "categoryCode": "11", "address": "1100 - 222 QUEEN ST", "city": "OTTAWA", "province": "ON", "country": "CA", "postalCode": "K1P5V9", "twitter": "None", "instagram": "None", "facebook": "None", "youtube": "None", "website": "None", "summary": "None", "logo": "None", "latitude": 45.42139508037323, "longitude": -75.698793}, "128957461RR0001": {"name": "Canadian Career Development Foundation/ Fondation canadienne pour le d\u00e9veloppement de carri\u00e8re", "designationCode": "C", "categoryCode": "11", "address": "202-119 ROSS AVE", "city": "OTTAWA", "province": "ON", "country": "CA", "postalCode": "K1Y0N6", "twitter": "None", "instagram": "None", "facebook": "None", "youtube": "None", "website": "None", "summary": "None", "logo": "None", "latitude": 45.39881164585375, "longitude": -75.73744397778299}, "814108346RR0001": {"name": "Canadian Carmelite Charitable Society", "designationCode": "C", "categoryCode": "01", "address": "1161 BROUGHTON STREET", "city": "VANCOUVER", "province": "BC", "country": "CA", "postalCode": "V6G2B3", "twitter": "None", "instagram": "None", "facebook": "None", "youtube": "None", "website": "None", "summary": "None", "logo": "None", "latitude": 49.28423720457026, "longitude": -123.1355869287031}, "867678286RR0001": {"name": "Canadian Catholic Campus Ministry / Pastorale universitaire et coll\u00e9giale catholique du Canada", "designationCode": "C", "categoryCode": "39", "address": "PO BOX 247 STN MAIN", "city": "NANOOSE BAY", "province": "BC", "country": "CA", "postalCode": "V9P9J9", "twitter": "None", "instagram": "None", "facebook": "None", "youtube": "None", "website": "None", "summary": "None", "logo": "None", "latitude": 49.28721900000005, "longitude": -124.14082399999992}, "803857085RR0001": {"name": "Canadian Cattlemen's Foundation", "designationCode": "C", "categoryCode": "29", "address": "180 - 6815 8 ST NE", "city": "CALGARY", "province": "AB", "country": "CA", "postalCode": "T2E7H7", "twitter": "None", "instagram": "None", "facebook": "None", "youtube": "None", "website": "None", "summary": "None", "logo": "None", "latitude": 51.114518748542906, "longitude": -114.04459772525804}, "119218691RR0001": {"name": "Canadian Celiac Association, L'association canadienne de la maladie Coeliaque, Calgary Chapter", "designationCode": "C", "categoryCode": "11", "address": "1A - 2215 27 AVE NE", "city": "CALGARY", "province": "AB", "country": "CA", "postalCode": "T2E7M4", "twitter": "None", "instagram": "None", "facebook": "None", "youtube": "None", "website": "None", "summary": "None", "logo": "None", "latitude": 51.07687047345517, "longitude": -114.0085829701656}, "801775974RR0001": {"name": "Canadian Centre for the Great War / Centre Canadien pour la Grande Guerre", "designationCode": "C", "categoryCode": "50", "address": "202 - 5524 RUE SAINT-PATRICK", "city": "MONTREAL", "province": "QC", "country": "CA", "postalCode": "H4E1A8", "twitter": "None", "instagram": "None", "facebook": "None", "youtube": "None", "website": "None", "summary": "None", "logo": "None", "latitude": 45.46421466968689, "longitude": -73.5958637224021}, "806245981RR0001": {"name": "Canadian Centre for Arts and Technology Society", "designationCode": "C", "categoryCode": "20", "address": "1250-1500 GEORGIA W ST        BOX 62", "city": "VANCOUVER", "province": "BC", "country": "CA", "postalCode": "V6G2Z6", "twitter": "None", "instagram": "None", "facebook": "None", "youtube": "None", "website": "None", "summary": "None", "logo": "None", "latitude": 49.290187500000016, "longitude": -123.130035}, "819296690RR0001": {"name": "Canadian Centre for Child Honouring Society", "designationCode": "C", "categoryCode": "21", "address": "PO BOX 737", "city": "SALT SPRINGS ISLAND", "province": "BC", "country": "CA", "postalCode": "V8K2W3", "twitter": "None", "instagram": "None", "facebook": "None", "youtube": "None", "website": "None", "summary": "None", "logo": "None", "latitude": 48.85955700000005, "longitude": -123.50808349999994}, "106844822RR0001": {"name": "Canadian Centre for Diversity and Inclusion/Centre canadien pour la diversit\u00e9 et l'inclusion", "designationCode": "C", "categoryCode": "09", "address": "820-2 CARLTON STREET", "city": "TORONTO", "province": "ON", "country": "CA", "postalCode": "M5B1J3", "twitter": "None", "instagram": "None", "facebook": "None", "youtube": "None", "website": "None", "summary": "None", "logo": "None", "latitude": 43.66142348211082, "longitude": -79.38282201832186}, "847779204RR0001": {"name": "Canadian Centre for Food Integrity", "designationCode": "A", "categoryCode": "59", "address": "205 - 100 STONE RD W", "city": "GUELPH", "province": "ON", "country": "CA", "postalCode": "N1G5L3", "twitter": "None", "instagram": "None", "facebook": "None", "youtube": "None", "website": "None", "summary": "None", "logo": "None", "latitude": 43.51778200566344, "longitude": -80.23663757119738}, "863207981RR0001": {"name": "Canadian Centre for Gender & Sexual Diversity/ Le centre canadien de la diversit\u00e9 des genres et de la sexualit\u00e9", "designationCode": "C", "categoryCode": "09", "address": "370 CHURCHILL AVE             SUITE 301", "city": "OTTAWA", "province": "ON", "country": "CA", "postalCode": "K1Z5C2", "twitter": "None", "instagram": "None", "facebook": "None", "youtube": "None", "website": "None", "summary": "None", "logo": "None", "latitude": 45.393047109902525, "longitude": -75.75449130019027}, "810031864RR0001": {"name": "Canadian Centre for Horticultural Research and Innovation Inc.", "designationCode": "C", "categoryCode": "21", "address": "4890 VICTORIA AVENUE NORTH    BOX 4000", "city": "VINELAND", "province": "ON", "country": "CA", "postalCode": "L0R2E0", "twitter": "None", "instagram": "None", "facebook": "None", "youtube": "None", "website": "None", "summary": "None", "logo": "None", "latitude": 43.15407470341753, "longitude": -79.39297220483294}, "817580939RR0001": {"name": "Canadian Centre for Male Survivors of Child Sexual Abuse", "designationCode": "C", "categoryCode": "09", "address": "74058-148 555 STRATHCONA BLVD SOUTHWEST", "city": "CALGARY", "province": "AB", "country": "CA", "postalCode": "T3H2Z9", "twitter": "None", "instagram": "None", "facebook": "None", "youtube": "None", "website": "None", "summary": "None", "logo": "None", "latitude": 51.048614964481466, "longitude": -114.18470687082332}, "124146473RR0001": {"name": "Canadian Centre for Policy Alternatives / Centre canadien depolitiques alternatives", "designationCode": "C", "categoryCode": "20", "address": "251 BANK STREET               5E \u00c9TAGE", "city": "OTTAWA", "province": "ON", "country": "CA", "postalCode": "K2P1X3", "twitter": "None", "instagram": "None", "facebook": "None", "youtube": "None", "website": "None", "summary": "None", "logo": "None", "latitude": 45.41620551263771, "longitude": -75.69703608976297}, "836112433RR0001": {"name": "Canadian Chiari Association", "designationCode": "C", "categoryCode": "11", "address": "PO BOX 13097 STN KANATA", "city": "KANATA", "province": "ON", "country": "CA", "postalCode": "K2K1X3", "twitter": "None", "instagram": "None", "facebook": "None", "youtube": "None", "website": "None", "summary": "None", "logo": "None", "latitude": 45.339204923393396, "longitude": -75.91958420949558}, "861710523RR0001": {"name": "Canadian Childbirth Association", "designationCode": "C", "categoryCode": "09", "address": "4647 - 83 STREET NW", "city": "CALGARY", "province": "AB", "country": "CA", "postalCode": "T3B2R1", "twitter": "None", "instagram": "None", "facebook": "None", "youtube": "None", "website": "None", "summary": "None", "logo": "None", "latitude": 51.09363033527612, "longitude": -114.20809776132484}, "807148572RR0001": {"name": "Canadian Children's Brain Cancer Foundation", "designationCode": "A", "categoryCode": "13", "address": "91 CRANFORD GREEN SE", "city": "CALGARY", "province": "AB", "country": "CA", "postalCode": "T3M1V2", "twitter": "None", "instagram": "None", "facebook": "None", "youtube": "None", "website": "None", "summary": "None", "logo": "None", "latitude": 50.87225649653756, "longitude": -113.96992145850885}, "714760923RR0001": {"name": "Canadian Children's Literacy Foundation", "designationCode": "A", "categoryCode": "03", "address": "500 - 468 KING ST W", "city": "TORONTO", "province": "ON", "country": "CA", "postalCode": "M5V1L8", "twitter": "None", "instagram": "None", "facebook": "None", "youtube": "None", "website": "None", "summary": "None", "logo": "None", "latitude": 43.64533324176222, "longitude": -79.39580934277795}, "800590283RR0001": {"name": "Canadian Chopin Society", "designationCode": "C", "categoryCode": "22", "address": "4300 CAWTHRA ROAD", "city": "MISSISSAUGA", "province": "ON", "country": "CA", "postalCode": "L4Z1V8", "twitter": "None", "instagram": "None", "facebook": "None", "youtube": "None", "website": "None", "summary": "None", "logo": "None", "latitude": 43.614200781782436, "longitude": -79.62680100392379}, "801734450RR0001": {"name": "Canadian Christian Academy", "designationCode": "B", "categoryCode": "20", "address": "2275 WELLESLEY AVE", "city": "WINDSOR", "province": "ON", "country": "CA", "postalCode": "N8W2G1", "twitter": "None", "instagram": "None", "facebook": "None", "youtube": "None", "website": "None", "summary": "None", "logo": "None", "latitude": 42.2949958329102, "longitude": -83.00726087235255}, "849547054RR0001": {"name": "Canadian Christian Centre for Harmony World", "designationCode": "C", "categoryCode": "39", "address": "25 - 145 ROYAL CREST CRT", "city": "MARKHAM", "province": "ON", "country": "CA", "postalCode": "L3R9Z4", "twitter": "None", "instagram": "None", "facebook": "None", "youtube": "None", "website": "None", "summary": "None", "logo": "None", "latitude": 43.84116291750863, "longitude": -79.32536487382443}, "828053587RR0001": {"name": "Canadian Christian Ministries", "designationCode": "C", "categoryCode": "49", "address": "159 AV PRESIDIAL", "city": "OSHAWA", "province": "ON", "country": "CA", "postalCode": "L1L0H1", "twitter": "None", "instagram": "None", "facebook": "None", "youtube": "None", "website": "None", "summary": "None", "logo": "None", "latitude": 43.9559142525732, "longitude": -78.90584989446008}, "829735380RR0001": {"name": "Canadian Civil Defence Museum Association", "designationCode": "C", "categoryCode": "50", "address": "301 - 4055 26 AVE NW", "city": "EDMONTON", "province": "AB", "country": "CA", "postalCode": "T6L5L9", "twitter": "None", "instagram": "None", "facebook": "None", "youtube": "None", "website": "None", "summary": "None", "logo": "None", "latitude": 53.45681909351389, "longitude": -113.40435083293885}, "827800384RR0001": {"name": "Canadian Classroom on Rails Foundation Fondation de la Salle de Classe Ferroviaire Canadienne", "designationCode": "C", "categoryCode": "20", "address": "1004 - 9809 110 ST NW", "city": "EDMONTON", "province": "AB", "country": "CA", "postalCode": "T5K2J9", "twitter": "None", "instagram": "None", "facebook": "None", "youtube": "None", "website": "None", "summary": "None", "logo": "None", "latitude": 53.5454054923584, "longitude": -113.51022256906765}, "118830256RR0001": {"name": "Canadian Clay and Glass Gallery", "designationCode": "C", "categoryCode": "50", "address": "25 CAROLINE ST. N.", "city": "WATERLOO", "province": "ON", "country": "CA", "postalCode": "N2L2Y5", "twitter": "None", "instagram": "None", "facebook": "None", "youtube": "None", "website": "None", "summary": "None", "logo": "None", "latitude": 43.464898614749934, "longitude": -80.525703442466}, "889307021RR0001": {"name": "Canadian Coalition for the Rights of Children / Coalition Canadienne des droits des enfants", "designationCode": "C", "categoryCode": "59", "address": "15TH FLOOR                    55 UNIVERSITY AVENUE", "city": "TORONTO", "province": "ON", "country": "CA", "postalCode": "M5J2H7", "twitter": "None", "instagram": "None", "facebook": "None", "youtube": "None", "website": "None", "summary": "None", "logo": "None", "latitude": 43.64683659867845, "longitude": -79.38431430818304}, "801024407RR0001": {"name": "Canadian Coalition for the Study of Venous Insufficiency", "designationCode": "A", "categoryCode": "23", "address": "67 SOUTH DRIVE", "city": "TORONTO", "province": "ON", "country": "CA", "postalCode": "M4W1R4", "twitter": "None", "instagram": "None", "facebook": "None", "youtube": "None", "website": "None", "summary": "None", "logo": "None", "latitude": 43.67633909351391, "longitude": -79.37999620814827}, "870298494RR0001": {"name": "Canadian Coast Guard Auxiliary (National) Inc.", "designationCode": "C", "categoryCode": "59", "address": "47 RIVERVIEW", "city": "GATINEAU", "province": "QC", "country": "CA", "postalCode": "J9H4S7", "twitter": "None", "instagram": "None", "facebook": "None", "youtube": "None", "website": "None", "summary": "None", "logo": "None", "latitude": 45.38991442853024, "longitude": -75.84867176882666}, "821281433RR0001": {"name": "Canadian Coastal Research Society", "designationCode": "C", "categoryCode": "29", "address": "2000 - 355 BURRARD ST", "city": "VANCOUVER", "province": "BC", "country": "CA", "postalCode": "V6C2G8", "twitter": "None", "instagram": "None", "facebook": "None", "youtube": "None", "website": "None", "summary": "None", "logo": "None", "latitude": 49.287312051358924, "longitude": -123.11674798600596}, "131803751RR0001": {"name": "Canadian Collegiate Athletic Association", "designationCode": "C", "categoryCode": "29", "address": "2 ST LAWRENCE DRIVE", "city": "CORNWALL", "province": "ON", "country": "CA", "postalCode": "K6H4Z1", "twitter": "None", "instagram": "None", "facebook": "None", "youtube": "None", "website": "None", "summary": "None", "logo": "None", "latitude": 45.0165729796055, "longitude": -74.70227853861323}, "832062145RR0001": {"name": "Canadian Colombian Children's Organization", "designationCode": "C", "categoryCode": "01", "address": "940 THE EAST MALL             SECOND FLOOR, SUITE 200", "city": "TORONTO", "province": "ON", "country": "CA", "postalCode": "M9B6J7", "twitter": "None", "instagram": "None", "facebook": "None", "youtube": "None", "website": "None", "summary": "None", "logo": "None", "latitude": 43.67135190867915, "longitude": -79.57105579020694}, "833288566RR0001": {"name": "Canadian Communities 4 Africa Hope Society", "designationCode": "C", "categoryCode": "09", "address": "PO BOX 780", "city": "BELLA COOLA", "province": "BC", "country": "CA", "postalCode": "V0T1C0", "twitter": "None", "instagram": "None", "facebook": "None", "youtube": "None", "website": "None", "summary": "None", "logo": "None", "latitude": 52.37017000000003, "longitude": -126.75479999999999}, "809867567RR0001": {"name": "Canadian Community Alliance Network", "designationCode": "C", "categoryCode": "11", "address": "201 - 5200 DIXIE RD", "city": "MISSISSAUGA", "province": "ON", "country": "CA", "postalCode": "L4W1E4", "twitter": "None", "instagram": "None", "facebook": "None", "youtube": "None", "website": "None", "summary": "None", "logo": "None", "latitude": 43.64019877456907, "longitude": -79.62709045068897}, "837585041RR0001": {"name": "Canadian Community Support Foundation", "designationCode": "A", "categoryCode": "03", "address": "16 - 29 CONNELL CRT", "city": "ETOBICOKE", "province": "ON", "country": "CA", "postalCode": "M8Z5T7", "twitter": "None", "instagram": "None", "facebook": "None", "youtube": "None", "website": "None", "summary": "None", "logo": "None", "latitude": 43.61380595141107, "longitude": -79.51912665113386}, "832594329RR0001": {"name": "Canadian Congenital Heart Alliance", "designationCode": "C", "categoryCode": "11", "address": "C4-233 CROSS AVENUE           POST OFFICE BOX 233", "city": "OAKVILLE", "province": "ON", "country": "CA", "postalCode": "L6J2W9", "twitter": "None", "instagram": "None", "facebook": "None", "youtube": "None", "website": "None", "summary": "None", "logo": "None", "latitude": 43.45697694644806, "longitude": -79.68237071524605}, "833070097RR0001": {"name": "Canadian Council of Conservative Synagogues", "designationCode": "C", "categoryCode": "49", "address": "37 SOUTHBOURNE AVENUE", "city": "TORONTO", "province": "ON", "country": "CA", "postalCode": "M3H1A4", "twitter": "None", "instagram": "None", "facebook": "None", "youtube": "None", "website": "None", "summary": "None", "logo": "None", "latitude": 43.738914575596056, "longitude": -79.4310960796641}, "814608261RR0001": {"name": "Canadian Council of Oral Medicine and Toxicology", "designationCode": "C", "categoryCode": "11", "address": "PO BOX 5245                   5029 50 AVE", "city": "BONNYVILLE", "province": "AB", "country": "CA", "postalCode": "T9N2G4", "twitter": "None", "instagram": "None", "facebook": "None", "youtube": "None", "website": "None", "summary": "None", "logo": "None", "latitude": 54.26799147879262, "longitude": -110.7431415}, "100762590RR0001": {"name": "Canadian Country Music Association", "designationCode": "C", "categoryCode": "81", "address": "104 - 366 ADELAIDE ST E", "city": "TORONTO", "province": "ON", "country": "CA", "postalCode": "M5A3X9", "twitter": "None", "instagram": "None", "facebook": "None", "youtube": "None", "website": "None", "summary": "None", "logo": "None", "latitude": 43.652393126320256, "longitude": -79.36739551201032}, "856614532RR0001": {"name": "Canadian Crime Stoppers Association/Association canadienne d'\u00c9chec au crime", "designationCode": "C", "categoryCode": "59", "address": "600, 128-4TH AVENUE SOUTH", "city": "SASKATOON", "province": "SK", "country": "CA", "postalCode": "S7K1M8", "twitter": "None", "instagram": "None", "facebook": "None", "youtube": "None", "website": "None", "summary": "None", "logo": "None", "latitude": 52.12622181108483, "longitude": -106.66132058719161}, "871271953RR0001": {"name": "Canadian Critical Incident Stress Foundation", "designationCode": "C", "categoryCode": "11", "address": "4 - 70 UNSWORTH DR", "city": "HAMILTON", "province": "ON", "country": "CA", "postalCode": "L8W3K4", "twitter": "None", "instagram": "None", "facebook": "None", "youtube": "None", "website": "None", "summary": "None", "logo": "None", "latitude": 43.194479838161655, "longitude": -79.84106672482535}, "812554590RR0001": {"name": "Canadian Croatian Choral Society", "designationCode": "C", "categoryCode": "22", "address": "631 - 115 GEORGE ST", "city": "OAKVILLE", "province": "ON", "country": "CA", "postalCode": "L6J0A2", "twitter": "None", "instagram": "None", "facebook": "None", "youtube": "None", "website": "None", "summary": "None", "logo": "None", "latitude": 43.44604425174555, "longitude": -79.66877844864109}, "859815227RR0001": {"name": "Canadian Croatian Foundation for Demining Society", "designationCode": "C", "categoryCode": "02", "address": "4045 NAPIER ST.", "city": "BURNABY", "province": "BC", "country": "CA", "postalCode": "V5C3G3", "twitter": "None", "instagram": "None", "facebook": "None", "youtube": "None", "website": "None", "summary": "None", "logo": "None", "latitude": 49.27480746768411, "longitude": -123.015384}, "816775977RR0001": {"name": "Canadian CMV Foundation", "designationCode": "A", "categoryCode": "03", "address": "1 CONVENT CRESCENT", "city": "LORETTE", "province": "MB", "country": "CA", "postalCode": "R0A0Y0", "twitter": "None", "instagram": "None", "facebook": "None", "youtube": "None", "website": "None", "summary": "None", "logo": "None", "latitude": 49.74496628339743, "longitude": -96.86934719844159}, "825522030RR0001": {"name": "Canadian Dachshund Rescue (Ontario)", "designationCode": "C", "categoryCode": "54", "address": "7168 GELERT ROAD", "city": "HALIBURTON", "province": "ON", "country": "CA", "postalCode": "K0M1S0", "twitter": "None", "instagram": "None", "facebook": "None", "youtube": "None", "website": "None", "summary": "None", "logo": "None", "latitude": 45.03698144826378, "longitude": -78.52875764796165}, "872903505RR0001": {"name": "Canadian Deafblind Assocation-Alberta Chapter", "designationCode": "C", "categoryCode": "01", "address": "2350-24 STREET                POST OFFICE BOX 46102", "city": "EDMONTON", "province": "AB", "country": "CA", "postalCode": "T6T0K8", "twitter": "None", "instagram": "None", "facebook": "None", "youtube": "None", "website": "None", "summary": "None", "logo": "None", "latitude": 53.45551774854292, "longitude": -113.37793010667026}, "845415041RR0001": {"name": "Canadian Deafblind Association - BC Chapter (CDBA-BC)", "designationCode": "C", "categoryCode": "11", "address": "227 6TH STREET", "city": "NEW WESTMINSTER", "province": "BC", "country": "CA", "postalCode": "V3L3A5", "twitter": "None", "instagram": "None", "facebook": "None", "youtube": "None", "website": "None", "summary": "None", "logo": "None", "latitude": 49.20811860010157, "longitude": -122.91388900986888}, "122537640RR0001": {"name": "Canadian Deafblind Association - Saskatchewan Chapter Inc.", "designationCode": "C", "categoryCode": "11", "address": "110 ANDERSON CRES", "city": "SASKATOON", "province": "SK", "country": "CA", "postalCode": "S7H4C2", "twitter": "None", "instagram": "None", "facebook": "None", "youtube": "None", "website": "None", "summary": "None", "logo": "None", "latitude": 52.11660654674262, "longitude": -106.59339419608747}, "106845159RR0001": {"name": "Canadian Deafblind Association Ontario Chapter", "designationCode": "C", "categoryCode": "01", "address": "50 MAIN ST", "city": "PARIS", "province": "ON", "country": "CA", "postalCode": "N3L2E2", "twitter": "None", "instagram": "None", "facebook": "None", "youtube": "None", "website": "None", "summary": "None", "logo": "None", "latitude": 43.187981278405964, "longitude": -80.37889569776091}, "810290296RR0001": {"name": "Canadian Dementia Action Network/R\u00e9seau Canadien Action D\u00e9mence", "designationCode": "B", "categoryCode": "13", "address": "1738 14TH AVE W", "city": "VANCOUVER", "province": "BC", "country": "CA", "postalCode": "V6J2J7", "twitter": "None", "instagram": "None", "facebook": "None", "youtube": "None", "website": "None", "summary": "None", "logo": "None", "latitude": 49.25893190172097, "longitude": -123.14448532564438}, "815582960RR0001": {"name": "Canadian Denfence Lawyers Foundation", "designationCode": "C", "categoryCode": "21", "address": "3425 - 130 ADELAIDE ST W", "city": "TORONTO", "province": "ON", "country": "CA", "postalCode": "M5H3P5", "twitter": "None", "instagram": "None", "facebook": "None", "youtube": "None", "website": "None", "summary": "None", "logo": "None", "latitude": 43.64931314741162, "longitude": -79.38362708272251}, "812978567RR0001": {"name": "Canadian Dental Charity Foundation", "designationCode": "C", "categoryCode": "11", "address": "19 SCHARF LANE", "city": "KANATA", "province": "ON", "country": "CA", "postalCode": "K2L2K3", "twitter": "None", "instagram": "None", "facebook": "None", "youtube": "None", "website": "None", "summary": "None", "logo": "None", "latitude": 45.29512116792654, "longitude": -75.89009585680063}, "802815787RR0001": {"name": "Canadian Dental Relief International", "designationCode": "C", "categoryCode": "11", "address": "203 PARKSIDE DR", "city": "TORONTO", "province": "ON", "country": "CA", "postalCode": "M6R2Z2", "twitter": "None", "instagram": "None", "facebook": "None", "youtube": "None", "website": "None", "summary": "None", "logo": "None", "latitude": 43.645560925067784, "longitude": -79.45649729889219}, "852354612RR0001": {"name": "Canadian Development and Aid Fund", "designationCode": "C", "categoryCode": "60", "address": "200 - 1515 MATHESON BLVD E", "city": "MISSISSAUGA", "province": "ON", "country": "CA", "postalCode": "L4W2P5", "twitter": "None", "instagram": "None", "facebook": "None", "youtube": "None", "website": "None", "summary": "None", "logo": "None", "latitude": 43.64320338196049, "longitude": -79.62941997605131}, "832723175RR0001": {"name": "Canadian Disability Resources Society", "designationCode": "C", "categoryCode": "09", "address": "31-4429 KINGSWAY", "city": "BURNABY", "province": "BC", "country": "CA", "postalCode": "V5H4P9", "twitter": "None", "instagram": "None", "facebook": "None", "youtube": "None", "website": "None", "summary": "None", "logo": "None", "latitude": 49.230641907639935, "longitude": -123.00609421227455}, "850649195RR0001": {"name": "Canadian Dominican Ray of Hope", "designationCode": "B", "categoryCode": "09", "address": "2 ALLCROFT DRIVE", "city": "TORONTO", "province": "ON", "country": "CA", "postalCode": "M9V2S2", "twitter": "None", "instagram": "None", "facebook": "None", "youtube": "None", "website": "None", "summary": "None", "logo": "None", "latitude": 43.73650613543775, "longitude": -79.55683244367809}, "830527982RR0001": {"name": "Canadian Dupuytren Society/Soci\u00e9t\u00e9 Canadienne de Dupuytren", "designationCode": "C", "categoryCode": "11", "address": "107 AV DE MARLIN CRESCENT", "city": "POINTE-CLAIRE", "province": "QC", "country": "CA", "postalCode": "H9S5B2", "twitter": "None", "instagram": "None", "facebook": "None", "youtube": "None", "website": "None", "summary": "None", "logo": "None", "latitude": 45.43621242991521, "longitude": -73.8083753974264}, "856573795RR0001": {"name": "Canadian Economic Development Assistance for Southern Sudan", "designationCode": "C", "categoryCode": "59", "address": "45 ARTISANS CRES", "city": "LONDON", "province": "ON", "country": "CA", "postalCode": "N5V5E9", "twitter": "None", "instagram": "None", "facebook": "None", "youtube": "None", "website": "None", "summary": "None", "logo": "None", "latitude": 43.02160043660895, "longitude": -81.15816756598717}, "803324425RR0001": {"name": "Canadian Education Initiative in Ghana Inc.", "designationCode": "C", "categoryCode": "21", "address": "32 WEYBRIDGE DR", "city": "NEPEAN", "province": "ON", "country": "CA", "postalCode": "K2J2Z7", "twitter": "None", "instagram": "None", "facebook": "None", "youtube": "None", "website": "None", "summary": "None", "logo": "None", "latitude": 45.27160348600597, "longitude": -75.76835211379765}, "889192712RR0001": {"name": "Canadian Education Innovations Academy", "designationCode": "C", "categoryCode": "21", "address": "1500 GEORGIA ST W, SUITE 1250 BOX 62", "city": "VANCOUVER", "province": "BC", "country": "CA", "postalCode": "V6G2Z6", "twitter": "None", "instagram": "None", "facebook": "None", "youtube": "None", "website": "None", "summary": "None", "logo": "None", "latitude": 49.2900638104334, "longitude": -123.12989899362336}, "121461313RR0001": {"name": "Canadian Energy Research Institute", "designationCode": "C", "categoryCode": "21", "address": "#150-3512-33 STREET NW", "city": "CALGARY", "province": "AB", "country": "CA", "postalCode": "T2L2A6", "twitter": "None", "instagram": "None", "facebook": "None", "youtube": "None", "website": "None", "summary": "None", "logo": "None", "latitude": 51.08526898741374, "longitude": -114.13420932538625}, "890349061RR0001": {"name": "Canadian Engineering Memorial Foundation / Fondation comm\u00e9morative du g\u00e9nie canadien", "designationCode": "A", "categoryCode": "21", "address": "3 - 247 BARR STREET", "city": "RENFREW", "province": "ON", "country": "CA", "postalCode": "K7V1J6", "twitter": "None", "instagram": "None", "facebook": "None", "youtube": "None", "website": "None", "summary": "None", "logo": "None", "latitude": 45.47317989231918, "longitude": -76.67958248069718}, "810284174RR0001": {"name": "Canadian Evaluation Society Educational Fund/La Societ\u00e9 canadienne d'\u00e9valuation Fonds en \u00e9ducation", "designationCode": "C", "categoryCode": "21", "address": "1485 LAPERRIERE AVE", "city": "OTTAWA", "province": "ON", "country": "CA", "postalCode": "K1Z7S8", "twitter": "None", "instagram": "None", "facebook": "None", "youtube": "None", "website": "None", "summary": "None", "logo": "None", "latitude": 45.378314192076765, "longitude": -75.74150174966807}, "808205405RR0001": {"name": "Canadian Federation of Steelpan", "designationCode": "C", "categoryCode": "22", "address": "375 BLEECKER STREET           UNIT 106A", "city": "TORONTO", "province": "ON", "country": "CA", "postalCode": "M4X1M3", "twitter": "None", "instagram": "None", "facebook": "None", "youtube": "None", "website": "None", "summary": "None", "logo": "None", "latitude": 43.670533557043065, "longitude": -79.37508791975898}, "845077833RR0001": {"name": "Canadian Federation of Theotherapy", "designationCode": "C", "categoryCode": "47", "address": "5104 NINTH LINE", "city": "MISSISSAUGA", "province": "ON", "country": "CA", "postalCode": "L5M0R5", "twitter": "None", "instagram": "None", "facebook": "None", "youtube": "None", "website": "None", "summary": "None", "logo": "None", "latitude": 43.537497822898224, "longitude": -79.7365621643485}, "898448238RR0001": {"name": "Canadian Federation of University Women Brantford Scholarship Fund - (CFUW Brantford Scholarship Fund)", "designationCode": "C", "categoryCode": "21", "address": "P.O. BOX 26028 RPO TERRACE HIL", "city": "BRANTFORD", "province": "ON", "country": "CA", "postalCode": "N3R7X4", "twitter": "None", "instagram": "None", "facebook": "None", "youtube": "None", "website": "None", "summary": "None", "logo": "None", "latitude": 43.17136451164471, "longitude": -80.2701040718541}, "131805301RR0001": {"name": "Canadian Fellowship of Churches and Ministers Inc.", "designationCode": "C", "categoryCode": "49", "address": "PO BOX 550", "city": "PRINCE ALBERT", "province": "SK", "country": "CA", "postalCode": "S6V5R8", "twitter": "None", "instagram": "None", "facebook": "None", "youtube": "None", "website": "None", "summary": "None", "logo": "None", "latitude": 53.199456000000055, "longitude": -105.74863099999993}, "808658280RR0001": {"name": "Canadian Food for Children (Chatham-Kent)", "designationCode": "A", "categoryCode": "03", "address": "1-270 INSHES AVE", "city": "CHATHAM", "province": "ON", "country": "CA", "postalCode": "N7M2Z7", "twitter": "None", "instagram": "None", "facebook": "None", "youtube": "None", "website": "None", "summary": "None", "logo": "None", "latitude": 42.39388431470391, "longitude": -82.18682092261493}, "816246615RR0001": {"name": "Canadian Foundation for the Advancement of Investor Rights /Fondation canadienne pour l'avancement des droits des investisseurs", "designationCode": "C", "categoryCode": "59", "address": "400 - 36 KING ST E", "city": "TORONTO", "province": "ON", "country": "CA", "postalCode": "M5C1E5", "twitter": "None", "instagram": "None", "facebook": "None", "youtube": "None", "website": "None", "summary": "None", "logo": "None", "latitude": 43.64950606691082, "longitude": -79.3763208953776}, "887665065RR0001": {"name": "Canadian Foundation for Cultural Diversity /Fondation pour Diversit\u00e9 Culturelle du Canada", "designationCode": "A", "categoryCode": "03", "address": "400 - 176 GLOUCESTER ST", "city": "OTTAWA", "province": "ON", "country": "CA", "postalCode": "K2P0A6", "twitter": "None", "instagram": "None", "facebook": "None", "youtube": "None", "website": "None", "summary": "None", "logo": "None", "latitude": 45.41805064028518, "longitude": -75.69826147195461}, "121934947RR0001": {"name": "Canadian Foundation for Food and Agricultural Education / Fondation canadienne pour l'\u00e9ducation alimentaire et agricole", "designationCode": "C", "categoryCode": "11", "address": "300 EARL GRAY DRIVE, SUITE 233", "city": "OTTAWA", "province": "ON", "country": "CA", "postalCode": "K2T1C1", "twitter": "None", "instagram": "None", "facebook": "None", "youtube": "None", "website": "None", "summary": "None", "logo": "None", "latitude": 45.31006500000005, "longitude": -75.91193899999993}}