{"121558878RR0001": {"name": "THE FOX MOTH SOCIETY", "designationCode": "C", "categoryCode": "50", "address": "BOX 1620", "city": "YELLOWKNIFE", "province": "NT", "country": "CA", "postalCode": "X1A2P2", "twitter": "None", "instagram": "None", "facebook": "None", "youtube": "None", "website": "None", "summary": "None", "logo": "None", "latitude": 62.45446200000005, "longitude": -114.37092349999993}, "888633666RR0001": {"name": "THE FOXWARREN DONOR'S CHOICE", "designationCode": "A", "categoryCode": "15", "address": "PO BOX 192", "city": "FOXWARREN", "province": "MB", "country": "CA", "postalCode": "R0J0R0", "twitter": "None", "instagram": "None", "facebook": "None", "youtube": "None", "website": "None", "summary": "None", "logo": "None", "latitude": 50.520740000000046, "longitude": -101.15296999999998}, "858641046RR0001": {"name": "THE FRAGRANT METHODIST CHURCH", "designationCode": "C", "categoryCode": "39", "address": "154 BOLZANO DR", "city": "HAMILTON", "province": "ON", "country": "CA", "postalCode": "L8W3W2", "twitter": "None", "instagram": "None", "facebook": "None", "youtube": "None", "website": "None", "summary": "None", "logo": "None", "latitude": 43.19581293698434, "longitude": -79.85608974216626}, "889275798RR0001": {"name": "THE FRANCES AND DAVID RUBIN FAMILY FOUNDATION INC.", "designationCode": "B", "categoryCode": "21", "address": "5775 CAVENDISH BLVD           APT 809", "city": "COTE ST.LUC", "province": "QC", "country": "CA", "postalCode": "H4W3L9", "twitter": "None", "instagram": "None", "facebook": "None", "youtube": "None", "website": "None", "summary": "None", "logo": "None", "latitude": 45.47672647685937, "longitude": -73.66291995986516}, "883188922RR0001": {"name": "THE FRANCES GREVILLE PERPETUAL FOUNDATION", "designationCode": "B", "categoryCode": "03", "address": "THE CANADA TRUST COMPANY      380 WELLINGTON STREET, 12TH FL", "city": "LONDON", "province": "ON", "country": "CA", "postalCode": "N6A5B5", "twitter": "None", "instagram": "None", "facebook": "None", "youtube": "None", "website": "None", "summary": "None", "logo": "None", "latitude": 42.98403487844074, "longitude": -81.24475227780037}, "119233658RR0001": {"name": "THE FRANCES TANENBAUM CHARITABLE FOUNDATION", "designationCode": "B", "categoryCode": "03", "address": "1051 TAPSCOTT ROAD", "city": "SCARBOROUGH", "province": "ON", "country": "CA", "postalCode": "M1X1A1", "twitter": "None", "instagram": "None", "facebook": "None", "youtube": "None", "website": "None", "summary": "None", "logo": "None", "latitude": 43.82487783461231, "longitude": -79.24262752622865}, "823692348RR0001": {"name": "THE FRANCIS FAMILY FOUNDATION", "designationCode": "B", "categoryCode": "03", "address": "130 BLOOR STREET WEST         SUITE 905", "city": "TORONTO", "province": "ON", "country": "CA", "postalCode": "M5S1N5", "twitter": "None", "instagram": "None", "facebook": "None", "youtube": "None", "website": "None", "summary": "None", "logo": "None", "latitude": 43.669014147411616, "longitude": -79.39280797336825}, "893003376RR0001": {"name": "THE FRANCISCANS", "designationCode": "C", "categoryCode": "46", "address": "BOX 430", "city": "COCHRANE", "province": "AB", "country": "CA", "postalCode": "T4C1A6", "twitter": "None", "instagram": "None", "facebook": "None", "youtube": "None", "website": "None", "summary": "None", "logo": "None", "latitude": 51.19089900000006, "longitude": -114.46804249999994}, "898976428RR0001": {"name": "THE FRANK & AGNES DEFEHR FOUNDATION INC", "designationCode": "B", "categoryCode": "03", "address": "2262 SPRINGFIELD ROAD         BOX 17, GROUP 525, R.R. 5", "city": "WINNIPEG", "province": "MB", "country": "CA", "postalCode": "R2C2Z2", "twitter": "None", "instagram": "None", "facebook": "None", "youtube": "None", "website": "None", "summary": "None", "logo": "None", "latitude": 49.92420300000006, "longitude": -96.99564499999994}, "892824848RR0001": {"name": "THE FRANK AND IRENE SOBEY MEMORIAL TRUST", "designationCode": "B", "categoryCode": "15", "address": "115 KING STREET", "city": "STELLARTON", "province": "NS", "country": "CA", "postalCode": "B0K1S0", "twitter": "None", "instagram": "None", "facebook": "None", "youtube": "None", "website": "None", "summary": "None", "logo": "None", "latitude": 45.56046585345377, "longitude": -62.65718627710788}, "860762533RR0001": {"name": "THE FRANK E. MILNE SCHOLARSHIP FOUNDATION", "designationCode": "C", "categoryCode": "25", "address": "804-1550 DRESDEN ROW", "city": "HALIFAX", "province": "NS", "country": "CA", "postalCode": "B3J4A2", "twitter": "None", "instagram": "None", "facebook": "None", "youtube": "None", "website": "None", "summary": "None", "logo": "None", "latitude": 44.64380204495361, "longitude": -63.57839504985835}, "879478816RR0001": {"name": "THE FRANK FOWLER FOUNDATION", "designationCode": "B", "categoryCode": "03", "address": "130 KING ST.W. 20TH FL BOX 430STN FIRST CANADIAN PLACE", "city": "TORONTO", "province": "ON", "country": "CA", "postalCode": "M5X1K1", "twitter": "None", "instagram": "None", "facebook": "None", "youtube": "None", "website": "None", "summary": "None", "logo": "None", "latitude": 43.64826932503962, "longitude": -79.38190945606182}, "875428427RR0001": {"name": "THE FRANK H HORI CHARITABLE FOUNDATION", "designationCode": "B", "categoryCode": "03", "address": "218 QUEEN'S QUAY              UNIT 2412", "city": "TORONTO", "province": "ON", "country": "CA", "postalCode": "M5J2Y6", "twitter": "None", "instagram": "None", "facebook": "None", "youtube": "None", "website": "None", "summary": "None", "logo": "None", "latitude": 43.63971730394117, "longitude": -79.38198433694957}, "119233765RR0001": {"name": "THE FRANK H SOBEY FUND FOR EXCELLENCE IN BUSINESS STUDIES", "designationCode": "B", "categoryCode": "23", "address": "NOVA CENTRE, NORTH TOWER      1000 - 1675 GRAFTON ST", "city": "HALIFAX", "province": "NS", "country": "CA", "postalCode": "B3J0E9", "twitter": "None", "instagram": "None", "facebook": "None", "youtube": "None", "website": "None", "summary": "None", "logo": "None", "latitude": 44.646992654211374, "longitude": -63.575423434636626}, "140412743RR0001": {"name": "THE FRANK HAY MEMORIAL FOUNDATION", "designationCode": "B", "categoryCode": "15", "address": "130 KING STREET WEST 20TH FLO BOX 430, STN FIRST CANADIAN PL", "city": "TORONTO", "province": "ON", "country": "CA", "postalCode": "M5X1K1", "twitter": "None", "instagram": "None", "facebook": "None", "youtube": "None", "website": "None", "summary": "None", "logo": "None"}, "891665853RR0001": {"name": "THE FRANK REMPEL FAMILY FOUNDATION", "designationCode": "B", "categoryCode": "05", "address": "3 - 1335 TRANS CANADA WAY SE", "city": "MEDICINE HAT", "province": "AB", "country": "CA", "postalCode": "T1B1J1", "twitter": "None", "instagram": "None", "facebook": "None", "youtube": "None", "website": "None", "summary": "None", "logo": "None", "latitude": 50.00492508298232, "longitude": -110.65998950957929}, "890032667RR0001": {"name": "THE FRANK SCARPITTI CHARITABLE FOUNDATION INC.", "designationCode": "A", "categoryCode": "53", "address": "2920 MAJOR MACKENZIE DR EAST  P.O.BOX 7016", "city": "MARKHAM", "province": "ON", "country": "CA", "postalCode": "L6C0J1", "twitter": "None", "instagram": "None", "facebook": "None", "youtube": "None", "website": "None", "summary": "None", "logo": "None", "latitude": 43.88539919848207, "longitude": -79.36982885680062}, "119233724RR0001": {"name": "THE FRANKEL FAMILY FOUNDATION", "designationCode": "B", "categoryCode": "03", "address": "502 - 1 EGLINTON AVE E", "city": "TORONTO", "province": "ON", "country": "CA", "postalCode": "M4P3A1", "twitter": "None", "instagram": "None", "facebook": "None", "youtube": "None", "website": "None", "summary": "None", "logo": "None", "latitude": 43.7089009100495, "longitude": -79.38780176683875}, "855258760RR0001": {"name": "THE FRANKO FOUNDATION", "designationCode": "B", "categoryCode": "03", "address": "2 WHITECROFT PLACE", "city": "TORONTO", "province": "ON", "country": "CA", "postalCode": "M9A4T2", "twitter": "None", "instagram": "None", "facebook": "None", "youtube": "None", "website": "None", "summary": "None", "logo": "None", "latitude": 43.67822300499166, "longitude": -79.51956087151582}, "119233823RR0001": {"name": "THE FRASER INSTITUTE", "designationCode": "C", "categoryCode": "59", "address": "1770 BURRARD ST 4TH FLR", "city": "VANCOUVER", "province": "BC", "country": "CA", "postalCode": "V6J3G7", "twitter": "None", "instagram": "None", "facebook": "None", "youtube": "None", "website": "None", "summary": "None", "logo": "None", "latitude": 49.270175466818735, "longitude": -123.14499261226845}, "890106776RR0001": {"name": "THE FRASER PACIFIC ROSE SOCIETY", "designationCode": "C", "categoryCode": "56", "address": "1655 WINSLOW AVE", "city": "COQUITLAM", "province": "BC", "country": "CA", "postalCode": "V3J0E7", "twitter": "None", "instagram": "None", "facebook": "None", "youtube": "None", "website": "None", "summary": "None", "logo": "None", "latitude": 49.25394651469926, "longitude": -122.84663151469925}, "895728475RR0001": {"name": "THE FRASER VALLEY SOCIETY FOR CHILDREN WITH LEARNING DISABILITIES", "designationCode": "C", "categoryCode": "21", "address": "PO BOX 157 STN MAIN", "city": "MAPLE RIDGE", "province": "BC", "country": "CA", "postalCode": "V2X7G1", "twitter": "None", "instagram": "None", "facebook": "None", "youtube": "None", "website": "None", "summary": "None", "logo": "None", "latitude": 49.21686600000005, "longitude": -122.60537449999993}, "870339330RR0001": {"name": "THE FRED A LITWIN FAMILY FOUNDATION", "designationCode": "B", "categoryCode": "05", "address": "106 AVENUE ROAD", "city": "TORONTO", "province": "ON", "country": "CA", "postalCode": "M5R2H3", "twitter": "None", "instagram": "None", "facebook": "None", "youtube": "None", "website": "None", "summary": "None", "logo": "None", "latitude": 43.67310253926946, "longitude": -79.39599229643936}, "119233898RR0001": {"name": "THE FRED HUDDLESTUN SENIOR CITIZENS CENTRE SOCIETY", "designationCode": "C", "categoryCode": "56", "address": "BOX 2481", "city": "PINCHER CREEK", "province": "AB", "country": "CA", "postalCode": "T0K1W0", "twitter": "None", "instagram": "None", "facebook": "None", "youtube": "None", "website": "None", "summary": "None", "logo": "None", "latitude": 49.48739000000006, "longitude": -113.9366800732874}, "855496733RR0001": {"name": "THE FRED ROY RECOGNITION FUND", "designationCode": "A", "categoryCode": "23", "address": "114 MACDONALD STREET", "city": "TRURO", "province": "NS", "country": "CA", "postalCode": "B2N1T9", "twitter": "None", "instagram": "None", "facebook": "None", "youtube": "None", "website": "None", "summary": "None", "logo": "None", "latitude": 45.35759169995397, "longitude": -63.2810987396561}, "119233849RR0001": {"name": "THE FREDERIC DELANGLE MEMORIAL SCHOLARSHIP FUND", "designationCode": "B", "categoryCode": "21", "address": "333 - 3RD AVENUE NORTH", "city": "SASKATOON", "province": "SK", "country": "CA", "postalCode": "S7K2M2", "twitter": "None", "instagram": "None", "facebook": "None", "youtube": "None", "website": "None", "summary": "None", "logo": "None", "latitude": 52.13288527061568, "longitude": -106.66002880437387}, "119233856RR0001": {"name": "THE FREDERIC EARL EATON MASONIC MEMORIAL BURSARY", "designationCode": "A", "categoryCode": "25", "address": "46 MILL ENTRANCE ST", "city": "HAWKESBURY", "province": "ON", "country": "CA", "postalCode": "K6A2L2", "twitter": "None", "instagram": "None", "facebook": "None", "youtube": "None", "website": "None", "summary": "None", "logo": "None", "latitude": 45.60539164498836, "longitude": -74.61719483403537}, "890522865RR0001": {"name": "THE FREDERICK J HENNESSEY FOUNDATION", "designationCode": "B", "categoryCode": "05", "address": "PO BOX 251", "city": "CAMPBELLFORD", "province": "ON", "country": "CA", "postalCode": "K0L1L0", "twitter": "None", "instagram": "None", "facebook": "None", "youtube": "None", "website": "None", "summary": "None", "logo": "None", "latitude": 44.287060000000054, "longitude": -77.80936999999994}, "864524012RR0001": {"name": "THE FREDERICK JAMES RICHMOND TRUST FUND", "designationCode": "B", "categoryCode": "21", "address": "ROYAL TRUST                   1P.V.M. 5TH FLOOR SOUTH", "city": "MONTREAL", "province": "QC", "country": "CA", "postalCode": "H3B2B2", "twitter": "None", "instagram": "None", "facebook": "None", "youtube": "None", "website": "None", "summary": "None", "logo": "None", "latitude": 45.49987500000006, "longitude": -73.56867649999994}, "138814876RR0001": {"name": "THE FREDERICTON BOTANIC GARDEN ASSOCIATION INC /L'ASSOCIATION DES JARDINS BOTANIQUES DE FREDERICTON INC", "designationCode": "C", "categoryCode": "50", "address": "PO BOX 57", "city": "FREDERICTON", "province": "NB", "country": "CA", "postalCode": "E3B4Y2", "twitter": "None", "instagram": "None", "facebook": "None", "youtube": "None", "website": "None", "summary": "None", "logo": "None", "latitude": 45.96062100000006, "longitude": -66.63911299999994}, "119233880RR0001": {"name": "THE FREDERICTON SOCIETY OF ST ANDREWS PIPE BAND", "designationCode": "C", "categoryCode": "22", "address": "PO BOX 3552, STN B", "city": "FREDERICTON", "province": "NB", "country": "CA", "postalCode": "E3A5J8", "twitter": "None", "instagram": "None", "facebook": "None", "youtube": "None", "website": "None", "summary": "None", "logo": "None", "latitude": 45.958638328435796, "longitude": -66.62155541090102}, "118931351RR0001": {"name": "THE FREDERICTON YMCA INC.", "designationCode": "C", "categoryCode": "49", "address": "570 YORK STREET", "city": "FREDERICTON", "province": "NB", "country": "CA", "postalCode": "E3B3R2", "twitter": "None", "instagram": "None", "facebook": "None", "youtube": "None", "website": "None", "summary": "None", "logo": "None", "latitude": 45.95291283374693, "longitude": -66.65180774104108}, "119233914RR0001": {"name": "THE FREE BAPTIST CHURCH OF RAYNARDTON", "designationCode": "C", "categoryCode": "31", "address": "RR#1", "city": "TUSKET YARMOUTH CO", "province": "NS", "country": "CA", "postalCode": "B0W3M0", "twitter": "None", "instagram": "None", "facebook": "None", "youtube": "None", "website": "None", "summary": "None", "logo": "None", "latitude": 43.92724200000005, "longitude": -65.89714399999993}, "107405748RR0001": {"name": "THE FREE CHURCH OF SCOTLAND IN PRINCE EDWARD ISLAND - CHARLOTTETOWN", "designationCode": "C", "categoryCode": "37", "address": "40 UPTON PARK DR", "city": "CHARLOTTETOWN", "province": "PE", "country": "CA", "postalCode": "C1E1Z5", "twitter": "None", "instagram": "None", "facebook": "None", "youtube": "None", "website": "None", "summary": "None", "logo": "None", "latitude": 46.277831703849095, "longitude": -63.184426952536235}, "107406316RR0011": {"name": "THE FREE METHODIST CHURCH IN CANADA", "designationCode": "C", "categoryCode": "39", "address": "4315 VILLAGE CENTRE COURT", "city": "MISSISSAUGA", "province": "ON", "country": "CA", "postalCode": "L4Z1S2", "twitter": "None", "instagram": "None", "facebook": "None", "youtube": "None", "website": "None", "summary": "None", "logo": "None", "latitude": 43.601250649745936, "longitude": -79.64073004972948}, "119233971RR0001": {"name": "THE FREE METHODIST CHURCH OF SAULT STE MARIE ONTARIO", "designationCode": "C", "categoryCode": "39", "address": "PO BOX 20067 150 CHURCHILL BLV", "city": "SAULTE STE MARIE,", "province": "ON", "country": "CA", "postalCode": "P6A6W3", "twitter": "None", "instagram": "None", "facebook": "None", "youtube": "None", "website": "None", "summary": "None", "logo": "None", "latitude": 46.50847931183665, "longitude": -84.29842301122001}, "870163441RR0001": {"name": "THE FREE METHODIST FOUNDATION IN CANADA", "designationCode": "A", "categoryCode": "43", "address": "4315 VILLAGE CENTRE COURT", "city": "MISSISSAUGA", "province": "ON", "country": "CA", "postalCode": "L4Z1S2", "twitter": "None", "instagram": "None", "facebook": "None", "youtube": "None", "website": "None", "summary": "None", "logo": "None", "latitude": 43.601250649745936, "longitude": -79.64073004972948}, "132617887RR0001": {"name": "THE FREE PRESBYTERIAN CHURCH IN CLOVERDALE", "designationCode": "C", "categoryCode": "37", "address": "18790 - 58 AVENUE", "city": "SURREY", "province": "BC", "country": "CA", "postalCode": "V3S1M6", "twitter": "None", "instagram": "None", "facebook": "None", "youtube": "None", "website": "None", "summary": "None", "logo": "None", "latitude": 49.1076955434244, "longitude": -122.70203019317329}, "130721293RR0001": {"name": "THE FREE PRESBYTERIAN CHURCH OF CANADA TORONTO CONGREGATION", "designationCode": "C", "categoryCode": "37", "address": "1600 NEILSON ROAD", "city": "SCARBOROUGH", "province": "ON", "country": "CA", "postalCode": "M1X1S3", "twitter": "None", "instagram": "None", "facebook": "None", "youtube": "None", "website": "None", "summary": "None", "logo": "None", "latitude": 43.81697645764347, "longitude": -79.22786449743158}, "119234003RR0001": {"name": "THE FREE PRESBYTERIAN CHURCH OF CANADA, CALGARY CONGREGATION", "designationCode": "C", "categoryCode": "37", "address": "123 PINETOWN PLACE NE", "city": "CALGARY", "province": "AB", "country": "CA", "postalCode": "T1Y5J1", "twitter": "None", "instagram": "None", "facebook": "None", "youtube": "None", "website": "None", "summary": "None", "logo": "None", "latitude": 51.07489551067581, "longitude": -113.95385066472387}, "817776479RR0001": {"name": "THE FREE PRESBYTERIAN CHURCH OF NORTH AMERICA - CANADA", "designationCode": "C", "categoryCode": "39", "address": "4987 CANSO DRIVE", "city": "CLAREMONT", "province": "ON", "country": "CA", "postalCode": "L1Y1A7", "twitter": "None", "instagram": "None", "facebook": "None", "youtube": "None", "website": "None", "summary": "None", "logo": "None", "latitude": 43.96946775021636, "longitude": -79.13131844139907}, "107406472RR0001": {"name": "THE FREE REFORMED CHURCH OF MITCHELL", "designationCode": "C", "categoryCode": "39", "address": "74 SYLVIA ST                  P.O. BOX 357", "city": "MITCHELL", "province": "ON", "country": "CA", "postalCode": "N0K1N0", "twitter": "None", "instagram": "None", "facebook": "None", "youtube": "None", "website": "None", "summary": "None", "logo": "None", "latitude": 43.467048073695864, "longitude": -81.20553164463101}, "899549083RR0001": {"name": "THE FREE WILL PLAYERS THEATRE GUILD", "designationCode": "C", "categoryCode": "22", "address": "15230 128 AVE NW", "city": "EDMONTON", "province": "AB", "country": "CA", "postalCode": "T5V1A8", "twitter": "None", "instagram": "None", "facebook": "None", "youtube": "None", "website": "None", "summary": "None", "logo": "None", "latitude": 53.58491949105495, "longitude": -113.5839915}, "887769552RR0001": {"name": "THE FREEBURNE BANTING FOUNDATION", "designationCode": "B", "categoryCode": "03", "address": "240 MAIN STREET EAST          SUITE 2000", "city": "HAMILTON", "province": "ON", "country": "CA", "postalCode": "L8P3A1", "twitter": "None", "instagram": "None", "facebook": "None", "youtube": "None", "website": "None", "summary": "None", "logo": "None", "latitude": 40.21614751399403, "longitude": -86.02441247155058}, "106932163RR0001": {"name": "THE FREEDOM CENTRE CHURCH-EDMONTON", "designationCode": "C", "categoryCode": "36", "address": "4925 134 AVE NW", "city": "EDMONTON", "province": "AB", "country": "CA", "postalCode": "T5A3R9", "twitter": "None", "instagram": "None", "facebook": "None", "youtube": "None", "website": "None", "summary": "None", "logo": "None", "latitude": 53.59470153563412, "longitude": -113.413104}, "119233955RR0001": {"name": "THE FREEMEN OF THE CITY OF LONDON OF NORTHAMERICA", "designationCode": "C", "categoryCode": "09", "address": "1915 BROAD HOLLOW GATE        UNIT 110", "city": "MISSISSAUGA", "province": "ON", "country": "CA", "postalCode": "L5L6A3", "twitter": "None", "instagram": "None", "facebook": "None", "youtube": "None", "website": "None", "summary": "None", "logo": "None", "latitude": 43.54393059322543, "longitude": -79.66672063323169}, "831575477RR0001": {"name": "THE FREESCHOOLS WORLD LITERACY CHARITY", "designationCode": "C", "categoryCode": "29", "address": "STE 428 4-115 FIRST ST", "city": "COLLINGWOOD", "province": "ON", "country": "CA", "postalCode": "L9Y4W3", "twitter": "None", "instagram": "None", "facebook": "None", "youtube": "None", "website": "None", "summary": "None", "logo": "None", "latitude": 44.502609473507384, "longitude": -80.22093772527076}, "860541861RR0001": {"name": "THE FREEWAY FREE METHODIST CHURCH", "designationCode": "C", "categoryCode": "39", "address": "#202-633 KING ST EAST", "city": "OSHAWA", "province": "ON", "country": "CA", "postalCode": "L1H1B2", "twitter": "None", "instagram": "None", "facebook": "None", "youtube": "None", "website": "None", "summary": "None", "logo": "None", "latitude": 43.90328019672794, "longitude": -78.83892414150002}, "894887074RR0001": {"name": "THE FRENCH CONNECTION AT JOHN FISHER INC.", "designationCode": "C", "categoryCode": "20", "address": "40 ERSKINE AVE", "city": "TORONTO", "province": "ON", "country": "CA", "postalCode": "M4P1Y2", "twitter": "None", "instagram": "None", "facebook": "None", "youtube": "None", "website": "None", "summary": "None", "logo": "None", "latitude": 43.7115161912687, "longitude": -79.39726829560263}, "119234037RR0001": {"name": "THE FRENCH RIVER CEMETERY OF PICTOU COUNTY", "designationCode": "C", "categoryCode": "59", "address": "39 GATES RD                   RR 2 PICTOU", "city": "CENTRAL WEST RIVER", "province": "NS", "country": "CA", "postalCode": "B0K1H0", "twitter": "None", "instagram": "None", "facebook": "None", "youtube": "None", "website": "None", "summary": "None", "logo": "None", "latitude": 45.57337000000007, "longitude": -62.83935999999994}, "119234045RR0001": {"name": "THE FRIEBERG FAMILY CHARITABLE FOUNDATION", "designationCode": "B", "categoryCode": "03", "address": "3300 HIGHWAY NO 7 7TH FLOOR", "city": "CONCORD", "province": "ON", "country": "CA", "postalCode": "L4K4M3", "twitter": "None", "instagram": "None", "facebook": "None", "youtube": "None", "website": "None", "summary": "None", "logo": "None", "latitude": 43.792710000000056, "longitude": -79.53130249999994}, "827915521RR0001": {"name": "THE FRIEDBERG CHARITABLE FOUNDATION", "designationCode": "B", "categoryCode": "03", "address": "250 - 181 BAY ST", "city": "TORONTO", "province": "ON", "country": "CA", "postalCode": "M5J2T3", "twitter": "None", "instagram": "None", "facebook": "None", "youtube": "None", "website": "None", "summary": "None", "logo": "None", "latitude": 43.64715434416293, "longitude": -79.37959157588452}, "892342569RR0001": {"name": "THE FRIEDMAN FAMILY FOUNDATION/LA FONDATION FAMILIALE FRIEDMAN", "designationCode": "B", "categoryCode": "03", "address": "1810 LAJOIE", "city": "OUTREMONT", "province": "QC", "country": "CA", "postalCode": "H2V1S3", "twitter": "None", "instagram": "None", "facebook": "None", "youtube": "None", "website": "None", "summary": "None", "logo": "None", "latitude": 45.513227326937596, "longitude": -73.61741791393061}, "119234052RR0001": {"name": "THE FRIENDLY GOSPEL LIGHTHOUSE", "designationCode": "C", "categoryCode": "39", "address": "2703-47A AVENUE", "city": "LLOYDMINSTER", "province": "SK", "country": "CA", "postalCode": "S9V1H1", "twitter": "None", "instagram": "None", "facebook": "None", "youtube": "None", "website": "None", "summary": "None", "logo": "None", "latitude": 53.2623245029142, "longitude": -109.99928006979634}, "128296993RR0001": {"name": "THE FRIENDLY SPIKE THEATRE BAND", "designationCode": "C", "categoryCode": "22", "address": "2466 DUNDAS STREET WEST       STUDIO #210", "city": "TORONTO", "province": "ON", "country": "CA", "postalCode": "M6P1W9", "twitter": "None", "instagram": "None", "facebook": "None", "youtube": "None", "website": "None", "summary": "None", "logo": "None", "latitude": 43.65965581571352, "longitude": -79.45349818232458}, "119234060RR0001": {"name": "THE FRIENDS OF ALGONQUIN PARK", "designationCode": "C", "categoryCode": "52", "address": "BOX 248", "city": "WHITNEY", "province": "ON", "country": "CA", "postalCode": "K0J2M0", "twitter": "None", "instagram": "None", "facebook": "None", "youtube": "None", "website": "None", "summary": "None", "logo": "None", "latitude": 45.49273000000005, "longitude": -78.23737999999997}, "886882117RR0001": {"name": "THE FRIENDS OF AMELIASBURGH HISTORICAL MUSEUM", "designationCode": "C", "categoryCode": "55", "address": "AMELIASBURGH HISTORICAL MUSEUMBOX 67", "city": "AMELIASBURGH", "province": "ON", "country": "CA", "postalCode": "K0K1A0", "twitter": "None", "instagram": "None", "facebook": "None", "youtube": "None", "website": "None", "summary": "None", "logo": "None", "latitude": 44.05905000000007, "longitude": -77.43622999999997}, "890208440RR0001": {"name": "THE FRIENDS OF BERNIE OBDEYN SCHOLARSHIP FOUNDATION", "designationCode": "C", "categoryCode": "21", "address": "137 CHANTLER ROAD", "city": "WELLAND", "province": "ON", "country": "CA", "postalCode": "L3B5N8", "twitter": "None", "instagram": "None", "facebook": "None", "youtube": "None", "website": "None", "summary": "None", "logo": "None", "latitude": 42.997444211891434, "longitude": -79.29051193658952}, "893975573RR0001": {"name": "THE FRIENDS OF CABOT HEAD NON-PROFIT ASSOCIATION", "designationCode": "C", "categoryCode": "52", "address": "P.O. BOX 233", "city": "LION'S HEAD", "province": "ON", "country": "CA", "postalCode": "N0H1W0", "twitter": "None", "instagram": "None", "facebook": "None", "youtube": "None", "website": "None", "summary": "None", "logo": "None", "latitude": 44.98728998889153, "longitude": -81.25250001889873}, "895532364RR0001": {"name": "THE FRIENDS OF CHARLESTON LAKE PARK/LES AMIS DU PARC CHARLESTON LAKE", "designationCode": "C", "categoryCode": "52", "address": "148 WOODVALE ROAD             RR4", "city": "LANSDOWNE", "province": "ON", "country": "CA", "postalCode": "K0E1L0", "twitter": "None", "instagram": "None", "facebook": "None", "youtube": "None", "website": "None", "summary": "None", "logo": "None", "latitude": 44.49669189704919, "longitude": -76.03443461269926}, "861670859RR0001": {"name": "THE FRIENDS OF CHIPPEWA PARK", "designationCode": "C", "categoryCode": "56", "address": "356 - 1100C MEMORIAL AVE", "city": "THUNDER BAY", "province": "ON", "country": "CA", "postalCode": "P7B4A3", "twitter": "None", "instagram": "None", "facebook": "None", "youtube": "None", "website": "None", "summary": "None", "logo": "None", "latitude": 48.40413407242773, "longitude": -89.24560297822195}, "824040349RR0001": {"name": "THE FRIENDS OF DUNNOTTAR-STATION PROJECT", "designationCode": "C", "categoryCode": "50", "address": "P.O. BOX 444", "city": "WINNIPEG BEACH", "province": "MB", "country": "CA", "postalCode": "R0C3G0", "twitter": "None", "instagram": "None", "facebook": "None", "youtube": "None", "website": "None", "summary": "None", "logo": "None", "latitude": 50.49416000000008, "longitude": -96.96995999999996}, "119234078RR0001": {"name": "THE FRIENDS OF ELK ISLAND SOCIETY", "designationCode": "C", "categoryCode": "52", "address": "PO BOX 38054 CAPILANO", "city": "EDMONTON", "province": "AB", "country": "CA", "postalCode": "T6A3Y6", "twitter": "None", "instagram": "None", "facebook": "None", "youtube": "None", "website": "None", "summary": "None", "logo": "None", "latitude": 53.55443349205362, "longitude": -113.43801968520823}, "133909721RR0001": {"name": "THE FRIENDS OF FAIRVERN", "designationCode": "C", "categoryCode": "11", "address": "1005 STROUD BEACH RD", "city": "UTTERSON", "province": "ON", "country": "CA", "postalCode": "P0B1M0", "twitter": "None", "instagram": "None", "facebook": "None", "youtube": "None", "website": "None", "summary": "None", "logo": "None", "latitude": 45.274378535402995, "longitude": -79.45929282067651}, "899705966RR0001": {"name": "THE FRIENDS OF FORT YORK AND GARRISON COMMON", "designationCode": "C", "categoryCode": "23", "address": "260 ADELAIDE ST EAST          BOX 183", "city": "TORONTO", "province": "ON", "country": "CA", "postalCode": "M5A2N1", "twitter": "None", "instagram": "None", "facebook": "None", "youtube": "None", "website": "None", "summary": "None", "logo": "None", "latitude": 43.651775146834694, "longitude": -79.37042615251885}, "135064764RR0001": {"name": "THE FRIENDS OF FRONTENAC PARK", "designationCode": "C", "categoryCode": "52", "address": "P O BOX 2237", "city": "KINGSTON", "province": "ON", "country": "CA", "postalCode": "K7L5J9", "twitter": "None", "instagram": "None", "facebook": "None", "youtube": "None", "website": "None", "summary": "None", "logo": "None", "latitude": 44.23153200000006, "longitude": -76.47933049999993}, "139369367RR0001": {"name": "THE FRIENDS OF HANK SNOW SOCIETY", "designationCode": "C", "categoryCode": "59", "address": "BOX 1419", "city": "LIVERPOOL", "province": "NS", "country": "CA", "postalCode": "B0T1K0", "twitter": "None", "instagram": "None", "facebook": "None", "youtube": "None", "website": "None", "summary": "None", "logo": "None", "latitude": 44.03577000000007, "longitude": -64.72067999999996}, "886617232RR0001": {"name": "THE FRIENDS OF JOHN DEAN PARK SOCIETY", "designationCode": "C", "categoryCode": "52", "address": "8630 EAST SAANICH ROAD", "city": "NORTH SAANICH", "province": "BC", "country": "CA", "postalCode": "V8L1H1", "twitter": "None", "instagram": "None", "facebook": "None", "youtube": "None", "website": "None", "summary": "None", "logo": "None", "latitude": 48.61634132861102, "longitude": -123.4164506308205}, "872297817RR0001": {"name": "THE FRIENDS OF JOHN PAUL II FOUNDATION OF TORONTO INC.", "designationCode": "C", "categoryCode": "43", "address": "14 HESTER STREET", "city": "HAMILTON", "province": "ON", "country": "CA", "postalCode": "L9A2N2", "twitter": "None", "instagram": "None", "facebook": "None", "youtube": "None", "website": "None", "summary": "None", "logo": "None", "latitude": 43.22480494419771, "longitude": -79.88238995796057}, "859181802RR0001": {"name": "THE FRIENDS OF KALAMALKA LAKE PROVINCIAL PARK", "designationCode": "C", "categoryCode": "52", "address": "8215 STONERIDGE DR", "city": "COLDSTREAM", "province": "BC", "country": "CA", "postalCode": "V1B3M3", "twitter": "None", "instagram": "None", "facebook": "None", "youtube": "None", "website": "None", "summary": "None", "logo": "None", "latitude": 50.22574876448323, "longitude": -119.2829148562001}, "866228968RR0001": {"name": "THE FRIENDS OF KILLBEAR PARK", "designationCode": "C", "categoryCode": "56", "address": "35 KILLBEAR PARK ROAD         RR #1", "city": "NOBEL", "province": "ON", "country": "CA", "postalCode": "P0G1G0", "twitter": "None", "instagram": "None", "facebook": "None", "youtube": "None", "website": "None", "summary": "None", "logo": "None", "latitude": 45.375237402301074, "longitude": -80.24575794959144}, "874505217RR0001": {"name": "THE FRIENDS OF KNOX MOUNTAIN PARK", "designationCode": "C", "categoryCode": "52", "address": "396 CLIFTON ROAD, SOUTH", "city": "KELOWNA", "province": "BC", "country": "CA", "postalCode": "V1V1A5", "twitter": "None", "instagram": "None", "facebook": "None", "youtube": "None", "website": "None", "summary": "None", "logo": "None", "latitude": 49.91422629038278, "longitude": -119.46744249232702}, "137698916RR0001": {"name": "THE FRIENDS OF LIBRARY AND ARCHIVES CANADA/LES AMIS DE BIBLIOTHEQUE ET ARCHIVES CANADA", "designationCode": "C", "categoryCode": "50", "address": "395 WELLINGTON ST.            ROOM 125", "city": "OTTAWA", "province": "ON", "country": "CA", "postalCode": "K1A0N4", "twitter": "None", "instagram": "None", "facebook": "None", "youtube": "None", "website": "None", "summary": "None", "logo": "None", "latitude": 45.419889072730975, "longitude": -75.70652106515301}, "891816266RR0001": {"name": "THE FRIENDS OF LUCY MAUD MONTGOMERY LOWER BEDEQUE SCHOOL INC", "designationCode": "C", "categoryCode": "50", "address": "91 HERON DR", "city": "STRATFORD", "province": "PE", "country": "CA", "postalCode": "C1B2B8", "twitter": "None", "instagram": "None", "facebook": "None", "youtube": "None", "website": "None", "summary": "None", "logo": "None", "latitude": 46.22849573495291, "longitude": -63.09261299180568}, "134968841RR0001": {"name": "THE FRIENDS OF MACGREGOR POINT PARK", "designationCode": "C", "categoryCode": "52", "address": "RR 1", "city": "PORT ELGIN", "province": "ON", "country": "CA", "postalCode": "N0H2C5", "twitter": "None", "instagram": "None", "facebook": "None", "youtube": "None", "website": "None", "summary": "None", "logo": "None", "latitude": 44.706518949046206, "longitude": -80.92017603645277}, "865746150RR0001": {"name": "THE FRIENDS OF MCCAIG ELEMENTARY SCHOOL - LES AMIS DE L'ECOLE PRIMAIRE MCCAIG", "designationCode": "C", "categoryCode": "21", "address": "501 NORTHCOTE ROAD", "city": "ROSEMERE", "province": "QC", "country": "CA", "postalCode": "J7A1Y1", "twitter": "None", "instagram": "None", "facebook": "None", "youtube": "None", "website": "None", "summary": "None", "logo": "None", "latitude": 45.64750426123795, "longitude": -73.78833837610345}, "897468740RR0001": {"name": "THE FRIENDS OF MISERY BAY", "designationCode": "C", "categoryCode": "52", "address": "P.O. BOX 114", "city": "GORE BAY", "province": "ON", "country": "CA", "postalCode": "P0P1H0", "twitter": "None", "instagram": "None", "facebook": "None", "youtube": "None", "website": "None", "summary": "None", "logo": "None", "latitude": 45.90865156608953, "longitude": -82.45968892721794}, "888098431RR0001": {"name": "THE FRIENDS OF NANCY ISLAND HISTORIC SITE AND WASAGA BEACH P", "designationCode": "C", "categoryCode": "52", "address": "11 22ND ST N", "city": "WASAGA BEACH", "province": "ON", "country": "CA", "postalCode": "L9Z2V9", "twitter": "None", "instagram": "None", "facebook": "None", "youtube": "None", "website": "None", "summary": "None", "logo": "None", "latitude": 44.49761522615177, "longitude": -80.04677857350202}, "119234110RR0001": {"name": "THE FRIENDS OF NANOOSE LIBRARY CENTRE SOCIETY", "designationCode": "C", "categoryCode": "50", "address": "2489 NANOOSE ROAD", "city": "NANOOSE BAY", "province": "BC", "country": "CA", "postalCode": "V9P9E6", "twitter": "None", "instagram": "None", "facebook": "None", "youtube": "None", "website": "None", "summary": "None", "logo": "None", "latitude": 49.275476448721435, "longitude": -124.19232052280987}, "888147592RR0001": {"name": "THE FRIENDS OF OSPREY KAWARTHA LAKES", "designationCode": "C", "categoryCode": "54", "address": "BOX 25", "city": "LINDSAY", "province": "ON", "country": "CA", "postalCode": "K9V4R8", "twitter": "None", "instagram": "None", "facebook": "None", "youtube": "None", "website": "None", "summary": "None", "logo": "None", "latitude": 44.35437300000005, "longitude": -78.73967149999993}, "890063142RR0001": {"name": "THE FRIENDS OF OTTERVILLE PARK", "designationCode": "C", "categoryCode": "52", "address": "280 MAIN STREET E             BOX 31", "city": "OTTERVILLE", "province": "ON", "country": "CA", "postalCode": "N0J1R0", "twitter": "None", "instagram": "None", "facebook": "None", "youtube": "None", "website": "None", "summary": "None", "logo": "None", "latitude": 42.92757331057762, "longitude": -80.59574491958516}, "126008671RR0001": {"name": "THE FRIENDS OF PINERY PARK", "designationCode": "C", "categoryCode": "52", "address": "PO BOX 40", "city": "GRAND BEND", "province": "ON", "country": "CA", "postalCode": "N0M1T0", "twitter": "None", "instagram": "None", "facebook": "None", "youtube": "None", "website": "None", "summary": "None", "logo": "None", "latitude": 43.235389489558244, "longitude": -81.68905893037018}, "124351511RR0001": {"name": "THE FRIENDS OF PRESQU'ILE PARK", "designationCode": "C", "categoryCode": "52", "address": "P.O. BOX 1442", "city": "BRIGHTON", "province": "ON", "country": "CA", "postalCode": "K0K1H0", "twitter": "None", "instagram": "None", "facebook": "None", "youtube": "None", "website": "None", "summary": "None", "logo": "None", "latitude": 44.04247000000004, "longitude": -77.73561999999998}, "130170608RR0001": {"name": "THE FRIENDS OF REYNOLDS - ALBERTA MUSEUM SOCIETY", "designationCode": "C", "categoryCode": "50", "address": "PO BOX 6206", "city": "WETASKIWIN", "province": "AB", "country": "CA", "postalCode": "T9A2E9", "twitter": "None", "instagram": "None", "facebook": "None", "youtube": "None", "website": "None", "summary": "None", "logo": "None", "latitude": 52.96987500000006, "longitude": -113.37725149999994}, "876829763RR0001": {"name": "THE FRIENDS OF RIDEAU PARK SOCIETY", "designationCode": "C", "categoryCode": "21", "address": "10605 42 AVE NW", "city": "EDMONTON", "province": "AB", "country": "CA", "postalCode": "T6J3Z9", "twitter": "None", "instagram": "None", "facebook": "None", "youtube": "None", "website": "None", "summary": "None", "logo": "None", "latitude": 53.47878147619648, "longitude": -113.505291}, "899960165RR0001": {"name": "THE FRIENDS OF RONDEAU PARK", "designationCode": "C", "categoryCode": "52", "address": "R R 1", "city": "MORPETH", "province": "ON", "country": "CA", "postalCode": "N0P1X0", "twitter": "None", "instagram": "None", "facebook": "None", "youtube": "None", "website": "None", "summary": "None", "logo": "None", "latitude": 42.3257328993815, "longitude": -81.84483820187464}, "893363721RR0001": {"name": "THE FRIENDS OF SAINT MARTIN DE PORRES HIGH SCHOOL", "designationCode": "C", "categoryCode": "21", "address": "410 YANKEE VALLEY BLVD. SW", "city": "AIRDRIE", "province": "AB", "country": "CA", "postalCode": "T4B2M1", "twitter": "None", "instagram": "None", "facebook": "None", "youtube": "None", "website": "None", "summary": "None", "logo": "None", "latitude": 51.27093449047804, "longitude": -114.01598249999999}, "893935767RR0001": {"name": "THE FRIENDS OF SANDBANKS PARK", "designationCode": "C", "categoryCode": "59", "address": "P.O. BOX 22007                97 MAIN STREET", "city": "PICTON", "province": "ON", "country": "CA", "postalCode": "K0K0A0", "twitter": "None", "instagram": "None", "facebook": "None", "youtube": "None", "website": "None", "summary": "None", "logo": "None", "latitude": 44.04122789644548, "longitude": -77.74098708200135}, "140728841RR0001": {"name": "THE FRIENDS OF SLEEPING GIANT", "designationCode": "C", "categoryCode": "52", "address": "267 SHERWOOD DR", "city": "THUNDER BAY", "province": "ON", "country": "CA", "postalCode": "P7B6L2", "twitter": "None", "instagram": "None", "facebook": "None", "youtube": "None", "website": "None", "summary": "None", "logo": "None", "latitude": 48.45322069856898, "longitude": -89.26977942226915}, "119234136RR0001": {"name": "THE FRIENDS OF ST.JAMES CATHEDRAL", "designationCode": "C", "categoryCode": "52", "address": "65 CHURCH STREET", "city": "TORONTO", "province": "ON", "country": "CA", "postalCode": "M5C2E9", "twitter": "None", "instagram": "None", "facebook": "None", "youtube": "None", "website": "None", "summary": "None", "logo": "None", "latitude": 43.65024376464307, "longitude": -79.37446907686548}, "870771862RR0001": {"name": "THE FRIENDS OF SWITZER PARK COOPERATING ASSOCIATION", "designationCode": "C", "categoryCode": "52", "address": "130 ERITH DR", "city": "HINTON", "province": "AB", "country": "CA", "postalCode": "T7V1P4", "twitter": "None", "instagram": "None", "facebook": "None", "youtube": "None", "website": "None", "summary": "None", "logo": "None", "latitude": 53.39672151154119, "longitude": -117.59503961114325}, "887135010RR0001": {"name": "THE FRIENDS OF THE AVIARY", "designationCode": "C", "categoryCode": "54", "address": "35 WEIR ST S", "city": "HAMILTON", "province": "ON", "country": "CA", "postalCode": "L8K3A3", "twitter": "None", "instagram": "None", "facebook": "None", "youtube": "None", "website": "None", "summary": "None", "logo": "None", "latitude": 43.236955100467455, "longitude": -79.80486892656832}, "890971195RR0001": {"name": "THE FRIENDS OF THE BAR U HISTORIC RANCH ASSOCIATION", "designationCode": "C", "categoryCode": "52", "address": "PO BOX 82", "city": "LONGVIEW", "province": "AB", "country": "CA", "postalCode": "T0L1H0", "twitter": "None", "instagram": "None", "facebook": "None", "youtube": "None", "website": "None", "summary": "None", "logo": "None", "latitude": 50.532502325183444, "longitude": -114.23299378974072}, "118932557RR0001": {"name": "THE FRIENDS OF THE BRUCE DISTRICT PARKS ASSOCIATION", "designationCode": "C", "categoryCode": "52", "address": "PO BOX 66", "city": "TOBERMORY", "province": "ON", "country": "CA", "postalCode": "N0H2R0", "twitter": "None", "instagram": "None", "facebook": "None", "youtube": "None", "website": "None", "summary": "None", "logo": "None", "latitude": 45.253840000000025, "longitude": -81.66510999999997}, "887411593RR0001": {"name": "THE FRIENDS OF THE CALEDON PUBLIC LIBRARY", "designationCode": "C", "categoryCode": "21", "address": "150 QUEEN ST S", "city": "BOLTON", "province": "ON", "country": "CA", "postalCode": "L7E1E3", "twitter": "None", "instagram": "None", "facebook": "None", "youtube": "None", "website": "None", "summary": "None", "logo": "None", "latitude": 43.87680715477736, "longitude": -79.7345309138883}, "887990646RR0001": {"name": "THE FRIENDS OF THE CALGARY JEWISH ACADEMY TRUST", "designationCode": "A", "categoryCode": "23", "address": "6700 KOOTENAY STREET S. W.", "city": "CALGARY", "province": "AB", "country": "CA", "postalCode": "T2V1P7", "twitter": "None", "instagram": "None", "facebook": "None", "youtube": "None", "website": "None", "summary": "None", "logo": "None", "latitude": 50.993743306134235, "longitude": -114.09332950747317}, "140975400RR0001": {"name": "THE FRIENDS OF THE CANMORE LIBRARY SOCIETY", "designationCode": "C", "categoryCode": "59", "address": "UNIT 101, 700 RAILWAY AVENUE", "city": "CANMORE", "province": "AB", "country": "CA", "postalCode": "T1W1P4", "twitter": "None", "instagram": "None", "facebook": "None", "youtube": "None", "website": "None", "summary": "None", "logo": "None", "latitude": 51.08802744445657, "longitude": -115.34919500767377}, "868661802RR0001": {"name": "THE FRIENDS OF THE CLEVELAND CLINIC FOUNDATION", "designationCode": "C", "categoryCode": "19", "address": "155 WELLINGTON STREET WEST", "city": "TORONTO", "province": "ON", "country": "CA", "postalCode": "M5V3J7", "twitter": "None", "instagram": "None", "facebook": "None", "youtube": "None", "website": "None", "summary": "None", "logo": "None", "latitude": 43.64596585316531, "longitude": -79.38574575644876}, "119234169RR0001": {"name": "THE FRIENDS OF THE COURT (MACKENZIE HALL, WINDSOR)", "designationCode": "C", "categoryCode": "52", "address": "3277 SANDWICH STREET", "city": "WINDSOR", "province": "ON", "country": "CA", "postalCode": "N9C1A9", "twitter": "None", "instagram": "None", "facebook": "None", "youtube": "None", "website": "None", "summary": "None", "logo": "None", "latitude": 42.30026467831387, "longitude": -83.07667370174298}, "872220751RR0001": {"name": "THE FRIENDS OF THE CRANBROOK PUBLIC LIBRARY", "designationCode": "A", "categoryCode": "53", "address": "1212 2ND ST. NORTH", "city": "CRANBROOK", "province": "BC", "country": "CA", "postalCode": "V1C4T6", "twitter": "None", "instagram": "None", "facebook": "None", "youtube": "None", "website": "None", "summary": "None", "logo": "None", "latitude": 49.51400123747481, "longitude": -115.76396379634913}}