{"119288918RR0276": {"name": "GERRARD TORONTO CONGREGATION OF JEHOVAH'S WITNESSES", "designationCode": "C", "categoryCode": "61", "address": "1005 GERRARD ST E", "city": "TORONTO", "province": "ON", "country": "CA", "postalCode": "M4M1Z4", "twitter": "None", "instagram": "None", "facebook": "None", "youtube": "None", "website": "None", "summary": "None", "logo": "None", "latitude": 43.66866783484345, "longitude": -79.33792620537831}, "130586522RR0001": {"name": "GERSTEIN CRISIS CENTRE", "designationCode": "C", "categoryCode": "11", "address": "100 CHARLES ST EAST", "city": "TORONTO", "province": "ON", "country": "CA", "postalCode": "M4Y1V3", "twitter": "None", "instagram": "None", "facebook": "None", "youtube": "None", "website": "None", "summary": "None", "logo": "None", "latitude": 43.66980716515657, "longitude": -79.38091803595123}, "890176522RR0001": {"name": "GERTRUDE HORROBIN, ELSA AND MARGARET LINKE CHARITABLE FOUNDATION", "designationCode": "B", "categoryCode": "05", "address": "202, 10060 JASPER AVENUE", "city": "EDMONTON", "province": "AB", "country": "CA", "postalCode": "T5J3R8", "twitter": "None", "instagram": "None", "facebook": "None", "youtube": "None", "website": "None", "summary": "None", "logo": "None", "latitude": 53.541084453834316, "longitude": -113.49278554108712}, "890986896RR0001": {"name": "GESHER ABRAHAM", "designationCode": "C", "categoryCode": "20", "address": "819 SHEPPARD AVE W", "city": "TORONTO", "province": "ON", "country": "CA", "postalCode": "M3H2T3", "twitter": "None", "instagram": "None", "facebook": "None", "youtube": "None", "website": "None", "summary": "None", "logo": "None", "latitude": 43.752861779300936, "longitude": -79.45094627808884}, "801801549RR0001": {"name": "GESTAC HDL INC.", "designationCode": "A", "categoryCode": "13", "address": "5600 RUE J.-B.-MICHAUD", "city": "LEVIS", "province": "QC", "country": "CA", "postalCode": "G6V0N9", "twitter": "None", "instagram": "None", "facebook": "None", "youtube": "None", "website": "None", "summary": "None", "logo": "None", "latitude": 46.78871122011098, "longitude": -71.16447505714365}, "118937911RR0001": {"name": "GESTALT INSTITUTE OF TORONTO", "designationCode": "C", "categoryCode": "20", "address": "417 PARLIAMENT ST", "city": "TORONTO", "province": "ON", "country": "CA", "postalCode": "M5A3A1", "twitter": "None", "instagram": "None", "facebook": "None", "youtube": "None", "website": "None", "summary": "None", "logo": "None", "latitude": 43.66247248043739, "longitude": -79.36722032151323}, "888198611RR0001": {"name": "GESTION WALTER VANIER", "designationCode": "C", "categoryCode": "10", "address": "300 CHEMIN BORD DE L'EAU", "city": "LAVAL", "province": "QC", "country": "CA", "postalCode": "H7X1S9", "twitter": "None", "instagram": "None", "facebook": "None", "youtube": "None", "website": "None", "summary": "None", "logo": "None", "latitude": 45.51812466055123, "longitude": -73.78968585419665}, "137148169RR0001": {"name": "GESU-CENTRE DE CREATIVITE", "designationCode": "C", "categoryCode": "22", "address": "1200 RUE BLEURY", "city": "MONTREAL", "province": "QC", "country": "CA", "postalCode": "H3B3J3", "twitter": "None", "instagram": "None", "facebook": "None", "youtube": "None", "website": "None", "summary": "None", "logo": "None", "latitude": 45.50574589837872, "longitude": -73.5659029718677}, "877206565RR0001": {"name": "GET BEAR SMART SOCIETY", "designationCode": "C", "categoryCode": "54", "address": "203 - 5780 MARINE WAY", "city": "SECHELT", "province": "BC", "country": "CA", "postalCode": "V0N3A6", "twitter": "None", "instagram": "None", "facebook": "None", "youtube": "None", "website": "None", "summary": "None", "logo": "None", "latitude": 49.483256365610224, "longitude": -123.76441659479029}, "896223971RR0001": {"name": "GETHSEMANE BAPTIST CHURCH OF MONTREAL/EGLISE BAPTISTE GETHSEMANE DE MONTREAL", "designationCode": "C", "categoryCode": "31", "address": "6215 COTE ST-LUC", "city": "MONTREAL", "province": "QC", "country": "CA", "postalCode": "H3X2H3", "twitter": "None", "instagram": "None", "facebook": "None", "youtube": "None", "website": "None", "summary": "None", "logo": "None"}, "107430704RR0001": {"name": "GETHSEMANE LUTHERAN CHURCH", "designationCode": "C", "categoryCode": "32", "address": "1921 CABANA RD W", "city": "WINDSOR", "province": "ON", "country": "CA", "postalCode": "N9G1C7", "twitter": "None", "instagram": "None", "facebook": "None", "youtube": "None", "website": "None", "summary": "None", "logo": "None", "latitude": 42.25336572707665, "longitude": -83.02464546638603}, "137408373RR0001": {"name": "GETHSEMANE LUTHERAN CHURCH", "designationCode": "C", "categoryCode": "32", "address": "BOX 14", "city": "INWOOD", "province": "MB", "country": "CA", "postalCode": "R0C1P0", "twitter": "None", "instagram": "None", "facebook": "None", "youtube": "None", "website": "None", "summary": "None", "logo": "None", "latitude": 50.507850000000076, "longitude": -97.49743999999998}, "136071248RR0001": {"name": "GETHSEMANE PRAYER GARDEN SOCIETY", "designationCode": "C", "categoryCode": "49", "address": "10228 216TH STREET", "city": "LANGLEY", "province": "BC", "country": "CA", "postalCode": "V1M3J3", "twitter": "None", "instagram": "None", "facebook": "None", "youtube": "None", "website": "None", "summary": "None", "logo": "None", "latitude": 49.18783382653356, "longitude": -122.62341902830518}, "131527723RR0001": {"name": "GETTING READY FOR INCLUSION TODAY (THE GRIT PROGRAM) SOCIETY OF EDMONTON", "designationCode": "C", "categoryCode": "11", "address": "12852 141 ST NW", "city": "EDMONTON", "province": "AB", "country": "CA", "postalCode": "T5L4N8", "twitter": "None", "instagram": "None", "facebook": "None", "youtube": "None", "website": "None", "summary": "None", "logo": "None", "latitude": 53.58607075463108, "longitude": -113.56416015188368}, "890372089RR0001": {"name": "GEWURZ FAMILY FOUNDATION/FONDATION FAMILIALE GEWURZ", "designationCode": "B", "categoryCode": "03", "address": "14 PLACE DU COMMERCE, #320", "city": "ILE DES SOEURS", "province": "QC", "country": "CA", "postalCode": "H3E1T5", "twitter": "None", "instagram": "None", "facebook": "None", "youtube": "None", "website": "None", "summary": "None", "logo": "None", "latitude": 45.46853463229242, "longitude": -73.53971435844542}, "107441834RR0001": {"name": "GFA World", "designationCode": "C", "categoryCode": "47", "address": "245 KING ST. EAST", "city": "STONEY CREEK", "province": "ON", "country": "CA", "postalCode": "L8G1L9", "twitter": "None", "instagram": "None", "facebook": "None", "youtube": "None", "website": "None", "summary": "None", "logo": "None", "latitude": 43.216849526544834, "longitude": -79.73846155536961}, "823340641RR0001": {"name": "GFL (Green for Life) Miracles Charitable Foundation", "designationCode": "B", "categoryCode": "03", "address": "SUITE 2                       125 VILLARBOIT CRESCENT", "city": "VAUGHAN", "province": "ON", "country": "CA", "postalCode": "L4K4K2", "twitter": "None", "instagram": "None", "facebook": "None", "youtube": "None", "website": "None", "summary": "None", "logo": "None", "latitude": 43.827539812135484, "longitude": -79.49481107565337}, "829158567RR0001": {"name": "GGM: Gospel for the Globe Mission", "designationCode": "C", "categoryCode": "39", "address": "1200 WALKLEY RD", "city": "OTTAWA", "province": "ON", "country": "CA", "postalCode": "K1V6P8", "twitter": "None", "instagram": "None", "facebook": "None", "youtube": "None", "website": "None", "summary": "None", "logo": "None", "latitude": 45.37059065471188, "longitude": -75.6626004025623}, "885692822RR0001": {"name": "GHANA CALVARY METHODIST UNITED CHURCH, TORONTO", "designationCode": "C", "categoryCode": "44", "address": "65 MAYALL AVE", "city": "TORONTO", "province": "ON", "country": "CA", "postalCode": "M3L1E7", "twitter": "None", "instagram": "None", "facebook": "None", "youtube": "None", "website": "None", "summary": "None", "logo": "None", "latitude": 43.72722110964273, "longitude": -79.5187085040107}, "897217790RR0001": {"name": "GHANA INTERNATIONAL HEALTH FOUNDATION", "designationCode": "C", "categoryCode": "11", "address": "1154 DES HIRONDELLES", "city": "LONGUEUIL", "province": "QC", "country": "CA", "postalCode": "J4G2C6", "twitter": "None", "instagram": "None", "facebook": "None", "youtube": "None", "website": "None", "summary": "None", "logo": "None", "latitude": 45.55792188121069, "longitude": -73.47424235264569}, "864182670RR0001": {"name": "GHANA METHODIST CHURCH OF MONTREAL", "designationCode": "C", "categoryCode": "39", "address": "1785 RUE SUNNY BROOKE", "city": "DDO", "province": "QC", "country": "CA", "postalCode": "H9B1R5", "twitter": "None", "instagram": "None", "facebook": "None", "youtube": "None", "website": "None", "summary": "None", "logo": "None", "latitude": 45.50131500000006, "longitude": -73.78681849999994}, "873990964RR0001": {"name": "GHANA METHODIST CHURCH OF TORONTO", "designationCode": "C", "categoryCode": "39", "address": "19 PENN DRIVE", "city": "TORONTO", "province": "ON", "country": "CA", "postalCode": "M9L2A6", "twitter": "None", "instagram": "None", "facebook": "None", "youtube": "None", "website": "None", "summary": "None", "logo": "None", "latitude": 43.751052841479876, "longitude": -79.55450749056494}, "893026369RR0001": {"name": "GHANA NATIVE ASSISTANCE GROUP INC.", "designationCode": "C", "categoryCode": "21", "address": "12206 EVERGREEN DRIVE", "city": "TECUMSEH", "province": "ON", "country": "CA", "postalCode": "N8N1G9", "twitter": "None", "instagram": "None", "facebook": "None", "youtube": "None", "website": "None", "summary": "None", "logo": "None", "latitude": 42.322053733890606, "longitude": -82.89008689620717}, "837694926RR0001": {"name": "GHANA RURAL INTEGRATED DEVELOPMENT (GRID)", "designationCode": "C", "categoryCode": "01", "address": "P.O.BOX 398 STN MAIN", "city": "MILTON", "province": "ON", "country": "CA", "postalCode": "L9T4Y9", "twitter": "None", "instagram": "None", "facebook": "None", "youtube": "None", "website": "None", "summary": "None", "logo": "None", "latitude": 43.5059096815164, "longitude": -79.89099587184779}, "840421440RR0001": {"name": "GHANAIAN ANGLICAN CHURCH OF TORONTO", "designationCode": "C", "categoryCode": "39", "address": "PO BOX 79543 RPO OLD WESTON", "city": "YORK", "province": "ON", "country": "CA", "postalCode": "M9N3W9", "twitter": "None", "instagram": "None", "facebook": "None", "youtube": "None", "website": "None", "summary": "None", "logo": "None", "latitude": 43.681096223126936, "longitude": -79.46694572312693}, "891549842RR0001": {"name": "GHANAIAN PRESBYTERIAN CHURCH, TORONTO", "designationCode": "C", "categoryCode": "37", "address": "51 HIGH MEADOW PLACE", "city": "TORONTO", "province": "ON", "country": "CA", "postalCode": "M9L2Z5", "twitter": "None", "instagram": "None", "facebook": "None", "youtube": "None", "website": "None", "summary": "None", "logo": "None", "latitude": 43.75414974937964, "longitude": -79.53957209123486}, "118793074RR0025": {"name": "GHANAIAN SEVENTH-DAY ADVENTIST CHURCH", "designationCode": "C", "categoryCode": "41", "address": "7780 BOUL CHAMPLAIN", "city": "LASALLE", "province": "QC", "country": "CA", "postalCode": "H8P1B2", "twitter": "None", "instagram": "None", "facebook": "None", "youtube": "None", "website": "None", "summary": "None", "logo": "None", "latitude": 45.429477686075494, "longitude": -73.60821828432124}, "871979985RR0001": {"name": "GHOST RIVER REDISCOVERY SOCIETY", "designationCode": "C", "categoryCode": "29", "address": "107-1640 16TH AVENUE NW", "city": "CALGARY", "province": "AB", "country": "CA", "postalCode": "T2M0L6", "twitter": "None", "instagram": "None", "facebook": "None", "youtube": "None", "website": "None", "summary": "None", "logo": "None", "latitude": 51.06683699999999, "longitude": -114.07555788974214}, "817065352RR0001": {"name": "GI (GASTROINTESTINAL) SOCIETY / SOCI\u00c9T\u00c9 GI (GASTRO-INTESTINALE)", "designationCode": "C", "categoryCode": "11", "address": "231-3665 KINGSWAY", "city": "VANCOUVER", "province": "BC", "country": "CA", "postalCode": "V5R5W2", "twitter": "None", "instagram": "None", "facebook": "None", "youtube": "None", "website": "None", "summary": "None", "logo": "None", "latitude": 49.232301482687745, "longitude": -123.02414490758262}, "119230860RR0001": {"name": "GIANT STEPS FOUNDATION-MONTREAL / LA FONDATION A PAS DE GEANT- MONTREAL", "designationCode": "A", "categoryCode": "13", "address": "5460 AVE CONNAUGHT", "city": "MONTR\u00c9AL", "province": "QC", "country": "CA", "postalCode": "H4V1X7", "twitter": "None", "instagram": "None", "facebook": "None", "youtube": "None", "website": "None", "summary": "None", "logo": "None", "latitude": 45.46152000000001, "longitude": -73.65537015517324}, "898362579RR0001": {"name": "GIANT STEPS TORONTO INC.", "designationCode": "C", "categoryCode": "11", "address": "35 FLOWERVALE ROAD", "city": "THORNHILL", "province": "ON", "country": "CA", "postalCode": "L3T4J3", "twitter": "None", "instagram": "None", "facebook": "None", "youtube": "None", "website": "None", "summary": "None", "logo": "None", "latitude": 43.81950381152991, "longitude": -79.36294775760258}, "883906901RR0001": {"name": "GIBBONS CITIZENS ON PATROL SOCIETY (GCOP)", "designationCode": "C", "categoryCode": "59", "address": "P. O. BOX 68", "city": "GIBBONS", "province": "AB", "country": "CA", "postalCode": "T0A1N0", "twitter": "None", "instagram": "None", "facebook": "None", "youtube": "None", "website": "None", "summary": "None", "logo": "None", "latitude": 53.82811000000004, "longitude": -113.32767999999999}, "888974391RR0001": {"name": "GIBBONS UNITED CHURCH", "designationCode": "C", "categoryCode": "44", "address": "BOX 270", "city": "GIBBONS", "province": "AB", "country": "CA", "postalCode": "T0A1N0", "twitter": "None", "instagram": "None", "facebook": "None", "youtube": "None", "website": "None", "summary": "None", "logo": "None", "latitude": 53.82811000000004, "longitude": -113.32767999999999}, "107431462RR0001": {"name": "GIBSON COMMUNITY FELLOWSHIP SOCIETY", "designationCode": "C", "categoryCode": "39", "address": "BOX 1865", "city": "GIBSONS", "province": "BC", "country": "CA", "postalCode": "V0N1V0", "twitter": "None", "instagram": "None", "facebook": "None", "youtube": "None", "website": "None", "summary": "None", "logo": "None", "latitude": 49.40659350000001, "longitude": -123.528087}, "118955616RR0001": {"name": "GIBSON FAMILY HEALTH CARE CHARITABLE FOUNDATION", "designationCode": "B", "categoryCode": "13", "address": "375 JAMES STREET", "city": "GANANOQUE", "province": "ON", "country": "CA", "postalCode": "K7G2Z1", "twitter": "None", "instagram": "None", "facebook": "None", "youtube": "None", "website": "None", "summary": "None", "logo": "None", "latitude": 44.335839014560186, "longitude": -76.16005088320759}, "118938018RR0001": {"name": "GIBSON MEMORIAL UNITED CHURCH", "designationCode": "C", "categoryCode": "44", "address": "183 GIBSON STREET", "city": "FREDERICTON", "province": "NB", "country": "CA", "postalCode": "E3A4E4", "twitter": "None", "instagram": "None", "facebook": "None", "youtube": "None", "website": "None", "summary": "None", "logo": "None", "latitude": 45.96274610297761, "longitude": -66.62164658174156}, "890803232RR0001": {"name": "GIBSON WOODS UNITED BAPTIST CHURCH", "designationCode": "C", "categoryCode": "31", "address": "402 GIBSON WOODS RD.          RR #2", "city": "CENTREVILLE", "province": "NS", "country": "CA", "postalCode": "B0P1J0", "twitter": "None", "instagram": "None", "facebook": "None", "youtube": "None", "website": "None", "summary": "None", "logo": "None", "latitude": 45.13492059146508, "longitude": -64.49957050605951}, "128908852RR0001": {"name": "GIBSON'S LANDING HERITAGE SOCIETY", "designationCode": "C", "categoryCode": "56", "address": "662 NORTH RD                  RR 9", "city": "GIBSONS", "province": "BC", "country": "CA", "postalCode": "V0N1V9", "twitter": "None", "instagram": "None", "facebook": "None", "youtube": "None", "website": "None", "summary": "None", "logo": "None", "latitude": 49.407756542270555, "longitude": -123.51337049050763}, "871892311RR0001": {"name": "GIBSONS & DISTRICT LIBRARY FOUNDATION SOCIETY", "designationCode": "C", "categoryCode": "53", "address": "P.O.BOX 109", "city": "GIBSONS", "province": "BC", "country": "CA", "postalCode": "V0N1V0", "twitter": "None", "instagram": "None", "facebook": "None", "youtube": "None", "website": "None", "summary": "None", "logo": "None", "latitude": 49.40659350000001, "longitude": -123.528087}, "107431512RR0001": {"name": "GIBSONS & DISTRICT PUBLIC LIBRARY ASSOCIATION", "designationCode": "C", "categoryCode": "50", "address": "P.O. BOX 109", "city": "GIBSONS", "province": "BC", "country": "CA", "postalCode": "V0N1V0", "twitter": "None", "instagram": "None", "facebook": "None", "youtube": "None", "website": "None", "summary": "None", "logo": "None", "latitude": 49.40659350000001, "longitude": -123.528087}, "871741146RR0001": {"name": "GIBSONS CHRISTIAN LIFE ASSEMBLY", "designationCode": "C", "categoryCode": "36", "address": "RR 9 730 SCHOOL RD", "city": "GIBSONS", "province": "BC", "country": "CA", "postalCode": "V0N1V9", "twitter": "None", "instagram": "None", "facebook": "None", "youtube": "None", "website": "None", "summary": "None", "logo": "None", "latitude": 49.40517545270914, "longitude": -123.51067403658641}, "119288918RR1695": {"name": "GIBSONS CONGREGATION OF JEHOVAH'S WITNESSES, GIBSONS, BRITISH COLUMBIA", "designationCode": "C", "categoryCode": "61", "address": "2238 OLDERSHAW RD", "city": "ROBERTS CREEK", "province": "BC", "country": "CA", "postalCode": "V0N2W5", "twitter": "None", "instagram": "None", "facebook": "None", "youtube": "None", "website": "None", "summary": "None", "logo": "None", "latitude": 49.415081235332266, "longitude": -123.5934057406658}, "802951673RR0001": {"name": "GIBSONS FAMILY NETWORK", "designationCode": "C", "categoryCode": "59", "address": "532 SPYGLASS PL", "city": "GIBSONS", "province": "BC", "country": "CA", "postalCode": "V0N1V9", "twitter": "None", "instagram": "None", "facebook": "None", "youtube": "None", "website": "None", "summary": "None", "logo": "None", "latitude": 49.40278551232059, "longitude": -123.51244288617369}, "877287201RR0001": {"name": "GIBSONS PUBLIC ART GALLERY", "designationCode": "C", "categoryCode": "22", "address": "PO BOX 1576", "city": "GIBSONS", "province": "BC", "country": "CA", "postalCode": "V0N1V0", "twitter": "None", "instagram": "None", "facebook": "None", "youtube": "None", "website": "None", "summary": "None", "logo": "None", "latitude": 49.40659350000001, "longitude": -123.528087}, "868532888RR0001": {"name": "GIBSONS UNITED CHURCH", "designationCode": "C", "categoryCode": "44", "address": "PO BOX 234", "city": "GIBSONS", "province": "BC", "country": "CA", "postalCode": "V0N1V0", "twitter": "None", "instagram": "None", "facebook": "None", "youtube": "None", "website": "None", "summary": "None", "logo": "None", "latitude": 49.40659350000001, "longitude": -123.528087}, "885309310RR0001": {"name": "GIBSONS WILDLIFE REHABILITATION CENTRE SOCIETY", "designationCode": "C", "categoryCode": "54", "address": "RR 4, 1211 CARMEN RD", "city": "GIBSONS", "province": "BC", "country": "CA", "postalCode": "V0N1V4", "twitter": "None", "instagram": "None", "facebook": "None", "youtube": "None", "website": "None", "summary": "None", "logo": "None", "latitude": 49.40627552394869, "longitude": -123.53690105966879}, "125610576RR0001": {"name": "GIFRIC INC.", "designationCode": "C", "categoryCode": "21", "address": "342, BOULEVARD RENE-LEVESQUE O", "city": "QUEBEC", "province": "QC", "country": "CA", "postalCode": "G1S1R9", "twitter": "None", "instagram": "None", "facebook": "None", "youtube": "None", "website": "None", "summary": "None", "logo": "None", "latitude": 46.801999444918835, "longitude": -71.23069767903502}, "871213864RR0001": {"name": "GIFT OF GOD CHURCH", "designationCode": "C", "categoryCode": "39", "address": "250 WAITLINE AVENUE", "city": "MISSISSAUGA", "province": "ON", "country": "CA", "postalCode": "L4Z1P4", "twitter": "None", "instagram": "None", "facebook": "None", "youtube": "None", "website": "None", "summary": "None", "logo": "None", "latitude": 43.626423135409084, "longitude": -79.66642020396468}, "892080763RR0001": {"name": "GIGNOO TRANSITION HOUSE INC.", "designationCode": "C", "categoryCode": "09", "address": "P.O. BOX 3385 STN B", "city": "FREDERICTON", "province": "NB", "country": "CA", "postalCode": "E3A5H2", "twitter": "None", "instagram": "None", "facebook": "None", "youtube": "None", "website": "None", "summary": "None", "logo": "None", "latitude": 45.958638328435796, "longitude": -66.62155541090102}, "890623994RR0001": {"name": "GILBERT AND STEWART BAGNANI ENDOWMENT", "designationCode": "B", "categoryCode": "25", "address": "PO BOX 10085", "city": "VANCOUVER", "province": "BC", "country": "CA", "postalCode": "V7Y1B6", "twitter": "None", "instagram": "None", "facebook": "None", "youtube": "None", "website": "None", "summary": "None", "logo": "None", "latitude": 49.26037200000006, "longitude": -123.11336149999994}, "867566887RR0001": {"name": "GILBERT COVE AND DISTRICT HISTORICAL SOCIETY", "designationCode": "C", "categoryCode": "52", "address": "GENERAL DELIVERY", "city": "PLYMPTON", "province": "NS", "country": "CA", "postalCode": "B0W2R0", "twitter": "None", "instagram": "None", "facebook": "None", "youtube": "None", "website": "None", "summary": "None", "logo": "None", "latitude": 44.48706900000006, "longitude": -65.94293599999993}, "898840509RR0001": {"name": "GILBERT PLAINS & DISTRICT COMMUNITY RESOURCE COUNCIL, INC.", "designationCode": "C", "categoryCode": "09", "address": "BOX 567", "city": "GILBERT PLAINS", "province": "MB", "country": "CA", "postalCode": "R0L0X0", "twitter": "None", "instagram": "None", "facebook": "None", "youtube": "None", "website": "None", "summary": "None", "logo": "None", "latitude": 51.144900000000064, "longitude": -100.48893999999996}, "136951647RR0001": {"name": "GILBERT PLAINS & DISTRICT HISTORICAL SOCIETY INC", "designationCode": "C", "categoryCode": "52", "address": "115 MAIN STREET NORTH         BOX 662", "city": "GILBERT PLAINS", "province": "MB", "country": "CA", "postalCode": "R0L0X0", "twitter": "None", "instagram": "None", "facebook": "None", "youtube": "None", "website": "None", "summary": "None", "logo": "None", "latitude": 51.230461596698554, "longitude": -101.34938420002021}, "118938117RR0001": {"name": "GILBERT PLAINS DROP IN CENTER INC.", "designationCode": "C", "categoryCode": "56", "address": "PO BOX 656", "city": "GILBERT PLAINS", "province": "MB", "country": "CA", "postalCode": "R0L0X0", "twitter": "None", "instagram": "None", "facebook": "None", "youtube": "None", "website": "None", "summary": "None", "logo": "None", "latitude": 51.144900000000064, "longitude": -100.48893999999996}, "118938141RR0001": {"name": "GILBERT PLAINS PASTORAL CHARGE", "designationCode": "C", "categoryCode": "44", "address": "PO BOX 126", "city": "GILBERT PLAINS", "province": "MB", "country": "CA", "postalCode": "R0L0X0", "twitter": "None", "instagram": "None", "facebook": "None", "youtube": "None", "website": "None", "summary": "None", "logo": "None", "latitude": 51.144900000000064, "longitude": -100.48893999999996}, "892423542RR0001": {"name": "GILDA'S CLUB GREATER TORONTO", "designationCode": "C", "categoryCode": "09", "address": "24 CECIL STREET", "city": "TORONTO", "province": "ON", "country": "CA", "postalCode": "M5T1N2", "twitter": "None", "instagram": "None", "facebook": "None", "youtube": "None", "website": "None", "summary": "None", "logo": "None", "latitude": 43.656795114086115, "longitude": -79.39603623925207}, "834741621RR0001": {"name": "GILDA'S CLUB SOUTHEASTERN ONTARIO", "designationCode": "C", "categoryCode": "09", "address": "9 TRILLIUM CRT", "city": "KINGSTON", "province": "ON", "country": "CA", "postalCode": "K7K6W9", "twitter": "None", "instagram": "None", "facebook": "None", "youtube": "None", "website": "None", "summary": "None", "logo": "None", "latitude": 44.26216357146978, "longitude": -76.4933359161523}, "895611564RR0001": {"name": "GILEAD FELLOWSHIP", "designationCode": "C", "categoryCode": "39", "address": "BOX 99", "city": "BLOOMFIELD", "province": "ON", "country": "CA", "postalCode": "K0K1G0", "twitter": "None", "instagram": "None", "facebook": "None", "youtube": "None", "website": "None", "summary": "None", "logo": "None", "latitude": 44.066016000000005, "longitude": -77.86520099999998}, "118938182RR0001": {"name": "GILEAD MANOR", "designationCode": "C", "categoryCode": "09", "address": "214 WEST STREET", "city": "PORT COLBORNE", "province": "ON", "country": "CA", "postalCode": "L3K4E3", "twitter": "None", "instagram": "None", "facebook": "None", "youtube": "None", "website": "None", "summary": "None", "logo": "None", "latitude": 42.88685159448116, "longitude": -79.25009211443214}, "118938216RR0001": {"name": "GILFORD UNITED CHURCH", "designationCode": "C", "categoryCode": "44", "address": "5971 YONGE ST.", "city": "CHURCHILL", "province": "ON", "country": "CA", "postalCode": "L0L1K0", "twitter": "None", "instagram": "None", "facebook": "None", "youtube": "None", "website": "None", "summary": "None", "logo": "None", "latitude": 44.239354478726796, "longitude": -79.59784759698778}, "816750277RR0001": {"name": "GILL RATCLIFFE FOUNDATION", "designationCode": "B", "categoryCode": "03", "address": "SUITE 300                     27 PRINCESS STREET", "city": "KINGSTON", "province": "ON", "country": "CA", "postalCode": "K7L1A3", "twitter": "None", "instagram": "None", "facebook": "None", "youtube": "None", "website": "None", "summary": "None", "logo": "None", "latitude": 44.231257361648076, "longitude": -76.48020827514598}, "118938224RR0001": {"name": "GILLAM GOSPEL CHAPEL", "designationCode": "C", "categoryCode": "39", "address": "PO BOX 115", "city": "GILLAM", "province": "MB", "country": "CA", "postalCode": "R0B0L0", "twitter": "None", "instagram": "None", "facebook": "None", "youtube": "None", "website": "None", "summary": "None", "logo": "None", "latitude": 56.351459640273056, "longitude": -94.70644381714189}, "819920075RR0001": {"name": "GILLESPIE FAMILY FOUNDATION", "designationCode": "B", "categoryCode": "03", "address": "1288 GREENOAKS DRIVE", "city": "MISSISSAUGA", "province": "ON", "country": "CA", "postalCode": "L5J3A5", "twitter": "None", "instagram": "None", "facebook": "None", "youtube": "None", "website": "None", "summary": "None", "logo": "None", "latitude": 43.528665532315884, "longitude": -79.62448287774824}, "891385122RR0001": {"name": "GILLIES VOLUNTEER FIREFIGHTER'S ASSOCIATION", "designationCode": "C", "categoryCode": "59", "address": "RR#1", "city": "KAKABEKA FALLS", "province": "ON", "country": "CA", "postalCode": "P0T1W0", "twitter": "None", "instagram": "None", "facebook": "None", "youtube": "None", "website": "None", "summary": "None", "logo": "None", "latitude": 48.40169000000003, "longitude": -89.61458999999996}, "860346337RR0001": {"name": "GILLIS PLAY AND LEARN CENTER INC", "designationCode": "C", "categoryCode": "01", "address": "P.O. BOX 321                  #3 PIERSON DRIVE", "city": "TYNDALL", "province": "MB", "country": "CA", "postalCode": "R0E2B0", "twitter": "None", "instagram": "None", "facebook": "None", "youtube": "None", "website": "None", "summary": "None", "logo": "None", "latitude": 50.084392061570725, "longitude": -96.65814190054726}, "118938257RR0001": {"name": "GILLIS-LAWSON CHARITABLE FOUNDATION", "designationCode": "B", "categoryCode": "05", "address": "2 MILLSTONE COURT", "city": "UNIONVILLE", "province": "ON", "country": "CA", "postalCode": "L3R7M1", "twitter": "None", "instagram": "None", "facebook": "None", "youtube": "None", "website": "None", "summary": "None", "logo": "None", "latitude": 43.871274, "longitude": -79.32391009106105}, "118938265RR0001": {"name": "GILLOTT FAMILY TRUST", "designationCode": "B", "categoryCode": "05", "address": "105 HOOD ROAD", "city": "HUNTSVILLE", "province": "ON", "country": "CA", "postalCode": "P1H2J3", "twitter": "None", "instagram": "None", "facebook": "None", "youtube": "None", "website": "None", "summary": "None", "logo": "None", "latitude": 45.26063857249546, "longitude": -79.22727038143417}, "891542649RR0001": {"name": "GILMORE GARDENS SENIORS CENTRE", "designationCode": "C", "categoryCode": "01", "address": "8060 NO. 1 RD", "city": "RICHMOND", "province": "BC", "country": "CA", "postalCode": "V7C1T9", "twitter": "None", "instagram": "None", "facebook": "None", "youtube": "None", "website": "None", "summary": "None", "logo": "None", "latitude": 49.155487910352605, "longitude": -123.18107149166146}, "887588465RR0001": {"name": "GILMORE LODGE AUXILIARY", "designationCode": "C", "categoryCode": "19", "address": "50 GILMORE ROAD", "city": "FORT ERIE", "province": "ON", "country": "CA", "postalCode": "L2A2M1", "twitter": "None", "instagram": "None", "facebook": "None", "youtube": "None", "website": "None", "summary": "None", "logo": "None", "latitude": 42.920631451895204, "longitude": -78.91395033455849}, "107432759RR0001": {"name": "GILMORE PARK UNITED CHURCH", "designationCode": "C", "categoryCode": "44", "address": "8060 NO. 1 RD", "city": "RICHMOND", "province": "BC", "country": "CA", "postalCode": "V7C1T9", "twitter": "None", "instagram": "None", "facebook": "None", "youtube": "None", "website": "None", "summary": "None", "logo": "None", "latitude": 49.155487910352605, "longitude": -123.18107149166146}, "118938273RR0001": {"name": "GILMORE PRE-SCHOOL SOCIETY", "designationCode": "C", "categoryCode": "20", "address": "50 GILMORE AVE", "city": "BURNABY", "province": "BC", "country": "CA", "postalCode": "V5C4P5", "twitter": "None", "instagram": "None", "facebook": "None", "youtube": "None", "website": "None", "summary": "None", "logo": "None", "latitude": 49.284296843584784, "longitude": -123.01411763355019}, "107432775RR0001": {"name": "GILMOUR MEMORIAL BAPTIST CHURCH", "designationCode": "C", "categoryCode": "31", "address": "2083 CHEMONG RD.", "city": "SELWYN", "province": "ON", "country": "CA", "postalCode": "K9J6X2", "twitter": "None", "instagram": "None", "facebook": "None", "youtube": "None", "website": "None", "summary": "None", "logo": "None", "latitude": 44.354663393819735, "longitude": -78.36747289234785}, "889498192RR0001": {"name": "GILT EDGE MEMORIAL FUND", "designationCode": "C", "categoryCode": "55", "address": "RR 1", "city": "WAINWRIGHT", "province": "AB", "country": "CA", "postalCode": "T9W1W1", "twitter": "None", "instagram": "None", "facebook": "None", "youtube": "None", "website": "None", "summary": "None", "logo": "None", "latitude": 52.84339800000005, "longitude": -110.85204049999993}, "887948867RR0001": {"name": "GILVESY FOUNDATION FOR THE MENTALLY RETARDED", "designationCode": "B", "categoryCode": "13", "address": "96 TILLSON AVE", "city": "TILLSONBURG", "province": "ON", "country": "CA", "postalCode": "N4G3A1", "twitter": "None", "instagram": "None", "facebook": "None", "youtube": "None", "website": "None", "summary": "None", "logo": "None", "latitude": 42.865992646774245, "longitude": -80.72350308179514}, "890492598RR0001": {"name": "GIMLI BARVINOK DANCERS INC", "designationCode": "C", "categoryCode": "22", "address": "PO BOX 2096", "city": "GIMILI", "province": "MB", "country": "CA", "postalCode": "R0C1B0", "twitter": "None", "instagram": "None", "facebook": "None", "youtube": "None", "website": "None", "summary": "None", "logo": "None", "latitude": 50.30677349294383, "longitude": -96.92898988377391}, "107432833RR0001": {"name": "GIMLI CHILDREN'S CENTRE INC.", "designationCode": "C", "categoryCode": "20", "address": "BOX 1349", "city": "GIMLI", "province": "MB", "country": "CA", "postalCode": "R0C1B0", "twitter": "None", "instagram": "None", "facebook": "None", "youtube": "None", "website": "None", "summary": "None", "logo": "None", "latitude": 50.30677349294383, "longitude": -96.92898988377391}, "107432858RR0001": {"name": "GIMLI LUTHERAN CHURCH", "designationCode": "C", "categoryCode": "32", "address": "BOX 118", "city": "GIMLI", "province": "MB", "country": "CA", "postalCode": "R0C1B0", "twitter": "None", "instagram": "None", "facebook": "None", "youtube": "None", "website": "None", "summary": "None", "logo": "None", "latitude": 50.30677349294383, "longitude": -96.92898988377391}, "139116172RR0001": {"name": "GIMLI NEW HORIZONS 55+ CENTRE INC", "designationCode": "C", "categoryCode": "59", "address": "BOX 1821", "city": "GIMLI", "province": "MB", "country": "CA", "postalCode": "R0C1B0", "twitter": "None", "instagram": "None", "facebook": "None", "youtube": "None", "website": "None", "summary": "None", "logo": "None", "latitude": 50.30677349294383, "longitude": -96.92898988377391}, "107432874RR0001": {"name": "GIMLI SENIORS RESOURCE COUNCIL INC.", "designationCode": "C", "categoryCode": "09", "address": "BOX 1928                      62 2ND AVENUE", "city": "GIMLI", "province": "MB", "country": "CA", "postalCode": "R0C1B0", "twitter": "None", "instagram": "None", "facebook": "None", "youtube": "None", "website": "None", "summary": "None", "logo": "None", "latitude": 50.53734014646547, "longitude": -96.98539174464575}, "887357069RR0001": {"name": "GINA CHHATWAL TRUST", "designationCode": "B", "categoryCode": "05", "address": "44 NIGHTINGALE CRES", "city": "ELMIRA", "province": "ON", "country": "CA", "postalCode": "N3B1B3", "twitter": "None", "instagram": "None", "facebook": "None", "youtube": "None", "website": "None", "summary": "None", "logo": "None"}, "102097268RR0001": {"name": "GINA LORI RILEY DANCE ENTERPRISES", "designationCode": "C", "categoryCode": "22", "address": "8375 RIVERSIDE DR. E.", "city": "WINDSOR", "province": "ON", "country": "CA", "postalCode": "N8S1E7", "twitter": "None", "instagram": "None", "facebook": "None", "youtube": "None", "website": "None", "summary": "None", "logo": "None", "latitude": 42.34141460834466, "longitude": -82.94231057784641}, "102097565RR0001": {"name": "GINGERBREAD CO-OPERATIVE NURSERY SCHOOL (PICKERING) INC.", "designationCode": "C", "categoryCode": "01", "address": "P.O. BOX 427", "city": "PICKERING", "province": "ON", "country": "CA", "postalCode": "L1V2R7", "twitter": "None", "instagram": "None", "facebook": "None", "youtube": "None", "website": "None", "summary": "None", "logo": "None", "latitude": 43.837818000000055, "longitude": -79.08191449999994}, "108083007RR0001": {"name": "GINGERBREAD HOUSE CO-OPERATIVE PRESCHOOL CORP.", "designationCode": "C", "categoryCode": "20", "address": "400 STEVENSON ST. N.", "city": "GUELPH", "province": "ON", "country": "CA", "postalCode": "N1E5C3", "twitter": "None", "instagram": "None", "facebook": "None", "youtube": "None", "website": "None", "summary": "None", "logo": "None", "latitude": 43.56529793225247, "longitude": -80.25692080645133}, "872223862RR0001": {"name": "GIO'S CARES", "designationCode": "C", "categoryCode": "19", "address": "867 WOLSELEY AVE", "city": "WINNIPEG", "province": "MB", "country": "CA", "postalCode": "R3G1E1", "twitter": "None", "instagram": "None", "facebook": "None", "youtube": "None", "website": "None", "summary": "None", "logo": "None", "latitude": 49.879395533181274, "longitude": -97.16724030391252}, "857161475RR0001": {"name": "GIOVANNI AND CONCETTA GUGLIETTI FAMILY FOUNDATION", "designationCode": "B", "categoryCode": "03", "address": "145 REYNOLDS STREET           SUITE 400", "city": "OAKVILLE", "province": "ON", "country": "CA", "postalCode": "L6J0A7", "twitter": "None", "instagram": "None", "facebook": "None", "youtube": "None", "website": "None", "summary": "None", "logo": "None", "latitude": 43.449225484880785, "longitude": -79.66744780515327}, "118938554RR0003": {"name": "GIRL GUIDES OF CANADA - CALGARY AREA,", "designationCode": "C", "categoryCode": "29", "address": "2188 BROWNSEA DR NW", "city": "CALGARY", "province": "AB", "country": "CA", "postalCode": "T2N3G9", "twitter": "None", "instagram": "None", "facebook": "None", "youtube": "None", "website": "None", "summary": "None", "logo": "None", "latitude": 51.04944542563269, "longitude": -114.11035953218357}, "118938554RR0022": {"name": "GIRL GUIDES OF CANADA - P.E.I. COUNCIL", "designationCode": "C", "categoryCode": "29", "address": "304 - 151 GREAT GEORGE ST", "city": "CHARLOTTETOWN", "province": "PE", "country": "CA", "postalCode": "C1A4K8", "twitter": "None", "instagram": "None", "facebook": "None", "youtube": "None", "website": "None", "summary": "None", "logo": "None", "latitude": 46.23629659046452, "longitude": -63.127877900048574}, "118938554RR0027": {"name": "GIRL GUIDES OF CANADA / GUIDES DU CANADA", "designationCode": "C", "categoryCode": "29", "address": "50 MERTON ST", "city": "TORONTO", "province": "ON", "country": "CA", "postalCode": "M4S1A3", "twitter": "None", "instagram": "None", "facebook": "None", "youtube": "None", "website": "None", "summary": "None", "logo": "None", "latitude": 43.696490194586936, "longitude": -79.39444733556458}, "118938554RR0005": {"name": "GIRL GUIDES OF CANADA BRITISH COLUMBIA COUNCIL", "designationCode": "C", "categoryCode": "29", "address": "1476 WEST 8TH AVE", "city": "VANCOUVER", "province": "BC", "country": "CA", "postalCode": "V6H1E1", "twitter": "None", "instagram": "None", "facebook": "None", "youtube": "None", "website": "None", "summary": "None", "logo": "None", "latitude": 49.26447848845882, "longitude": -123.13766130544174}, "118938554RR0008": {"name": "GIRL GUIDES OF CANADA GUIDES DU CANADA NEWFOUNDLAND AND LABRADOR COUNCIL", "designationCode": "C", "categoryCode": "29", "address": "63 ROOSEVELT AVE.", "city": "ST. JOHN'S", "province": "NL", "country": "CA", "postalCode": "A1A0E8", "twitter": "None", "instagram": "None", "facebook": "None", "youtube": "None", "website": "None", "summary": "None", "logo": "None", "latitude": 47.58743554535763, "longitude": -52.69446204466515}, "118938554RR0006": {"name": "GIRL GUIDES OF CANADA MANITOBA COUNCIL", "designationCode": "C", "categoryCode": "29", "address": "213-530 CENTURY ST", "city": "WINNIPEG", "province": "MB", "country": "CA", "postalCode": "R3H0Y4", "twitter": "None", "instagram": "None", "facebook": "None", "youtube": "None", "website": "None", "summary": "None", "logo": "None", "latitude": 49.89972725797844, "longitude": -97.20268499212953}, "118938554RR0010": {"name": "GIRL GUIDES OF CANADA NOVA SCOTIA COUNCIL", "designationCode": "C", "categoryCode": "29", "address": "3581 DUTCH VILLAGE RD", "city": "HALIFAX", "province": "NS", "country": "CA", "postalCode": "B3N2S9", "twitter": "None", "instagram": "None", "facebook": "None", "youtube": "None", "website": "None", "summary": "None", "logo": "None", "latitude": 44.657260616711845, "longitude": -63.63215966636864}, "118938554RR0023": {"name": "GIRL GUIDES OF CANADA SASKATCHEWAN COUNCIL", "designationCode": "C", "categoryCode": "29", "address": "200-1530 BROADWAY AVENUE", "city": "REGINA", "province": "SK", "country": "CA", "postalCode": "S4P1E2", "twitter": "None", "instagram": "None", "facebook": "None", "youtube": "None", "website": "None", "summary": "None", "logo": "None", "latitude": 50.437733508222976, "longitude": -104.60426319317328}, "118938554RR0007": {"name": "GIRL GUIDES OF CANADA/GUIDES DU CANADA NEW BRUNSWICK COUNCIL", "designationCode": "C", "categoryCode": "29", "address": "55 ROTHESAY AVENUE", "city": "SAINT JOHN", "province": "NB", "country": "CA", "postalCode": "E2J2B2", "twitter": "None", "instagram": "None", "facebook": "None", "youtube": "None", "website": "None", "summary": "None", "logo": "None", "latitude": 45.2850385387212, "longitude": -66.05001074813887}, "118938554RR0002": {"name": "GIRL GUIDES OF CANADA, ALBERTA COUNCIL", "designationCode": "C", "categoryCode": "29", "address": "11055-107 ST", "city": "EDMONTON", "province": "AB", "country": "CA", "postalCode": "T5H2Z6", "twitter": "None", "instagram": "None", "facebook": "None", "youtube": "None", "website": "None", "summary": "None", "logo": "None", "latitude": 53.558649167638066, "longitude": -113.50470622742243}, "118938554RR0004": {"name": "GIRL GUIDES OF CANADA, EDMONTON AREA", "designationCode": "C", "categoryCode": "29", "address": "3RD FLOOR                     11055 107TH STREET", "city": "EDMONTON", "province": "AB", "country": "CA", "postalCode": "T5H2Z6", "twitter": "None", "instagram": "None", "facebook": "None", "youtube": "None", "website": "None", "summary": "None", "logo": "None", "latitude": 53.558649167638066, "longitude": -113.50470622742243}, "118938554RR0015": {"name": "GIRL GUIDES OF CANADA, ONTARIO COUNCIL", "designationCode": "C", "categoryCode": "29", "address": "100 - 180 DUNCAN MILL RD", "city": "NORTH YORK", "province": "ON", "country": "CA", "postalCode": "M3B1Z6", "twitter": "None", "instagram": "None", "facebook": "None", "youtube": "None", "website": "None", "summary": "None", "logo": "None", "latitude": 43.76198319862531, "longitude": -79.35361230904856}, "118938554RR0001": {"name": "GIRL GUIDES OF CANADA, QUEBEC COUNCIL, GUIDES DU CANADA,", "designationCode": "C", "categoryCode": "29", "address": "270-100 BOUL.ALEXIS-NIHON", "city": "SAINT-LAURENT", "province": "QC", "country": "CA", "postalCode": "H4M2N7", "twitter": "None", "instagram": "None", "facebook": "None", "youtube": "None", "website": "None", "summary": "None", "logo": "None", "latitude": 45.49703492584718, "longitude": -73.67774853670105}, "118809268RR0001": {"name": "GIRLS INCORPORATED OF DURHAM", "designationCode": "C", "categoryCode": "09", "address": "398 BAYLY ST W                UNIT 1", "city": "AJAX", "province": "ON", "country": "CA", "postalCode": "L1S1P1", "twitter": "None", "instagram": "None", "facebook": "None", "youtube": "None", "website": "None", "summary": "None", "logo": "None", "latitude": 43.84080236710841, "longitude": -79.03312112114459}, "133723585RR0001": {"name": "GIRLS INCORPORATED OF HALTON", "designationCode": "C", "categoryCode": "09", "address": "6541 DERRY ROAD PO BOX 20046", "city": "MILTON", "province": "ON", "country": "CA", "postalCode": "L9T7W8", "twitter": "None", "instagram": "None", "facebook": "None", "youtube": "None", "website": "None", "summary": "None", "logo": "None", "latitude": 43.491097135347914, "longitude": -79.87848476822384}}