{"118940329RR0001": {"name": "RESTORATION COMMITTEE FOR THE ARGYLE BAPTIST HISTORICAL CHURCH BUILDING", "designationCode": "C", "categoryCode": "52", "address": "5031 HIGHWAY 3 RR1", "city": "GLENWOOD", "province": "NS", "country": "CA", "postalCode": "B0W1W0", "twitter": "None", "instagram": "None", "facebook": "None", "youtube": "None", "website": "None", "summary": "None", "logo": "None", "latitude": 43.78145589964357, "longitude": -65.8445160888872}, "846525145RR0001": {"name": "RESTORATION COMMITTEE OF ST. DENIS CHURCH", "designationCode": "C", "categoryCode": "50", "address": "4938 HIGHWAY 302", "city": "UPPER NAPPAN", "province": "NS", "country": "CA", "postalCode": "B0L1C0", "twitter": "None", "instagram": "None", "facebook": "None", "youtube": "None", "website": "None", "summary": "None", "logo": "None", "latitude": 45.79020961449357, "longitude": -64.18268175264342}, "891399610RR0001": {"name": "RESTORATION COMMUNITY CHURCH", "designationCode": "C", "categoryCode": "39", "address": "21043 45A CRES", "city": "LANGLEY", "province": "BC", "country": "CA", "postalCode": "V3A7R5", "twitter": "None", "instagram": "None", "facebook": "None", "youtube": "None", "website": "None", "summary": "None", "logo": "None", "latitude": 49.08446748542906, "longitude": -122.63969152553523}, "893097568RR0001": {"name": "RESTORATION EVANGELISTIC MINISTRIES OF CANADA", "designationCode": "C", "categoryCode": "39", "address": "90 PORCHLIGHT RD", "city": "BRAMPTON", "province": "ON", "country": "CA", "postalCode": "L6X4R9", "twitter": "None", "instagram": "None", "facebook": "None", "youtube": "None", "website": "None", "summary": "None", "logo": "None", "latitude": 43.68708076409482, "longitude": -79.79008019773225}, "893201863RR0001": {"name": "RESTORATION MINISTRIES INTERNATIONAL, INC", "designationCode": "C", "categoryCode": "39", "address": "GS 200, BOX 51, RR2", "city": "REGINA", "province": "SK", "country": "CA", "postalCode": "S4P2Z2", "twitter": "None", "instagram": "None", "facebook": "None", "youtube": "None", "website": "None", "summary": "None", "logo": "None", "latitude": 50.448246000000054, "longitude": -104.59517299999993}, "882870520RR0001": {"name": "RESTORATION MINISTRIES MISSISSAUGA", "designationCode": "C", "categoryCode": "39", "address": "3461 DIXIE RD                 SUITE 402", "city": "MISSISSAUGA", "province": "ON", "country": "CA", "postalCode": "L4Y3X4", "twitter": "None", "instagram": "None", "facebook": "None", "youtube": "None", "website": "None", "summary": "None", "logo": "None", "latitude": 43.6184105229095, "longitude": -79.59684483037137}, "866055304RR0001": {"name": "RESTORATION MISSIONARY FELLOWSHIP INC.", "designationCode": "C", "categoryCode": "39", "address": "2435 DELKUS CRES", "city": "MISSISSAUGA", "province": "ON", "country": "CA", "postalCode": "L5A1K8", "twitter": "None", "instagram": "None", "facebook": "None", "youtube": "None", "website": "None", "summary": "None", "logo": "None", "latitude": 43.58523865194193, "longitude": -79.59125114643066}, "887835064RR0001": {"name": "RESTORATION TABERNACLE", "designationCode": "C", "categoryCode": "39", "address": "908A SANOK DRIVE", "city": "PICKERING", "province": "ON", "country": "CA", "postalCode": "L1W2R5", "twitter": "None", "instagram": "None", "facebook": "None", "youtube": "None", "website": "None", "summary": "None", "logo": "None", "latitude": 43.814891744048815, "longitude": -79.10665904978703}, "889010203RR0001": {"name": "RESTORATIVE JUSTICE CHATHAM-KENT", "designationCode": "C", "categoryCode": "59", "address": "25 CREEK RD                   RM 212", "city": "CHATHAM", "province": "ON", "country": "CA", "postalCode": "N7M5J3", "twitter": "None", "instagram": "None", "facebook": "None", "youtube": "None", "website": "None", "summary": "None", "logo": "None", "latitude": 42.40703382350381, "longitude": -82.1594833160029}, "859030900RR0001": {"name": "RESTORED BIBLE TRUTH ASSEMBLY INC.", "designationCode": "C", "categoryCode": "39", "address": "8 INGLEBOROUGH DRIVE", "city": "BRAMPTON", "province": "ON", "country": "CA", "postalCode": "L6X0X8", "twitter": "None", "instagram": "None", "facebook": "None", "youtube": "None", "website": "None", "summary": "None", "logo": "None", "latitude": 43.66132012352119, "longitude": -79.79959058009678}, "822174140RR0001": {"name": "RESTORED WORD FELLOWSHIP OF EDMONTON SOCIETY", "designationCode": "C", "categoryCode": "49", "address": "6610-86 ST NW", "city": "EDMONTON", "province": "AB", "country": "CA", "postalCode": "T6E2Y1", "twitter": "None", "instagram": "None", "facebook": "None", "youtube": "None", "website": "None", "summary": "None", "logo": "None", "latitude": 53.50231724562872, "longitude": -113.46059820044395}, "119117588RR0001": {"name": "RESTORER MINISTRIES", "designationCode": "C", "categoryCode": "47", "address": "85 MEGNA COURT", "city": "HAMILTON", "province": "ON", "country": "CA", "postalCode": "L9C6Y6", "twitter": "None", "instagram": "None", "facebook": "None", "youtube": "None", "website": "None", "summary": "None", "logo": "None", "latitude": 43.220518950343205, "longitude": -79.91803568552723}, "890263593RR0001": {"name": "RESURRECTION EVANGELICAL LUTHERAN CHURCH OF CALGARY", "designationCode": "C", "categoryCode": "32", "address": "1039 MARCOMBE DRIVE NE", "city": "CALGARY", "province": "AB", "country": "CA", "postalCode": "T2A4G5", "twitter": "None", "instagram": "None", "facebook": "None", "youtube": "None", "website": "None", "summary": "None", "logo": "None", "latitude": 51.06139980434522, "longitude": -113.96315067816965}, "866009798RR0001": {"name": "RESURRECTION LIFE MINISTRIES", "designationCode": "C", "categoryCode": "39", "address": "2096 LARABIE CRT", "city": "VICTORIA", "province": "BC", "country": "CA", "postalCode": "V9B6C1", "twitter": "None", "instagram": "None", "facebook": "None", "youtube": "None", "website": "None", "summary": "None", "logo": "None", "latitude": 48.46914350903103, "longitude": -123.49135093920603}, "862866266RR0001": {"name": "RESURRECTION LUTHERAN BRETHREN OF CAMROSE, ALBERTA", "designationCode": "C", "categoryCode": "39", "address": "BOX 1735", "city": "CAMROSE", "province": "AB", "country": "CA", "postalCode": "T4V1X6", "twitter": "None", "instagram": "None", "facebook": "None", "youtube": "None", "website": "None", "summary": "None", "logo": "None", "latitude": 53.02423500000006, "longitude": -112.82978149999994}, "107889768RR0001": {"name": "RESURRECTION LUTHERAN CHURCH", "designationCode": "C", "categoryCode": "32", "address": "310 LENORE DR", "city": "SASKATOON", "province": "SK", "country": "CA", "postalCode": "S7K6Y1", "twitter": "None", "instagram": "None", "facebook": "None", "youtube": "None", "website": "None", "summary": "None", "logo": "None", "latitude": 52.17341527508775, "longitude": -106.62808611936623}, "107889735RR0001": {"name": "RESURRECTION LUTHERAN CHURCH OF ORLEANS", "designationCode": "C", "categoryCode": "32", "address": "1325 GAULTOIS AVENUE", "city": "OTTAWA", "province": "ON", "country": "CA", "postalCode": "K1C6G5", "twitter": "None", "instagram": "None", "facebook": "None", "youtube": "None", "website": "None", "summary": "None", "logo": "None", "latitude": 45.46688916431984, "longitude": -75.53025538825115}, "130919830RR0001": {"name": "RESURRECTION LUTHERAN CHURCH,", "designationCode": "C", "categoryCode": "32", "address": "400 GLENRIDGE AVE", "city": "ST.CATHARINES", "province": "ON", "country": "CA", "postalCode": "L2T3L2", "twitter": "None", "instagram": "None", "facebook": "None", "youtube": "None", "website": "None", "summary": "None", "logo": "None", "latitude": 43.127443258381994, "longitude": -79.23875898366869}, "892662503RR0001": {"name": "RESURRECTION LUTHERAN CHURCH, PEMBROKE", "designationCode": "C", "categoryCode": "32", "address": "250 QUARRY ROAD", "city": "PEMBROKE", "province": "ON", "country": "CA", "postalCode": "K8B1A6", "twitter": "None", "instagram": "None", "facebook": "None", "youtube": "None", "website": "None", "summary": "None", "logo": "None", "latitude": 45.80697260889291, "longitude": -77.1010457471006}, "128967353RR0010": {"name": "RESURRECTION OF OUR LORD PARISH,", "designationCode": "C", "categoryCode": "38", "address": "1940 SAUNDERSON DRIVE", "city": "OTTAWA", "province": "ON", "country": "CA", "postalCode": "K1G2C9", "twitter": "None", "instagram": "None", "facebook": "None", "youtube": "None", "website": "None", "summary": "None", "logo": "None", "latitude": 45.398772860926925, "longitude": -75.62930845562332}, "860531573RR0001": {"name": "RESURRECTION POWER CHRISTIAN CHURCH INTERNATIONAL", "designationCode": "C", "categoryCode": "39", "address": "689 FOUR WINDS WAY            UNIT 11", "city": "MISSISSAUGA", "province": "ON", "country": "CA", "postalCode": "L5R4C3", "twitter": "None", "instagram": "None", "facebook": "None", "youtube": "None", "website": "None", "summary": "None", "logo": "None", "latitude": 43.6054351358051, "longitude": -79.68442427380064}, "865037758RR0001": {"name": "RESURRECTION RECOVERY RESOURCE SOCIETY", "designationCode": "C", "categoryCode": "10", "address": "1279 CENTENNIAL CRESCENT", "city": "KELOWNA", "province": "BC", "country": "CA", "postalCode": "V1Y6K3", "twitter": "None", "instagram": "None", "facebook": "None", "youtube": "None", "website": "None", "summary": "None", "logo": "None", "latitude": 49.8833879003406, "longitude": -119.47145050473186}, "118874148RR0001": {"name": "RESURRECTIONIST MISSIONS", "designationCode": "C", "categoryCode": "47", "address": "RESURRECTION COLLEGE          265 WESTMOUNT RD NORTH", "city": "WATERLOO", "province": "ON", "country": "CA", "postalCode": "N2L3G7", "twitter": "None", "instagram": "None", "facebook": "None", "youtube": "None", "website": "None", "summary": "None", "logo": "None", "latitude": 43.4684333030185, "longitude": -80.54872971908294}, "892176116RR0001": {"name": "RETHINK BREAST CANCER CANADA", "designationCode": "C", "categoryCode": "11", "address": "50 CARROLL ST", "city": "TORONTO", "province": "ON", "country": "CA", "postalCode": "M4M3G3", "twitter": "None", "instagram": "None", "facebook": "None", "youtube": "None", "website": "None", "summary": "None", "logo": "None", "latitude": 43.66032515875126, "longitude": -79.35336533599727}, "136279585RR0001": {"name": "RETIRED SENIORS VOLUNTEER PROGRAM (SERVING HOMEBOUND WITH FREE TRANSPORTATION AND HOME VISITS)", "designationCode": "C", "categoryCode": "09", "address": "1675 OTTAWA ST", "city": "WINDSOR", "province": "ON", "country": "CA", "postalCode": "N8Y1R2", "twitter": "None", "instagram": "None", "facebook": "None", "youtube": "None", "website": "None", "summary": "None", "logo": "None", "latitude": 42.311241451007035, "longitude": -83.00824092630852}, "889663191RR0001": {"name": "RETIRED TEACHERS MEMORIAL SCHOLARSHIP (TRUST) PROGRAM", "designationCode": "C", "categoryCode": "21", "address": "309 FULTON AVE", "city": "FREDERICTON", "province": "NB", "country": "CA", "postalCode": "E3A2B9", "twitter": "None", "instagram": "None", "facebook": "None", "youtube": "None", "website": "None", "summary": "None", "logo": "None", "latitude": 45.984849359426384, "longitude": -66.64976644200465}, "827429960RR0001": {"name": "RETROUVAILLE SASKATCHEWAN INC.", "designationCode": "C", "categoryCode": "49", "address": "814 AVENUE D N", "city": "SASKATOON", "province": "SK", "country": "CA", "postalCode": "S7L1N2", "twitter": "None", "instagram": "None", "facebook": "None", "youtube": "None", "website": "None", "summary": "None", "logo": "None", "latitude": 52.1377835029142, "longitude": -106.67505723948321}, "897997508RR0001": {"name": "RETROUVAILLE WINDSOR", "designationCode": "C", "categoryCode": "09", "address": "756 COUNTY RD 31              SS 5", "city": "BELLE RIVER", "province": "ON", "country": "CA", "postalCode": "N0R1A0", "twitter": "None", "instagram": "None", "facebook": "None", "youtube": "None", "website": "None", "summary": "None", "logo": "None", "latitude": 42.278291655085724, "longitude": -82.63053177309584}, "874449523RR0001": {"name": "RETROUVAILLES-DIOCESES OF HAMILTON ONTARIO", "designationCode": "C", "categoryCode": "09", "address": "700 KING ST W", "city": "HAMILTON", "province": "ON", "country": "CA", "postalCode": "L8R1C7", "twitter": "None", "instagram": "None", "facebook": "None", "youtube": "None", "website": "None", "summary": "None", "logo": "None", "latitude": 43.26284446770546, "longitude": -79.89023923809737}, "118973676RR0001": {"name": "RETURN TO JESUS CHRIST MINISTRIES", "designationCode": "C", "categoryCode": "47", "address": "PO BOX 3334", "city": "MISSION", "province": "BC", "country": "CA", "postalCode": "V2V4J5", "twitter": "None", "instagram": "None", "facebook": "None", "youtube": "None", "website": "None", "summary": "None", "logo": "None", "latitude": 49.13294100000006, "longitude": -122.32108249999993}, "139270573RR0001": {"name": "REUBEN EDWIN CLEGHORN FOUNDATION", "designationCode": "B", "categoryCode": "21", "address": "380 WELLINGTON ST", "city": "LONDON", "province": "ON", "country": "CA", "postalCode": "N6A5B5", "twitter": "None", "instagram": "None", "facebook": "None", "youtube": "None", "website": "None", "summary": "None", "logo": "None", "latitude": 42.98403487844074, "longitude": -81.24475227780037}, "119118123RR0001": {"name": "REV. RICHARD ELLSWORTH SCHOLARSHIP FUND", "designationCode": "C", "categoryCode": "21", "address": "P.O. BOX 9", "city": "ST. LOUIS", "province": "PE", "country": "CA", "postalCode": "C0B1B0", "twitter": "None", "instagram": "None", "facebook": "None", "youtube": "None", "website": "None", "summary": "None", "logo": "None", "latitude": 46.303638580817996, "longitude": -63.7456125797018}, "860516863RR0001": {"name": "REV. WALTER NOWAK FOUNDATION INC.", "designationCode": "B", "categoryCode": "21", "address": "81 HIGH RIDGE RD", "city": "WINNIPEG", "province": "MB", "country": "CA", "postalCode": "R3X1G8", "twitter": "None", "instagram": "None", "facebook": "None", "youtube": "None", "website": "None", "summary": "None", "logo": "None", "latitude": 49.83961551154118, "longitude": -97.07732219455826}, "855913505RR0001": {"name": "REVANOUS", "designationCode": "C", "categoryCode": "09", "address": "100 - 9870 RUE LAVERDURE", "city": "MONTREAL", "province": "QC", "country": "CA", "postalCode": "H3L0A7", "twitter": "None", "instagram": "None", "facebook": "None", "youtube": "None", "website": "None", "summary": "None", "logo": "None", "latitude": 45.548449995268136, "longitude": -73.65800871233186}, "119117711RR0001": {"name": "REVDEC", "designationCode": "C", "categoryCode": "09", "address": "4551 RUE LA-FONTAINE", "city": "MONTREAL", "province": "QC", "country": "CA", "postalCode": "H1V1P6", "twitter": "None", "instagram": "None", "facebook": "None", "youtube": "None", "website": "None", "summary": "None", "logo": "None", "latitude": 45.55441624952386, "longitude": -73.53609055109911}, "895997674RR0001": {"name": "REVE-SOLEIL DE MISTASSINI", "designationCode": "C", "categoryCode": "20", "address": "68 RUE SAVARD", "city": "DOLBEAU-MISTASSINI", "province": "QC", "country": "CA", "postalCode": "G8L4L3", "twitter": "None", "instagram": "None", "facebook": "None", "youtube": "None", "website": "None", "summary": "None", "logo": "None", "latitude": 48.88898081630513, "longitude": -72.20307125802935}, "108081852RR0001": {"name": "REVEALED WORD BELIEVERS ASSEMBLY", "designationCode": "C", "categoryCode": "39", "address": "215 MISSISSAUGA VAL BLVD 109", "city": "MISSISSAUGA", "province": "ON", "country": "CA", "postalCode": "L5A1Y9", "twitter": "None", "instagram": "None", "facebook": "None", "youtube": "None", "website": "None", "summary": "None", "logo": "None", "latitude": 43.590030000000056, "longitude": -79.61728399999993}, "119117729RR0001": {"name": "REVEALED WORD TABERNACLE", "designationCode": "C", "categoryCode": "39", "address": "MIDTOWN BOX 20070", "city": "HANOVER", "province": "ON", "country": "CA", "postalCode": "N4N3T1", "twitter": "None", "instagram": "None", "facebook": "None", "youtube": "None", "website": "None", "summary": "None", "logo": "None", "latitude": 44.152395000000055, "longitude": -81.02554999999994}, "863561577RR0001": {"name": "REVELATION FOUNDATION", "designationCode": "A", "categoryCode": "03", "address": "1500 WEST GEORGIA STREET      SUITE 1250   BOX 62", "city": "VANCOUVER", "province": "BC", "country": "CA", "postalCode": "V6G2Z6", "twitter": "None", "instagram": "None", "facebook": "None", "youtube": "None", "website": "None", "summary": "None", "logo": "None", "latitude": 49.2900638104334, "longitude": -123.12989899362336}, "872753009RR0001": {"name": "REVELSTOKE AND DISTRICT HUMANE SOCIETY", "designationCode": "C", "categoryCode": "54", "address": "1200 VICTORIA RD              BOX 340", "city": "REVELSTOKE", "province": "BC", "country": "CA", "postalCode": "V0E2S0", "twitter": "None", "instagram": "None", "facebook": "None", "youtube": "None", "website": "None", "summary": "None", "logo": "None", "latitude": 50.98945091670058, "longitude": -118.1979376648108}, "879117562RR0001": {"name": "REVELSTOKE ARTS COUNCIL", "designationCode": "C", "categoryCode": "22", "address": "P.O. BOX 1931", "city": "REVELSTOKE", "province": "BC", "country": "CA", "postalCode": "V0E2S0", "twitter": "None", "instagram": "None", "facebook": "None", "youtube": "None", "website": "None", "summary": "None", "logo": "None", "latitude": 52.00738183978388, "longitude": -118.56208529545198}, "119288918RR0270": {"name": "REVELSTOKE B C CONGREGATION OF JEHOVAH'S WITNESSES", "designationCode": "C", "categoryCode": "61", "address": "BOX 959", "city": "REVELSTOKE", "province": "BC", "country": "CA", "postalCode": "V0E2S0", "twitter": "None", "instagram": "None", "facebook": "None", "youtube": "None", "website": "None", "summary": "None", "logo": "None", "latitude": 52.00738183978388, "longitude": -118.56208529545198}, "861591170RR0001": {"name": "REVELSTOKE BEAR AWARE", "designationCode": "C", "categoryCode": "54", "address": "PO BOX 674", "city": "REVELSTOKE", "province": "BC", "country": "CA", "postalCode": "V0E2S0", "twitter": "None", "instagram": "None", "facebook": "None", "youtube": "None", "website": "None", "summary": "None", "logo": "None", "latitude": 52.00738183978388, "longitude": -118.56208529545198}, "135585693RR0001": {"name": "REVELSTOKE COMMUNITY CHILDCARE SOCIETY", "designationCode": "C", "categoryCode": "20", "address": "BOX 2059", "city": "REVELSTOKE", "province": "BC", "country": "CA", "postalCode": "V0E2S0", "twitter": "None", "instagram": "None", "facebook": "None", "youtube": "None", "website": "None", "summary": "None", "logo": "None", "latitude": 52.00738183978388, "longitude": -118.56208529545198}, "790547723RR0001": {"name": "REVELSTOKE COMMUNITY FOUNDATION", "designationCode": "A", "categoryCode": "03", "address": "PO BOX 2398", "city": "REVELSTOKE", "province": "BC", "country": "CA", "postalCode": "V0E2S0", "twitter": "None", "instagram": "None", "facebook": "None", "youtube": "None", "website": "None", "summary": "None", "logo": "None", "latitude": 52.00738183978388, "longitude": -118.56208529545198}, "119117844RR0001": {"name": "REVELSTOKE DISTRICT HEALTH FOUNDATION", "designationCode": "A", "categoryCode": "13", "address": "PO BOX 2421", "city": "REVELSTOKE", "province": "BC", "country": "CA", "postalCode": "V0E2S0", "twitter": "None", "instagram": "None", "facebook": "None", "youtube": "None", "website": "None", "summary": "None", "logo": "None", "latitude": 52.00738183978388, "longitude": -118.56208529545198}, "842334682RR0001": {"name": "REVELSTOKE FELLOWSHIP BAPTIST CHURCH", "designationCode": "C", "categoryCode": "31", "address": "BOX 2219", "city": "REVELSTOKE", "province": "BC", "country": "CA", "postalCode": "V0E2S0", "twitter": "None", "instagram": "None", "facebook": "None", "youtube": "None", "website": "None", "summary": "None", "logo": "None", "latitude": 52.00738183978388, "longitude": -118.56208529545198}, "131006595RR0001": {"name": "REVELSTOKE HERITAGE RAILWAY SOCIETY", "designationCode": "C", "categoryCode": "50", "address": "PO BOX 3018", "city": "REVELSTOKE", "province": "BC", "country": "CA", "postalCode": "V0E2S0", "twitter": "None", "instagram": "None", "facebook": "None", "youtube": "None", "website": "None", "summary": "None", "logo": "None", "latitude": 52.00738183978388, "longitude": -118.56208529545198}, "891869844RR0001": {"name": "REVELSTOKE HOSPICE SOCIETY", "designationCode": "C", "categoryCode": "09", "address": "PO BOX 3133", "city": "REVELSTOKE", "province": "BC", "country": "CA", "postalCode": "V0E2S0", "twitter": "None", "instagram": "None", "facebook": "None", "youtube": "None", "website": "None", "summary": "None", "logo": "None", "latitude": 52.00738183978388, "longitude": -118.56208529545198}, "889228797RR0001": {"name": "REVELSTOKE HOSPITAL AUXILIARY SOCIETY", "designationCode": "C", "categoryCode": "19", "address": "BOX 1781                      315 2ND ST W", "city": "REVELSTOKE", "province": "BC", "country": "CA", "postalCode": "V0E2S0", "twitter": "None", "instagram": "None", "facebook": "None", "youtube": "None", "website": "None", "summary": "None", "logo": "None", "latitude": 50.99949540251174, "longitude": -118.1984479392512}, "107890444RR0001": {"name": "REVELSTOKE MUSEUM AND ARCHIVES ASSOCIATION", "designationCode": "C", "categoryCode": "50", "address": "PO BOX 1908", "city": "REVELSTOKE", "province": "BC", "country": "CA", "postalCode": "V0E2S0", "twitter": "None", "instagram": "None", "facebook": "None", "youtube": "None", "website": "None", "summary": "None", "logo": "None", "latitude": 52.00738183978388, "longitude": -118.56208529545198}, "118818491RR0028": {"name": "REVELSTOKE SEVENTH-DAY ADVENTIST CHURCH", "designationCode": "C", "categoryCode": "41", "address": "PO 1000", "city": "ABBOTSFORD", "province": "BC", "country": "CA", "postalCode": "V2S4P5", "twitter": "None", "instagram": "None", "facebook": "None", "youtube": "None", "website": "None", "summary": "None", "logo": "None", "latitude": 49.03851300000005, "longitude": -122.29441549999993}, "890420573RR0001": {"name": "REVELSTOKE THEATRE COMPANY SOCIETY", "designationCode": "C", "categoryCode": "22", "address": "P.O. BOX 970", "city": "REVELSTOKE", "province": "BC", "country": "CA", "postalCode": "V0E2S0", "twitter": "None", "instagram": "None", "facebook": "None", "youtube": "None", "website": "None", "summary": "None", "logo": "None", "latitude": 52.00738183978388, "longitude": -118.56208529545198}, "883692899RR0001": {"name": "REVELSTOKE TREES FOR TOTS SOCIETY", "designationCode": "C", "categoryCode": "09", "address": "PO BOX 752", "city": "REVELSTOKE", "province": "BC", "country": "CA", "postalCode": "V0E2S0", "twitter": "None", "instagram": "None", "facebook": "None", "youtube": "None", "website": "None", "summary": "None", "logo": "None", "latitude": 52.00738183978388, "longitude": -118.56208529545198}, "890898885RR0001": {"name": "REVELSTOKE UNITED CHURCH", "designationCode": "C", "categoryCode": "44", "address": "PO BOX 446", "city": "REVELSTOKE", "province": "BC", "country": "CA", "postalCode": "V0E2S0", "twitter": "None", "instagram": "None", "facebook": "None", "youtube": "None", "website": "None", "summary": "None", "logo": "None", "latitude": 52.00738183978388, "longitude": -118.56208529545198}, "119117893RR0001": {"name": "REVELSTOKE WOMEN'S SHELTER SOCIETY", "designationCode": "C", "categoryCode": "59", "address": "PO BOX 1150", "city": "REVELSTOKE", "province": "BC", "country": "CA", "postalCode": "V0E2S0", "twitter": "None", "instagram": "None", "facebook": "None", "youtube": "None", "website": "None", "summary": "None", "logo": "None", "latitude": 52.00738183978388, "longitude": -118.56208529545198}, "877733311RR0001": {"name": "REVEREND DR. DONALD D. AND MRS. EVELINA SKEIR MEMORIAL SCHOLARSHIP FUND", "designationCode": "C", "categoryCode": "21", "address": "223 CHERRY BROOK RD", "city": "CHERRY BROOK", "province": "NS", "country": "CA", "postalCode": "B2Z1A6", "twitter": "None", "instagram": "None", "facebook": "None", "youtube": "None", "website": "None", "summary": "None", "logo": "None", "latitude": 44.70964016241526, "longitude": -63.47943872580629}, "893064766RR0001": {"name": "REVEREND FRANCISZEK LESNIAK FOUNDATION", "designationCode": "C", "categoryCode": "21", "address": "2033 ROLLING BROOK DR", "city": "GLOUCESTER", "province": "ON", "country": "CA", "postalCode": "K1W1C9", "twitter": "None", "instagram": "None", "facebook": "None", "youtube": "None", "website": "None", "summary": "None", "logo": "None", "latitude": 45.4403224205088, "longitude": -75.52490213139836}, "119118081RR0001": {"name": "REVEREND NORM JOHNSTON YOUTH RESIDENCE (LANARK LEEDS'N GRENVILLE) INC.", "designationCode": "C", "categoryCode": "59", "address": "B - 270 BROCKVILLE ST", "city": "SMITHS FALLS", "province": "ON", "country": "CA", "postalCode": "K7A5L4", "twitter": "None", "instagram": "None", "facebook": "None", "youtube": "None", "website": "None", "summary": "None", "logo": "None", "latitude": 44.883239055996995, "longitude": -76.01814745993437}, "119117919RR0001": {"name": "REVERENDS PERES OBLATS PAROISSE ST. AMBROISE", "designationCode": "C", "categoryCode": "38", "address": "114 COUNTESS AVENUE", "city": "PORTAGE LA PRAIRIE", "province": "MB", "country": "CA", "postalCode": "R1N2R6", "twitter": "None", "instagram": "None", "facebook": "None", "youtube": "None", "website": "None", "summary": "None", "logo": "None", "latitude": 49.97126610610691, "longitude": -98.28983605013339}, "841200546RR0001": {"name": "REVITALISATION QUARTIERS ST-MARC CHRIST-ROI", "designationCode": "C", "categoryCode": "09", "address": "383, RUE FRIGON", "city": "SHAWINIGAN", "province": "QC", "country": "CA", "postalCode": "G9N3X4", "twitter": "None", "instagram": "None", "facebook": "None", "youtube": "None", "website": "None", "summary": "None", "logo": "None", "latitude": 46.55442305661037, "longitude": -72.73593323079795}, "891051443RR0001": {"name": "REVIVAL CENTRE, UNITED PENTECOSTAL CHURCH", "designationCode": "C", "categoryCode": "36", "address": "182 ROBERT ANGUS DRIVE", "city": "AMHERST", "province": "NS", "country": "CA", "postalCode": "B4H4R6", "twitter": "None", "instagram": "None", "facebook": "None", "youtube": "None", "website": "None", "summary": "None", "logo": "None", "latitude": 45.82373843049213, "longitude": -64.18823649697023}, "853053148RR0001": {"name": "REVIVAL CHINESE MINISTRIES INTERNATIONAL", "designationCode": "C", "categoryCode": "47", "address": "PH2 - 4118 DAWSON ST", "city": "BURNABY", "province": "BC", "country": "CA", "postalCode": "V5C0A3", "twitter": "None", "instagram": "None", "facebook": "None", "youtube": "None", "website": "None", "summary": "None", "logo": "None", "latitude": 49.264437378238505, "longitude": -123.01369538416712}, "845963362RR0001": {"name": "REVIVAL CHRISTIAN CHURCH GLOBAL OUTREACH", "designationCode": "C", "categoryCode": "39", "address": "780 WILSON AVE", "city": "NORTH YORK", "province": "ON", "country": "CA", "postalCode": "M3K1E2", "twitter": "None", "instagram": "None", "facebook": "None", "youtube": "None", "website": "None", "summary": "None", "logo": "None", "latitude": 43.73111020901366, "longitude": -79.46480711977026}, "855725008RR0001": {"name": "REVIVAL HARVEST MINISTRIES INC.", "designationCode": "C", "categoryCode": "49", "address": "759 EMPIRE AVENUE", "city": "ST JOHN'S", "province": "NL", "country": "CA", "postalCode": "A1E1X3", "twitter": "None", "instagram": "None", "facebook": "None", "youtube": "None", "website": "None", "summary": "None", "logo": "None", "latitude": 47.542419171475906, "longitude": -52.7633880188128}, "119118040RR0001": {"name": "REVIVAL MINISTRIES", "designationCode": "C", "categoryCode": "47", "address": "106 - 4624 COUNTY 15 RD       RR 2", "city": "BROCKVILLE", "province": "ON", "country": "CA", "postalCode": "K6V5T2", "twitter": "None", "instagram": "None", "facebook": "None", "youtube": "None", "website": "None", "summary": "None", "logo": "None", "latitude": 44.590765014138256, "longitude": -75.68233732956331}, "888938966RR0001": {"name": "REVIVAL MINISTRIES INTERNATIONAL - CANADA", "designationCode": "C", "categoryCode": "47", "address": "225-9600 CAMERON STREET", "city": "BURNABY", "province": "BC", "country": "CA", "postalCode": "V3J7N3", "twitter": "None", "instagram": "None", "facebook": "None", "youtube": "None", "website": "None", "summary": "None", "logo": "None", "latitude": 49.25335621227395, "longitude": -122.89844180461633}, "871921219RR0001": {"name": "REVIVAL MINISTRIES OF PORT-AU-PORT", "designationCode": "C", "categoryCode": "39", "address": "BOX 35, R.R #1, MAIN ST", "city": "BOSWARLOS", "province": "NL", "country": "CA", "postalCode": "A0N1A0", "twitter": "None", "instagram": "None", "facebook": "None", "youtube": "None", "website": "None", "summary": "None", "logo": "None", "latitude": 48.414656673497326, "longitude": -58.551572757712286}, "106950306RR0001": {"name": "REVIVAL OF CANADA CHRISTIAN MINISTRIES", "designationCode": "C", "categoryCode": "39", "address": "1220 23 AVE", "city": "COALDALE", "province": "AB", "country": "CA", "postalCode": "T1M1C8", "twitter": "None", "instagram": "None", "facebook": "None", "youtube": "None", "website": "None", "summary": "None", "logo": "None", "latitude": 49.722107510964264, "longitude": -112.61157305245543}, "867075079RR0001": {"name": "REVIVAL SPRINGS CHRISTIAN CENTER INC.", "designationCode": "C", "categoryCode": "39", "address": "2491 CLEMENTS DR N", "city": "NORTH BATTLEFORD", "province": "SK", "country": "CA", "postalCode": "S9A3S5", "twitter": "None", "instagram": "None", "facebook": "None", "youtube": "None", "website": "None", "summary": "None", "logo": "None", "latitude": 52.795162086614134, "longitude": -108.29464611775248}, "796748929RR0001": {"name": "REVIVAL TABERNACLE UNITED PENTECOSTAL CHURCH", "designationCode": "C", "categoryCode": "39", "address": "274 GOUROK AVE", "city": "DARTMOUTH", "province": "NS", "country": "CA", "postalCode": "B2X1K6", "twitter": "None", "instagram": "None", "facebook": "None", "youtube": "None", "website": "None", "summary": "None", "logo": "None", "latitude": 44.69499008327078, "longitude": -63.53544381207817}, "861284594RR0001": {"name": "REVIVALTIME TABERNACLE WORLDWIDE MINISTRIES INC.", "designationCode": "C", "categoryCode": "39", "address": "4340 DUFFERIN STREET", "city": "DOWNSVIEW", "province": "ON", "country": "CA", "postalCode": "M3H5R9", "twitter": "None", "instagram": "None", "facebook": "None", "youtube": "None", "website": "None", "summary": "None", "logo": "None", "latitude": 43.762780781839744, "longitude": -79.46558628483992}, "138786769RR0001": {"name": "REVIVRE - ASSOCIATION QUEBECOISE DE SOUTIEN AUX PERSONNES SOUFFRANT DE TROUBLES ANXIEUX, DEPRESSIFS OU BIPOLAIRES", "designationCode": "C", "categoryCode": "11", "address": "5140, RUE ST-HUBERT", "city": "MONTREAL", "province": "QC", "country": "CA", "postalCode": "H2J2Y3", "twitter": "None", "instagram": "None", "facebook": "None", "youtube": "None", "website": "None", "summary": "None", "logo": "None", "latitude": 45.52923560364144, "longitude": -73.5884340646891}, "854534203RR0001": {"name": "REVUE SAINTE-ANNE", "designationCode": "C", "categoryCode": "47", "address": "9795 BOULEVARD STE-ANNE", "city": "STE-ANNE DE BEAUPRE", "province": "QC", "country": "CA", "postalCode": "G0A3C0", "twitter": "None", "instagram": "None", "facebook": "None", "youtube": "None", "website": "None", "summary": "None", "logo": "None", "latitude": 47.02183540357192, "longitude": -70.92966509743769}, "887431435RR0001": {"name": "REX MUNDI CAMP SOCIETY INC.", "designationCode": "C", "categoryCode": "49", "address": "PO BOX 358", "city": "ARCHERWILL", "province": "SK", "country": "CA", "postalCode": "S0E0B0", "twitter": "None", "instagram": "None", "facebook": "None", "youtube": "None", "website": "None", "summary": "None", "logo": "None", "latitude": 52.43330000000003, "longitude": -103.85097999999999}, "864861687RR0001": {"name": "REXALL FOUNDATION", "designationCode": "A", "categoryCode": "03", "address": "5965 COOPERS AVE.", "city": "MISSISSAUGA", "province": "ON", "country": "CA", "postalCode": "L4Z1R9", "twitter": "None", "instagram": "None", "facebook": "None", "youtube": "None", "website": "None", "summary": "None", "logo": "None", "latitude": 43.63481295230509, "longitude": -79.66543603794179}, "894945633RR0047": {"name": "REXDALE ALLIANCE CHURCH OF THE CHRISTIAN & MISSIONARY ALLIANCE IN CANADA", "designationCode": "C", "categoryCode": "39", "address": "2459 ISLINGTON AVENUE", "city": "REXDALE", "province": "ON", "country": "CA", "postalCode": "M9W3X9", "twitter": "None", "instagram": "None", "facebook": "None", "youtube": "None", "website": "None", "summary": "None", "logo": "None", "latitude": 43.726984207888464, "longitude": -79.560671271972}, "134913185RR0001": {"name": "REXDALE COMMUNITY HEALTH CENTRE", "designationCode": "C", "categoryCode": "11", "address": "8 TABER RD", "city": "ETOBICOKE", "province": "ON", "country": "CA", "postalCode": "M9W3A4", "twitter": "None", "instagram": "None", "facebook": "None", "youtube": "None", "website": "None", "summary": "None", "logo": "None", "latitude": 43.71901605248409, "longitude": -79.57189744353386}, "119288918RR0100": {"name": "REXDALE CONGREGATION OF JEHOVAH'S WITNESSES TORONTO-ONTARIO", "designationCode": "C", "categoryCode": "61", "address": "7035 REXWOOD RD #9", "city": "MISSISSAUGA", "province": "ON", "country": "CA", "postalCode": "L4T4M6", "twitter": "None", "instagram": "None", "facebook": "None", "youtube": "None", "website": "None", "summary": "None", "logo": "None", "latitude": 43.71775265329825, "longitude": -79.62703380841418}, "119118255RR0001": {"name": "REXDALE GOSPEL HALL", "designationCode": "C", "categoryCode": "39", "address": "1-13 REDDINGTON DRIVE", "city": "CALEDON", "province": "ON", "country": "CA", "postalCode": "L7E4C5", "twitter": "None", "instagram": "None", "facebook": "None", "youtube": "None", "website": "None", "summary": "None", "logo": "None", "latitude": 43.94529218313264, "longitude": -79.84253189142514}, "138295340RR0001": {"name": "REXDALE HOME CHILD CARE AGENCY", "designationCode": "C", "categoryCode": "01", "address": "30 BARRHEAD CRESCENT          #17", "city": "TORONTO", "province": "ON", "country": "CA", "postalCode": "M9W3Z7", "twitter": "None", "instagram": "None", "facebook": "None", "youtube": "None", "website": "None", "summary": "None", "logo": "None", "latitude": 43.71925287261236, "longitude": -79.56678944390924}, "107891160RR0001": {"name": "REXDALE PRESBYTERIAN CHURCH", "designationCode": "C", "categoryCode": "37", "address": "2314 ISLINGTON AVE", "city": "ETOBICOKE", "province": "ON", "country": "CA", "postalCode": "M9W5W9", "twitter": "None", "instagram": "None", "facebook": "None", "youtube": "None", "website": "None", "summary": "None", "logo": "None", "latitude": 43.7163792964107, "longitude": -79.55575128397453}, "119118271RR0001": {"name": "REXDALE PRESBYTERIAN SENIOR CITIZENS CORPORATION", "designationCode": "C", "categoryCode": "09", "address": "2314 ISLINGTON AVE", "city": "ETOBICOKE", "province": "ON", "country": "CA", "postalCode": "M9W5W9", "twitter": "None", "instagram": "None", "facebook": "None", "youtube": "None", "website": "None", "summary": "None", "logo": "None", "latitude": 43.7163792964107, "longitude": -79.55575128397453}, "890788946RR0001": {"name": "REXDALE SINGH SABHA RELIGIOUS CENTRE", "designationCode": "C", "categoryCode": "39", "address": "47 BAYWOOD RD", "city": "TORONTO", "province": "ON", "country": "CA", "postalCode": "M9V3Y8", "twitter": "None", "instagram": "None", "facebook": "None", "youtube": "None", "website": "None", "summary": "None", "logo": "None", "latitude": 43.747110271452414, "longitude": -79.60620900591529}, "119118297RR0001": {"name": "REXDALE WOMEN'S CENTRE", "designationCode": "C", "categoryCode": "59", "address": "925 ALBION ROAD, SUITE 309", "city": "ETOBICOKE", "province": "ON", "country": "CA", "postalCode": "M9V1A6", "twitter": "None", "instagram": "None", "facebook": "None", "youtube": "None", "website": "None", "summary": "None", "logo": "None", "latitude": 43.735776927809084, "longitude": -79.56228527479928}, "104503560RR0001": {"name": "REXTON LIONS NURSING HOME INCORPORATED", "designationCode": "C", "categoryCode": "01", "address": "23 MAIN ST", "city": "REXTON", "province": "NB", "country": "CA", "postalCode": "E4W0E4", "twitter": "None", "instagram": "None", "facebook": "None", "youtube": "None", "website": "None", "summary": "None", "logo": "None", "latitude": 46.66044121496286, "longitude": -64.87511506500041}, "119288918RR0388": {"name": "REXTON N B CONGREGATION OF JEHOVAH'S WITNESSES", "designationCode": "C", "categoryCode": "61", "address": "41 CENTENNIAL WEST AVENUE", "city": "REXTON", "province": "NB", "country": "CA", "postalCode": "E4W1X5", "twitter": "None", "instagram": "None", "facebook": "None", "youtube": "None", "website": "None", "summary": "None", "logo": "None", "latitude": 46.636674163700945, "longitude": -64.87121170509396}, "894975911RR0001": {"name": "REYNOLDS HERITAGE PRESERVATION FOUNDATION", "designationCode": "B", "categoryCode": "03", "address": "BOX 6957", "city": "WETASKIWIN", "province": "AB", "country": "CA", "postalCode": "T9A2G5", "twitter": "None", "instagram": "None", "facebook": "None", "youtube": "None", "website": "None", "summary": "None", "logo": "None", "latitude": 52.96987500000006, "longitude": -113.37725149999994}, "874386568RR0001": {"name": "RHEMA CHRISTIAN LIFE CENTRE", "designationCode": "C", "categoryCode": "39", "address": "2998 MARCELLIN PLACE", "city": "COQUITLAM", "province": "BC", "country": "CA", "postalCode": "V3C6E7", "twitter": "None", "instagram": "None", "facebook": "None", "youtube": "None", "website": "None", "summary": "None", "logo": "None", "latitude": 49.26610949956732, "longitude": -122.795064}, "875258121RR0001": {"name": "RHEMA CHRISTIAN MINISTRIES CANADA INC.", "designationCode": "C", "categoryCode": "39", "address": "P.O. BOX 30123", "city": "TORONTO", "province": "ON", "country": "CA", "postalCode": "M3J3L6", "twitter": "None", "instagram": "None", "facebook": "None", "youtube": "None", "website": "None", "summary": "None", "logo": "None", "latitude": 43.76465700000006, "longitude": -79.49042449999993}, "846993962RR0001": {"name": "RHEMA INTERNATIONAL CHURCH", "designationCode": "C", "categoryCode": "39", "address": "101 - 9 RUE AMHERST", "city": "GATINEAU", "province": "QC", "country": "CA", "postalCode": "J8Y6S7", "twitter": "None", "instagram": "None", "facebook": "None", "youtube": "None", "website": "None", "summary": "None", "logo": "None", "latitude": 45.43452753563411, "longitude": -75.73061288773155}, "896544327RR0001": {"name": "RHEMA STUDIES OF THEOLOGY ASSOCIATION", "designationCode": "C", "categoryCode": "49", "address": "60 TORMINA BLVD", "city": "WHITBY", "province": "ON", "country": "CA", "postalCode": "L1R3B6", "twitter": "None", "instagram": "None", "facebook": "None", "youtube": "None", "website": "None", "summary": "None", "logo": "None", "latitude": 43.919025642247064, "longitude": -78.96193392564469}, "119118420RR0001": {"name": "RHENISH CHURCH OF CANADA", "designationCode": "C", "categoryCode": "39", "address": "2667 BUR OAK AVENUE", "city": "MARKHAM", "province": "ON", "country": "CA", "postalCode": "L6B1H8", "twitter": "None", "instagram": "None", "facebook": "None", "youtube": "None", "website": "None", "summary": "None", "logo": "None", "latitude": 43.89948295366142, "longitude": -79.23115355943764}, "107891962RR0001": {"name": "RHINELAND CARE INC.", "designationCode": "C", "categoryCode": "09", "address": "PO BOX 670", "city": "ALTONA", "province": "MB", "country": "CA", "postalCode": "R0G0B0", "twitter": "None", "instagram": "None", "facebook": "None", "youtube": "None", "website": "None", "summary": "None", "logo": "None", "latitude": 49.10353800000006, "longitude": -97.55120149999993}, "119069227RR0001": {"name": "RHINELAND EMPTY STOCKING FUND", "designationCode": "C", "categoryCode": "09", "address": "218 POPLAR DR. SE", "city": "ALTONA", "province": "MB", "country": "CA", "postalCode": "R0G0B3", "twitter": "None", "instagram": "None", "facebook": "None", "youtube": "None", "website": "None", "summary": "None", "logo": "None", "latitude": 49.6719693936429, "longitude": -98.00272307832948}, "878084193RR0001": {"name": "RHINELAND FOOD BANK INC.", "designationCode": "C", "categoryCode": "09", "address": "BOX 1107", "city": "ALTONA", "province": "MB", "country": "CA", "postalCode": "R0G0B0", "twitter": "None", "instagram": "None", "facebook": "None", "youtube": "None", "website": "None", "summary": "None", "logo": "None", "latitude": 49.10353800000006, "longitude": -97.55120149999993}, "126540301RR0001": {"name": "RHONDA LAZERTE MINISTRIES", "designationCode": "C", "categoryCode": "47", "address": "PO BOX 67 LAKESHORE W PO", "city": "OAKVILLE", "province": "ON", "country": "CA", "postalCode": "L6K0A3", "twitter": "None", "instagram": "None", "facebook": "None", "youtube": "None", "website": "None", "summary": "None", "logo": "None", "latitude": 43.43392717085388, "longitude": -79.68087896669049}, "862495595RR0001": {"name": "RIBBONS OF GREEN TRAILS SOCIETY", "designationCode": "C", "categoryCode": "56", "address": "305-3402-27 AVENUE", "city": "VERNON", "province": "BC", "country": "CA", "postalCode": "V1T1S1", "twitter": "None", "instagram": "None", "facebook": "None", "youtube": "None", "website": "None", "summary": "None", "logo": "None", "latitude": 50.26130859781307, "longitude": -119.27748610949848}, "862751021RR0001": {"name": "RIBICH SCHOLARSHIP FOUNDATION", "designationCode": "B", "categoryCode": "21", "address": "12208 - 39 A AVE", "city": "EDMONTON", "province": "AB", "country": "CA", "postalCode": "T6J0P3", "twitter": "None", "instagram": "None", "facebook": "None", "youtube": "None", "website": "None", "summary": "None", "logo": "None", "latitude": 53.47409150432784, "longitude": -113.5452825}, "891640815RR0001": {"name": "RICE LAKE VINEYARD CHURCH", "designationCode": "C", "categoryCode": "39", "address": "5678 DIVISION ST", "city": "ROSENEATH", "province": "ON", "country": "CA", "postalCode": "K0K2X0", "twitter": "None", "instagram": "None", "facebook": "None", "youtube": "None", "website": "None", "summary": "None", "logo": "None", "latitude": 44.187426820056494, "longitude": -78.05994128364262}}