{"119016244RR0001": {"name": "LES MARIANISTES DE SAINT-ANSELME", "designationCode": "C", "categoryCode": "46", "address": "5020 CL\u00c9MENT-LOCKQUELL", "city": "ST-AUGUSTIN-DE-DESMAURES", "province": "QC", "country": "CA", "postalCode": "G3A1B3", "twitter": "None", "instagram": "None", "facebook": "None", "youtube": "None", "website": "None", "summary": "None", "logo": "None", "latitude": 46.73731503026709, "longitude": -71.3985652621329}, "129894838RR0001": {"name": "LES MELEZES", "designationCode": "C", "categoryCode": "20", "address": "393, RUE DE LANAUDIERE", "city": "JOLIETTE", "province": "QC", "country": "CA", "postalCode": "J6E3L9", "twitter": "None", "instagram": "None", "facebook": "None", "youtube": "None", "website": "None", "summary": "None", "logo": "None", "latitude": 46.02331784811633, "longitude": -73.43641796055765}, "118969260RR0001": {"name": "LES MESSAG\u00c8RES DE NOTRE-DAME DE L'ASSOMPTION", "designationCode": "C", "categoryCode": "46", "address": "45, RUE DE LA SAPINIERE-DORIONAPP. 4", "city": "QU\u00c9BEC", "province": "QC", "country": "CA", "postalCode": "G1L1A3", "twitter": "None", "instagram": "None", "facebook": "None", "youtube": "None", "website": "None", "summary": "None", "logo": "None", "latitude": 45.36132002469851, "longitude": -72.664277821859}, "107692477RR0001": {"name": "LES MESSAGERS CATHOLIQUES DE LA BIBLE INC.", "designationCode": "C", "categoryCode": "47", "address": "CP 7731 CHARLESBOURG SUCC CHAR1645 80E RUE EST", "city": "QUEBEC", "province": "QC", "country": "CA", "postalCode": "G1G5W6", "twitter": "None", "instagram": "None", "facebook": "None", "youtube": "None", "website": "None", "summary": "None", "logo": "None", "latitude": 46.87673100000005, "longitude": -71.28341899999994}, "843969569RR0001": {"name": "LES MINIST\u00c8RES PAROLE D'ESPOIR POUR AUJOURD'HUI", "designationCode": "C", "categoryCode": "47", "address": "3665 RUE CAMPEAU", "city": "LONGUEUIL", "province": "QC", "country": "CA", "postalCode": "J4L4T2", "twitter": "None", "instagram": "None", "facebook": "None", "youtube": "None", "website": "None", "summary": "None", "logo": "None", "latitude": 45.51751908855089, "longitude": -73.43847656466045}, "876500000RR0001": {"name": "LES MINISTERES ACTES INC", "designationCode": "C", "categoryCode": "36", "address": "204 - 435 RUE BIBEAU", "city": "SAINT-EUSTACHE", "province": "QC", "country": "CA", "postalCode": "J7R0C7", "twitter": "None", "instagram": "None", "facebook": "None", "youtube": "None", "website": "None", "summary": "None", "logo": "None", "latitude": 45.568776279762275, "longitude": -73.91493362161752}, "865973978RR0001": {"name": "LES MINISTERES DE LA FOI CREATIVE APOSTOLIQUE/THE APOSTOLIC CREATIVE FAITH MINISTRIES", "designationCode": "C", "categoryCode": "39", "address": "10380 TERRASSE FLEURY #32", "city": "MONTREAL", "province": "QC", "country": "CA", "postalCode": "H3L3L4", "twitter": "None", "instagram": "None", "facebook": "None", "youtube": "None", "website": "None", "summary": "None", "logo": "None", "latitude": 45.540229717698914, "longitude": -73.67179446462569}, "134058106RR0001": {"name": "LES MINISTERES GRACE INTERNATIONAL OF MONTREAL", "designationCode": "C", "categoryCode": "39", "address": "405 BLV ARTHUR-SAUVE PO BOX 22", "city": "SAINT-EUSTACHE", "province": "QC", "country": "CA", "postalCode": "J7R4K5", "twitter": "None", "instagram": "None", "facebook": "None", "youtube": "None", "website": "None", "summary": "None", "logo": "None", "latitude": 45.56379448961264, "longitude": -73.90424734938573}, "858065808RR0001": {"name": "LES MINISTERES LOUANGE ADORATION LIVE", "designationCode": "C", "categoryCode": "36", "address": "9578, RUE RIVERIN", "city": "BROSSARD", "province": "QC", "country": "CA", "postalCode": "J4X2Z2", "twitter": "None", "instagram": "None", "facebook": "None", "youtube": "None", "website": "None", "summary": "None", "logo": "None", "latitude": 45.432011419931875, "longitude": -73.48873119807804}, "119105005RR0001": {"name": "LES MINISTERES ON ROCK INC. / ON ROCK MINISTRIES INC.", "designationCode": "C", "categoryCode": "47", "address": "P.O.BOX 178 SUCC.SAINT-CHARLES", "city": "KIRKLAND", "province": "QC", "country": "CA", "postalCode": "H9H0A3", "twitter": "None", "instagram": "None", "facebook": "None", "youtube": "None", "website": "None", "summary": "None", "logo": "None", "latitude": 45.44606828933643, "longitude": -73.85233129274538}, "864332838RR0001": {"name": "LES MINISTERES RICHARD TOUPIN MINISTRIES", "designationCode": "C", "categoryCode": "47", "address": "12800,RUE JOSEPH-AVILA-GRATTON", "city": "MIRABEL", "province": "QC", "country": "CA", "postalCode": "J7N0C5", "twitter": "None", "instagram": "None", "facebook": "None", "youtube": "None", "website": "None", "summary": "None", "logo": "None", "latitude": 45.63878875823777, "longitude": -74.0253062035893}, "119016319RR0001": {"name": "LES MISSIONNAIRES DE PONT-VIAU/THE MISSIONARIES OF PONT-VIAU", "designationCode": "C", "categoryCode": "46", "address": "160 PLACE JUGE-DESNOYERS", "city": "LAVAL", "province": "QC", "country": "CA", "postalCode": "H7G1A5", "twitter": "None", "instagram": "None", "facebook": "None", "youtube": "None", "website": "None", "summary": "None", "logo": "None", "latitude": 45.561254646142224, "longitude": -73.67492335140496}, "119016327RR0002": {"name": "LES MISSIONNAIRES DU SACRE COEUR", "designationCode": "C", "categoryCode": "46", "address": "511 - 1330 CH SAINTE-FOY", "city": "QUEBEC", "province": "QC", "country": "CA", "postalCode": "G1S2N5", "twitter": "None", "instagram": "None", "facebook": "None", "youtube": "None", "website": "None", "summary": "None", "logo": "None", "latitude": 46.79499805329214, "longitude": -71.25376280988513}, "119016343RR0001": {"name": "LES MISSIONNAIRES NICOLETAINS DE MARIE", "designationCode": "C", "categoryCode": "46", "address": "49, MGR BRUNAULT", "city": "NICOLET", "province": "QC", "country": "CA", "postalCode": "J3T1X7", "twitter": "None", "instagram": "None", "facebook": "None", "youtube": "None", "website": "None", "summary": "None", "logo": "None", "latitude": 46.231826101044376, "longitude": -72.61666041935496}, "119016350RR0001": {"name": "LES MISSIONNAIRES OBLATES DE SAINT-BONIFACE", "designationCode": "C", "categoryCode": "49", "address": "111-420 DES MEURONS STREET", "city": "WINNIPEG", "province": "MB", "country": "CA", "postalCode": "R2H2N9", "twitter": "None", "instagram": "None", "facebook": "None", "youtube": "None", "website": "None", "summary": "None", "logo": "None", "latitude": 49.88373338840704, "longitude": -97.11113568978058}, "869627414RR0001": {"name": "LES MISSIONNAIRES OBLATS DE MARIE IMMACULEE", "designationCode": "C", "categoryCode": "46", "address": "460 1\u00c8RE RUE, BUREAU 600", "city": "RICHELIEU", "province": "QC", "country": "CA", "postalCode": "J3L4B5", "twitter": "None", "instagram": "None", "facebook": "None", "youtube": "None", "website": "None", "summary": "None", "logo": "None", "latitude": 45.44870556942925, "longitude": -73.2618040494552}, "870917762RR0001": {"name": "LES MISSIONNAIRES SCALABRINIENS (MONTREAL)", "designationCode": "C", "categoryCode": "46", "address": "2875 RUE SAUVE EST", "city": "MONTREAL", "province": "QC", "country": "CA", "postalCode": "H2B1C6", "twitter": "None", "instagram": "None", "facebook": "None", "youtube": "None", "website": "None", "summary": "None", "logo": "None", "latitude": 45.576145958653065, "longitude": -73.63911644881398}, "896904646RR0001": {"name": "LES MISSIONS DES AUGUSTINES DE LA MISERICORDE DE JESUS", "designationCode": "C", "categoryCode": "47", "address": "75 RUE DES REMPARTS", "city": "QUEBEC", "province": "QC", "country": "CA", "postalCode": "G1R3R9", "twitter": "None", "instagram": "None", "facebook": "None", "youtube": "None", "website": "None", "summary": "None", "logo": "None", "latitude": 46.81627776442446, "longitude": -71.20959778269064}, "119016384RR0001": {"name": "LES MISSIONS DES SOEURS ANTONIENNES DE MARIE", "designationCode": "C", "categoryCode": "49", "address": "927 JACQUES-CARTIER EST", "city": "CHICOUTIMI", "province": "QC", "country": "CA", "postalCode": "G7H2A3", "twitter": "None", "instagram": "None", "facebook": "None", "youtube": "None", "website": "None", "summary": "None", "logo": "None", "latitude": 48.42373440997723, "longitude": -71.04019612210753}, "107992174RR0001": {"name": "LES MISSIONS DES SOEURS DE ST-JOSEPH DE ST-VALLIER", "designationCode": "C", "categoryCode": "46", "address": "860, AVENUE LOUIS-FRECHETTE", "city": "QUEBEC", "province": "QC", "country": "CA", "postalCode": "G1S3N3", "twitter": "None", "instagram": "None", "facebook": "None", "youtube": "None", "website": "None", "summary": "None", "logo": "None", "latitude": 46.79611125699702, "longitude": -71.24889116821498}, "119016418RR0001": {"name": "LES MISSIONS DES SOEURS MARISTES", "designationCode": "C", "categoryCode": "09", "address": "37 37I\u00c8ME AVENUE", "city": "EDMUNDSTON", "province": "NB", "country": "CA", "postalCode": "E3V2W6", "twitter": "None", "instagram": "None", "facebook": "None", "youtube": "None", "website": "None", "summary": "None", "logo": "None", "latitude": 47.37099531523377, "longitude": -68.32461962710723}, "119016426RR0001": {"name": "LES MISSIONS DES SOEURS MISSIONNAIRES DU CHRIST-ROI", "designationCode": "C", "categoryCode": "09", "address": "4730 BOUL LEVESQUE OUEST", "city": "CHOMEDEY", "province": "QC", "country": "CA", "postalCode": "H7W2R4", "twitter": "None", "instagram": "None", "facebook": "None", "youtube": "None", "website": "None", "summary": "None", "logo": "None", "latitude": 45.52747419285618, "longitude": -73.76023804821452}, "888736998RR0001": {"name": "LES MISSIONS ST-VIATEUR", "designationCode": "C", "categoryCode": "47", "address": "450 AVENUE AUERBES", "city": "OUTREMONT", "province": "QC", "country": "CA", "postalCode": "H2V3W5", "twitter": "None", "instagram": "None", "facebook": "None", "youtube": "None", "website": "None", "summary": "None", "logo": "None", "latitude": 45.52068359253296, "longitude": -73.60496308301097}, "107619173RR0001": {"name": "LES MONIALES BENEDICTINES DE JOLIETTE", "designationCode": "C", "categoryCode": "46", "address": "488 NORD ST-CHARLES-BOROME    C.P. 158", "city": "JOLIETTE", "province": "QC", "country": "CA", "postalCode": "J6E3Z3", "twitter": "None", "instagram": "None", "facebook": "None", "youtube": "None", "website": "None", "summary": "None", "logo": "None", "latitude": 46.02356700000006, "longitude": -73.44196099999994}, "107619165RR0001": {"name": "LES MONIALES BENEDICTINES DE MONT LAURIER", "designationCode": "C", "categoryCode": "46", "address": "16470 AVENUE BOURDAGES SUD", "city": "SAINT-HYACINTHE", "province": "QC", "country": "CA", "postalCode": "J2T4J8", "twitter": "None", "instagram": "None", "facebook": "None", "youtube": "None", "website": "None", "summary": "None", "logo": "None", "latitude": 45.616190349211905, "longitude": -72.9427241230025}, "107716995RR0001": {"name": "LES MONIALES CARMELITES", "designationCode": "C", "categoryCode": "46", "address": "2720 BOUL WALLBERG", "city": "DOLBEAU-MISTASSINI", "province": "QC", "country": "CA", "postalCode": "G8L1L2", "twitter": "None", "instagram": "None", "facebook": "None", "youtube": "None", "website": "None", "summary": "None", "logo": "None", "latitude": 48.88510478328206, "longitude": -72.26871026862511}, "129124772RR0001": {"name": "LES MONIALES CARMELITES", "designationCode": "C", "categoryCode": "46", "address": "566, RUE NOTRE-DAME EST", "city": "TROIS-RIVI\u00c8RES", "province": "QC", "country": "CA", "postalCode": "G8T4G7", "twitter": "None", "instagram": "None", "facebook": "None", "youtube": "None", "website": "None", "summary": "None", "logo": "None", "latitude": 46.365804, "longitude": -72.50117327699232}, "119016442RR0001": {"name": "LES MONIALES CARMELITES DE DANVILLE", "designationCode": "C", "categoryCode": "46", "address": "351 AVE DU CARMEL", "city": "MONTREAL", "province": "QC", "country": "CA", "postalCode": "H2T1B5", "twitter": "None", "instagram": "None", "facebook": "None", "youtube": "None", "website": "None", "summary": "None", "logo": "None", "latitude": 45.528247180448666, "longitude": -73.5946132240746}, "129883013RR0001": {"name": "LES MONIALES CARMELITES DE MONTREAL", "designationCode": "C", "categoryCode": "46", "address": "351 AVE DU CARMEL", "city": "MONTREAL", "province": "QC", "country": "CA", "postalCode": "H2T1B5", "twitter": "None", "instagram": "None", "facebook": "None", "youtube": "None", "website": "None", "summary": "None", "logo": "None", "latitude": 45.528247180448666, "longitude": -73.5946132240746}, "119016475RR0001": {"name": "LES MONIALES CLARISSES DE SOREL", "designationCode": "C", "categoryCode": "46", "address": "260 BOULEVARD LANGELIER", "city": "QU\u00c9BEC", "province": "QC", "country": "CA", "postalCode": "G1K5N1", "twitter": "None", "instagram": "None", "facebook": "None", "youtube": "None", "website": "None", "summary": "None", "logo": "None", "latitude": 46.8144777418778, "longitude": -71.23229006607409}, "127067239RR0001": {"name": "LES MONIALES DOMINICAINES DE BERTHIERVILLE", "designationCode": "C", "categoryCode": "46", "address": "2712 AVENUE LAFL\u00c8CHE", "city": "SHAWINIGAN NORD", "province": "QC", "country": "CA", "postalCode": "G9N6H5", "twitter": "None", "instagram": "None", "facebook": "None", "youtube": "None", "website": "None", "summary": "None", "logo": "None", "latitude": 46.572399156818015, "longitude": -72.7580961629062}, "119016509RR0001": {"name": "LES MONIALES REDEMPTORISTINES DE STE-THERESE", "designationCode": "C", "categoryCode": "38", "address": "115 COTE ST-LOUIS OUEST", "city": "STE THERESE", "province": "QC", "country": "CA", "postalCode": "J7E2H8", "twitter": "None", "instagram": "None", "facebook": "None", "youtube": "None", "website": "None", "summary": "None", "logo": "None", "latitude": 45.64789500885814, "longitude": -73.8506137715393}, "119016517RR0001": {"name": "LES NOUVEAUX HORIZONS DE LAURIER INC.", "designationCode": "C", "categoryCode": "01", "address": "PO BOX 157", "city": "LAURIER", "province": "MB", "country": "CA", "postalCode": "R0J1A0", "twitter": "None", "instagram": "None", "facebook": "None", "youtube": "None", "website": "None", "summary": "None", "logo": "None", "latitude": 50.890900000000045, "longitude": -99.56014999999996}, "894855097RR0001": {"name": "LES NOUVEAUX SENTIERS DE LA MRC DE L'ISLET INC.", "designationCode": "C", "categoryCode": "09", "address": "183 RANG TERREBONNE", "city": "STE-PERPETUE", "province": "QC", "country": "CA", "postalCode": "G0R3Z0", "twitter": "None", "instagram": "None", "facebook": "None", "youtube": "None", "website": "None", "summary": "None", "logo": "None", "latitude": 47.040157301662155, "longitude": -69.96393388574099}, "883057713RR0001": {"name": "LES NUAGES EN PANTALON", "designationCode": "C", "categoryCode": "22", "address": "939 AV. DE SALABERRY, BUR. 107", "city": "QU\u00c9BEC", "province": "QC", "country": "CA", "postalCode": "G1R2V2", "twitter": "None", "instagram": "None", "facebook": "None", "youtube": "None", "website": "None", "summary": "None", "logo": "None", "latitude": 46.80578443187709, "longitude": -71.22647415748185}, "119016533RR0001": {"name": "LES OBLATES DE BETHANIE", "designationCode": "C", "categoryCode": "46", "address": "981, AV. MURRAY", "city": "QUEBEC", "province": "QC", "country": "CA", "postalCode": "G1S3B4", "twitter": "None", "instagram": "None", "facebook": "None", "youtube": "None", "website": "None", "summary": "None", "logo": "None", "latitude": 46.799330615326866, "longitude": -71.2364905331526}, "119016541RR0001": {"name": "LES OBLATES FRANCISCAINES DE SAINT-JOSEPH", "designationCode": "C", "categoryCode": "46", "address": "11800, BOIS-DE-BOULOGNE", "city": "MONTREAL", "province": "QC", "country": "CA", "postalCode": "H3M2X6", "twitter": "None", "instagram": "None", "facebook": "None", "youtube": "None", "website": "None", "summary": "None", "logo": "None", "latitude": 45.54080012236735, "longitude": -73.68802177312584}, "103242459RR0001": {"name": "LES OBLATS DE MARIE-IMMACULEE DU MANITOBA", "designationCode": "C", "categoryCode": "46", "address": "96 EMPRESS AVE", "city": "OTTAWA", "province": "ON", "country": "CA", "postalCode": "K1R7G3", "twitter": "None", "instagram": "None", "facebook": "None", "youtube": "None", "website": "None", "summary": "None", "logo": "None", "latitude": 45.411189077702204, "longitude": -75.70929188902963}, "119016566RR0001": {"name": "LES OEUVRE DE L'EVEQUE CATHOLIQUE ROMAIN DE NICOLET", "designationCode": "C", "categoryCode": "49", "address": "49 MGR BRUNAULT", "city": "NICOLET", "province": "QC", "country": "CA", "postalCode": "J3T1X7", "twitter": "None", "instagram": "None", "facebook": "None", "youtube": "None", "website": "None", "summary": "None", "logo": "None", "latitude": 46.231826101044376, "longitude": -72.61666041935496}, "119016574RR0001": {"name": "LES OEUVRES DE BIENFAISANCE DES SOEURS DOMINICAINES DE LA TRINITE", "designationCode": "C", "categoryCode": "46", "address": "2710 AV LAFLECHE", "city": "SHAWINIGAN", "province": "QC", "country": "CA", "postalCode": "G9N6H5", "twitter": "None", "instagram": "None", "facebook": "None", "youtube": "None", "website": "None", "summary": "None", "logo": "None", "latitude": 46.572404131859706, "longitude": -72.7580946350633}, "119016582RR0001": {"name": "LES OEUVRES DE BIENFAISANCE DOM MINSART", "designationCode": "C", "categoryCode": "47", "address": "74 CLARENDON AVE", "city": "OTTAWA", "province": "ON", "country": "CA", "postalCode": "K1Y0P7", "twitter": "None", "instagram": "None", "facebook": "None", "youtube": "None", "website": "None", "summary": "None", "logo": "None", "latitude": 45.3954012120434, "longitude": -75.73523335457894}, "107991721RR0004": {"name": "LES OEUVRES DE CHARITE DES SOEURS DE STE-CHRETIENNE", "designationCode": "C", "categoryCode": "09", "address": "007-2281 CH DE LA CANARDIERE", "city": "QUEBEC", "province": "QC", "country": "CA", "postalCode": "G1J0B8", "twitter": "None", "instagram": "None", "facebook": "None", "youtube": "None", "website": "None", "summary": "None", "logo": "None", "latitude": 46.84230286011887, "longitude": -71.21999381378028}, "891148348RR0001": {"name": "LES OEUVRES DE GALILEE", "designationCode": "C", "categoryCode": "09", "address": "663, RUE SAINT-PIERRE", "city": "TERREBONNE", "province": "QC", "country": "CA", "postalCode": "J6W1C9", "twitter": "None", "instagram": "None", "facebook": "None", "youtube": "None", "website": "None", "summary": "None", "logo": "None", "latitude": 45.69311222012216, "longitude": -73.63256544491884}, "830669529RR0001": {"name": "LES OEUVRES DE GRIFFONNETTE", "designationCode": "C", "categoryCode": "21", "address": "974 RUE ST-FRAN\u00c7OIS XAVIER", "city": "TROIS-RIVI\u00c8RES", "province": "QC", "country": "CA", "postalCode": "G9A1R6", "twitter": "None", "instagram": "None", "facebook": "None", "youtube": "None", "website": "None", "summary": "None", "logo": "None", "latitude": 46.350088260343895, "longitude": -72.54479131167415}, "890236995RR0001": {"name": "LES OEUVRES DE L'HOTEL-DIEU SAINT-JOSEPH INC.", "designationCode": "C", "categoryCode": "56", "address": "429 RUE PRINCIPALE", "city": "SAINT-BASILE", "province": "NB", "country": "CA", "postalCode": "E7C1J2", "twitter": "None", "instagram": "None", "facebook": "None", "youtube": "None", "website": "None", "summary": "None", "logo": "None", "latitude": 47.357848274571495, "longitude": -68.2356930623015}, "135484137RR0001": {"name": "LES OEUVRES DE LA MAISON DAUPHINE INC", "designationCode": "C", "categoryCode": "01", "address": "31 RUE D'AUTEUIL", "city": "QU\u00c9BEC", "province": "QC", "country": "CA", "postalCode": "G1R4B9", "twitter": "None", "instagram": "None", "facebook": "None", "youtube": "None", "website": "None", "summary": "None", "logo": "None", "latitude": 46.812343138496175, "longitude": -71.21244743574358}, "860008952RR0001": {"name": "LES OEUVRES DE LA SOCIETE DU VERBE DIVIN", "designationCode": "C", "categoryCode": "09", "address": "1019, RUE COWIE", "city": "GRANBY", "province": "QC", "country": "CA", "postalCode": "J2J0J2", "twitter": "None", "instagram": "None", "facebook": "None", "youtube": "None", "website": "None", "summary": "None", "logo": "None", "latitude": 45.39469575951929, "longitude": -72.77267246186545}, "119016681RR0001": {"name": "LES OEUVRES DE MERE MARIE-DOMINIQUE MAZZARELLO", "designationCode": "C", "categoryCode": "09", "address": "8555 AVE JOLIOT-CURRIE", "city": "MONTREAL", "province": "QC", "country": "CA", "postalCode": "H1E5J6", "twitter": "None", "instagram": "None", "facebook": "None", "youtube": "None", "website": "None", "summary": "None", "logo": "None", "latitude": 45.638658355271446, "longitude": -73.58161027312585}, "860293190RR0001": {"name": "LES OEUVRES DE SAINT-SULPICE", "designationCode": "C", "categoryCode": "46", "address": "116 RUE NOTRE-DAME OUEST", "city": "MONTREAL", "province": "QC", "country": "CA", "postalCode": "H2Y1T2", "twitter": "None", "instagram": "None", "facebook": "None", "youtube": "None", "website": "None", "summary": "None", "logo": "None", "latitude": 45.50420998831457, "longitude": -73.55711405182119}, "878953421RR0001": {"name": "LES OEUVRES DE ST-JACQUES", "designationCode": "C", "categoryCode": "09", "address": "1280 RUE BERRI", "city": "MONTREAL", "province": "QC", "country": "CA", "postalCode": "H2L4S6", "twitter": "None", "instagram": "None", "facebook": "None", "youtube": "None", "website": "None", "summary": "None", "logo": "None", "latitude": 45.51409393834066, "longitude": -73.55850443190576}, "889317251RR0001": {"name": "LES OEUVRES DES ABBES MARTEL ET MARCIL", "designationCode": "A", "categoryCode": "03", "address": "2203, AV. SAINT-MARC", "city": "SHAWINIGAN", "province": "QC", "country": "CA", "postalCode": "G9N2J4", "twitter": "None", "instagram": "None", "facebook": "None", "youtube": "None", "website": "None", "summary": "None", "logo": "None", "latitude": 46.55470424453218, "longitude": -72.74087823301966}, "888248473RR0001": {"name": "LES OEUVRES DES FILLES DE LA CROIX", "designationCode": "C", "categoryCode": "09", "address": "126 601 RUE AULNEAU", "city": "WINNIPEG", "province": "MB", "country": "CA", "postalCode": "R2H2V5", "twitter": "None", "instagram": "None", "facebook": "None", "youtube": "None", "website": "None", "summary": "None", "logo": "None", "latitude": 49.890557107392354, "longitude": -97.11952140210002}, "119016723RR0001": {"name": "LES OEUVRES DES FILLES DE MARIE-DE-L'ASSOMPTION", "designationCode": "C", "categoryCode": "46", "address": "C.P.37", "city": "CAMPBELLTON", "province": "NB", "country": "CA", "postalCode": "E3N3G1", "twitter": "None", "instagram": "None", "facebook": "None", "youtube": "None", "website": "None", "summary": "None", "logo": "None", "latitude": 47.98463046536863, "longitude": -66.6943764499172}, "119016749RR0001": {"name": "LES OEUVRES DES MISSIONNAIRES OBLATES DE ST BONIFACE", "designationCode": "C", "categoryCode": "09", "address": "111-420 DES MEURONS STREET", "city": "WINNIPEG", "province": "MB", "country": "CA", "postalCode": "R2H2N9", "twitter": "None", "instagram": "None", "facebook": "None", "youtube": "None", "website": "None", "summary": "None", "logo": "None", "latitude": 49.88373338840704, "longitude": -97.11113568978058}, "140153149RR0001": {"name": "LES OEUVRES DES RELIGIEUSES ADORATRICES DU PRECIEUX SANG", "designationCode": "C", "categoryCode": "46", "address": "800 DESAULNIERS", "city": "ST-HYACINTHE", "province": "QC", "country": "CA", "postalCode": "J2S8P5", "twitter": "None", "instagram": "None", "facebook": "None", "youtube": "None", "website": "None", "summary": "None", "logo": "None", "latitude": 45.62119837691153, "longitude": -72.95527341672923}, "884967183RR0001": {"name": "LES OEUVRES DES SERVITES DE MARIE", "designationCode": "C", "categoryCode": "46", "address": "820 RUE BEAUREGARD", "city": "QUEBEC", "province": "QC", "country": "CA", "postalCode": "G1V2Y2", "twitter": "None", "instagram": "None", "facebook": "None", "youtube": "None", "website": "None", "summary": "None", "logo": "None", "latitude": 46.78276886594724, "longitude": -71.28925884932748}, "119016830RR0001": {"name": "LES OEUVRES DES SOEURS DE LA CHARITE DE SAINT-HYACINTHE", "designationCode": "C", "categoryCode": "09", "address": "16470, BOURDAGES SUD", "city": "ST-HYACINTHE", "province": "QC", "country": "CA", "postalCode": "J2T4J8", "twitter": "None", "instagram": "None", "facebook": "None", "youtube": "None", "website": "None", "summary": "None", "logo": "None", "latitude": 45.616190349211905, "longitude": -72.9427241230025}, "853547339RR0001": {"name": "LES OEUVRES DES SOEURS DE NOTRE-DAME DES DOULEURS (MONTREAL)", "designationCode": "C", "categoryCode": "20", "address": "6770, RUE HENRI-JULIEN", "city": "MONTREAL", "province": "QC", "country": "CA", "postalCode": "H2S2V4", "twitter": "None", "instagram": "None", "facebook": "None", "youtube": "None", "website": "None", "summary": "None", "logo": "None", "latitude": 45.53488177849287, "longitude": -73.6104941697442}, "893200774RR0001": {"name": "LES OEUVRES DES SOEURS MISSIONNAIRES DE NOTRE-DAME D'AFRIQUE", "designationCode": "C", "categoryCode": "46", "address": "5655 RUE DE SALABERRY", "city": "MONTR\u00c9AL", "province": "QC", "country": "CA", "postalCode": "H4J1J5", "twitter": "None", "instagram": "None", "facebook": "None", "youtube": "None", "website": "None", "summary": "None", "logo": "None", "latitude": 45.528873699753234, "longitude": -73.71145253699511}, "119016871RR0001": {"name": "LES OEUVRES DES SOEURS MISSIONNAIRES DE NOTRE-DAME DES ANGES", "designationCode": "C", "categoryCode": "46", "address": "323 QUEEN", "city": "SHERBROOKE", "province": "QC", "country": "CA", "postalCode": "J1M1K8", "twitter": "None", "instagram": "None", "facebook": "None", "youtube": "None", "website": "None", "summary": "None", "logo": "None", "latitude": 45.37929236551455, "longitude": -71.86950585910832}, "889818191RR0001": {"name": "LES OEUVRES DU CLUB RICHELIEU LA TUQUE", "designationCode": "C", "categoryCode": "09", "address": "520 DU COTEAU", "city": "LA TUQUE", "province": "QC", "country": "CA", "postalCode": "G9X2A6", "twitter": "None", "instagram": "None", "facebook": "None", "youtube": "None", "website": "None", "summary": "None", "logo": "None", "latitude": 47.44070664723873, "longitude": -72.77235965361537}, "103242582RR0001": {"name": "LES OEUVRES DU DOCTEUR DESPATIS INC.", "designationCode": "B", "categoryCode": "03", "address": "625, VICTORIA", "city": "LONGUEUIL", "province": "QC", "country": "CA", "postalCode": "J4H2K2", "twitter": "None", "instagram": "None", "facebook": "None", "youtube": "None", "website": "None", "summary": "None", "logo": "None", "latitude": 45.50036635239251, "longitude": -73.50913012307883}, "890606940RR0001": {"name": "LES OEUVRES DU LAC-EN-COEUR", "designationCode": "A", "categoryCode": "09", "address": "858 RUE LAVIOLETTE", "city": "TROIS-RIVIERES", "province": "QC", "country": "CA", "postalCode": "G9A1V8", "twitter": "None", "instagram": "None", "facebook": "None", "youtube": "None", "website": "None", "summary": "None", "logo": "None", "latitude": 46.34869787846938, "longitude": -72.54542115869394}, "889544516RR0001": {"name": "LES OEUVRES DU PERE BERNARD MORIN", "designationCode": "C", "categoryCode": "09", "address": "1-5905 RUE TURENNE", "city": "MONTR\u00c9AL", "province": "QC", "country": "CA", "postalCode": "H1M1N4", "twitter": "None", "instagram": "None", "facebook": "None", "youtube": "None", "website": "None", "summary": "None", "logo": "None", "latitude": 45.57765829338094, "longitude": -73.55252848949706}, "859545576RR0001": {"name": "LES OEUVRES DU PRESBYTERE SACRE-COEUR DU BASSIN INC.", "designationCode": "A", "categoryCode": "03", "address": "240 RUE BOSSE", "city": "CHICOUTIMI", "province": "QC", "country": "CA", "postalCode": "G7J1L9", "twitter": "None", "instagram": "None", "facebook": "None", "youtube": "None", "website": "None", "summary": "None", "logo": "None", "latitude": 48.42445073933899, "longitude": -71.07656699639332}, "118923861RR0001": {"name": "LES OEUVRES EUDISTES", "designationCode": "C", "categoryCode": "46", "address": "6125 1 RE AVENUE", "city": "CHARLESBOURG", "province": "QC", "country": "CA", "postalCode": "G1H2V9", "twitter": "None", "instagram": "None", "facebook": "None", "youtube": "None", "website": "None", "summary": "None", "logo": "None", "latitude": 46.851828000000054, "longitude": -71.25779599999993}, "855873196RR0001": {"name": "LES OEUVRES FRANCOIS-PFANNER", "designationCode": "C", "categoryCode": "47", "address": "2075, CHEMIN DE STE-CATHERINE", "city": "SHERBROOKE", "province": "QC", "country": "CA", "postalCode": "J1N1E7", "twitter": "None", "instagram": "None", "facebook": "None", "youtube": "None", "website": "None", "summary": "None", "logo": "None", "latitude": 45.37158830140014, "longitude": -71.93309868400317}, "872251178RR0001": {"name": "LES OEUVRES ISIDORE OSTIGUY", "designationCode": "C", "categoryCode": "09", "address": "95, RUE LOIS", "city": "HULL", "province": "QC", "country": "CA", "postalCode": "J8Y3R5", "twitter": "None", "instagram": "None", "facebook": "None", "youtube": "None", "website": "None", "summary": "None", "logo": "None", "latitude": 45.43426967638064, "longitude": -75.73216312242465}, "122273923RR0001": {"name": "LES OEUVRES JEAN LAFRANCE INC.", "designationCode": "C", "categoryCode": "09", "address": "1390 RTE DE L'AEROPORT", "city": "QUEBEC", "province": "QC", "country": "CA", "postalCode": "G2G0L6", "twitter": "None", "instagram": "None", "facebook": "None", "youtube": "None", "website": "None", "summary": "None", "logo": "None", "latitude": 46.7922976310722, "longitude": -71.36015567534842}, "119016905RR0001": {"name": "LES OEUVRES LEROYER", "designationCode": "C", "categoryCode": "09", "address": "245 AVENUE DES PINS OUEST", "city": "MONTREAL", "province": "QC", "country": "CA", "postalCode": "H2W1R5", "twitter": "None", "instagram": "None", "facebook": "None", "youtube": "None", "website": "None", "summary": "None", "logo": "None", "latitude": 45.51266668413551, "longitude": -73.57730306977341}, "888843596RR0001": {"name": "LES OEUVRES MARIE GERIN-LAJOIE INC", "designationCode": "A", "categoryCode": "03", "address": "2450 CH. DE LA C\u00d4TE STE-      CATHERINE", "city": "MONTR\u00c9AL", "province": "QC", "country": "CA", "postalCode": "H3T1B1", "twitter": "None", "instagram": "None", "facebook": "None", "youtube": "None", "website": "None", "summary": "None", "logo": "None", "latitude": 45.50843350178901, "longitude": -73.6186070930812}, "889591665RR0001": {"name": "LES OEUVRES MISSIONNAIRES DES PETITES SOEURS DE LA SAINTE-FAMILLE", "designationCode": "C", "categoryCode": "09", "address": "1820 OUEST RUE GALT", "city": "SHERBROOKE", "province": "QC", "country": "CA", "postalCode": "J1K1H9", "twitter": "None", "instagram": "None", "facebook": "None", "youtube": "None", "website": "None", "summary": "None", "logo": "None", "latitude": 45.386774648475146, "longitude": -71.9172799320736}, "119016947RR0001": {"name": "LES OEUVRES MONSEIGNEUR DE PANCEMONT", "designationCode": "C", "categoryCode": "09", "address": "6670 RUE SAINT-LOUIS-DE-FRANCE", "city": "LEVIS", "province": "QC", "country": "CA", "postalCode": "G6V1P3", "twitter": "None", "instagram": "None", "facebook": "None", "youtube": "None", "website": "None", "summary": "None", "logo": "None", "latitude": 46.818434173409145, "longitude": -71.17884370543656}, "107619082RR0001": {"name": "LES OEUVRES OBLATES DE L'ONTARIO", "designationCode": "C", "categoryCode": "46", "address": "460, 1\u00c8RE RUE, BUREAU 600", "city": "RICHELIEU", "province": "QC", "country": "CA", "postalCode": "J3L4B5", "twitter": "None", "instagram": "None", "facebook": "None", "youtube": "None", "website": "None", "summary": "None", "logo": "None", "latitude": 45.44870556942925, "longitude": -73.2618040494552}, "891394793RR0001": {"name": "LES OEUVRES R.M./R.M. CHARITY", "designationCode": "C", "categoryCode": "46", "address": "12050 EST BOULEVARD GOUIN", "city": "MONTREAL", "province": "QC", "country": "CA", "postalCode": "H1C1B8", "twitter": "None", "instagram": "None", "facebook": "None", "youtube": "None", "website": "None", "summary": "None", "logo": "None", "latitude": 45.684780078798724, "longitude": -73.52801675194803}, "886727197RR0001": {"name": "LES ORGANISATIONS PARA-PAROISSIALES DE MALARTIC INC", "designationCode": "C", "categoryCode": "09", "address": "581 RUE ROYALE", "city": "MALARTIC", "province": "QC", "country": "CA", "postalCode": "J0Y1Z0", "twitter": "None", "instagram": "None", "facebook": "None", "youtube": "None", "website": "None", "summary": "None", "logo": "None", "latitude": 48.13417284869325, "longitude": -78.12054736360997}, "897221800RR0001": {"name": "LES OUVRIERS DE PAIX", "designationCode": "C", "categoryCode": "09", "address": "262A RANG DE LA GRANDE-TERRE", "city": "SAINT-FRANCOIS-DU-LAC", "province": "QC", "country": "CA", "postalCode": "J0G1M0", "twitter": "None", "instagram": "None", "facebook": "None", "youtube": "None", "website": "None", "summary": "None", "logo": "None", "latitude": 46.08088837189958, "longitude": -72.86471434441431}, "131908881RR0001": {"name": "LES P\u00c8RES MONTFORTAINS", "designationCode": "C", "categoryCode": "47", "address": "6455 AV LOUIS-RIEL", "city": "MONTREAL", "province": "QC", "country": "CA", "postalCode": "H1M1P1", "twitter": "None", "instagram": "None", "facebook": "None", "youtube": "None", "website": "None", "summary": "None", "logo": "None", "latitude": 45.58260586317727, "longitude": -73.54911009397524}, "868823402RR0001": {"name": "LES P'TITS PAPILLONS INC.", "designationCode": "C", "categoryCode": "20", "address": "PO BOX 419", "city": "ST MALO", "province": "MB", "country": "CA", "postalCode": "R0A1T0", "twitter": "None", "instagram": "None", "facebook": "None", "youtube": "None", "website": "None", "summary": "None", "logo": "None", "latitude": 49.31380157685065, "longitude": -96.95277278028621}, "119017366RR0001": {"name": "LES P'TITS VIOLONS DE MGR. LIONEL DAIGLE INC.", "designationCode": "C", "categoryCode": "22", "address": "12 RUE MARTIN                 C.P. 529", "city": "ST-BASILE", "province": "NB", "country": "CA", "postalCode": "E7C1E4", "twitter": "None", "instagram": "None", "facebook": "None", "youtube": "None", "website": "None", "summary": "None", "logo": "None", "latitude": 47.357998350275935, "longitude": -68.23226117987717}, "873304554RR0001": {"name": "LES PAPILLONS DE NOMININGUE INC", "designationCode": "C", "categoryCode": "09", "address": "2252 RUE SACRE-COEUR", "city": "NOMININGUE", "province": "QC", "country": "CA", "postalCode": "J0W1R0", "twitter": "None", "instagram": "None", "facebook": "None", "youtube": "None", "website": "None", "summary": "None", "logo": "None", "latitude": 46.40110207409551, "longitude": -75.02660614651758}, "892020454RR0001": {"name": "LES PARENTS-PARTENAIRES INC.", "designationCode": "C", "categoryCode": "09", "address": "6038 NOTRE-DAME OUEST", "city": "TROIS-RIVI\u00c8RES", "province": "QC", "country": "CA", "postalCode": "G9A5A4", "twitter": "None", "instagram": "None", "facebook": "None", "youtube": "None", "website": "None", "summary": "None", "logo": "None", "latitude": 46.31745011157596, "longitude": -72.56756667499566}, "890200595RR0001": {"name": "LES PARTENAIRES D'EDOUARD-MONTPETIT (CECM)", "designationCode": "C", "categoryCode": "21", "address": "6200, RUE PIERRE-DE-COUBERTIN", "city": "MONTREAL", "province": "QC", "country": "CA", "postalCode": "H1N1S4", "twitter": "None", "instagram": "None", "facebook": "None", "youtube": "None", "website": "None", "summary": "None", "logo": "None", "latitude": 45.576338533700884, "longitude": -73.53777340195673}, "119086270RR0001": {"name": "LES PARTENAIRES DE L'ASSOCIATION DE LA HAUTE-EGYPTE POUR L'EDUCATION ET LE DEVELOPPEMENT (PACHE)", "designationCode": "C", "categoryCode": "21", "address": "5 RUE FORGET", "city": "ILE-BIZARD", "province": "QC", "country": "CA", "postalCode": "H9C2V8", "twitter": "None", "instagram": "None", "facebook": "None", "youtube": "None", "website": "None", "summary": "None", "logo": "None", "latitude": 45.50965212655095, "longitude": -73.85945418140095}, "867526154RR0001": {"name": "LES PARTENAIRES DE LA BIBLIOTHEQUE BENNY", "designationCode": "C", "categoryCode": "21", "address": "6400 AV DE MONKLAND", "city": "MONTREAL", "province": "QC", "country": "CA", "postalCode": "H4B1H3", "twitter": "None", "instagram": "None", "facebook": "None", "youtube": "None", "website": "None", "summary": "None", "logo": "None", "latitude": 45.46659223832743, "longitude": -73.6308945}, "870304797RR0001": {"name": "LES PARTENAIRES DE LA PETITE ENFANCE DE LONGUEUIL-OUEST: UNE INITIATIVE 1,2,3 GO!", "designationCode": "C", "categoryCode": "09", "address": "2027 RUE DANIEL", "city": "LONGUEUIL", "province": "QC", "country": "CA", "postalCode": "J4J5M1", "twitter": "None", "instagram": "None", "facebook": "None", "youtube": "None", "website": "None", "summary": "None", "logo": "None", "latitude": 45.52547321560752, "longitude": -73.48163822043337}, "119017002RR0001": {"name": "LES PARTENAIRES DU CARDINAL / THE CARDINAL'S PARTNERS", "designationCode": "A", "categoryCode": "09", "address": "130 AVENUE DE L'EPEE", "city": "OUTREMONT", "province": "QC", "country": "CA", "postalCode": "H2V3T2", "twitter": "None", "instagram": "None", "facebook": "None", "youtube": "None", "website": "None", "summary": "None", "logo": "None", "latitude": 45.5174456658204, "longitude": -73.59933130503771}, "128972809RR0001": {"name": "LES PAUVRES CLARISSES DE VALLEYFIELD", "designationCode": "C", "categoryCode": "46", "address": "55, RUE SAINTE-CLAIRE", "city": "SALABERRY-DE-VALLEYFIELD", "province": "QC", "country": "CA", "postalCode": "J6S1N5", "twitter": "None", "instagram": "None", "facebook": "None", "youtube": "None", "website": "None", "summary": "None", "logo": "None", "latitude": 45.259816567314836, "longitude": -74.14588364599798}, "119017036RR0001": {"name": "LES PAUVRES DE SAINT-FRANCOIS", "designationCode": "C", "categoryCode": "49", "address": "425, RUE SAINTE-ANGELE", "city": "TROIS-RIVIERES", "province": "QC", "country": "CA", "postalCode": "G9A1M3", "twitter": "None", "instagram": "None", "facebook": "None", "youtube": "None", "website": "None", "summary": "None", "logo": "None", "latitude": 46.34714528253223, "longitude": -72.53887211714454}, "119017051RR0001": {"name": "LES PERES AUGUSTINS DE L'ASSOMPTION", "designationCode": "C", "categoryCode": "46", "address": "1679 CHEMIN ST LOUIS", "city": "QUEBEC", "province": "QC", "country": "CA", "postalCode": "G1S1G5", "twitter": "None", "instagram": "None", "facebook": "None", "youtube": "None", "website": "None", "summary": "None", "logo": "None", "latitude": 46.782686211052926, "longitude": -71.24601196192994}, "119017085RR0001": {"name": "LES PERES CLARETAINS DU QUEBEC", "designationCode": "C", "categoryCode": "46", "address": "663 BOULEVARD GAMACHE", "city": "VICTORIAVILLE", "province": "QC", "country": "CA", "postalCode": "G6R0W3", "twitter": "None", "instagram": "None", "facebook": "None", "youtube": "None", "website": "None", "summary": "None", "logo": "None", "latitude": 46.04180170507647, "longitude": -71.96518056396033}, "119017135RR0001": {"name": "LES PERES PREMONTRES", "designationCode": "C", "categoryCode": "46", "address": "1 DES PREMONTRES", "city": "ST CONSTANT", "province": "QC", "country": "CA", "postalCode": "J5A1Y7", "twitter": "None", "instagram": "None", "facebook": "None", "youtube": "None", "website": "None", "summary": "None", "logo": "None", "latitude": 45.36633592480797, "longitude": -73.58017384049799}, "119017150RR0001": {"name": "LES PERES TRAPPISTES DE ROGERSVILLE", "designationCode": "C", "categoryCode": "46", "address": "11505 RTE 126", "city": "ROGERSVILLE", "province": "NB", "country": "CA", "postalCode": "E4Y2N9", "twitter": "None", "instagram": "None", "facebook": "None", "youtube": "None", "website": "None", "summary": "None", "logo": "None", "latitude": 46.76580617692588, "longitude": -65.45071401934621}, "119017176RR0001": {"name": "LES PETITES FRANCISCAINES DE MARIE", "designationCode": "C", "categoryCode": "46", "address": "10, BOUL. FAFARD", "city": "BAIE SAINT-PAUL", "province": "QC", "country": "CA", "postalCode": "G3Z2J4", "twitter": "None", "instagram": "None", "facebook": "None", "youtube": "None", "website": "None", "summary": "None", "logo": "None", "latitude": 47.439645000000056, "longitude": -70.50633199999993}, "131712499RR0001": {"name": "LES PETITES MISSIONNAIRES DE ST-JOSEPH", "designationCode": "C", "categoryCode": "46", "address": "622 - 3200 RUE OMER-LAVALLEE", "city": "MONTREAL", "province": "QC", "country": "CA", "postalCode": "H1Y3P5", "twitter": "None", "instagram": "None", "facebook": "None", "youtube": "None", "website": "None", "summary": "None", "logo": "None", "latitude": 45.5466847904381, "longitude": -73.56108345221911}, "119017192RR0001": {"name": "LES PETITES SOEURS DE L'ASSOMPTION", "designationCode": "C", "categoryCode": "46", "address": "5655 RUE DE SALABERRY OUEST   BUREAU 4D", "city": "MONTREAL", "province": "QC", "country": "CA", "postalCode": "H4J1J5", "twitter": "None", "instagram": "None", "facebook": "None", "youtube": "None", "website": "None", "summary": "None", "logo": "None", "latitude": 45.528873699753234, "longitude": -73.71145253699511}, "119017184RR0001": {"name": "LES PETITES SOEURS DE LA SAINTE-FAMILLE", "designationCode": "C", "categoryCode": "46", "address": "1820, RUE GALT OUEST", "city": "SHERBROOKE", "province": "QC", "country": "CA", "postalCode": "J1K1H9", "twitter": "None", "instagram": "None", "facebook": "None", "youtube": "None", "website": "None", "summary": "None", "logo": "None", "latitude": 45.386774648475146, "longitude": -71.9172799320736}, "119017218RR0001": {"name": "LES PETITS BALLETS", "designationCode": "C", "categoryCode": "22", "address": "11-35 STAFFORD RD", "city": "NEPEAN", "province": "ON", "country": "CA", "postalCode": "K2H8V8", "twitter": "None", "instagram": "None", "facebook": "None", "youtube": "None", "website": "None", "summary": "None", "logo": "None", "latitude": 45.329087005222796, "longitude": -75.82228283524746}, "868316373RR0001": {"name": "LES PETITS CHANTEURS DE CHARLESBOURG", "designationCode": "C", "categoryCode": "22", "address": "650, AV. DU BOURG-ROYAL", "city": "QUEBEC", "province": "QC", "country": "CA", "postalCode": "G2L1M8", "twitter": "None", "instagram": "None", "facebook": "None", "youtube": "None", "website": "None", "summary": "None", "logo": "None", "latitude": 46.876831175976605, "longitude": -71.24378719813629}, "119017234RR0001": {"name": "LES PETITS CHANTEURS DE MONT-ROYAL", "designationCode": "C", "categoryCode": "22", "address": "4300 CH QUEEN-MARY", "city": "MONTREAL", "province": "QC", "country": "CA", "postalCode": "H3V1H6", "twitter": "None", "instagram": "None", "facebook": "None", "youtube": "None", "website": "None", "summary": "None", "logo": "None", "latitude": 45.49188530082546, "longitude": -73.62180987613304}}