{"119229177RR0001": {"name": "THE CRYPTIC RITE CHARITABLE FOUNDATION INC.", "designationCode": "C", "categoryCode": "11", "address": "2108 GARRISON GATE", "city": "SARNIA", "province": "ON", "country": "CA", "postalCode": "N7X1H7", "twitter": "None", "instagram": "None", "facebook": "None", "youtube": "None", "website": "None", "summary": "None", "logo": "None", "latitude": 43.02257208133754, "longitude": -82.29850018604684}, "852864479RR0001": {"name": "THE CRYSTAL GALA FOUNDATION", "designationCode": "A", "categoryCode": "03", "address": "32575 SIMON AVENUE", "city": "ABBOTSFORD", "province": "BC", "country": "CA", "postalCode": "V2T4W6", "twitter": "None", "instagram": "None", "facebook": "None", "youtube": "None", "website": "None", "summary": "None", "logo": "None", "latitude": 49.05339944214889, "longitude": -122.32208155689884}, "898884119RR0001": {"name": "THE CUMBA CHARITABLE FOUNDATION", "designationCode": "B", "categoryCode": "03", "address": "332 AYLMER STREET N           PO BOX 1146", "city": "PETERBOROUGH", "province": "ON", "country": "CA", "postalCode": "K9J7H4", "twitter": "None", "instagram": "None", "facebook": "None", "youtube": "None", "website": "None", "summary": "None", "logo": "None", "latitude": 44.30324739674317, "longitude": -78.32313205383127}, "132401332RR0001": {"name": "THE CUMBERLAND GEOLOGICAL SOCIETY", "designationCode": "C", "categoryCode": "50", "address": "P.O. BOX 640", "city": "PARRSBORO", "province": "NS", "country": "CA", "postalCode": "B0M1S0", "twitter": "None", "instagram": "None", "facebook": "None", "youtube": "None", "website": "None", "summary": "None", "logo": "None", "latitude": 45.385971000000055, "longitude": -64.25530099999993}, "886868249RR0001": {"name": "THE CURRAHEE MILITARY MUSEUM INC", "designationCode": "C", "categoryCode": "50", "address": "BOX 729", "city": "VIRDEN", "province": "MB", "country": "CA", "postalCode": "R0M2C0", "twitter": "None", "instagram": "None", "facebook": "None", "youtube": "None", "website": "None", "summary": "None", "logo": "None", "latitude": 49.85688000000005, "longitude": -100.92262999999997}, "119229243RR0001": {"name": "THE CURTAIN CLUB", "designationCode": "C", "categoryCode": "22", "address": "400 NEWKIRK RD", "city": "RICHMOND HILL", "province": "ON", "country": "CA", "postalCode": "L4C3G7", "twitter": "None", "instagram": "None", "facebook": "None", "youtube": "None", "website": "None", "summary": "None", "logo": "None", "latitude": 43.89094585042401, "longitude": -79.43166326565267}, "105206890RR0001": {"name": "THE CY AND EMERALD KEYES CHARITABLE FOUNDATION", "designationCode": "C", "categoryCode": "21", "address": "1333 WEST BROADWAY            10TH FLOOR", "city": "VANCOUVER", "province": "BC", "country": "CA", "postalCode": "V6H4C1", "twitter": "None", "instagram": "None", "facebook": "None", "youtube": "None", "website": "None", "summary": "None", "logo": "None", "latitude": 49.2636048443685, "longitude": -123.13446441433003}, "119229268RR0001": {"name": "THE CYPIN CHARITABLE FOUNDATION", "designationCode": "B", "categoryCode": "03", "address": "227 CARMICHAEL AVENUE", "city": "TORONTO", "province": "ON", "country": "CA", "postalCode": "M2M2X5", "twitter": "None", "instagram": "None", "facebook": "None", "youtube": "None", "website": "None", "summary": "None", "logo": "None", "latitude": 43.73508978377298, "longitude": -79.4315047636621}, "891364366RR0001": {"name": "THE CYRIL & DOROTHY JOEL & JILL REITMAN FAMILY FOUNDATION", "designationCode": "B", "categoryCode": "05", "address": "22 ST. CLAIR AVENUE EAST      SUITE 1601", "city": "TORONTO", "province": "ON", "country": "CA", "postalCode": "M4T2S3", "twitter": "None", "instagram": "None", "facebook": "None", "youtube": "None", "website": "None", "summary": "None", "logo": "None", "latitude": 43.68832509965939, "longitude": -79.39305889967677}, "895578375RR0001": {"name": "THE D. SPIGELMAN CHARITABLE FOUNDATION", "designationCode": "B", "categoryCode": "03", "address": "3625 DUFFERIN ST STE 150", "city": "TORONTO", "province": "ON", "country": "CA", "postalCode": "M3K1N4", "twitter": "None", "instagram": "None", "facebook": "None", "youtube": "None", "website": "None", "summary": "None", "logo": "None", "latitude": 43.73100228365742, "longitude": -79.458586237954}, "860988179RR0001": {"name": "THE D.H. GORDON FOUNDATION", "designationCode": "B", "categoryCode": "03", "address": "130 KING STREET WEST, 20TH FLOBOX 430, STN FIRST CANADIAN PL", "city": "TORONTO", "province": "ON", "country": "CA", "postalCode": "M5X1K1", "twitter": "None", "instagram": "None", "facebook": "None", "youtube": "None", "website": "None", "summary": "None", "logo": "None", "latitude": 43.64868300000006, "longitude": -79.38544399999994}, "889300844RR0001": {"name": "THE DAEBEL FOUNDATION", "designationCode": "B", "categoryCode": "43", "address": "55 PROSPECT STREET", "city": "NEWMARKET", "province": "ON", "country": "CA", "postalCode": "L3Y3T1", "twitter": "None", "instagram": "None", "facebook": "None", "youtube": "None", "website": "None", "summary": "None", "logo": "None", "latitude": 44.05864795420966, "longitude": -79.45368580013296}, "824602676RR0001": {"name": "THE DALAI LAMA CENTER FOR PEACE AND EDUCATION", "designationCode": "C", "categoryCode": "21", "address": "PO BOX 3662                   STATION TERMINAL", "city": "VANCOUVER", "province": "BC", "country": "CA", "postalCode": "V6B3Y8", "twitter": "None", "instagram": "None", "facebook": "None", "youtube": "None", "website": "None", "summary": "None", "logo": "None", "latitude": 49.28024400000005, "longitude": -123.11294749999993}, "811767565RR0001": {"name": "THE DALE MINISTRIES", "designationCode": "C", "categoryCode": "31", "address": "PO BOX 94, STATION C", "city": "TORONTO", "province": "ON", "country": "CA", "postalCode": "M6J3M7", "twitter": "None", "instagram": "None", "facebook": "None", "youtube": "None", "website": "None", "summary": "None", "logo": "None", "latitude": 43.64854800000006, "longitude": -79.41777199999993}, "891543993RR0001": {"name": "THE DALESVILLE PUBLIC CEMETERY", "designationCode": "C", "categoryCode": "59", "address": "1162 ROUTE DU NORD", "city": "BROWNSBURG-CHATHAM", "province": "QC", "country": "CA", "postalCode": "J8G1E5", "twitter": "None", "instagram": "None", "facebook": "None", "youtube": "None", "website": "None", "summary": "None", "logo": "None", "latitude": 45.714623699627595, "longitude": -74.44043320923974}, "891243545RR0001": {"name": "THE DALGLISH FAMILY FOUNDATION", "designationCode": "B", "categoryCode": "03", "address": "35 BINSCARTH ROAD", "city": "TORONTO", "province": "ON", "country": "CA", "postalCode": "M4W1Y3", "twitter": "None", "instagram": "None", "facebook": "None", "youtube": "None", "website": "None", "summary": "None", "logo": "None", "latitude": 43.68297300000006, "longitude": -79.36932499999993}, "119229318RR0001": {"name": "THE DALHOUSIE MEDICAL RESEARCH FOUNDATION", "designationCode": "A", "categoryCode": "20", "address": "1-A1 SIR CHARLES TUPPER MEDICA5850 COLLEGE ST. PO BOX 15000", "city": "HALIFAX", "province": "NS", "country": "CA", "postalCode": "B3H4R2", "twitter": "None", "instagram": "None", "facebook": "None", "youtube": "None", "website": "None", "summary": "None", "logo": "None", "latitude": 44.64017204935802, "longitude": -63.58320244356821}, "870371341RR0001": {"name": "THE DALY FOUNDATION", "designationCode": "A", "categoryCode": "03", "address": "12 MONTCREST BLVD", "city": "TORONTO", "province": "ON", "country": "CA", "postalCode": "M4K1J7", "twitter": "None", "instagram": "None", "facebook": "None", "youtube": "None", "website": "None", "summary": "None", "logo": "None", "latitude": 43.67307912129948, "longitude": -79.35693654607878}, "859068926RR0001": {"name": "THE DAN SNYDER MEMORIAL FOUNDATION", "designationCode": "C", "categoryCode": "56", "address": "525 BEECHWOOD DRIVE - UNIT 28", "city": "WATERLOO", "province": "ON", "country": "CA", "postalCode": "N2T2G7", "twitter": "None", "instagram": "None", "facebook": "None", "youtube": "None", "website": "None", "summary": "None", "logo": "None", "latitude": 43.45095020731154, "longitude": -80.56172851936107}, "868931106RR0001": {"name": "THE DAN-HYTMAN FAMILY FOUNDATION", "designationCode": "B", "categoryCode": "03", "address": "1300 - 5255 YONGE ST", "city": "NORTH YORK", "province": "ON", "country": "CA", "postalCode": "M2N6P4", "twitter": "None", "instagram": "None", "facebook": "None", "youtube": "None", "website": "None", "summary": "None", "logo": "None", "latitude": 43.77202105635056, "longitude": -79.41357454711799}, "890415193RR0001": {"name": "THE DANA CHARITABLE FOUNDATION", "designationCode": "B", "categoryCode": "45", "address": "32 BROOKVIEW DRIVE", "city": "TORONTO", "province": "ON", "country": "CA", "postalCode": "M6A2K2", "twitter": "None", "instagram": "None", "facebook": "None", "youtube": "None", "website": "None", "summary": "None", "logo": "None", "latitude": 43.719924269490505, "longitude": -79.43668020220431}, "894975663RR0001": {"name": "THE DANCE FOUNDATION", "designationCode": "A", "categoryCode": "22", "address": "677 DAVIE ST                  6TH FLOOR", "city": "VANCOUVER", "province": "BC", "country": "CA", "postalCode": "V6B2G6", "twitter": "None", "instagram": "None", "facebook": "None", "youtube": "None", "website": "None", "summary": "None", "logo": "None", "latitude": 49.27699514960467, "longitude": -123.12586593698433}, "869390542RR0001": {"name": "THE DANCING ON THE EDGE FESTIVAL SOCIETY", "designationCode": "C", "categoryCode": "22", "address": "280 CORDOVA ST E", "city": "VANCOUVER", "province": "BC", "country": "CA", "postalCode": "V6A1L3", "twitter": "None", "instagram": "None", "facebook": "None", "youtube": "None", "website": "None", "summary": "None", "logo": "None", "latitude": 49.28221651399403, "longitude": -123.09805222162271}, "119229326RR0001": {"name": "THE DANIEL AND VERA RUBINSTEIN CHARITABLE FOUNDATION", "designationCode": "B", "categoryCode": "03", "address": "5400 YONGE ST SUITE 301", "city": "TORONTO", "province": "ON", "country": "CA", "postalCode": "M2N5R5", "twitter": "None", "instagram": "None", "facebook": "None", "youtube": "None", "website": "None", "summary": "None", "logo": "None", "latitude": 43.77470856841135, "longitude": -79.4143287951986}, "894178391RR0001": {"name": "THE DANIEL KLEMKE FOUNDATION", "designationCode": "B", "categoryCode": "45", "address": "25 ESTATE CRES", "city": "ST ALBERT", "province": "AB", "country": "CA", "postalCode": "T8N5X1", "twitter": "None", "instagram": "None", "facebook": "None", "youtube": "None", "website": "None", "summary": "None", "logo": "None", "latitude": 53.662258605026445, "longitude": -113.6239166688788}, "118882117RR0001": {"name": "THE DANISH LUTHERAN CHURCH OF VANCOUVER, B.C.", "designationCode": "C", "categoryCode": "32", "address": "6010 KINCAID ST", "city": "BURNABY", "province": "BC", "country": "CA", "postalCode": "V5G4N3", "twitter": "None", "instagram": "None", "facebook": "None", "youtube": "None", "website": "None", "summary": "None", "logo": "None", "latitude": 49.24830047013695, "longitude": -122.97658410935426}, "863705729RR0001": {"name": "THE DARE TO DREAM FOUNDATION", "designationCode": "C", "categoryCode": "22", "address": "4941 TWEDLE AVE", "city": "TERRACE", "province": "BC", "country": "CA", "postalCode": "V8G5N5", "twitter": "None", "instagram": "None", "facebook": "None", "youtube": "None", "website": "None", "summary": "None", "logo": "None", "latitude": 54.531540484563685, "longitude": -128.61007453566276}, "888972593RR0001": {"name": "THE DARTMOUTH GENERAL HOSPITAL AUXILIARY", "designationCode": "C", "categoryCode": "19", "address": "ROOM 2204, LEVEL II           325 PLEASANT STREET", "city": "DARTMOUTH", "province": "NS", "country": "CA", "postalCode": "B2Y4G8", "twitter": "None", "instagram": "None", "facebook": "None", "youtube": "None", "website": "None", "summary": "None", "logo": "None", "latitude": 44.6536658637542, "longitude": -63.54856487445961}, "887886646RR0001": {"name": "THE DARTMOUTH PIPE AND DRUM BAND ASSOCIATION", "designationCode": "C", "categoryCode": "23", "address": "5 JUNIPER WAY", "city": "HUBLEY", "province": "NS", "country": "CA", "postalCode": "B3Z1A7", "twitter": "None", "instagram": "None", "facebook": "None", "youtube": "None", "website": "None", "summary": "None", "logo": "None", "latitude": 44.66554669167274, "longitude": -63.7879094721275}, "871177366RR0001": {"name": "THE DARTT CEMETERY", "designationCode": "C", "categoryCode": "59", "address": "138 TAYLOR DR", "city": "WINDSOR JUNCTION", "province": "NS", "country": "CA", "postalCode": "B2T1L7", "twitter": "None", "instagram": "None", "facebook": "None", "youtube": "None", "website": "None", "summary": "None", "logo": "None", "latitude": 44.7974891603674, "longitude": -63.653050649403106}, "891125742RR0001": {"name": "THE DAUPHIN GENERAL HOSPITAL FOUNDATION", "designationCode": "A", "categoryCode": "13", "address": "625-3RD ST. S.W.", "city": "DAUPHIN", "province": "MB", "country": "CA", "postalCode": "R7N1R7", "twitter": "None", "instagram": "None", "facebook": "None", "youtube": "None", "website": "None", "summary": "None", "logo": "None", "latitude": 51.14777823149045, "longitude": -100.06099412005874}, "853399160RR0001": {"name": "THE DAVE AND ANN TRICK FAMILY FOUNDATION", "designationCode": "B", "categoryCode": "03", "address": "PO BOX 60", "city": "RIDEAU FERRY", "province": "ON", "country": "CA", "postalCode": "K0G1W0", "twitter": "None", "instagram": "None", "facebook": "None", "youtube": "None", "website": "None", "summary": "None", "logo": "None", "latitude": 44.84096833470802, "longitude": -76.13176700206202}, "870838562RR0001": {"name": "THE DAVID AND FAYE SOBEY FOUNDATION", "designationCode": "B", "categoryCode": "03", "address": "115 KING STREET", "city": "STELLARTON", "province": "NS", "country": "CA", "postalCode": "B0K1S0", "twitter": "None", "instagram": "None", "facebook": "None", "youtube": "None", "website": "None", "summary": "None", "logo": "None", "latitude": 45.56046585345377, "longitude": -62.65718627710788}, "888595642RR0001": {"name": "THE DAVID AND FRANCINE SHIELDS FAMILY CHARITABLE FOUNDATION", "designationCode": "B", "categoryCode": "13", "address": "456 RUSSELL HILL ROAD", "city": "TORONTO", "province": "ON", "country": "CA", "postalCode": "M5P2S5", "twitter": "None", "instagram": "None", "facebook": "None", "youtube": "None", "website": "None", "summary": "None", "logo": "None", "latitude": 43.695522172975515, "longitude": -79.41224243288671}, "119229425RR0001": {"name": "THE DAVID AND LUBA SMUSCHKOWITZ FAMILY CHARITABLE FOUNDATION", "designationCode": "B", "categoryCode": "03", "address": "2104 HIGHWAY #7 UNIT 28", "city": "CONCORD", "province": "ON", "country": "CA", "postalCode": "L4K2S9", "twitter": "None", "instagram": "None", "facebook": "None", "youtube": "None", "website": "None", "summary": "None", "logo": "None", "latitude": 43.80147185480967, "longitude": -79.49480523650256}, "835565920RR0001": {"name": "THE DAVID AND PATRICIA MORTON FAMILY FOUNDATION", "designationCode": "B", "categoryCode": "05", "address": "39 - 300 FRANMOR DRIVE", "city": "PETERBOROUGH", "province": "ON", "country": "CA", "postalCode": "K9H7R2", "twitter": "None", "instagram": "None", "facebook": "None", "youtube": "None", "website": "None", "summary": "None", "logo": "None", "latitude": 44.324557292663044, "longitude": -78.30671680585979}, "871790531RR0001": {"name": "THE DAVID AND ROSE ZIVOT FAMILY FOUNDATION", "designationCode": "B", "categoryCode": "99", "address": "405, 5920 - 1A STREET S.W.", "city": "CALGARY", "province": "AB", "country": "CA", "postalCode": "T2H0G3", "twitter": "None", "instagram": "None", "facebook": "None", "youtube": "None", "website": "None", "summary": "None", "logo": "None", "latitude": 51.00018319900167, "longitude": -114.06761737298771}, "858539521RR0001": {"name": "THE DAVID AND RYFKA D'ANCONA CHARITABLE FOUNDATION", "designationCode": "B", "categoryCode": "05", "address": "50 BRISBANE ROAD", "city": "TORONTO", "province": "ON", "country": "CA", "postalCode": "M3J2K2", "twitter": "None", "instagram": "None", "facebook": "None", "youtube": "None", "website": "None", "summary": "None", "logo": "None", "latitude": 43.77196112245333, "longitude": -79.47367805386907}, "892824160RR0001": {"name": "THE DAVID BLOOMFIELD FAMILY FOUNDATION", "designationCode": "B", "categoryCode": "53", "address": "80 BOUNDARY ROAD              P.O. BOX 1207", "city": "CORNWALL", "province": "ON", "country": "CA", "postalCode": "K6H6M1", "twitter": "None", "instagram": "None", "facebook": "None", "youtube": "None", "website": "None", "summary": "None", "logo": "None", "latitude": 45.0342870646891, "longitude": -74.66941540031193}, "870069903RR0001": {"name": "THE DAVID BURNETT SCHOLARSHIP FUND", "designationCode": "B", "categoryCode": "21", "address": "BOX 66", "city": "SWIFT CURRENT", "province": "SK", "country": "CA", "postalCode": "S9H3V5", "twitter": "None", "instagram": "None", "facebook": "None", "youtube": "None", "website": "None", "summary": "None", "logo": "None", "latitude": 50.292744000000056, "longitude": -107.80056349999994}, "868697749RR0001": {"name": "THE DAVID CALDWELL MILLER FUND", "designationCode": "B", "categoryCode": "25", "address": "(THE CANADA TRUST CO.)        PO BOX 10085", "city": "VANCOUVER", "province": "BC", "country": "CA", "postalCode": "V7Y1B6", "twitter": "None", "instagram": "None", "facebook": "None", "youtube": "None", "website": "None", "summary": "None", "logo": "None", "latitude": 49.28294993392596, "longitude": -123.11892994113924}, "851435032RR0001": {"name": "THE DAVID H. LAIDLEY FOUNDATION/FONDATION DAVID H. LAIDLEY", "designationCode": "B", "categoryCode": "03", "address": "359 AV METCALFE", "city": "WESTMOUNT", "province": "QC", "country": "CA", "postalCode": "H3Z2J2", "twitter": "None", "instagram": "None", "facebook": "None", "youtube": "None", "website": "None", "summary": "None", "logo": "None", "latitude": 45.483464261469074, "longitude": -73.59608026475864}, "119229466RR0001": {"name": "THE DAVID HOFSTEDTER FAMILY FOUNDATION", "designationCode": "B", "categoryCode": "03", "address": "3625 DUFFERIN ST, SUITE 500", "city": "TORONTO", "province": "ON", "country": "CA", "postalCode": "M3K1N4", "twitter": "None", "instagram": "None", "facebook": "None", "youtube": "None", "website": "None", "summary": "None", "logo": "None", "latitude": 43.73100228365742, "longitude": -79.458586237954}, "866890213RR0001": {"name": "THE DAVID KUTNER FAMILY FOUNDATION", "designationCode": "B", "categoryCode": "03", "address": "145 KING STREET WEST          SUITE 2200", "city": "TORONTO", "province": "ON", "country": "CA", "postalCode": "M5H4G2", "twitter": "None", "instagram": "None", "facebook": "None", "youtube": "None", "website": "None", "summary": "None", "logo": "None", "latitude": 43.64778584537503, "longitude": -79.38401752663174}, "892977000RR0001": {"name": "THE DAVID LOEB FOUNDATION", "designationCode": "B", "categoryCode": "03", "address": "185 SOMERSET STREET WEST      SUITE 200", "city": "OTTAWA", "province": "ON", "country": "CA", "postalCode": "K2P0J2", "twitter": "None", "instagram": "None", "facebook": "None", "youtube": "None", "website": "None", "summary": "None", "logo": "None", "latitude": 45.41776946906909, "longitude": -75.69065171830448}, "127756716RR0001": {"name": "THE DAVID SUZUKI FOUNDATION", "designationCode": "C", "categoryCode": "52", "address": "219-2211 4TH AVE W", "city": "VANCOUVER", "province": "BC", "country": "CA", "postalCode": "V6K4S2", "twitter": "None", "instagram": "None", "facebook": "None", "youtube": "None", "website": "None", "summary": "None", "logo": "None", "latitude": 49.2682522609326, "longitude": -123.15544758457769}, "132150798RR0001": {"name": "THE DAVIES CHARITABLE FOUNDATION INC.", "designationCode": "B", "categoryCode": "55", "address": "245 ALWINGTON PLACE", "city": "KINGSTON", "province": "ON", "country": "CA", "postalCode": "K7L4P9", "twitter": "None", "instagram": "None", "facebook": "None", "youtube": "None", "website": "None", "summary": "None", "logo": "None", "latitude": 44.22042598306312, "longitude": -76.51093922505649}, "859312183RR0001": {"name": "THE DAVWELL FOUNDATION", "designationCode": "A", "categoryCode": "03", "address": "4576 YONGE STREET             SUITE 700", "city": "NORTH YORK", "province": "ON", "country": "CA", "postalCode": "M2N6N4", "twitter": "None", "instagram": "None", "facebook": "None", "youtube": "None", "website": "None", "summary": "None", "logo": "None", "latitude": 43.75643698531664, "longitude": -79.40976312757434}, "882344914RR0001": {"name": "THE DAWLISH FUND", "designationCode": "B", "categoryCode": "03", "address": "15 BIRCH AVE", "city": "TORONTO", "province": "ON", "country": "CA", "postalCode": "M4V1E1", "twitter": "None", "instagram": "None", "facebook": "None", "youtube": "None", "website": "None", "summary": "None", "logo": "None", "latitude": 43.68123782763008, "longitude": -79.3920747053783}, "887721264RR0001": {"name": "THE DAWN LAND MEMORIAL CHILDREN'S HEALTH CARE FOUNDATION", "designationCode": "C", "categoryCode": "11", "address": "17905 98A AVENUE NW", "city": "EDMONTON", "province": "AB", "country": "CA", "postalCode": "T5T3L3", "twitter": "None", "instagram": "None", "facebook": "None", "youtube": "None", "website": "None", "summary": "None", "logo": "None", "latitude": 53.534844525102535, "longitude": -113.629284}, "888825395RR0001": {"name": "THE DAY CARE SOCIETY OF BANFF", "designationCode": "C", "categoryCode": "01", "address": "BOX 1454", "city": "BANFF", "province": "AB", "country": "CA", "postalCode": "T1L1B4", "twitter": "None", "instagram": "None", "facebook": "None", "youtube": "None", "website": "None", "summary": "None", "logo": "None", "latitude": 51.17577900000006, "longitude": -115.57274299999993}, "886113497RR0001": {"name": "THE DAY OF PENTECOST LAST CALL", "designationCode": "C", "categoryCode": "39", "address": "7 MOCCASIN TRAIL", "city": "TORONTO", "province": "ON", "country": "CA", "postalCode": "M3C1Y5", "twitter": "None", "instagram": "None", "facebook": "None", "youtube": "None", "website": "None", "summary": "None", "logo": "None", "latitude": 43.73211252013952, "longitude": -79.33991350331821}, "119229557RR0001": {"name": "THE DAYSLAND & DISTRICT AGRICULTURAL SOCIETY", "designationCode": "C", "categoryCode": "59", "address": "PO BOX 309", "city": "DAYSLAND", "province": "AB", "country": "CA", "postalCode": "T0B1A0", "twitter": "None", "instagram": "None", "facebook": "None", "youtube": "None", "website": "None", "summary": "None", "logo": "None", "latitude": 52.86684000000008, "longitude": -112.25183999999996}, "119229599RR0001": {"name": "THE DE BOER FOUNDATION", "designationCode": "B", "categoryCode": "05", "address": "20 DE BOERS DRIVE             SUITE 205", "city": "TORONTO", "province": "ON", "country": "CA", "postalCode": "M3J0H1", "twitter": "None", "instagram": "None", "facebook": "None", "youtube": "None", "website": "None", "summary": "None", "logo": "None", "latitude": 43.75150348326466, "longitude": -79.46549125714124}, "118964915RR0001": {"name": "THE DE VEBER INSTITUTE FOR BIOETHICS AND SOCIAL RESEARCH", "designationCode": "C", "categoryCode": "21", "address": "215-415 OAKDALE RD", "city": "TORONTO", "province": "ON", "country": "CA", "postalCode": "M3N1W7", "twitter": "None", "instagram": "None", "facebook": "None", "youtube": "None", "website": "None", "summary": "None", "logo": "None", "latitude": 43.749175735501176, "longitude": -79.52695388784711}, "860995497RR0001": {"name": "THE DEAN AND CHAPTER OF CATHEDRAL CHURCH OF ALL SAINTS, HALIFAX", "designationCode": "A", "categoryCode": "43", "address": "1340 CATHEDRAL LANE", "city": "HALIFAX", "province": "NS", "country": "CA", "postalCode": "B3H2Z1", "twitter": "None", "instagram": "None", "facebook": "None", "youtube": "None", "website": "None", "summary": "None", "logo": "None", "latitude": 44.63498400000006, "longitude": -63.584094499999935}, "119229565RR0001": {"name": "THE DEANNA PARKER MEMORIAL SCHOLARSHIP FUND", "designationCode": "C", "categoryCode": "21", "address": "9 BELMONT STREET", "city": "AMHERST", "province": "NS", "country": "CA", "postalCode": "B4H2E3", "twitter": "None", "instagram": "None", "facebook": "None", "youtube": "None", "website": "None", "summary": "None", "logo": "None", "latitude": 45.831490345259446, "longitude": -64.2060967174391}, "119229581RR0001": {"name": "THE DEBERT FIRE BRIGADE", "designationCode": "C", "categoryCode": "59", "address": "BOX 267", "city": "DEBERT", "province": "NS", "country": "CA", "postalCode": "B0M1G0", "twitter": "None", "instagram": "None", "facebook": "None", "youtube": "None", "website": "None", "summary": "None", "logo": "None", "latitude": 45.382157484829, "longitude": -63.52751731589241}, "119229607RR0001": {"name": "THE DEBOLT PIONEER CENTRE", "designationCode": "C", "categoryCode": "56", "address": "PO BOX 503", "city": "DEBOLT", "province": "AB", "country": "CA", "postalCode": "T0H0G0", "twitter": "None", "instagram": "None", "facebook": "None", "youtube": "None", "website": "None", "summary": "None", "logo": "None", "latitude": 55.21796000000006, "longitude": -118.02602999999999}, "862079258RR0001": {"name": "THE DEEP RIVER AND DISTRICT COMMUNITY FOUNDATION", "designationCode": "A", "categoryCode": "03", "address": "PO BOX 1171", "city": "DEEP RIVER", "province": "ON", "country": "CA", "postalCode": "K0J1P0", "twitter": "None", "instagram": "None", "facebook": "None", "youtube": "None", "website": "None", "summary": "None", "logo": "None", "latitude": 46.10094229916361, "longitude": -77.48685137671198}, "865273155RR0001": {"name": "THE DEEP RIVER AND DISTRICT HOSPITAL FOUNDATION", "designationCode": "A", "categoryCode": "03", "address": "117 BANTING DRIVE", "city": "DEEP RIVER", "province": "ON", "country": "CA", "postalCode": "K0J1P0", "twitter": "None", "instagram": "None", "facebook": "None", "youtube": "None", "website": "None", "summary": "None", "logo": "None", "latitude": 46.09097384050365, "longitude": -77.47638320866473}, "119229615RR0001": {"name": "THE DEEP RIVER SCIENCE ACADEMY", "designationCode": "C", "categoryCode": "20", "address": "1249 VICTORIA ST", "city": "PETAWAWA", "province": "ON", "country": "CA", "postalCode": "K8H2E8", "twitter": "None", "instagram": "None", "facebook": "None", "youtube": "None", "website": "None", "summary": "None", "logo": "None", "latitude": 45.901875975170846, "longitude": -77.26813492960771}, "892216615RR0001": {"name": "THE DEEPAK BINNING FOUNDATION", "designationCode": "C", "categoryCode": "21", "address": "2500 MCLEOD AVENUE", "city": "RICHMOND", "province": "BC", "country": "CA", "postalCode": "V6X2N1", "twitter": "None", "instagram": "None", "facebook": "None", "youtube": "None", "website": "None", "summary": "None", "logo": "None", "latitude": 49.192578, "longitude": -123.11086091779708}, "108079658RR0001": {"name": "THE DEER RUN COMMUNITY ASSOCIATION SOCIETY", "designationCode": "C", "categoryCode": "59", "address": "2223 146TH AVE SE", "city": "CALGARY", "province": "AB", "country": "CA", "postalCode": "T2J6P8", "twitter": "None", "instagram": "None", "facebook": "None", "youtube": "None", "website": "None", "summary": "None", "logo": "None", "latitude": 50.922267871586335, "longitude": -114.00895988350386}, "871944336RR0001": {"name": "THE DEKKER FAMILY \"SHALOM\" CHARITABLE FOUNDATION", "designationCode": "B", "categoryCode": "23", "address": "387 HERITAGE DRIVE", "city": "SHERWOOD PARK", "province": "AB", "country": "CA", "postalCode": "T8A6A4", "twitter": "None", "instagram": "None", "facebook": "None", "youtube": "None", "website": "None", "summary": "None", "logo": "None", "latitude": 53.53275192587585, "longitude": -113.2499500288821}, "890727647RR0001": {"name": "THE DELANEY FAMILY FOUNDATION", "designationCode": "B", "categoryCode": "03", "address": "SUITE 4410 66 WELLINGTON ST W", "city": "TORONTO", "province": "ON", "country": "CA", "postalCode": "M5K1H1", "twitter": "None", "instagram": "None", "facebook": "None", "youtube": "None", "website": "None", "summary": "None", "logo": "None", "latitude": 43.647055248975605, "longitude": -79.38109901041601}, "137180634RR0001": {"name": "THE DELIA AND DISTRICT AGRICULTURAL SOCIETY", "designationCode": "C", "categoryCode": "56", "address": "P. O. BOX 37", "city": "DELIA", "province": "AB", "country": "CA", "postalCode": "T0J0W0", "twitter": "None", "instagram": "None", "facebook": "None", "youtube": "None", "website": "None", "summary": "None", "logo": "None", "latitude": 51.63343000000003, "longitude": -112.38513999999998}, "893494252RR0001": {"name": "THE DELIVERANCE CENTRE INC.", "designationCode": "C", "categoryCode": "39", "address": "1831 SELKIRK AVE.", "city": "WINNIPEG", "province": "MB", "country": "CA", "postalCode": "R2R2A9", "twitter": "None", "instagram": "None", "facebook": "None", "youtube": "None", "website": "None", "summary": "None", "logo": "None", "latitude": 49.93124351543634, "longitude": -97.19955972300768}, "803710946RR0001": {"name": "THE DELIVERANCE EVANGELISTIC ASSOCIATION OF CANADA", "designationCode": "C", "categoryCode": "39", "address": "6 WESTWYN COURT", "city": "BRAMPTON", "province": "ON", "country": "CA", "postalCode": "L6T4T5", "twitter": "None", "instagram": "None", "facebook": "None", "youtube": "None", "website": "None", "summary": "None", "logo": "None", "latitude": 43.68626441274719, "longitude": -79.69472610029457}, "886393362RR0001": {"name": "THE DELPHINE FOUNDATION", "designationCode": "B", "categoryCode": "43", "address": "101 THORNCLIFFE PARK DRIVE", "city": "TORONTO", "province": "ON", "country": "CA", "postalCode": "M4H1M2", "twitter": "None", "instagram": "None", "facebook": "None", "youtube": "None", "website": "None", "summary": "None", "logo": "None", "latitude": 43.70847745213221, "longitude": -79.34405100121208}, "890863996RR0001": {"name": "THE DELTA ALLIANCE FOR WELLNESS AND NETWORKING SOCIETY", "designationCode": "C", "categoryCode": "09", "address": "11715 72 AVE", "city": "DELTA", "province": "BC", "country": "CA", "postalCode": "V4E1Z2", "twitter": "None", "instagram": "None", "facebook": "None", "youtube": "None", "website": "None", "summary": "None", "logo": "None", "latitude": 49.13402952986305, "longitude": -122.89820336081135}, "138434998RR0001": {"name": "THE DELTA CHI BETA EARLY CHILDHOOD CENTRE (WINDSOR) INC.", "designationCode": "C", "categoryCode": "01", "address": "1350 OUELLETTE AVE", "city": "WINDSOR", "province": "ON", "country": "CA", "postalCode": "N8X1J8", "twitter": "None", "instagram": "None", "facebook": "None", "youtube": "None", "website": "None", "summary": "None", "logo": "None", "latitude": 42.30310118541166, "longitude": -83.0297056565009}, "135667905RR0001": {"name": "THE DELTA MILL SOCIETY", "designationCode": "C", "categoryCode": "52", "address": "PO BOX 172", "city": "DELTA", "province": "ON", "country": "CA", "postalCode": "K0E1G0", "twitter": "None", "instagram": "None", "facebook": "None", "youtube": "None", "website": "None", "summary": "None", "logo": "None", "latitude": 44.651154600171786, "longitude": -76.10330140930145}, "888343464RR0001": {"name": "THE DEMETER PROJECT", "designationCode": "C", "categoryCode": "21", "address": "1450 SKI CLUB ROAD", "city": "NORTH BAY", "province": "ON", "country": "CA", "postalCode": "P1B8E6", "twitter": "None", "instagram": "None", "facebook": "None", "youtube": "None", "website": "None", "summary": "None", "logo": "None", "latitude": 46.32890142050879, "longitude": -79.4183075836748}, "857724009RR0001": {"name": "THE DENA KAYEH INSTITUTE", "designationCode": "C", "categoryCode": "21", "address": "LIARD NO.3                    PO BOX 9", "city": "LOWER POST", "province": "BC", "country": "CA", "postalCode": "V0C1W0", "twitter": "None", "instagram": "None", "facebook": "None", "youtube": "None", "website": "None", "summary": "None", "logo": "None", "latitude": 59.92568000000006, "longitude": -128.49512}, "119229748RR0001": {"name": "THE DENIS CRESSEY MARINE ENGINEERING SCHOLARSHIP TRUST", "designationCode": "C", "categoryCode": "21", "address": "2724 STANDISH DRIVE", "city": "NORTH VANCOUVER", "province": "BC", "country": "CA", "postalCode": "V7H1N1", "twitter": "None", "instagram": "None", "facebook": "None", "youtube": "None", "website": "None", "summary": "None", "logo": "None", "latitude": 49.32523745325739, "longitude": -122.99830327837729}, "819030545RR0001": {"name": "THE DENMAN ISLAND MEOW SOCIETY", "designationCode": "C", "categoryCode": "54", "address": "1935 LACON RD", "city": "DENMAN ISLAND", "province": "BC", "country": "CA", "postalCode": "V0R1T0", "twitter": "None", "instagram": "None", "facebook": "None", "youtube": "None", "website": "None", "summary": "None", "logo": "None", "latitude": 49.525601670699416, "longitude": -124.79941092589482}, "896726049RR0001": {"name": "THE DENNIS WALDMAN FOUNDATION FOR JEWISH EDUCATION", "designationCode": "C", "categoryCode": "21", "address": "4646 DUFFERIN STERET          SUITE 6", "city": "TORONTO", "province": "ON", "country": "CA", "postalCode": "M2N6K1", "twitter": "None", "instagram": "None", "facebook": "None", "youtube": "None", "website": "None", "summary": "None", "logo": "None", "latitude": 43.77430353759601, "longitude": -79.46824820881116}, "862235454RR0001": {"name": "THE DERICK BRENNINKMEYER CHARITABLE FOUNDATION", "designationCode": "B", "categoryCode": "03", "address": "1267 CORNWALL RD., SUITE 200", "city": "OAKVILLE", "province": "ON", "country": "CA", "postalCode": "L6J7T5", "twitter": "None", "instagram": "None", "facebook": "None", "youtube": "None", "website": "None", "summary": "None", "logo": "None", "latitude": 43.47179593340631, "longitude": -79.66655258064505}, "892195066RR0001": {"name": "THE DESCENDANTS AND FRIENDS OF HECLA ISLAND HERITAGE INC.", "designationCode": "C", "categoryCode": "50", "address": "PO BOX 144", "city": "POPLARFIELD", "province": "MB", "country": "CA", "postalCode": "R0C2N0", "twitter": "None", "instagram": "None", "facebook": "None", "youtube": "None", "website": "None", "summary": "None", "logo": "None", "latitude": 50.88993000000005, "longitude": -97.60404999999997}, "119229755RR0001": {"name": "THE DESNA UKRAINIAN DANCE COMPANY OF TORONTO", "designationCode": "C", "categoryCode": "22", "address": "PO BOX 18525 RPO RICHVIEW", "city": "ETOBICOKE", "province": "ON", "country": "CA", "postalCode": "M9R4C8", "twitter": "None", "instagram": "None", "facebook": "None", "youtube": "None", "website": "None", "summary": "None", "logo": "None", "latitude": 43.68453072428184, "longitude": -79.51674215274036}, "886486505RR0001": {"name": "THE DEVON YOUTH SOCIETY", "designationCode": "C", "categoryCode": "09", "address": "PO BOX 5375 STN MAIN", "city": "DEVON", "province": "AB", "country": "CA", "postalCode": "T9G1Y1", "twitter": "None", "instagram": "None", "facebook": "None", "youtube": "None", "website": "None", "summary": "None", "logo": "None", "latitude": 53.36364300000005, "longitude": -113.73021349999993}, "131189763RR0001": {"name": "THE DH GALES FAMILY CHARITABLE FOUNDATION OF TORONTO", "designationCode": "B", "categoryCode": "03", "address": "22 ST CLAIR AVE E             SUITE 1600", "city": "TORONTO", "province": "ON", "country": "CA", "postalCode": "M4T2S3", "twitter": "None", "instagram": "None", "facebook": "None", "youtube": "None", "website": "None", "summary": "None", "logo": "None", "latitude": 43.688336132408, "longitude": -79.39301839967676}, "119229797RR0001": {"name": "THE DIABETIC CHILDREN'S FOUNDATION-LA FONDATION POUR ENFANT DIABETIQUES", "designationCode": "A", "categoryCode": "13", "address": "306 ST-ZOTIQUE ST E           SUITE 100", "city": "MONTREAL", "province": "QC", "country": "CA", "postalCode": "H2S1L6", "twitter": "None", "instagram": "None", "facebook": "None", "youtube": "None", "website": "None", "summary": "None", "logo": "None", "latitude": 45.53457797723475, "longitude": -73.60932057395128}, "119229805RR0001": {"name": "THE DIANA STOTT MUSIC CHARITABLE TRUST", "designationCode": "B", "categoryCode": "25", "address": "380 WELLINGTON STREET         12TH FLOOR", "city": "LONDON", "province": "ON", "country": "CA", "postalCode": "N6A5B5", "twitter": "None", "instagram": "None", "facebook": "None", "youtube": "None", "website": "None", "summary": "None", "logo": "None", "latitude": 42.98403487844074, "longitude": -81.24475227780037}, "890553449RR0001": {"name": "THE DIANNE AND IRVING KIPNES FOUNDATION", "designationCode": "B", "categoryCode": "03", "address": "400-10508 82 AVE", "city": "EDMONTON", "province": "AB", "country": "CA", "postalCode": "T6E2A4", "twitter": "None", "instagram": "None", "facebook": "None", "youtube": "None", "website": "None", "summary": "None", "logo": "None", "latitude": 53.518105486005965, "longitude": -113.50096102553522}, "119267722RR0001": {"name": "THE DIFFERENCE OF ONE HUMANITARIAN FOUNDATION", "designationCode": "C", "categoryCode": "11", "address": "369 CAPRI AVE NW", "city": "CALGARY", "province": "AB", "country": "CA", "postalCode": "T2L0J5", "twitter": "None", "instagram": "None", "facebook": "None", "youtube": "None", "website": "None", "summary": "None", "logo": "None", "latitude": 51.09377347654224, "longitude": -114.1222930453863}, "118990092RR0001": {"name": "THE DIGBY GENERAL HOSPITAL AUXILIARY", "designationCode": "C", "categoryCode": "19", "address": "POST OFFICE BOX 820", "city": "DIGBY", "province": "NS", "country": "CA", "postalCode": "B0V1A0", "twitter": "None", "instagram": "None", "facebook": "None", "youtube": "None", "website": "None", "summary": "None", "logo": "None", "latitude": 44.39616000000005, "longitude": -66.20374249999993}, "889089967RR0001": {"name": "THE DILKE COMMUNITY MEMORIAL HALL CO-OPERATIVE ASSOCIATION LIMITED", "designationCode": "C", "categoryCode": "56", "address": "BOX 166", "city": "DILKE", "province": "SK", "country": "CA", "postalCode": "S0G1C0", "twitter": "None", "instagram": "None", "facebook": "None", "youtube": "None", "website": "None", "summary": "None", "logo": "None", "latitude": 50.86569000000003, "longitude": -105.25358999999997}, "891305781RR0001": {"name": "THE DINOSAUR VALLEY HERITAGE SOCIETY", "designationCode": "C", "categoryCode": "50", "address": "PO BOX 514", "city": "EAST COULEE", "province": "AB", "country": "CA", "postalCode": "T0J1B0", "twitter": "None", "instagram": "None", "facebook": "None", "youtube": "None", "website": "None", "summary": "None", "logo": "None", "latitude": 51.355710000000045, "longitude": -112.51505999999995}, "119229854RR0001": {"name": "THE DIOCESAN CHURCH SOCIETY OF THE ANGLICAN CATHOLIC CHURCH OF CANADA", "designationCode": "C", "categoryCode": "30", "address": "980 FALMOUTH RD.", "city": "VICTORIA", "province": "BC", "country": "CA", "postalCode": "V8X3A3", "twitter": "None", "instagram": "None", "facebook": "None", "youtube": "None", "website": "None", "summary": "None", "logo": "None", "latitude": 48.46135884430717, "longitude": -123.36499125339034}, "871848990RR0001": {"name": "THE DIOCESAN COLLEGE TRUST OF CANADA", "designationCode": "C", "categoryCode": "21", "address": "2728 YALE STREET", "city": "VANCOUVER", "province": "BC", "country": "CA", "postalCode": "V5K1C3", "twitter": "None", "instagram": "None", "facebook": "None", "youtube": "None", "website": "None", "summary": "None", "logo": "None", "latitude": 49.29067149567218, "longitude": -123.04844002553523}, "108094392RR0001": {"name": "THE DIOCESAN PASTORAL COUNCIL", "designationCode": "C", "categoryCode": "49", "address": "3665 BENVOULIN RD", "city": "KELOWNA", "province": "BC", "country": "CA", "postalCode": "V1W4M7", "twitter": "None", "instagram": "None", "facebook": "None", "youtube": "None", "website": "None", "summary": "None", "logo": "None", "latitude": 49.85056104631423, "longitude": -119.46776856721908}, "107020232RR0001": {"name": "THE DIOCESAN SYNOD OF CENTRAL NEWFOUNDLAND", "designationCode": "C", "categoryCode": "30", "address": "34 FRASER RD", "city": "GANDER", "province": "NL", "country": "CA", "postalCode": "A1V2E8", "twitter": "None", "instagram": "None", "facebook": "None", "youtube": "None", "website": "None", "summary": "None", "logo": "None", "latitude": 48.957731558168234, "longitude": -54.61424627785769}, "119229896RR0020": {"name": "THE DIOCESAN SYNOD OF EASTERN NEWFOUNDLAND AND LABRADOR", "designationCode": "C", "categoryCode": "30", "address": "19 KING'S BRIDGE ROAD", "city": "ST JOHN'S", "province": "NL", "country": "CA", "postalCode": "A1C3K4", "twitter": "None", "instagram": "None", "facebook": "None", "youtube": "None", "website": "None", "summary": "None", "logo": "None", "latitude": 47.57337344740036, "longitude": -52.70245849809542}, "130357197RR0001": {"name": "THE DIOCESAN SYNOD OF FREDERICTON", "designationCode": "C", "categoryCode": "30", "address": "115 CHURCH ST", "city": "FREDERICTON", "province": "NB", "country": "CA", "postalCode": "E3B4C8", "twitter": "None", "instagram": "None", "facebook": "None", "youtube": "None", "website": "None", "summary": "None", "logo": "None", "latitude": 45.957881461567275, "longitude": -66.63531666890746}, "119229920RR0005": {"name": "THE DIOCESAN SYNOD OF WESTERN NEWFOUNDLAND", "designationCode": "C", "categoryCode": "30", "address": "25 MAIN STREET", "city": "CORNER BROOK", "province": "NL", "country": "CA", "postalCode": "A2H1C2", "twitter": "None", "instagram": "None", "facebook": "None", "youtube": "None", "website": "None", "summary": "None", "logo": "None", "latitude": 48.9530620155519, "longitude": -57.94532613185971}, "864636832RR0001": {"name": "THE DIOCESE OF RICHMOND", "designationCode": "C", "categoryCode": "30", "address": "8631 SAUNDERS ROAD", "city": "RICHMOND", "province": "BC", "country": "CA", "postalCode": "V7A2A6", "twitter": "None", "instagram": "None", "facebook": "None", "youtube": "None", "website": "None", "summary": "None", "logo": "None", "latitude": 49.143674460470756, "longitude": -123.1276905}, "108079773RR0001": {"name": "THE DIOCESE OF RUPERT'S LAND", "designationCode": "C", "categoryCode": "30", "address": "935 NESBITT BAY", "city": "WINNIPEG", "province": "MB", "country": "CA", "postalCode": "R3T1W6", "twitter": "None", "instagram": "None", "facebook": "None", "youtube": "None", "website": "None", "summary": "None", "logo": "None", "latitude": 49.834076979773556, "longitude": -97.14762844682343}, "130402019RR0002": {"name": "THE DIOCESE OF THE ARCTIC", "designationCode": "C", "categoryCode": "30", "address": "PO BOX 190                    4910 - 51ST STREET", "city": "YELLOWKNIFE", "province": "NT", "country": "CA", "postalCode": "X1A2N2", "twitter": "None", "instagram": "None", "facebook": "None", "youtube": "None", "website": "None", "summary": "None", "logo": "None", "latitude": 62.45425309740903, "longitude": -114.37475611437458}}