{"119110450RR0053": {"name": "ST. TERESAS PARISH", "designationCode": "C", "categoryCode": "38", "address": "44 LEONARD ST", "city": "KITCHENER", "province": "ON", "country": "CA", "postalCode": "N2H6C8", "twitter": "None", "instagram": "None", "facebook": "None", "youtube": "None", "website": "None", "summary": "None", "logo": "None", "latitude": 43.46675045325739, "longitude": -80.48779055398464}, "108042474RR0001": {"name": "ST. THEODORE'S CHURCH", "designationCode": "C", "categoryCode": "30", "address": "5120-44 AVE.", "city": "TABER", "province": "AB", "country": "CA", "postalCode": "T1G1A9", "twitter": "None", "instagram": "None", "facebook": "None", "youtube": "None", "website": "None", "summary": "None", "logo": "None", "latitude": 49.780472689422375, "longitude": -112.14552716833055}, "817114317RR0001": {"name": "ST. THERESA OF LITTLE FLOWER ROMAN CATHOLIC PARISH INC.", "designationCode": "C", "categoryCode": "38", "address": "PO BOX 83", "city": "MORELL", "province": "PE", "country": "CA", "postalCode": "C0A1S0", "twitter": "None", "instagram": "None", "facebook": "None", "youtube": "None", "website": "None", "summary": "None", "logo": "None", "latitude": 46.41615000000007, "longitude": -62.70426999999995}, "119109817RR0028": {"name": "ST. THERESA PARISH", "designationCode": "C", "categoryCode": "38", "address": "1991 NORMAN RD", "city": "WINDSOR", "province": "ON", "country": "CA", "postalCode": "N8T1S1", "twitter": "None", "instagram": "None", "facebook": "None", "youtube": "None", "website": "None", "summary": "None", "logo": "None", "latitude": 42.30974490562074, "longitude": -82.9673289711752}, "106880107RR0081": {"name": "ST. THERESA PARISH, SYDNEY", "designationCode": "C", "categoryCode": "38", "address": "P.O. BOX 367", "city": "SYDNEY", "province": "NS", "country": "CA", "postalCode": "B1P6H2", "twitter": "None", "instagram": "None", "facebook": "None", "youtube": "None", "website": "None", "summary": "None", "logo": "None", "latitude": 46.137372000000056, "longitude": -60.19552249999994}, "102929080RR0001": {"name": "ST. THERESA WOMEN'S SODALITY", "designationCode": "A", "categoryCode": "43", "address": "1161 NORTH RIVER RD", "city": "OTTAWA", "province": "ON", "country": "CA", "postalCode": "K1K3W5", "twitter": "None", "instagram": "None", "facebook": "None", "youtube": "None", "website": "None", "summary": "None", "logo": "None", "latitude": 45.420428615644, "longitude": -75.66394182913156}, "119109833RR0018": {"name": "ST. THERESA'S CHURCH", "designationCode": "C", "categoryCode": "38", "address": "6351 NORTH STREET", "city": "HALIFAX", "province": "NS", "country": "CA", "postalCode": "B3L1P7", "twitter": "None", "instagram": "None", "facebook": "None", "youtube": "None", "website": "None", "summary": "None", "logo": "None", "latitude": 44.65006955233986, "longitude": -63.601427957152524}, "119122786RR0021": {"name": "ST. THERESA'S MISSION", "designationCode": "C", "categoryCode": "38", "address": "6500 SOUTHRIDGE AVE", "city": "PRINCE GEORGE", "province": "BC", "country": "CA", "postalCode": "V2N5P9", "twitter": "None", "instagram": "None", "facebook": "None", "youtube": "None", "website": "None", "summary": "None", "logo": "None", "latitude": 53.86420563941114, "longitude": -122.78374828519728}, "107020331RR0024": {"name": "ST. THERESA'S PARISH", "designationCode": "C", "categoryCode": "38", "address": "1 WILLIAM STREET", "city": "FREDERICTON", "province": "NB", "country": "CA", "postalCode": "E3A1N1", "twitter": "None", "instagram": "None", "facebook": "None", "youtube": "None", "website": "None", "summary": "None", "logo": "None", "latitude": 45.986645482110845, "longitude": -66.66673455981302}, "107307191RR0033": {"name": "ST. THERESA'S PARISH", "designationCode": "C", "categoryCode": "38", "address": "BOX 818", "city": "ROSETOWN", "province": "SK", "country": "CA", "postalCode": "S0L2V0", "twitter": "None", "instagram": "None", "facebook": "None", "youtube": "None", "website": "None", "summary": "None", "logo": "None", "latitude": 51.16386860615565, "longitude": -106.82425899521579}, "107307191RR0038": {"name": "ST. THERESA'S PARISH", "designationCode": "C", "categoryCode": "38", "address": "BOX 70", "city": "BEECHY", "province": "SK", "country": "CA", "postalCode": "S0L0C0", "twitter": "None", "instagram": "None", "facebook": "None", "youtube": "None", "website": "None", "summary": "None", "logo": "None", "latitude": 50.87650000000008, "longitude": -107.38328999999999}, "107876468RR0032": {"name": "ST. THERESA'S PARISH", "designationCode": "C", "categoryCode": "39", "address": "P.O. BOX 69", "city": "BUCHANS", "province": "NL", "country": "CA", "postalCode": "A0H1G0", "twitter": "None", "instagram": "None", "facebook": "None", "youtube": "None", "website": "None", "summary": "None", "logo": "None", "latitude": 48.85679101387903, "longitude": -56.2484015768264}, "118849470RR0005": {"name": "ST. THERESA'S PARISH", "designationCode": "C", "categoryCode": "38", "address": "5146 LAUREL ST", "city": "BURNABY", "province": "BC", "country": "CA", "postalCode": "V5G1M9", "twitter": "None", "instagram": "None", "facebook": "None", "youtube": "None", "website": "None", "summary": "None", "logo": "None", "latitude": 49.25347402140431, "longitude": -122.99002354389614}, "119110450RR0064": {"name": "ST. THERESA'S PARISH", "designationCode": "C", "categoryCode": "38", "address": "19 FLAMINGO DRIVE", "city": "ELMIRA", "province": "ON", "country": "CA", "postalCode": "N3B1V3", "twitter": "None", "instagram": "None", "facebook": "None", "youtube": "None", "website": "None", "summary": "None", "logo": "None", "latitude": 43.59122370276303, "longitude": -80.57316730779392}, "107585515RR0011": {"name": "ST. THERESA'S PARISH - PAROISSE STE-THERESE", "designationCode": "C", "categoryCode": "38", "address": "104, 2E AVE NO                CP 700", "city": "GERALDTON", "province": "ON", "country": "CA", "postalCode": "P0T1M0", "twitter": "None", "instagram": "None", "facebook": "None", "youtube": "None", "website": "None", "summary": "None", "logo": "None", "latitude": 49.72743445209166, "longitude": -86.94700517611285}, "107307191RR0027": {"name": "ST. THERESA'S PARISH ASQUITH", "designationCode": "C", "categoryCode": "38", "address": "PO BOX 44", "city": "ASQUITH", "province": "SK", "country": "CA", "postalCode": "S0K0J0", "twitter": "None", "instagram": "None", "facebook": "None", "youtube": "None", "website": "None", "summary": "None", "logo": "None", "latitude": 52.13273000000004, "longitude": -107.22944999999999}, "875379323RR0001": {"name": "ST. THERESA'S WELL OF LIFE SPIRITUAL BAPTIST TABERNACLE", "designationCode": "C", "categoryCode": "39", "address": "21-50 WEYBRIGHT CRT", "city": "SCARBOROUGH", "province": "ON", "country": "CA", "postalCode": "M1S5A8", "twitter": "None", "instagram": "None", "facebook": "None", "youtube": "None", "website": "None", "summary": "None", "logo": "None", "latitude": 43.78187856448758, "longitude": -79.2790045767499}, "119109791RR0013": {"name": "ST. THERESE OF LISIEUX CHURCH", "designationCode": "C", "categoryCode": "38", "address": "379 FARES STREET", "city": "PORT COLBORNE", "province": "ON", "country": "CA", "postalCode": "L3K1W9", "twitter": "None", "instagram": "None", "facebook": "None", "youtube": "None", "website": "None", "summary": "None", "logo": "None", "latitude": 42.888897471836444, "longitude": -79.24475747978464}, "827566324RR0001": {"name": "ST. THERESE SCHOOL OF FAITH AND MISSION INC.", "designationCode": "C", "categoryCode": "20", "address": "BOX 310", "city": "BRUNO", "province": "SK", "country": "CA", "postalCode": "S0K0S0", "twitter": "None", "instagram": "None", "facebook": "None", "youtube": "None", "website": "None", "summary": "None", "logo": "None", "latitude": 52.265360000000044, "longitude": -105.52711999999997}, "119119915RR0001": {"name": "ST. THOMAS AND DISTRICT RIGHT TO LIFE", "designationCode": "C", "categoryCode": "09", "address": "468 TALBOT STREET", "city": "ST. THOMAS", "province": "ON", "country": "CA", "postalCode": "N5P1C2", "twitter": "None", "instagram": "None", "facebook": "None", "youtube": "None", "website": "None", "summary": "None", "logo": "None", "latitude": 42.778893948862006, "longitude": -81.19509473215713}, "108042748RR0002": {"name": "ST. THOMAS ANGLICAN CHURCH", "designationCode": "C", "categoryCode": "30", "address": "131 8TH STREET", "city": "MORDEN", "province": "MB", "country": "CA", "postalCode": "R6M1E3", "twitter": "None", "instagram": "None", "facebook": "None", "youtube": "None", "website": "None", "summary": "None", "logo": "None", "latitude": 49.1900742531393, "longitude": -98.10159282376472}, "108042763RR0002": {"name": "ST. THOMAS ANGLICAN CHURCH", "designationCode": "C", "categoryCode": "30", "address": "4A RAVEN DR", "city": "SHERWOOD PARK", "province": "AB", "country": "CA", "postalCode": "T8A0C3", "twitter": "None", "instagram": "None", "facebook": "None", "youtube": "None", "website": "None", "summary": "None", "logo": "None", "latitude": 53.5234323976401, "longitude": -113.29470236063902}, "867614364RR0001": {"name": "ST. THOMAS ANGLICAN CHURCH", "designationCode": "C", "categoryCode": "30", "address": "51 RANG DE LA MONTAGNE", "city": "ROUGEMONT", "province": "QC", "country": "CA", "postalCode": "J0L1M0", "twitter": "None", "instagram": "None", "facebook": "None", "youtube": "None", "website": "None", "summary": "None", "logo": "None", "latitude": 45.4476664318771, "longitude": -73.06953304382843}, "119109833RR0019": {"name": "ST. THOMAS AQUINAS CANADIAN MARTYRS PARISH", "designationCode": "C", "categoryCode": "38", "address": "1725 OXFORD ST", "city": "HALIFAX", "province": "NS", "country": "CA", "postalCode": "B3H3Z7", "twitter": "None", "instagram": "None", "facebook": "None", "youtube": "None", "website": "None", "summary": "None", "logo": "None", "latitude": 44.64135775243805, "longitude": -63.59856369897301}, "871605515RR0001": {"name": "ST. THOMAS AQUINAS CEMETERY FUND", "designationCode": "C", "categoryCode": "59", "address": "7601 SHULIE ROAD              P. O. BOX 43", "city": "JOGGINS", "province": "NS", "country": "CA", "postalCode": "B0L1A0", "twitter": "None", "instagram": "None", "facebook": "None", "youtube": "None", "website": "None", "summary": "None", "logo": "None", "latitude": 45.68922530114257, "longitude": -64.44942500028846}, "119109791RR0012": {"name": "ST. THOMAS AQUINAS CHURCH", "designationCode": "C", "categoryCode": "38", "address": "316 QUEENSTON", "city": "ST CATHARINES", "province": "ON", "country": "CA", "postalCode": "L2P2X4", "twitter": "None", "instagram": "None", "facebook": "None", "youtube": "None", "website": "None", "summary": "None", "logo": "None", "latitude": 43.15969239878275, "longitude": -79.21756176842264}, "119109833RR0035": {"name": "ST. THOMAS AQUINAS CHURCH", "designationCode": "C", "categoryCode": "38", "address": "91 MAIN STREET", "city": "JOGGINS", "province": "NS", "country": "CA", "postalCode": "B0L1A0", "twitter": "None", "instagram": "None", "facebook": "None", "youtube": "None", "website": "None", "summary": "None", "logo": "None", "latitude": 45.69424901856599, "longitude": -64.44730896153196}, "107910176RR0011": {"name": "ST. THOMAS AQUINAS PARISH", "designationCode": "C", "categoryCode": "38", "address": "PO BOX 1363", "city": "ST JOHN'S", "province": "NL", "country": "CA", "postalCode": "A1C5N5", "twitter": "None", "instagram": "None", "facebook": "None", "youtube": "None", "website": "None", "summary": "None", "logo": "None", "latitude": 47.56082100000006, "longitude": -52.71219349999993}, "119018737RR0011": {"name": "ST. THOMAS AQUINAS PARISH", "designationCode": "C", "categoryCode": "38", "address": "PO BOX 1008 STN A", "city": "BELLEDUNE", "province": "NB", "country": "CA", "postalCode": "E8G2X9", "twitter": "None", "instagram": "None", "facebook": "None", "youtube": "None", "website": "None", "summary": "None", "logo": "None", "latitude": 47.86756800000006, "longitude": -65.86688149999993}, "119109817RR0129": {"name": "ST. THOMAS AQUINAS PARISH", "designationCode": "C", "categoryCode": "38", "address": "895 CHAMPLAIN RD", "city": "SARNIA", "province": "ON", "country": "CA", "postalCode": "N7V2E9", "twitter": "None", "instagram": "None", "facebook": "None", "youtube": "None", "website": "None", "summary": "None", "logo": "None", "latitude": 42.998198666981324, "longitude": -82.37735950175286}, "108042979RR0002": {"name": "ST. THOMAS CHURCH", "designationCode": "C", "categoryCode": "30", "address": "1567 WILLIAM AVE W", "city": "WINNIPEG", "province": "MB", "country": "CA", "postalCode": "R3E1A7", "twitter": "None", "instagram": "None", "facebook": "None", "youtube": "None", "website": "None", "summary": "None", "logo": "None", "latitude": 49.91638291369948, "longitude": -97.19267246099034}, "119202885RR0002": {"name": "ST. THOMAS CHURCH", "designationCode": "C", "categoryCode": "30", "address": "10778 PIER RD HWY 221         RR #2 (CANNING)", "city": "KINGSPORT", "province": "NS", "country": "CA", "postalCode": "B0P1H0", "twitter": "None", "instagram": "None", "facebook": "None", "youtube": "None", "website": "None", "summary": "None", "logo": "None", "latitude": 45.159290075898205, "longitude": -64.38228358417581}, "108084658RR0023": {"name": "ST. THOMAS CHURCH RANKIN", "designationCode": "C", "categoryCode": "30", "address": "38272 HWY 41                  RR 3", "city": "PEMBROKE", "province": "ON", "country": "CA", "postalCode": "K8A6W4", "twitter": "None", "instagram": "None", "facebook": "None", "youtube": "None", "website": "None", "summary": "None", "logo": "None", "latitude": 45.687242799289116, "longitude": -77.10142097100369}, "108043019RR0001": {"name": "ST. THOMAS COMMUNITY CHRISTIAN SCHOOL SOCIETY", "designationCode": "C", "categoryCode": "20", "address": "77 FAIRVIEW AVE", "city": "ST THOMAS", "province": "ON", "country": "CA", "postalCode": "N5R4X7", "twitter": "None", "instagram": "None", "facebook": "None", "youtube": "None", "website": "None", "summary": "None", "logo": "None", "latitude": 42.76884191133746, "longitude": -81.16620377398088}, "108043027RR0001": {"name": "ST. THOMAS ELGIN GENERAL HOSPITAL", "designationCode": "C", "categoryCode": "10", "address": "189 ELM ST", "city": "ST THOMAS", "province": "ON", "country": "CA", "postalCode": "N5R5C4", "twitter": "None", "instagram": "None", "facebook": "None", "youtube": "None", "website": "None", "summary": "None", "logo": "None", "latitude": 42.764194711707724, "longitude": -81.18145233284977}, "807742473RR0001": {"name": "ST. THOMAS ELGIN GENERAL HOSPITAL AUXILIARY", "designationCode": "A", "categoryCode": "19", "address": "PO BOX 2007 STN MAIN          189 ELM STREET", "city": "ST. THOMAS", "province": "ON", "country": "CA", "postalCode": "N5R5C4", "twitter": "None", "instagram": "None", "facebook": "None", "youtube": "None", "website": "None", "summary": "None", "logo": "None", "latitude": 42.764194711707724, "longitude": -81.18145233284977}, "890816846RR0001": {"name": "ST. THOMAS ELGIN GENERAL HOSPITAL FOUNDATION", "designationCode": "A", "categoryCode": "13", "address": "189 ELM ST", "city": "ST THOMAS", "province": "ON", "country": "CA", "postalCode": "N5R5C4", "twitter": "None", "instagram": "None", "facebook": "None", "youtube": "None", "website": "None", "summary": "None", "logo": "None", "latitude": 42.764194711707724, "longitude": -81.18145233284977}, "889324208RR0001": {"name": "ST. THOMAS EVANGELICAL CHURCH OF INDIA - TORONTO PARISH", "designationCode": "C", "categoryCode": "39", "address": "42 BASTILLE STREET", "city": "HAMILTON", "province": "ON", "country": "CA", "postalCode": "L9B2G5", "twitter": "None", "instagram": "None", "facebook": "None", "youtube": "None", "website": "None", "summary": "None", "logo": "None", "latitude": 43.2001189911132, "longitude": -79.87753007588452}, "119109791RR0023": {"name": "ST. THOMAS MORE CHURCH", "designationCode": "C", "categoryCode": "38", "address": "6548 DORCHESTER ROAD", "city": "NIAGARA FALLS", "province": "ON", "country": "CA", "postalCode": "L2G5T5", "twitter": "None", "instagram": "None", "facebook": "None", "youtube": "None", "website": "None", "summary": "None", "logo": "None", "latitude": 43.08004777990652, "longitude": -79.11015638905923}, "119109833RR0026": {"name": "ST. THOMAS MORE CHURCH", "designationCode": "C", "categoryCode": "38", "address": "15 CALEDONIA ROAD", "city": "DARTMOUTH", "province": "NS", "country": "CA", "postalCode": "B2X1K7", "twitter": "None", "instagram": "None", "facebook": "None", "youtube": "None", "website": "None", "summary": "None", "logo": "None", "latitude": 44.6853287965836, "longitude": -63.52970839872542}, "119109833RR0041": {"name": "ST. THOMAS MORE CHURCH", "designationCode": "C", "categoryCode": "38", "address": "79 CHURCH STREET              P.O. BOX 132", "city": "PUGWASH", "province": "NS", "country": "CA", "postalCode": "B0K1L0", "twitter": "None", "instagram": "None", "facebook": "None", "youtube": "None", "website": "None", "summary": "None", "logo": "None", "latitude": 45.852101026083474, "longitude": -63.65842342786638}, "883614406RR0001": {"name": "ST. THOMAS MORE COLLEGIATE FOUNDATION", "designationCode": "A", "categoryCode": "23", "address": "7450 12TH AVENUE", "city": "BURNABY", "province": "BC", "country": "CA", "postalCode": "V3N2K1", "twitter": "None", "instagram": "None", "facebook": "None", "youtube": "None", "website": "None", "summary": "None", "logo": "None", "latitude": 49.21548105490828, "longitude": -122.93851915370229}, "119203248RR0001": {"name": "ST. THOMAS MORE COLLEGIATE LTD.", "designationCode": "C", "categoryCode": "20", "address": "7450-12TH AVE", "city": "BURNABY", "province": "BC", "country": "CA", "postalCode": "V3N2K1", "twitter": "None", "instagram": "None", "facebook": "None", "youtube": "None", "website": "None", "summary": "None", "logo": "None", "latitude": 49.21548105490828, "longitude": -122.93851915370229}, "107909939RR0067": {"name": "ST. THOMAS MORE PARISH", "designationCode": "C", "categoryCode": "38", "address": "15 TEMPLEBOW ROAD NE", "city": "CALGARY", "province": "AB", "country": "CA", "postalCode": "T1Y6J3", "twitter": "None", "instagram": "None", "facebook": "None", "youtube": "None", "website": "None", "summary": "None", "logo": "None", "latitude": 51.09523233527614, "longitude": -113.95170348848747}, "108043084RR0001": {"name": "ST. THOMAS MORE PARISH", "designationCode": "C", "categoryCode": "38", "address": "BOX 489", "city": "FAIRVIEW", "province": "AB", "country": "CA", "postalCode": "T0H1L0", "twitter": "None", "instagram": "None", "facebook": "None", "youtube": "None", "website": "None", "summary": "None", "logo": "None", "latitude": 56.06862000000007, "longitude": -118.39200999999997}, "864967823RR0001": {"name": "ST. THOMAS OF VILLANOVA CHARITIES INC.", "designationCode": "C", "categoryCode": "21", "address": "2480 15TH SIDEROAD", "city": "KING CITY", "province": "ON", "country": "CA", "postalCode": "L7B1A4", "twitter": "None", "instagram": "None", "facebook": "None", "youtube": "None", "website": "None", "summary": "None", "logo": "None", "latitude": 43.94520620684927, "longitude": -79.54036775913181}, "834223315RR0001": {"name": "ST. THOMAS ORTHODOX SYRIAN CHURCH TORONTO", "designationCode": "C", "categoryCode": "39", "address": "42 CORNWALL DR", "city": "AJAX", "province": "ON", "country": "CA", "postalCode": "L1T3G3", "twitter": "None", "instagram": "None", "facebook": "None", "youtube": "None", "website": "None", "summary": "None", "logo": "None", "latitude": 43.86439001664844, "longitude": -79.03439386874587}, "107585085RR0024": {"name": "ST. THOMAS PARISH, MAKWA, SK", "designationCode": "C", "categoryCode": "38", "address": "BOX 148", "city": "MAKWA", "province": "SK", "country": "CA", "postalCode": "S0M1N0", "twitter": "None", "instagram": "None", "facebook": "None", "youtube": "None", "website": "None", "summary": "None", "logo": "None", "latitude": 54.03112674689661, "longitude": -109.18634142651366}, "890265390RR0001": {"name": "ST. THOMAS REACT INC.", "designationCode": "C", "categoryCode": "59", "address": "163 ALMA ST", "city": "ST THOMAS", "province": "ON", "country": "CA", "postalCode": "N5P3B5", "twitter": "None", "instagram": "None", "facebook": "None", "youtube": "None", "website": "None", "summary": "None", "logo": "None", "latitude": 42.78698088481735, "longitude": -81.18417555337905}, "108165911RR0001": {"name": "ST. THOMAS SENIORS' CENTRE", "designationCode": "C", "categoryCode": "56", "address": "225 CHESTNUT STREET", "city": "ST THOMAS", "province": "ON", "country": "CA", "postalCode": "N2R2B5", "twitter": "None", "instagram": "None", "facebook": "None", "youtube": "None", "website": "None", "summary": "None", "logo": "None", "latitude": 42.77029702362126, "longitude": -81.16988867888408}, "107797383RR0066": {"name": "ST. THOMAS SEVENTH-DAY ADVENTIST CHURCH", "designationCode": "C", "categoryCode": "41", "address": "380 MANOR RD", "city": "ST THOMAS", "province": "ON", "country": "CA", "postalCode": "N5R6B6", "twitter": "None", "instagram": "None", "facebook": "None", "youtube": "None", "website": "None", "summary": "None", "logo": "None", "latitude": 42.776372800985705, "longitude": -81.15577490739429}, "107797383RR0115": {"name": "ST. THOMAS SEVENTH-DAY ADVENTIST SCHOOL", "designationCode": "C", "categoryCode": "39", "address": "RR #7", "city": "ST THOMAS", "province": "ON", "country": "CA", "postalCode": "N5P3T2", "twitter": "None", "instagram": "None", "facebook": "None", "youtube": "None", "website": "None", "summary": "None", "logo": "None", "latitude": 42.79040700000006, "longitude": -81.22894099999994}, "865503718RR0001": {"name": "ST. THOMAS THE APOSTLE CHALDEAN CATHOLIC CHURCH", "designationCode": "C", "categoryCode": "38", "address": "5800 - 40 KING ST W", "city": "TORONTO", "province": "ON", "country": "CA", "postalCode": "M5H3S1", "twitter": "None", "instagram": "None", "facebook": "None", "youtube": "None", "website": "None", "summary": "None", "logo": "None", "latitude": 43.64813467004466, "longitude": -79.38254906728791}, "757966320RR0016": {"name": "ST. THOMAS THE APOSTLE MISSION", "designationCode": "C", "categoryCode": "38", "address": "115 IONVIEW RD", "city": "SCARBOROUGH", "province": "ON", "country": "CA", "postalCode": "M1K3A1", "twitter": "None", "instagram": "None", "facebook": "None", "youtube": "None", "website": "None", "summary": "None", "logo": "None", "latitude": 43.739489995845055, "longitude": -79.27444997844682}, "107020331RR0049": {"name": "ST. THOMAS THE APOSTLE PARISH", "designationCode": "C", "categoryCode": "38", "address": "19 ST. THOMAS ROAD", "city": "RED BANK", "province": "NB", "country": "CA", "postalCode": "E9E1B2", "twitter": "None", "instagram": "None", "facebook": "None", "youtube": "None", "website": "None", "summary": "None", "logo": "None", "latitude": 46.943304339515095, "longitude": -65.82552363960907}, "108043282RR0001": {"name": "ST. THOMAS UNIVERSITY", "designationCode": "C", "categoryCode": "20", "address": "51 DINEEN DRIVE", "city": "FREDERICTON", "province": "NB", "country": "CA", "postalCode": "E3B5G3", "twitter": "None", "instagram": "None", "facebook": "None", "youtube": "None", "website": "None", "summary": "None", "logo": "None", "latitude": 45.94512428253224, "longitude": -66.64505629871837}, "118790369RR0001": {"name": "ST. THOMAS-ELGIN PUBLIC ART CENTRE", "designationCode": "C", "categoryCode": "22", "address": "301 TALBOT ST", "city": "ST THOMAS", "province": "ON", "country": "CA", "postalCode": "N5P1B5", "twitter": "None", "instagram": "None", "facebook": "None", "youtube": "None", "website": "None", "summary": "None", "logo": "None", "latitude": 42.7791614942744, "longitude": -81.19984656808256}, "119202703RR0001": {"name": "ST. THOMAS' ANGLICAN CHURCH", "designationCode": "C", "categoryCode": "30", "address": "4 MARY ST", "city": "BRACEBRIDGE", "province": "ON", "country": "CA", "postalCode": "P1L2B6", "twitter": "None", "instagram": "None", "facebook": "None", "youtube": "None", "website": "None", "summary": "None", "logo": "None", "latitude": 45.04262108797399, "longitude": -79.31242203453759}, "133027821RR0002": {"name": "ST. THOMAS' ANGLICAN CHURCH", "designationCode": "C", "categoryCode": "30", "address": "1400 EDWARD ST S", "city": "THUNDER BAY", "province": "ON", "country": "CA", "postalCode": "P7E2J6", "twitter": "None", "instagram": "None", "facebook": "None", "youtube": "None", "website": "None", "summary": "None", "logo": "None", "latitude": 48.36596399999999, "longitude": -89.27850013999671}, "108084658RR0064": {"name": "ST. THOMAS' CHURCH", "designationCode": "C", "categoryCode": "30", "address": "1425 KINBURN SIDE RD", "city": "KINBURN", "province": "ON", "country": "CA", "postalCode": "K0A2H0", "twitter": "None", "instagram": "None", "facebook": "None", "youtube": "None", "website": "None", "summary": "None", "logo": "None", "latitude": 45.450314818800585, "longitude": -76.09454834546099}, "108099771RR0099": {"name": "ST. THOMAS' CHURCH", "designationCode": "C", "categoryCode": "30", "address": "99 ONTARIO ST", "city": "ST CATHARINES", "province": "ON", "country": "CA", "postalCode": "L2R5J6", "twitter": "None", "instagram": "None", "facebook": "None", "youtube": "None", "website": "None", "summary": "None", "logo": "None", "latitude": 43.1567894615386, "longitude": -79.24997254053886}, "119202919RR0002": {"name": "ST. THOMAS' CHURCH", "designationCode": "C", "categoryCode": "30", "address": "6897 SOMERLED AVE", "city": "MONTREAL", "province": "QC", "country": "CA", "postalCode": "H4V1V2", "twitter": "None", "instagram": "None", "facebook": "None", "youtube": "None", "website": "None", "summary": "None", "logo": "None", "latitude": 45.463603608950216, "longitude": -73.64157594119659}, "869990846RR0001": {"name": "ST. THOMAS' CHURCH", "designationCode": "C", "categoryCode": "30", "address": "595, 2ND CONCESSION", "city": "NOYAN", "province": "QC", "country": "CA", "postalCode": "J0J1B0", "twitter": "None", "instagram": "None", "facebook": "None", "youtube": "None", "website": "None", "summary": "None", "logo": "None", "latitude": 45.03582875936295, "longitude": -73.30338920488737}, "898282298RR0002": {"name": "ST. THOMAS' CHURCH", "designationCode": "C", "categoryCode": "30", "address": "490 COLLIER RD WEST           RR#1", "city": "ELLERSHOUSE", "province": "NS", "country": "CA", "postalCode": "B0N1L0", "twitter": "None", "instagram": "None", "facebook": "None", "youtube": "None", "website": "None", "summary": "None", "logo": "None", "latitude": 44.94950650288554, "longitude": -63.9464429701656}, "879920916RR0001": {"name": "ST. TIMOTHY COUNCIL NO. 8782 CHARITABLE WELFARE TRUST", "designationCode": "A", "categoryCode": "65", "address": "21 LEITH HILL ROAD", "city": "NORTH YORK", "province": "ON", "country": "CA", "postalCode": "M2J1Y9", "twitter": "None", "instagram": "None", "facebook": "None", "youtube": "None", "website": "None", "summary": "None", "logo": "None", "latitude": 43.776518838161664, "longitude": -79.35056732915929}, "138035381RR0001": {"name": "ST. TIMOTHY PRESBYTERIAN CHURCH", "designationCode": "C", "categoryCode": "39", "address": "106 RAVENSCREST DRIVE", "city": "TORONTO", "province": "ON", "country": "CA", "postalCode": "M9B5N3", "twitter": "None", "instagram": "None", "facebook": "None", "youtube": "None", "website": "None", "summary": "None", "logo": "None", "latitude": 43.66328184399005, "longitude": -79.55559522081464}, "106713753RR0006": {"name": "ST. TIMOTHY'S ANGLICAN CHURCH", "designationCode": "C", "categoryCode": "30", "address": "106 BLACKSTOCK RD", "city": "100 MILE HOUSE", "province": "BC", "country": "CA", "postalCode": "V0K2E1", "twitter": "None", "instagram": "None", "facebook": "None", "youtube": "None", "website": "None", "summary": "None", "logo": "None", "latitude": 51.634439434358605, "longitude": -121.28678990166827}, "119203461RR0002": {"name": "ST. TIMOTHY'S ANGLICAN CHURCH", "designationCode": "C", "categoryCode": "30", "address": "8420 145 STREET", "city": "EDMONTON", "province": "AB", "country": "CA", "postalCode": "T5R0T2", "twitter": "None", "instagram": "None", "facebook": "None", "youtube": "None", "website": "None", "summary": "None", "logo": "None", "latitude": 53.51720297253153, "longitude": -113.57043603987503}, "895903201RR0001": {"name": "ST. TIMOTHY'S CHARISMATIC EPISCOPAL CHURCH INC.", "designationCode": "B", "categoryCode": "39", "address": "283 MCKAY AVENUE", "city": "WINNIPEG", "province": "MB", "country": "CA", "postalCode": "R2G0N3", "twitter": "None", "instagram": "None", "facebook": "None", "youtube": "None", "website": "None", "summary": "None", "logo": "None", "latitude": 49.94091886262901, "longitude": -97.08445392532757}, "856339478RR0001": {"name": "ST. TIMOTHY'S CHURCH", "designationCode": "C", "categoryCode": "39", "address": "597 SHANNON CRES", "city": "NORTH VANCOUVER", "province": "BC", "country": "CA", "postalCode": "V7N2Y8", "twitter": "None", "instagram": "None", "facebook": "None", "youtube": "None", "website": "None", "summary": "None", "logo": "None", "latitude": 49.341536488458814, "longitude": -123.08502052553523}, "108043415RR0001": {"name": "ST. TIMOTHY'S CHURCH AGINCOURT", "designationCode": "C", "categoryCode": "30", "address": "4125 SHEPPARD AVE E", "city": "TORONTO", "province": "ON", "country": "CA", "postalCode": "M1S1T1", "twitter": "None", "instagram": "None", "facebook": "None", "youtube": "None", "website": "None", "summary": "None", "logo": "None", "latitude": 43.7846077648742, "longitude": -79.2819072700674}, "862771342RR0001": {"name": "ST. TIMOTHY'S CLASSICAL ACADEMY SOCIETY", "designationCode": "C", "categoryCode": "20", "address": "1061 PINECREST RD, ANNEX", "city": "OTTAWA", "province": "ON", "country": "CA", "postalCode": "K2B6B7", "twitter": "None", "instagram": "None", "facebook": "None", "youtube": "None", "website": "None", "summary": "None", "logo": "None", "latitude": 45.35140729283268, "longitude": -75.79085157527894}, "108043423RR0001": {"name": "ST. TIMOTHY'S LUTHERAN CHURCH", "designationCode": "C", "categoryCode": "32", "address": "503 ALFRED STREET", "city": "PEMBROKE", "province": "ON", "country": "CA", "postalCode": "K8A3B6", "twitter": "None", "instagram": "None", "facebook": "None", "youtube": "None", "website": "None", "summary": "None", "logo": "None", "latitude": 45.824290519331484, "longitude": -77.09830289064574}, "108043456RR0001": {"name": "ST. TIMOTHY'S PRESBYTERIAN CHURCH", "designationCode": "C", "categoryCode": "37", "address": "2400 ALTA VISTA DR", "city": "OTTAWA", "province": "ON", "country": "CA", "postalCode": "K1H7N1", "twitter": "None", "instagram": "None", "facebook": "None", "youtube": "None", "website": "None", "summary": "None", "logo": "None", "latitude": 45.381625827081805, "longitude": -75.66186088210472}, "119109817RR0103": {"name": "ST. URSULA'S PARISH", "designationCode": "C", "categoryCode": "38", "address": "205 TWEEDSMUIR AVE W", "city": "CHATHAM", "province": "ON", "country": "CA", "postalCode": "N7M5N8", "twitter": "None", "instagram": "None", "facebook": "None", "youtube": "None", "website": "None", "summary": "None", "logo": "None", "latitude": 42.38845646130746, "longitude": -82.17898895423832}, "107876476RR0036": {"name": "ST. VERONICA'S CHURCH", "designationCode": "C", "categoryCode": "38", "address": "559 DOUGLAS ST", "city": "SAULT STE MARIE", "province": "ON", "country": "CA", "postalCode": "P6C1V3", "twitter": "None", "instagram": "None", "facebook": "None", "youtube": "None", "website": "None", "summary": "None", "logo": "None", "latitude": 46.53129949177702, "longitude": -84.37500947155058}, "119109791RR0005": {"name": "ST. VINCENT DE PAUL CHURCH", "designationCode": "C", "categoryCode": "38", "address": "73 PICTON ST                  PO BOX 71", "city": "NIAGARA-ON-THE-LAKE", "province": "ON", "country": "CA", "postalCode": "L0S1J0", "twitter": "None", "instagram": "None", "facebook": "None", "youtube": "None", "website": "None", "summary": "None", "logo": "None", "latitude": 43.25366983847877, "longitude": -79.06856005133025}, "119109817RR0150": {"name": "ST. VINCENT DE PAUL CHURCH", "designationCode": "C", "categoryCode": "38", "address": "1991 NORMAN RD", "city": "WINDSOR", "province": "ON", "country": "CA", "postalCode": "N8T1S1", "twitter": "None", "instagram": "None", "facebook": "None", "youtube": "None", "website": "None", "summary": "None", "logo": "None", "latitude": 42.30974490562074, "longitude": -82.9673289711752}, "119110443RR0058": {"name": "ST. VINCENT DE PAUL CHURCH", "designationCode": "C", "categoryCode": "38", "address": "7288 OLD HWY 2", "city": "MARYSVILLE", "province": "ON", "country": "CA", "postalCode": "K0K2N0", "twitter": "None", "instagram": "None", "facebook": "None", "youtube": "None", "website": "None", "summary": "None", "logo": "None", "latitude": 44.22419494144746, "longitude": -77.14315303084398}, "107020331RR0048": {"name": "ST. VINCENT DE PAUL PARISH", "designationCode": "C", "categoryCode": "38", "address": "25 LOISVILLE STREET", "city": "OROMOCTO", "province": "NB", "country": "CA", "postalCode": "E2V1B9", "twitter": "None", "instagram": "None", "facebook": "None", "youtube": "None", "website": "None", "summary": "None", "logo": "None", "latitude": 45.85088981103786, "longitude": -66.47069156374891}, "108045048RR0001": {"name": "ST. VINCENT DE PAUL PARISH", "designationCode": "C", "categoryCode": "38", "address": "314 3RD ST NE", "city": "WEYBURN", "province": "SK", "country": "CA", "postalCode": "S4H0W7", "twitter": "None", "instagram": "None", "facebook": "None", "youtube": "None", "website": "None", "summary": "None", "logo": "None", "latitude": 49.65645148514059, "longitude": -103.8535425}, "119109817RR0053": {"name": "ST. VINCENT DE PAUL PARISH", "designationCode": "C", "categoryCode": "38", "address": "PO BOX 15", "city": "DUBLIN", "province": "ON", "country": "CA", "postalCode": "N0K1E0", "twitter": "None", "instagram": "None", "facebook": "None", "youtube": "None", "website": "None", "summary": "None", "logo": "None", "latitude": 37.70423000000005, "longitude": -121.91634999999997}, "893571984RR0001": {"name": "ST. VINCENT DE PAUL SOCIETY OF THE PARISH OF THE RESURRECTION OF OUR LORD", "designationCode": "C", "categoryCode": "09", "address": "34-34TH AVENUE", "city": "LACHINE", "province": "QC", "country": "CA", "postalCode": "H8T1Z2", "twitter": "None", "instagram": "None", "facebook": "None", "youtube": "None", "website": "None", "summary": "None", "logo": "None", "latitude": 45.43347653317741, "longitude": -73.69390467603145}, "132410671RR0093": {"name": "ST. VINCENT DE PAUL SOCIETY, BLESSED MOTHER TERESA OF CALCUTTA CONFERENCE", "designationCode": "C", "categoryCode": "09", "address": "6032 NORMANDY DRIVE", "city": "HALIFAX", "province": "NS", "country": "CA", "postalCode": "B3K2S9", "twitter": "None", "instagram": "None", "facebook": "None", "youtube": "None", "website": "None", "summary": "None", "logo": "None", "latitude": 44.66649792893427, "longitude": -63.613364366062804}, "131583452RR0001": {"name": "ST. VINCENT OF LERINS ORTHODOX CHURCH INC.", "designationCode": "C", "categoryCode": "39", "address": "821 AVENUE E N", "city": "SASKATOON", "province": "SK", "country": "CA", "postalCode": "S7L1S7", "twitter": "None", "instagram": "None", "facebook": "None", "youtube": "None", "website": "None", "summary": "None", "logo": "None", "latitude": 52.13812533527613, "longitude": -106.67680575719857}, "867915621RR0001": {"name": "ST. VINCENT'S HOSPITAL FOUNDATION", "designationCode": "A", "categoryCode": "03", "address": "4865 HEATHER STREET", "city": "VANCOUVER", "province": "BC", "country": "CA", "postalCode": "V5Z0B3", "twitter": "None", "instagram": "None", "facebook": "None", "youtube": "None", "website": "None", "summary": "None", "logo": "None", "latitude": 49.24184697412038, "longitude": -123.12067587898831}, "108045287RR0001": {"name": "ST. VITAL MONTESSORI SCHOOL INC.", "designationCode": "C", "categoryCode": "20", "address": "613 ST MARY'S RD", "city": "WINNIPEG", "province": "MB", "country": "CA", "postalCode": "R2M3L8", "twitter": "None", "instagram": "None", "facebook": "None", "youtube": "None", "website": "None", "summary": "None", "logo": "None", "latitude": 49.862716135437736, "longitude": -97.11123164897042}, "107585085RR0013": {"name": "ST. VITAL PARISH, BATTLEFORD, SK", "designationCode": "C", "categoryCode": "38", "address": "BOX 58", "city": "BATTLEFORD", "province": "SK", "country": "CA", "postalCode": "S0M0E0", "twitter": "None", "instagram": "None", "facebook": "None", "youtube": "None", "website": "None", "summary": "None", "logo": "None", "latitude": 52.736037700209145, "longitude": -108.26411792034625}, "816484521RR0002": {"name": "ST. VLADIMIR UKRAINIAN ORTHODOX SOBOR PARISH OF ELK POINT ALBERTA", "designationCode": "C", "categoryCode": "39", "address": "BOX 875", "city": "ELK POINT", "province": "AB", "country": "CA", "postalCode": "T0A1A0", "twitter": "None", "instagram": "None", "facebook": "None", "youtube": "None", "website": "None", "summary": "None", "logo": "None", "latitude": 54.815265, "longitude": -111.92067675}, "870113073RR0001": {"name": "ST. VLADIMIR'S ORTHODOX CHURCH", "designationCode": "C", "categoryCode": "39", "address": "2901 WILLIAM HUNT AVE", "city": "HALIFAX", "province": "NS", "country": "CA", "postalCode": "B3L3V2", "twitter": "None", "instagram": "None", "facebook": "None", "youtube": "None", "website": "None", "summary": "None", "logo": "None", "latitude": 44.64693737497828, "longitude": -63.615600313636044}, "893608844RR0001": {"name": "ST. VLADIMIR'S RUSSIAN GREEK ORTHODOX CHURCH", "designationCode": "C", "categoryCode": "39", "address": "6824 128 AVENUE", "city": "EDMONTON", "province": "AB", "country": "CA", "postalCode": "T5C1S7", "twitter": "None", "instagram": "None", "facebook": "None", "youtube": "None", "website": "None", "summary": "None", "logo": "None", "latitude": 53.586102518754565, "longitude": -113.4465615}, "108045402RR0001": {"name": "ST. VLADIMIR'S UKRAINIAN ORTHODOX CATHEDRAL OF WINDSOR", "designationCode": "C", "categoryCode": "39", "address": "2000 TECUMSEH RD EAST", "city": "WINDSOR", "province": "ON", "country": "CA", "postalCode": "N8W1E2", "twitter": "None", "instagram": "None", "facebook": "None", "youtube": "None", "website": "None", "summary": "None", "logo": "None", "latitude": 42.301912241762246, "longitude": -82.9968587334237}, "129720231RR0001": {"name": "ST. VLADIMIR'S UKRAINIAN ORTHODOX CONGREGATION AT CALGARY", "designationCode": "C", "categoryCode": "39", "address": "404 MEREDITH RD NE", "city": "CALGARY", "province": "AB", "country": "CA", "postalCode": "T2E5A6", "twitter": "None", "instagram": "None", "facebook": "None", "youtube": "None", "website": "None", "summary": "None", "logo": "None", "latitude": 51.05188430004604, "longitude": -114.0542278277743}, "123339087RR0001": {"name": "ST. VOLODYMYR CULTURAL CENTRE (OAKVILLE) INC.", "designationCode": "C", "categoryCode": "56", "address": "210 2 JANE STREET", "city": "TORONTO", "province": "ON", "country": "CA", "postalCode": "M6S4W3", "twitter": "None", "instagram": "None", "facebook": "None", "youtube": "None", "website": "None", "summary": "None", "logo": "None", "latitude": 43.64948793282939, "longitude": -79.4846052011078}, "119204626RR0001": {"name": "ST. WALBURG & DISTRICT HISTORICAL MUSEUM INC.", "designationCode": "C", "categoryCode": "50", "address": "PO BOX 87", "city": "ST WALBURG", "province": "SK", "country": "CA", "postalCode": "S0M2T0", "twitter": "None", "instagram": "None", "facebook": "None", "youtube": "None", "website": "None", "summary": "None", "logo": "None", "latitude": 53.63522000000006, "longitude": -109.20051999999998}, "119030666RR0021": {"name": "ST. WALBURG SEVENTH-DAY ADVENTIST CHURCH", "designationCode": "C", "categoryCode": "41", "address": "1004 VICTORIA AVE", "city": "SASKATOON", "province": "SK", "country": "CA", "postalCode": "S7N0Z8", "twitter": "None", "instagram": "None", "facebook": "None", "youtube": "None", "website": "None", "summary": "None", "logo": "None", "latitude": 52.115409, "longitude": -106.66240826773014}, "119122778RR0013": {"name": "ST. WILLIAMS PARISH", "designationCode": "C", "categoryCode": "38", "address": "17992 COUNTY RD 18 RR 2", "city": "MARTINTOWN", "province": "ON", "country": "CA", "postalCode": "K0C1S0", "twitter": "None", "instagram": "None", "facebook": "None", "youtube": "None", "website": "None", "summary": "None", "logo": "None", "latitude": 45.12593718577017, "longitude": -74.7417745217359}, "128925666RR0001": {"name": "ST.ALBERT FAMILY RESOURCE CENTRE", "designationCode": "C", "categoryCode": "21", "address": "10A-215 CARNEGIE DRIVE", "city": "ST ALBERT", "province": "AB", "country": "CA", "postalCode": "T8N5B1", "twitter": "None", "instagram": "None", "facebook": "None", "youtube": "None", "website": "None", "summary": "None", "logo": "None", "latitude": 53.637282, "longitude": -113.57477984817271}, "829039395RR0001": {"name": "ST.ALPHONSA CATHOLIC MISSION CAMBRIDGE", "designationCode": "C", "categoryCode": "39", "address": "88 YATES AVENUE", "city": "CAMBRIDGE", "province": "ON", "country": "CA", "postalCode": "N1P0A4", "twitter": "None", "instagram": "None", "facebook": "None", "youtube": "None", "website": "None", "summary": "None", "logo": "None", "latitude": 43.33829998415964, "longitude": -80.2716567650471}, "866153471RR0001": {"name": "ST.ANN'S BAY COMMUNITY HEALTH GROUP SOCIETY", "designationCode": "C", "categoryCode": "11", "address": "2033 HWY 312, RR1             GD", "city": "ENGLISHTOWN", "province": "NS", "country": "CA", "postalCode": "B0C1H0", "twitter": "None", "instagram": "None", "facebook": "None", "youtube": "None", "website": "None", "summary": "None", "logo": "None", "latitude": 46.327305035515934, "longitude": -60.53871422771002}}