{"891624074RR0001": {"name": "MAISON DES JEUNES DE BORDEAUX-CARTIERVILLE", "designationCode": "C", "categoryCode": "09", "address": "12120 RUE GRENET", "city": "MONTREAL", "province": "QC", "country": "CA", "postalCode": "H4J2P4", "twitter": "None", "instagram": "None", "facebook": "None", "youtube": "None", "website": "None", "summary": "None", "logo": "None", "latitude": 45.53013086814028, "longitude": -73.71690003222898}, "140809013RR0001": {"name": "MAISON DES JEUNES DE CAPLAN", "designationCode": "C", "categoryCode": "09", "address": "C.P. 407", "city": "CAPLAN", "province": "QC", "country": "CA", "postalCode": "G0C1H0", "twitter": "None", "instagram": "None", "facebook": "None", "youtube": "None", "website": "None", "summary": "None", "logo": "None", "latitude": 48.01682685152055, "longitude": -66.69596140995145}, "887663029RR0001": {"name": "MAISON DES JEUNES DE CARLETON", "designationCode": "C", "categoryCode": "09", "address": "10 RUE CENTRE CIVIQUE", "city": "CARLETON", "province": "QC", "country": "CA", "postalCode": "G0C1J0", "twitter": "None", "instagram": "None", "facebook": "None", "youtube": "None", "website": "None", "summary": "None", "logo": "None", "latitude": 48.105623501009624, "longitude": -66.11487211503841}, "850196767RR0001": {"name": "MAISON DES JEUNES DE COLOMBIER", "designationCode": "C", "categoryCode": "09", "address": "500 RUE PRINCIPALE", "city": "COLOMBIER", "province": "QC", "country": "CA", "postalCode": "G0H1P0", "twitter": "None", "instagram": "None", "facebook": "None", "youtube": "None", "website": "None", "summary": "None", "logo": "None", "latitude": 48.865008428501554, "longitude": -68.85332507207629}, "132141383RR0001": {"name": "MAISON DES JEUNES DE CONTRECOEUR INC", "designationCode": "A", "categoryCode": "99", "address": "1400 RUE DES SAULES", "city": "CONTRECOEUR", "province": "QC", "country": "CA", "postalCode": "J0L1C0", "twitter": "None", "instagram": "None", "facebook": "None", "youtube": "None", "website": "None", "summary": "None", "logo": "None", "latitude": 45.855733867666125, "longitude": -73.22746364325367}, "889238291RR0001": {"name": "MAISON DES JEUNES DE CRABTREE", "designationCode": "C", "categoryCode": "09", "address": "25 8EME RUE", "city": "CRABTREE", "province": "QC", "country": "CA", "postalCode": "J0K1B0", "twitter": "None", "instagram": "None", "facebook": "None", "youtube": "None", "website": "None", "summary": "None", "logo": "None", "latitude": 45.96561091338236, "longitude": -73.47136165970355}, "897862439RR0001": {"name": "MAISON DES JEUNES DE DELISLE", "designationCode": "C", "categoryCode": "09", "address": "125 RUE DES PLUVIERS", "city": "ALMA", "province": "QC", "country": "CA", "postalCode": "G8E2H8", "twitter": "None", "instagram": "None", "facebook": "None", "youtube": "None", "website": "None", "summary": "None", "logo": "None", "latitude": 48.63188806910385, "longitude": -71.69857912681074}, "884169160RR0001": {"name": "MAISON DES JEUNES DE DUBERGER", "designationCode": "C", "categoryCode": "09", "address": "1900, BOUL. PERE-LELIEVRE", "city": "QUEBEC", "province": "QC", "country": "CA", "postalCode": "G1P2W7", "twitter": "None", "instagram": "None", "facebook": "None", "youtube": "None", "website": "None", "summary": "None", "logo": "None", "latitude": 46.8112345037509, "longitude": -71.29281130099832}, "890754690RR0001": {"name": "MAISON DES JEUNES DE FLEURIMONT", "designationCode": "C", "categoryCode": "09", "address": "1735 CH GALVIN", "city": "SHERBROOKE", "province": "QC", "country": "CA", "postalCode": "J1G3E7", "twitter": "None", "instagram": "None", "facebook": "None", "youtube": "None", "website": "None", "summary": "None", "logo": "None", "latitude": 45.406009486005956, "longitude": -71.84938380544173}, "860686179RR0001": {"name": "MAISON DES JEUNES DE KINGSEY FALLS", "designationCode": "C", "categoryCode": "59", "address": "14, RUE PIERRE-JANELLE        CASIER POSTAL 133", "city": "KINGSEY FALLS", "province": "QC", "country": "CA", "postalCode": "J0A1B0", "twitter": "None", "instagram": "None", "facebook": "None", "youtube": "None", "website": "None", "summary": "None", "logo": "None", "latitude": 45.85785265445211, "longitude": -72.07207058130886}, "889579835RR0001": {"name": "MAISON DES JEUNES DE L'ASCENSION DE NOTRE-SEIGNEUR", "designationCode": "C", "categoryCode": "09", "address": "900 4E AVENUE E,", "city": "L'ASCENSION DE NOTRE-SEIGNEUR", "province": "QC", "country": "CA", "postalCode": "G0W1Y0", "twitter": "None", "instagram": "None", "facebook": "None", "youtube": "None", "website": "None", "summary": "None", "logo": "None", "latitude": 48.69133572159405, "longitude": -71.67021483265039}, "888049723RR0001": {"name": "MAISON DES JEUNES DE L'EPIPHANIE", "designationCode": "C", "categoryCode": "09", "address": "101 - 66 RUE NOTRE-DAME", "city": "L'EPIPHANIE", "province": "QC", "country": "CA", "postalCode": "J5X1A1", "twitter": "None", "instagram": "None", "facebook": "None", "youtube": "None", "website": "None", "summary": "None", "logo": "None", "latitude": 45.85070326170021, "longitude": -73.48270469937704}, "120414495RR0001": {"name": "MAISON DES JEUNES DE L'EST DE LAVAL", "designationCode": "C", "categoryCode": "09", "address": "3602 CONCORDE", "city": "LAVAL", "province": "QC", "country": "CA", "postalCode": "H7E2C9", "twitter": "None", "instagram": "None", "facebook": "None", "youtube": "None", "website": "None", "summary": "None", "logo": "None", "latitude": 45.596830474320555, "longitude": -73.65945149596064}, "894391077RR0001": {"name": "MAISON DES JEUNES DE L'ILE DU HAVRE-AUBERT", "designationCode": "C", "categoryCode": "09", "address": "419 CH DU BASSIN", "city": "BASSIN", "province": "QC", "country": "CA", "postalCode": "G4T0B9", "twitter": "None", "instagram": "None", "facebook": "None", "youtube": "None", "website": "None", "summary": "None", "logo": "None", "latitude": 47.22878308094721, "longitude": -61.919844702731226}, "139631196RR0001": {"name": "MAISON DES JEUNES DE LA BAIE INC", "designationCode": "C", "categoryCode": "29", "address": "482 RUE ALBERT", "city": "LA BAIE", "province": "QC", "country": "CA", "postalCode": "G7B3L4", "twitter": "None", "instagram": "None", "facebook": "None", "youtube": "None", "website": "None", "summary": "None", "logo": "None", "latitude": 48.33968816931151, "longitude": -70.8811450395006}, "877535039RR0001": {"name": "MAISON DES JEUNES DE LA DORE INC.", "designationCode": "C", "categoryCode": "09", "address": "4951, RUE DES SAULES", "city": "LA DORE", "province": "QC", "country": "CA", "postalCode": "G8J1G8", "twitter": "None", "instagram": "None", "facebook": "None", "youtube": "None", "website": "None", "summary": "None", "logo": "None", "latitude": 48.71164349125743, "longitude": -72.64895932737026}, "860476274RR0001": {"name": "MAISON DES JEUNES DE LA MINERVE", "designationCode": "C", "categoryCode": "09", "address": "123 CH DES FONDATEURS", "city": "LA MINERVE", "province": "QC", "country": "CA", "postalCode": "J0T1S0", "twitter": "None", "instagram": "None", "facebook": "None", "youtube": "None", "website": "None", "summary": "None", "logo": "None", "latitude": 46.256372999999996, "longitude": -74.93593275633319}, "890175987RR0001": {"name": "MAISON DES JEUNES DE LA VALLEE DE LA ROUGE INC", "designationCode": "C", "categoryCode": "09", "address": "2113 CHEMIN TOUR DU LAC", "city": "NOMININGUE", "province": "QC", "country": "CA", "postalCode": "J0W1R0", "twitter": "None", "instagram": "None", "facebook": "None", "youtube": "None", "website": "None", "summary": "None", "logo": "None", "latitude": 46.39062037549789, "longitude": -75.0279896873449}, "869765123RR0001": {"name": "MAISON DES JEUNES DE LAMARCHE", "designationCode": "C", "categoryCode": "09", "address": "108 PRINCIPALE", "city": "LAMARCHE", "province": "QC", "country": "CA", "postalCode": "G0W1X0", "twitter": "None", "instagram": "None", "facebook": "None", "youtube": "None", "website": "None", "summary": "None", "logo": "None", "latitude": 48.791074976686474, "longitude": -71.42671823091354}, "103463519RR0001": {"name": "MAISON DES JEUNES DE LEBEL-SUR-QUEVILLON", "designationCode": "C", "categoryCode": "09", "address": "52 DES TREMBLES C.P. 1764", "city": "LEBEL SUR QUEVILLON", "province": "QC", "country": "CA", "postalCode": "J0Y1X0", "twitter": "None", "instagram": "None", "facebook": "None", "youtube": "None", "website": "None", "summary": "None", "logo": "None", "latitude": 49.05211445325739, "longitude": -76.98112449861502}, "855997938RR0001": {"name": "MAISON DES JEUNES DE LONGUE-RIVE", "designationCode": "C", "categoryCode": "09", "address": "350 138 RTE                   CP 612", "city": "LONGUE-RIVE", "province": "QC", "country": "CA", "postalCode": "G0T1Z0", "twitter": "None", "instagram": "None", "facebook": "None", "youtube": "None", "website": "None", "summary": "None", "logo": "None", "latitude": 48.53800315626942, "longitude": -69.26415911435171}, "139570907RR0001": {"name": "MAISON DES JEUNES DE MASCOUCHE", "designationCode": "C", "categoryCode": "09", "address": "2522 CH STE-MARIE", "city": "MASCOUCHE", "province": "QC", "country": "CA", "postalCode": "J7K1M5", "twitter": "None", "instagram": "None", "facebook": "None", "youtube": "None", "website": "None", "summary": "None", "logo": "None", "latitude": 45.75246199526814, "longitude": -73.61557829615089}, "129474920RR0001": {"name": "MAISON DES JEUNES DE MATANE", "designationCode": "C", "categoryCode": "09", "address": "233 RUE ST-PIERRE             C.P. 182", "city": "MATANE", "province": "QC", "country": "CA", "postalCode": "G4W3N1", "twitter": "None", "instagram": "None", "facebook": "None", "youtube": "None", "website": "None", "summary": "None", "logo": "None", "latitude": 48.845778853165314, "longitude": -67.5342564837556}, "103463410RR0001": {"name": "MAISON DES JEUNES DE METABETCHOUAN", "designationCode": "C", "categoryCode": "09", "address": "64 RUE SAINT-ANDRE            CP 2157", "city": "METABETCHOUAN-LAC-A-LA-CROIX", "province": "QC", "country": "CA", "postalCode": "G8G1T9", "twitter": "None", "instagram": "None", "facebook": "None", "youtube": "None", "website": "None", "summary": "None", "logo": "None", "latitude": 48.429020251745555, "longitude": -71.8712773780367}, "132426818RR0001": {"name": "MAISON DES JEUNES DE MONT-LAURIER INC.", "designationCode": "C", "categoryCode": "09", "address": "513, BOUL. ALBINY-PAQUETTE", "city": "MONT-LAURIER", "province": "QC", "country": "CA", "postalCode": "J9L1K8", "twitter": "None", "instagram": "None", "facebook": "None", "youtube": "None", "website": "None", "summary": "None", "logo": "None", "latitude": 46.550082906486104, "longitude": -75.49713145519063}, "853305134RR0001": {"name": "MAISON DES JEUNES DE NEUVILLE", "designationCode": "C", "categoryCode": "09", "address": "786 DES ERABLES", "city": "NEUVILLE", "province": "QC", "country": "CA", "postalCode": "G0A2R0", "twitter": "None", "instagram": "None", "facebook": "None", "youtube": "None", "website": "None", "summary": "None", "logo": "None", "latitude": 46.69718343161731, "longitude": -71.5896833566564}, "134194893RR0001": {"name": "MAISON DES JEUNES DE PIERREFONDS INC.", "designationCode": "C", "categoryCode": "01", "address": "4855 BOUL DES SOURCES", "city": "PIERREFONDS", "province": "QC", "country": "CA", "postalCode": "H8Y3C8", "twitter": "None", "instagram": "None", "facebook": "None", "youtube": "None", "website": "None", "summary": "None", "logo": "None", "latitude": 45.50517929254423, "longitude": -73.81821004022174}, "894186378RR0001": {"name": "MAISON DES JEUNES DE RAWDON", "designationCode": "C", "categoryCode": "09", "address": "3597 METCALFE", "city": "RAWDON", "province": "QC", "country": "CA", "postalCode": "J0K1S0", "twitter": "None", "instagram": "None", "facebook": "None", "youtube": "None", "website": "None", "summary": "None", "logo": "None", "latitude": 46.04307425838201, "longitude": -73.70265723454887}, "140335498RR0001": {"name": "MAISON DES JEUNES DE REPENTIGNY INC", "designationCode": "C", "categoryCode": "09", "address": "50(ANNEXE) RUE THOUIN", "city": "REPENTIGNY", "province": "QC", "country": "CA", "postalCode": "J6A4J4", "twitter": "None", "instagram": "None", "facebook": "None", "youtube": "None", "website": "None", "summary": "None", "logo": "None", "latitude": 45.73408897448157, "longitude": -73.44992757077334}, "131908451RR0001": {"name": "MAISON DES JEUNES DE RIMOUSKI", "designationCode": "C", "categoryCode": "09", "address": "169 RUE STE-ANNE", "city": "RIMOUSKI", "province": "QC", "country": "CA", "postalCode": "G5L4H2", "twitter": "None", "instagram": "None", "facebook": "None", "youtube": "None", "website": "None", "summary": "None", "logo": "None", "latitude": 48.44551210906581, "longitude": -68.53141597403209}, "133062885RR0001": {"name": "MAISON DES JEUNES DE RIVI\u00c8RE-AU-RENARD", "designationCode": "C", "categoryCode": "09", "address": "1, BOULEVARD RENARD EST", "city": "GASP\u00c9", "province": "QC", "country": "CA", "postalCode": "G4X5H3", "twitter": "None", "instagram": "None", "facebook": "None", "youtube": "None", "website": "None", "summary": "None", "logo": "None", "latitude": 48.994356604701046, "longitude": -64.39862150270494}, "888522497RR0001": {"name": "MAISON DES JEUNES DE SAINT-CHARLES-DE-DRUMMOND", "designationCode": "C", "categoryCode": "09", "address": "600 BOUL. ST-CHARLES", "city": "ST-CHARLES-DE-DRUMMOND", "province": "QC", "country": "CA", "postalCode": "J2C4Y1", "twitter": "None", "instagram": "None", "facebook": "None", "youtube": "None", "website": "None", "summary": "None", "logo": "None", "latitude": 45.894173082145606, "longitude": -72.47414092962674}, "891192890RR0001": {"name": "MAISON DES JEUNES DE SAINT-CYRILLE DE WENDOVER", "designationCode": "C", "categoryCode": "09", "address": "3895 RUE PRINCIPALE", "city": "ST-CYRILLE-DE-WENDOVER", "province": "QC", "country": "CA", "postalCode": "J1Z1C7", "twitter": "None", "instagram": "None", "facebook": "None", "youtube": "None", "website": "None", "summary": "None", "logo": "None", "latitude": 45.9298568123953, "longitude": -72.42818225301497}, "130370737RR0001": {"name": "MAISON DES JEUNES DE SAINT-DONAT", "designationCode": "C", "categoryCode": "09", "address": "544 RUE DESORMEAUX", "city": "ST DONAT DE MONTCOLM", "province": "QC", "country": "CA", "postalCode": "J0T2C0", "twitter": "None", "instagram": "None", "facebook": "None", "youtube": "None", "website": "None", "summary": "None", "logo": "None", "latitude": 46.31648718567148, "longitude": -74.2220211468347}, "869879999RR0001": {"name": "MAISON DES JEUNES DE SAINT-ESPRIT DE MONTCALM INC", "designationCode": "C", "categoryCode": "09", "address": "66 RUE MONTCALM               R.R. 1", "city": "SAINT-ESPRIT", "province": "QC", "country": "CA", "postalCode": "J0K2L0", "twitter": "None", "instagram": "None", "facebook": "None", "youtube": "None", "website": "None", "summary": "None", "logo": "None", "latitude": 45.899923055225386, "longitude": -73.66636283348711}, "862876166RR0001": {"name": "MAISON DES JEUNES DE SAINT-LAURENT", "designationCode": "C", "categoryCode": "09", "address": "1055, AV. SAINTE-CROIX", "city": "SAINT-LAURENT", "province": "QC", "country": "CA", "postalCode": "H4L3Z2", "twitter": "None", "instagram": "None", "facebook": "None", "youtube": "None", "website": "None", "summary": "None", "logo": "None", "latitude": 45.517014029718815, "longitude": -73.68115734399004}, "897430229RR0001": {"name": "MAISON DES JEUNES DE SAINT-PIE (13-17 ANS)", "designationCode": "C", "categoryCode": "09", "address": "77 RUE ST-PIERRE", "city": "ST-PIE", "province": "QC", "country": "CA", "postalCode": "J0H1W0", "twitter": "None", "instagram": "None", "facebook": "None", "youtube": "None", "website": "None", "summary": "None", "logo": "None", "latitude": 45.50125789956122, "longitude": -72.89948572641187}, "861427672RR0001": {"name": "MAISON DES JEUNES DE SAINTE-BRIGITTE-DE-LAVAL", "designationCode": "C", "categoryCode": "09", "address": "7 RUE DE LA PATINOIRE", "city": "STE BRIGITTE-DE-LAVAL", "province": "QC", "country": "CA", "postalCode": "G0A3K0", "twitter": "None", "instagram": "None", "facebook": "None", "youtube": "None", "website": "None", "summary": "None", "logo": "None", "latitude": 47.001819340296464, "longitude": -71.19198007279743}, "893181727RR0001": {"name": "MAISON DES JEUNES DE SAINTE-BRIGITTE-DES-SAULTS", "designationCode": "C", "categoryCode": "09", "address": "430, RUE PRINCIPALE", "city": "SAINTE-BRIGITTE-DES-SAULTS", "province": "QC", "country": "CA", "postalCode": "J0C1E0", "twitter": "None", "instagram": "None", "facebook": "None", "youtube": "None", "website": "None", "summary": "None", "logo": "None", "latitude": 46.027182532315905, "longitude": -72.47785494754457}, "877991232RR0001": {"name": "MAISON DES JEUNES DE SAINTE-DOROTHEE", "designationCode": "C", "categoryCode": "09", "address": "996 MONTEE GRAVEL", "city": "LAVAL", "province": "QC", "country": "CA", "postalCode": "H7X2B8", "twitter": "None", "instagram": "None", "facebook": "None", "youtube": "None", "website": "None", "summary": "None", "logo": "None", "latitude": 45.52874444740034, "longitude": -73.8214669318771}, "867222168RR0001": {"name": "MAISON DES JEUNES DE SHAWINIGAN-SUD", "designationCode": "C", "categoryCode": "09", "address": "600, 113E RUE", "city": "SHAWINIGAN", "province": "QC", "country": "CA", "postalCode": "G9P2W7", "twitter": "None", "instagram": "None", "facebook": "None", "youtube": "None", "website": "None", "summary": "None", "logo": "None", "latitude": 46.52306088372086, "longitude": -72.75185065794321}, "878187772RR0001": {"name": "MAISON DES JEUNES DE ST-BRUNO DU LAC ST-JEAN", "designationCode": "C", "categoryCode": "56", "address": "545, ST-ALPHONSE", "city": "ST BRUNO", "province": "QC", "country": "CA", "postalCode": "G0W2L0", "twitter": "None", "instagram": "None", "facebook": "None", "youtube": "None", "website": "None", "summary": "None", "logo": "None", "latitude": 48.47075658451152, "longitude": -71.65396967747715}, "107655730RR0001": {"name": "MAISON DES JEUNES DE ST-BRUNO INC.", "designationCode": "C", "categoryCode": "09", "address": "1425 RUE GOYER", "city": "SAINT-BRUNO", "province": "QC", "country": "CA", "postalCode": "J3V3Z4", "twitter": "None", "instagram": "None", "facebook": "None", "youtube": "None", "website": "None", "summary": "None", "logo": "None", "latitude": 45.52999075408283, "longitude": -73.34055099904771}, "866830680RR0001": {"name": "MAISON DES JEUNES DE ST-CHARLES-DE-BOURGET", "designationCode": "C", "categoryCode": "09", "address": "357, RANG 2", "city": "ST-CHARLES-DE-BOURGET", "province": "QC", "country": "CA", "postalCode": "G0V1G0", "twitter": "None", "instagram": "None", "facebook": "None", "youtube": "None", "website": "None", "summary": "None", "logo": "None", "latitude": 48.517083278982874, "longitude": -71.39791610517065}, "892571191RR0001": {"name": "MAISON DES JEUNES DE ST-ELZEAR", "designationCode": "C", "categoryCode": "09", "address": "148-A CHEMIN PRINCIPAL        CP 123", "city": "ST-ELZ\u00c9AR", "province": "QC", "country": "CA", "postalCode": "G0C2W0", "twitter": "None", "instagram": "None", "facebook": "None", "youtube": "None", "website": "None", "summary": "None", "logo": "None", "latitude": 48.159625452680466, "longitude": -65.39341645628714}, "887945830RR0001": {"name": "MAISON DES JEUNES DE ST-EMILE", "designationCode": "C", "categoryCode": "09", "address": "2200 RUE DE LA FAUNE", "city": "QUEBEC", "province": "QC", "country": "CA", "postalCode": "G3E1K6", "twitter": "None", "instagram": "None", "facebook": "None", "youtube": "None", "website": "None", "summary": "None", "logo": "None", "latitude": 46.87218336303305, "longitude": -71.33491561088346}, "893075499RR0001": {"name": "MAISON DES JEUNES DE ST-EUSTACHE, ENTRE-ADO, INC.", "designationCode": "C", "categoryCode": "09", "address": "193 BOUL. ARTHUR SAUVE", "city": "ST-EUSTACHE", "province": "QC", "country": "CA", "postalCode": "J7P2A7", "twitter": "None", "instagram": "None", "facebook": "None", "youtube": "None", "website": "None", "summary": "None", "logo": "None", "latitude": 45.561357343903126, "longitude": -73.8960749207686}, "884334228RR0001": {"name": "MAISON DES JEUNES DE ST-FERREOL-LES-NEIGES", "designationCode": "C", "categoryCode": "09", "address": "33, RUE DE L'EGLISE", "city": "SAINT-FERREOL-LES-NEIGES", "province": "QC", "country": "CA", "postalCode": "G0A3R0", "twitter": "None", "instagram": "None", "facebook": "None", "youtube": "None", "website": "None", "summary": "None", "logo": "None", "latitude": 47.11787917317798, "longitude": -70.85981208439594}, "892320003RR0001": {"name": "MAISON DES JEUNES DE ST-FULGENCE", "designationCode": "C", "categoryCode": "09", "address": "8, RUE DE LA FABRIQUE", "city": "ST-FULGENCE", "province": "QC", "country": "CA", "postalCode": "G0V1S0", "twitter": "None", "instagram": "None", "facebook": "None", "youtube": "None", "website": "None", "summary": "None", "logo": "None", "latitude": 48.45029944878532, "longitude": -70.90091663621713}, "895932911RR0001": {"name": "MAISON DES JEUNES DE ST-GEORGES-DE-CHAMPLAIN", "designationCode": "C", "categoryCode": "09", "address": "171 RUE DES LOISIRS", "city": "SHAWINIGAN", "province": "QC", "country": "CA", "postalCode": "G0X1L0", "twitter": "None", "instagram": "None", "facebook": "None", "youtube": "None", "website": "None", "summary": "None", "logo": "None", "latitude": 46.50698624892649, "longitude": -72.20276754358807}, "893313262RR0001": {"name": "MAISON DES JEUNES DE ST-GERMAIN", "designationCode": "C", "categoryCode": "09", "address": "257 RUE SAINT-\u00c9DOUARD", "city": "SAINT-GERMAIN-DE GRANTHAM", "province": "QC", "country": "CA", "postalCode": "J0C1K0", "twitter": "None", "instagram": "None", "facebook": "None", "youtube": "None", "website": "None", "summary": "None", "logo": "None", "latitude": 45.84001890867915, "longitude": -72.56936805718729}, "120855549RR0001": {"name": "MAISON DES JEUNES DE ST-JOVITE", "designationCode": "C", "categoryCode": "09", "address": "70 RUE DU RUISSEAU-CLAIR", "city": "MONT-TREMBLANT", "province": "QC", "country": "CA", "postalCode": "J8E0A6", "twitter": "None", "instagram": "None", "facebook": "None", "youtube": "None", "website": "None", "summary": "None", "logo": "None", "latitude": 46.11699975327476, "longitude": -74.59469492922271}, "895728228RR0001": {"name": "MAISON DES JEUNES DE ST-MARC SUR LE RICHELIEU", "designationCode": "C", "categoryCode": "09", "address": "138 DE L'EGLISE", "city": "ST-MARC SUR RICHELIEU", "province": "QC", "country": "CA", "postalCode": "J0L2E0", "twitter": "None", "instagram": "None", "facebook": "None", "youtube": "None", "website": "None", "summary": "None", "logo": "None", "latitude": 45.67850220991498, "longitude": -73.19697494678107}, "131635401RR0001": {"name": "MAISON DES JEUNES DE ST-MICHEL DE BELLECHASSE", "designationCode": "C", "categoryCode": "09", "address": "129A RTE 132                  C.P. 202", "city": "ST-MICHEL-DE-BELLECHASSE", "province": "QC", "country": "CA", "postalCode": "G0R3S0", "twitter": "None", "instagram": "None", "facebook": "None", "youtube": "None", "website": "None", "summary": "None", "logo": "None", "latitude": 46.87391077557289, "longitude": -70.90724162977396}, "876328048RR0001": {"name": "MAISON DES JEUNES DE STE-ANNE-DE-SOREL \"LE PHARE DES JEUNES\" INC.", "designationCode": "C", "categoryCode": "09", "address": "748, CHEMIN DU CHENAL DU MOINE", "city": "STE-ANNE DE SOREL", "province": "QC", "country": "CA", "postalCode": "J3P5N3", "twitter": "None", "instagram": "None", "facebook": "None", "youtube": "None", "website": "None", "summary": "None", "logo": "None", "latitude": 46.05713148730498, "longitude": -73.05448003413356}, "103463469RR0001": {"name": "MAISON DES JEUNES DE STE-ANNE-DES-PLAINES INC.", "designationCode": "C", "categoryCode": "09", "address": "225 BOUL SAINTE-ANNE", "city": "SAINTE-ANNE-DES-PLAINES", "province": "QC", "country": "CA", "postalCode": "J0N1H0", "twitter": "None", "instagram": "None", "facebook": "None", "youtube": "None", "website": "None", "summary": "None", "logo": "None", "latitude": 45.763590383576606, "longitude": -73.81111691592116}, "892391467RR0001": {"name": "MAISON DES JEUNES DE STE-GERTRUDE INC.", "designationCode": "C", "categoryCode": "09", "address": "105-6345 RUE DES PINS", "city": "B\u00c9CANCOUR", "province": "QC", "country": "CA", "postalCode": "G9H3K9", "twitter": "None", "instagram": "None", "facebook": "None", "youtube": "None", "website": "None", "summary": "None", "logo": "None", "latitude": 46.29870207712528, "longitude": -72.27728057337436}, "873088132RR0001": {"name": "MAISON DES JEUNES DE STE-MARCELLINE", "designationCode": "C", "categoryCode": "09", "address": "363 PIED DE LA MONTAGNE", "city": "STE-MARCELLINE-DE-KILDARE", "province": "QC", "country": "CA", "postalCode": "J0K2Y0", "twitter": "None", "instagram": "None", "facebook": "None", "youtube": "None", "website": "None", "summary": "None", "logo": "None", "latitude": 46.11854553563412, "longitude": -73.59567266472386}, "891493082RR0001": {"name": "MAISON DES JEUNES DE SUTTON INC.", "designationCode": "C", "categoryCode": "09", "address": "7 ACADEMY", "city": "SUTTON", "province": "QC", "country": "CA", "postalCode": "J0E2K0", "twitter": "None", "instagram": "None", "facebook": "None", "youtube": "None", "website": "None", "summary": "None", "logo": "None", "latitude": 45.108830632494886, "longitude": -72.61548128931291}, "120408349RR0001": {"name": "MAISON DES JEUNES DE TRACY L'AIR DU TEMPS INC.", "designationCode": "C", "categoryCode": "09", "address": "3500 CH SAINT-ROCH", "city": "TRACY", "province": "QC", "country": "CA", "postalCode": "J3R3L9", "twitter": "None", "instagram": "None", "facebook": "None", "youtube": "None", "website": "None", "summary": "None", "logo": "None", "latitude": 46.029843137370996, "longitude": -73.13375864995137}, "132493818RR0001": {"name": "MAISON DES JEUNES DE VARENNES INC.", "designationCode": "C", "categoryCode": "09", "address": "135, CHEMIN DU PETIT BOIS", "city": "VARENNES", "province": "QC", "country": "CA", "postalCode": "J3X1P7", "twitter": "None", "instagram": "None", "facebook": "None", "youtube": "None", "website": "None", "summary": "None", "logo": "None", "latitude": 45.669974014484055, "longitude": -73.42758510343896}, "138627583RR0001": {"name": "MAISON DES JEUNES DE WATERVILLE: LES PACIFISTES", "designationCode": "C", "categoryCode": "09", "address": "200, D\u00c9P\u00d4T", "city": "WATERVILLE", "province": "QC", "country": "CA", "postalCode": "J0B3H0", "twitter": "None", "instagram": "None", "facebook": "None", "youtube": "None", "website": "None", "summary": "None", "logo": "None", "latitude": 45.27629732915929, "longitude": -71.88564695446946}, "894229707RR0001": {"name": "MAISON DES JEUNES DE WICKHAM", "designationCode": "C", "categoryCode": "09", "address": "752 RUE BLANCHARD", "city": "WICKHAM", "province": "QC", "country": "CA", "postalCode": "J0C1S0", "twitter": "None", "instagram": "None", "facebook": "None", "youtube": "None", "website": "None", "summary": "None", "logo": "None", "latitude": 45.75881410632451, "longitude": -72.49822382566818}, "891797847RR0001": {"name": "MAISON DES JEUNES DE WOTTON", "designationCode": "C", "categoryCode": "09", "address": "400 MGR L'HEUREUX", "city": "WOTTON", "province": "QC", "country": "CA", "postalCode": "J0A1N0", "twitter": "None", "instagram": "None", "facebook": "None", "youtube": "None", "website": "None", "summary": "None", "logo": "None", "latitude": 45.73592634867702, "longitude": -71.81052690684935}, "890364490RR0001": {"name": "MAISON DES JEUNES DEFI-ADOS", "designationCode": "C", "categoryCode": "09", "address": "302 RUE SAINT-JOSEPH", "city": "LEVIS", "province": "QC", "country": "CA", "postalCode": "G6V1G2", "twitter": "None", "instagram": "None", "facebook": "None", "youtube": "None", "website": "None", "summary": "None", "logo": "None", "latitude": 46.826219725489196, "longitude": -71.16388485039533}, "120302757RR0001": {"name": "MAISON DES JEUNES DES BASSES-LAURENTIDES INC.", "designationCode": "C", "categoryCode": "09", "address": "53 RUE ST-LAMBERT", "city": "STE-THERESE", "province": "QC", "country": "CA", "postalCode": "J7E3J9", "twitter": "None", "instagram": "None", "facebook": "None", "youtube": "None", "website": "None", "summary": "None", "logo": "None", "latitude": 45.64303412738765, "longitude": -73.8471377349529}, "140873993RR0001": {"name": "MAISON DES JEUNES DES FRONTI\u00c8RES DU SUD", "designationCode": "C", "categoryCode": "09", "address": "195 RUE ST-PIERRE             CP 285", "city": "ST-PAMPHILE", "province": "QC", "country": "CA", "postalCode": "G0R3X0", "twitter": "None", "instagram": "None", "facebook": "None", "youtube": "None", "website": "None", "summary": "None", "logo": "None", "latitude": 46.96101540769821, "longitude": -69.78799505825515}, "129289971RR0001": {"name": "MAISON DES JEUNES DES ILES-DE-LA-MADELEINE", "designationCode": "C", "categoryCode": "29", "address": "704 CH. DU GRAND-RUISSEAU", "city": "FATIMA", "province": "QC", "country": "CA", "postalCode": "G4T2L6", "twitter": "None", "instagram": "None", "facebook": "None", "youtube": "None", "website": "None", "summary": "None", "logo": "None", "latitude": 47.38896160118861, "longitude": -61.87515004154941}, "141096057RR0001": {"name": "MAISON DES JEUNES DU BAS ST-FRANCOIS", "designationCode": "C", "categoryCode": "09", "address": "10A, RUE CENTRE COMMUNAUTAIRE", "city": "ST-FRANCOIS-DU-LAC", "province": "QC", "country": "CA", "postalCode": "J0G1M0", "twitter": "None", "instagram": "None", "facebook": "None", "youtube": "None", "website": "None", "summary": "None", "logo": "None", "latitude": 46.06322602450626, "longitude": -72.82863218390835}, "898776562RR0001": {"name": "MAISON DES JEUNES DU BAS-SAGUENAY", "designationCode": "C", "categoryCode": "09", "address": "157, RTE 170", "city": "L'ANSE ST-JEAN", "province": "QC", "country": "CA", "postalCode": "G0V1J0", "twitter": "None", "instagram": "None", "facebook": "None", "youtube": "None", "website": "None", "summary": "None", "logo": "None", "latitude": 48.19701671466379, "longitude": -70.24655357667167}, "891462962RR0001": {"name": "MAISON DES JEUNES DU GRAND PASPEBIAC", "designationCode": "C", "categoryCode": "09", "address": "6, BOUL G\u00c9RARD D. L\u00c9VESQUE EST", "city": "PASP\u00c9BIAC", "province": "QC", "country": "CA", "postalCode": "G0C2K0", "twitter": "None", "instagram": "None", "facebook": "None", "youtube": "None", "website": "None", "summary": "None", "logo": "None", "latitude": 48.02924504244344, "longitude": -65.24810535455028}, "873202733RR0001": {"name": "MAISON DES JEUNES DU MARIGOT", "designationCode": "C", "categoryCode": "09", "address": "599 ST-ANDRE", "city": "LAVAL", "province": "QC", "country": "CA", "postalCode": "H7G3A4", "twitter": "None", "instagram": "None", "facebook": "None", "youtube": "None", "website": "None", "summary": "None", "logo": "None", "latitude": 45.57339536386978, "longitude": -73.69267128169551}, "139188833RR0001": {"name": "MAISON DES JEUNES DU NORD", "designationCode": "C", "categoryCode": "09", "address": "390A RUE MATAWIN", "city": "SAINT-MICHEL-DES-SAINTS", "province": "QC", "country": "CA", "postalCode": "J0K3B0", "twitter": "None", "instagram": "None", "facebook": "None", "youtube": "None", "website": "None", "summary": "None", "logo": "None", "latitude": 46.67589036173656, "longitude": -73.92006589038064}, "130523319RR0001": {"name": "MAISON DES JEUNES DU PLATEAU INC", "designationCode": "C", "categoryCode": "09", "address": "1846, AV. LAURIER E.", "city": "MONTR\u00c9AL", "province": "QC", "country": "CA", "postalCode": "H2H1B2", "twitter": "None", "instagram": "None", "facebook": "None", "youtube": "None", "website": "None", "summary": "None", "logo": "None", "latitude": 45.53627284817363, "longitude": -73.58002850302975}, "138227236RR0001": {"name": "MAISON DES JEUNES F R A D D'AMOS INC", "designationCode": "C", "categoryCode": "09", "address": "CP 232", "city": "AMOS", "province": "QC", "country": "CA", "postalCode": "J9T3A6", "twitter": "None", "instagram": "None", "facebook": "None", "youtube": "None", "website": "None", "summary": "None", "logo": "None", "latitude": 48.56376300000005, "longitude": -78.10649449999994}, "897330742RR0001": {"name": "MAISON DES JEUNES L'ATOME", "designationCode": "C", "categoryCode": "09", "address": "325, CHEMIN DU HIBOU", "city": "STONEHAM", "province": "QC", "country": "CA", "postalCode": "G3C1R8", "twitter": "None", "instagram": "None", "facebook": "None", "youtube": "None", "website": "None", "summary": "None", "logo": "None", "latitude": 47.02889000000005, "longitude": -71.38141999999993}, "132301466RR0001": {"name": "MAISON DES JEUNES L'ENTRETEMPS DE FORESTVILLE", "designationCode": "C", "categoryCode": "09", "address": "16 ROUTE 138 OUEST", "city": "FORESTVILLE", "province": "QC", "country": "CA", "postalCode": "G0T1E0", "twitter": "None", "instagram": "None", "facebook": "None", "youtube": "None", "website": "None", "summary": "None", "logo": "None", "latitude": 48.73836989645005, "longitude": -69.08838708245433}, "119004141RR0001": {"name": "MAISON DES JEUNES L'ENVOL DE SAINTE-FOY INC.", "designationCode": "C", "categoryCode": "56", "address": "873 ROUTE DE L'EGLISE", "city": "SAINTE-FOY", "province": "QC", "country": "CA", "postalCode": "G1V3T7", "twitter": "None", "instagram": "None", "facebook": "None", "youtube": "None", "website": "None", "summary": "None", "logo": "None", "latitude": 46.77670074883136, "longitude": -71.3027465323159}, "890880875RR0001": {"name": "MAISON DES JEUNES L'ESCAMPETTE INC", "designationCode": "C", "categoryCode": "09", "address": "525 RUE DOMINION, SUITE 100", "city": "MONTR\u00c9AL", "province": "QC", "country": "CA", "postalCode": "H3J2B4", "twitter": "None", "instagram": "None", "facebook": "None", "youtube": "None", "website": "None", "summary": "None", "logo": "None", "latitude": 45.48452789621432, "longitude": -73.5735421333316}, "888142411RR0001": {"name": "MAISON DES JEUNES L'ESCAPADE DE VAL-BELAIR", "designationCode": "C", "categoryCode": "09", "address": "1565 RUE DE L'INNOVATION", "city": "VAL-B\u00c9LAIR", "province": "QC", "country": "CA", "postalCode": "G3K2P9", "twitter": "None", "instagram": "None", "facebook": "None", "youtube": "None", "website": "None", "summary": "None", "logo": "None", "latitude": 46.8592195754641, "longitude": -71.41840149516827}, "862069911RR0001": {"name": "MAISON DES JEUNES L'ILLUSION", "designationCode": "C", "categoryCode": "09", "address": "532-12 RUE BERGERON", "city": "GIRARDVILLE", "province": "QC", "country": "CA", "postalCode": "G0W1R0", "twitter": "None", "instagram": "None", "facebook": "None", "youtube": "None", "website": "None", "summary": "None", "logo": "None", "latitude": 49.001120424635076, "longitude": -72.54821402764135}, "103463535RR0001": {"name": "MAISON DES JEUNES L'INITIATIVE INC.", "designationCode": "C", "categoryCode": "29", "address": "1019 RUE SAINT-JOSEPH", "city": "VALCOURT", "province": "QC", "country": "CA", "postalCode": "J0E2L0", "twitter": "None", "instagram": "None", "facebook": "None", "youtube": "None", "website": "None", "summary": "None", "logo": "None", "latitude": 45.49403820483005, "longitude": -72.31496137757534}, "898101944RR0001": {"name": "MAISON DES JEUNES L'INTEGRALE INC.", "designationCode": "C", "categoryCode": "09", "address": "17099 BOUL HENRI-BOURASSA", "city": "QUEBEC", "province": "QC", "country": "CA", "postalCode": "G1G4A9", "twitter": "None", "instagram": "None", "facebook": "None", "youtube": "None", "website": "None", "summary": "None", "logo": "None", "latitude": 46.888693000259806, "longitude": -71.2945454689535}, "894465228RR0001": {"name": "MAISON DES JEUNES LA FORTERESSE", "designationCode": "C", "categoryCode": "09", "address": "1175 A AV DES MARGUERITES", "city": "BECANCOUR", "province": "QC", "country": "CA", "postalCode": "G9H2R8", "twitter": "None", "instagram": "None", "facebook": "None", "youtube": "None", "website": "None", "summary": "None", "logo": "None", "latitude": 46.334066917046364, "longitude": -72.5060771073637}, "107655771RR0001": {"name": "MAISON DES JEUNES LA GALERIE INC.", "designationCode": "C", "categoryCode": "09", "address": "3643, RUE NOTRE-DAME OUEST", "city": "MONTREAL", "province": "QC", "country": "CA", "postalCode": "H4C1P6", "twitter": "None", "instagram": "None", "facebook": "None", "youtube": "None", "website": "None", "summary": "None", "logo": "None", "latitude": 45.47947572191117, "longitude": -73.58128776132483}, "889686440RR0001": {"name": "MAISON DES JEUNES LA PIAULE DE BOUCHERVILLE", "designationCode": "C", "categoryCode": "09", "address": "540 CHEMIN DU LAC", "city": "BOUCHERVILLE", "province": "QC", "country": "CA", "postalCode": "J4B6X3", "twitter": "None", "instagram": "None", "facebook": "None", "youtube": "None", "website": "None", "summary": "None", "logo": "None", "latitude": 45.60532369802072, "longitude": -73.44600215886683}, "140046814RR0001": {"name": "MAISON DES JEUNES LA PIAULE DE JOLIETTE", "designationCode": "C", "categoryCode": "29", "address": "422, RUE ST-PIERRE SUD", "city": "JOLIETTE", "province": "QC", "country": "CA", "postalCode": "J6E8R7", "twitter": "None", "instagram": "None", "facebook": "None", "youtube": "None", "website": "None", "summary": "None", "logo": "None", "latitude": 46.01485055955323, "longitude": -73.43998372589321}, "890239064RR0001": {"name": "MAISON DES JEUNES LAURENTIDES/ST-LIN", "designationCode": "C", "categoryCode": "09", "address": "674 DU PARC", "city": "ST-LIN-LAURENTIDES", "province": "QC", "country": "CA", "postalCode": "J5M3A2", "twitter": "None", "instagram": "None", "facebook": "None", "youtube": "None", "website": "None", "summary": "None", "logo": "None", "latitude": 45.85834758090485, "longitude": -73.75204456725751}, "106949266RR0001": {"name": "MAISON DES JEUNES LE JOUVENCEAU", "designationCode": "C", "categoryCode": "09", "address": "152, 4\u00c8ME AVENUE, C.P.64,", "city": "DOLBEAU-MISTASSINI", "province": "QC", "country": "CA", "postalCode": "G8L2P9", "twitter": "None", "instagram": "None", "facebook": "None", "youtube": "None", "website": "None", "summary": "None", "logo": "None", "latitude": 48.877540870910245, "longitude": -72.22358284205679}, "899392351RR0001": {"name": "MAISON DES JEUNES LE S.Q.U.A.T.", "designationCode": "C", "categoryCode": "09", "address": "471 PRINCIPAL", "city": "POINTE-AUX-OUTARDES", "province": "QC", "country": "CA", "postalCode": "G0H1M0", "twitter": "None", "instagram": "None", "facebook": "None", "youtube": "None", "website": "None", "summary": "None", "logo": "None", "latitude": 49.07961975272651, "longitude": -68.40105837194851}, "127999415RR0001": {"name": "MAISON DES JEUNES MAGI DE MERCIER OUEST INC", "designationCode": "C", "categoryCode": "09", "address": "CP 51112 CSP CENTRE DOMAINE   3365 DE GRANBY", "city": "MONTREAL", "province": "QC", "country": "CA", "postalCode": "H1N3T8", "twitter": "None", "instagram": "None", "facebook": "None", "youtube": "None", "website": "None", "summary": "None", "logo": "None", "latitude": 45.580909284271506, "longitude": -73.54269069785842}, "101026615RR0001": {"name": "MAISON DES JEUNES SAC-ADOS DE CHIBOUGAMAU INC.", "designationCode": "C", "categoryCode": "29", "address": "505 RUE WILSON", "city": "CHIBOUGAMAU", "province": "QC", "country": "CA", "postalCode": "G8P1K2", "twitter": "None", "instagram": "None", "facebook": "None", "youtube": "None", "website": "None", "summary": "None", "logo": "None", "latitude": 49.91619651154119, "longitude": -74.36329289064574}, "130362270RR0001": {"name": "MAISON DES JEUNES SAINTE-ADELE", "designationCode": "C", "categoryCode": "29", "address": "1215 BOURG-JOLIE", "city": "ST ADELE", "province": "QC", "country": "CA", "postalCode": "J8B1W8", "twitter": "None", "instagram": "None", "facebook": "None", "youtube": "None", "website": "None", "summary": "None", "logo": "None", "latitude": 45.956062581193294, "longitude": -74.13247414596931}, "142042167RR0001": {"name": "MAISON DES JEUNES ST-HONORE", "designationCode": "C", "categoryCode": "09", "address": "180, PAUL-AIME HUDON", "city": "ST-HONORE-DE-CHICOUTIMI", "province": "QC", "country": "CA", "postalCode": "G0V1L0", "twitter": "None", "instagram": "None", "facebook": "None", "youtube": "None", "website": "None", "summary": "None", "logo": "None", "latitude": 48.535317524006025, "longitude": -71.08298622978835}, "884833021RR0001": {"name": "MAISON DES JEUNES ST-SAUVEUR - PIEDMONT INC", "designationCode": "C", "categoryCode": "09", "address": "57 RUE DE L'EGLISE", "city": "ST-SAUVEUR", "province": "QC", "country": "CA", "postalCode": "J0R1R0", "twitter": "None", "instagram": "None", "facebook": "None", "youtube": "None", "website": "None", "summary": "None", "logo": "None", "latitude": 45.89706346378896, "longitude": -74.159262}, "119028710RR0001": {"name": "MAISON DES JEUNES STE-JULIE INC.", "designationCode": "C", "categoryCode": "09", "address": "1581 CH. DU FER A CHEVAL", "city": "STE-JULIE", "province": "QC", "country": "CA", "postalCode": "J3E1G5", "twitter": "None", "instagram": "None", "facebook": "None", "youtube": "None", "website": "None", "summary": "None", "logo": "None", "latitude": 45.587941428530236, "longitude": -73.32695245868173}, "142062322RR0001": {"name": "MAISON DES METIERS D'ART DE QUEBEC", "designationCode": "C", "categoryCode": "22", "address": "367, BOUL. CHAREST EST", "city": "QU\u00c9BEC", "province": "QC", "country": "CA", "postalCode": "G1K3H3", "twitter": "None", "instagram": "None", "facebook": "None", "youtube": "None", "website": "None", "summary": "None", "logo": "None", "latitude": 46.813472162906216, "longitude": -71.22443256021705}, "143978757RR0001": {"name": "MAISON DES SOURDS", "designationCode": "C", "categoryCode": "09", "address": "2200 CREMAZIE E               BUR 200", "city": "MONTREAL", "province": "QC", "country": "CA", "postalCode": "H2E2Z8", "twitter": "None", "instagram": "None", "facebook": "None", "youtube": "None", "website": "None", "summary": "None", "logo": "None", "latitude": 45.55576849428721, "longitude": -73.61802237994127}, "868674201RR0001": {"name": "MAISON DESJARDINS DE SOINS PALLIATIFS DU KRTB", "designationCode": "C", "categoryCode": "11", "address": "44 DE CHAUFAILLES", "city": "RIVIERE-DU-LOUP", "province": "QC", "country": "CA", "postalCode": "G5R4E1", "twitter": "None", "instagram": "None", "facebook": "None", "youtube": "None", "website": "None", "summary": "None", "logo": "None", "latitude": 47.81735179545842, "longitude": -69.53819686874586}, "119028793RR0001": {"name": "MAISON DIEU", "designationCode": "C", "categoryCode": "47", "address": "540 RUE RITCHOT", "city": "SAINT-BONIFACE", "province": "MB", "country": "CA", "postalCode": "R2H2X3", "twitter": "None", "instagram": "None", "facebook": "None", "youtube": "None", "website": "None", "summary": "None", "logo": "None", "latitude": 49.88983732584108, "longitude": -97.11601140005214}}