{"803095777RR0001": {"name": "Twice Upon A Time/Il Etait Deux Fois", "designationCode": "C", "categoryCode": "21", "address": "16 PRUDHOMME PVT", "city": "OTTAWA", "province": "ON", "country": "CA", "postalCode": "K1N1G2", "twitter": "None", "instagram": "None", "facebook": "None", "youtube": "None", "website": "None", "summary": "None", "logo": "None", "latitude": 45.43208234165276, "longitude": -75.67903437523807}, "140616970RR0001": {"name": "Twilight Home Auxiliary", "designationCode": "C", "categoryCode": "11", "address": "BOX 437                       361 1ST ST. WEST", "city": "BENGOUGH", "province": "SK", "country": "CA", "postalCode": "S0C0K0", "twitter": "None", "instagram": "None", "facebook": "None", "youtube": "None", "website": "None", "summary": "None", "logo": "None", "latitude": 49.39533702517501, "longitude": -105.1299525169082}, "888210853RR0001": {"name": "Twillingate Historic Fishing Vessels Inc.", "designationCode": "C", "categoryCode": "50", "address": "PO BOX 145", "city": "TWILLINGATE", "province": "NL", "country": "CA", "postalCode": "A0G4M0", "twitter": "None", "instagram": "None", "facebook": "None", "youtube": "None", "website": "None", "summary": "None", "logo": "None", "latitude": 49.65692000000007, "longitude": -54.77596999999997}, "801629973RR0001": {"name": "Two Bears First Nations Research Institute Inc.", "designationCode": "C", "categoryCode": "09", "address": "RR 5 STN MPP", "city": "PRINCE ALBERT", "province": "SK", "country": "CA", "postalCode": "S6V5R3", "twitter": "None", "instagram": "None", "facebook": "None", "youtube": "None", "website": "None", "summary": "None", "logo": "None", "latitude": 53.199456000000055, "longitude": -105.74863099999993}, "855196598RR0001": {"name": "Two Countries, One Forest Society", "designationCode": "C", "categoryCode": "52", "address": "204 - 344 BLOOR ST W", "city": "TORONTO", "province": "ON", "country": "CA", "postalCode": "M5S3A7", "twitter": "None", "instagram": "None", "facebook": "None", "youtube": "None", "website": "None", "summary": "None", "logo": "None", "latitude": 43.667372648743196, "longitude": -79.40049643191246}, "806315644RR0001": {"name": "Two Hands Charitable Society", "designationCode": "B", "categoryCode": "03", "address": "200-4634 EAST HASTINGS STREET", "city": "BURNABY", "province": "BC", "country": "CA", "postalCode": "V5C2K5", "twitter": "None", "instagram": "None", "facebook": "None", "youtube": "None", "website": "None", "summary": "None", "logo": "None", "latitude": 49.280998499999995, "longitude": -122.99861250000001}, "877815506RR0001": {"name": "Two Hills & District Crime Watch Association", "designationCode": "C", "categoryCode": "59", "address": "POST OFFICE BOX 352", "city": "TWO HILLS", "province": "AB", "country": "CA", "postalCode": "T0B4K0", "twitter": "None", "instagram": "None", "facebook": "None", "youtube": "None", "website": "None", "summary": "None", "logo": "None", "latitude": 53.42860638169389, "longitude": -110.1791835}, "813789161RR0001": {"name": "Two Hills Health Centre Foundation", "designationCode": "A", "categoryCode": "13", "address": "BOX 160", "city": "TWO HILLS", "province": "AB", "country": "CA", "postalCode": "T0B4K0", "twitter": "None", "instagram": "None", "facebook": "None", "youtube": "None", "website": "None", "summary": "None", "logo": "None", "latitude": 53.032698341056324, "longitude": -110.29566447547296}, "750979692RR0001": {"name": "Two Hills Mennonite Church", "designationCode": "C", "categoryCode": "39", "address": "POST OFFICE BOX 1016", "city": "TWO HILLS", "province": "AB", "country": "CA", "postalCode": "T0B4K0", "twitter": "None", "instagram": "None", "facebook": "None", "youtube": "None", "website": "None", "summary": "None", "logo": "None", "latitude": 53.42860638169389, "longitude": -110.1791835}, "812595007RR0001": {"name": "Two Kids for Change", "designationCode": "B", "categoryCode": "03", "address": "8 5425 CREDITVIEW", "city": "MISSISSAUGA", "province": "ON", "country": "CA", "postalCode": "L5V2P3", "twitter": "None", "instagram": "None", "facebook": "None", "youtube": "None", "website": "None", "summary": "None", "logo": "None", "latitude": 43.586361290351185, "longitude": -79.69665559042681}, "830719530RR0001": {"name": "Two Rivers Church Presbyterian Church, Guelph, Ontario", "designationCode": "C", "categoryCode": "37", "address": "106 CARDIGAN STREET", "city": "GUELPH", "province": "ON", "country": "CA", "postalCode": "N1H0A4", "twitter": "None", "instagram": "None", "facebook": "None", "youtube": "None", "website": "None", "summary": "None", "logo": "None", "latitude": 43.55061534771555, "longitude": -80.25500649166483}, "821653862RR0001": {"name": "Two Silver Trumpets Ministries Inc.", "designationCode": "C", "categoryCode": "36", "address": "4287 AREJAY AVENUE,", "city": "BEAMSVILLE", "province": "ON", "country": "CA", "postalCode": "L0R1B6", "twitter": "None", "instagram": "None", "facebook": "None", "youtube": "None", "website": "None", "summary": "None", "logo": "None", "latitude": 43.16765548600597, "longitude": -79.46729044463038}, "847851557RR0001": {"name": "Two Ten Recovery Inc.", "designationCode": "C", "categoryCode": "57", "address": "210 MARYLAND STREET", "city": "WINNIPEG", "province": "MB", "country": "CA", "postalCode": "R3G1L6", "twitter": "None", "instagram": "None", "facebook": "None", "youtube": "None", "website": "None", "summary": "None", "logo": "None", "latitude": 49.88517437246813, "longitude": -97.16077497518592}, "827898255RR0001": {"name": "Two Worlds Cancer Collaboration Foundation", "designationCode": "C", "categoryCode": "11", "address": "154 MEMORIAL AVE, 3RD FLOOR   P.O. BOX 760", "city": "PARKSVILLE", "province": "BC", "country": "CA", "postalCode": "V9P2G8", "twitter": "None", "instagram": "None", "facebook": "None", "youtube": "None", "website": "None", "summary": "None", "logo": "None", "latitude": 49.319947499567306, "longitude": -124.31510027699233}, "856766019RR0001": {"name": "Tyee Mountain Trail Society", "designationCode": "C", "categoryCode": "56", "address": "12180 HISLOP RD", "city": "TELKWA", "province": "BC", "country": "CA", "postalCode": "V0J2X1", "twitter": "None", "instagram": "None", "facebook": "None", "youtube": "None", "website": "None", "summary": "None", "logo": "None", "latitude": 54.738749880271, "longitude": -126.97713749887083}, "859102980RR0001": {"name": "Tyendinaga Township Public Library Board", "designationCode": "C", "categoryCode": "50", "address": "852 MELROSE ROAD              R.R.#1", "city": "SHANNONVILLE", "province": "ON", "country": "CA", "postalCode": "K0K3A0", "twitter": "None", "instagram": "None", "facebook": "None", "youtube": "None", "website": "None", "summary": "None", "logo": "None", "latitude": 44.25301064006009, "longitude": -77.20347285981524}, "119288918RR1627": {"name": "Tyndall Park Tagalog Congregation of Jehovah's Witnesses, Winnipeg, Manitoba", "designationCode": "C", "categoryCode": "61", "address": "1877 INKSTER BOULEVARD", "city": "WINNIPEG", "province": "MB", "country": "CA", "postalCode": "R2R2A6", "twitter": "None", "instagram": "None", "facebook": "None", "youtube": "None", "website": "None", "summary": "None", "logo": "None", "latitude": 49.94606753043998, "longitude": -97.19686349999999}, "805914447RR0001": {"name": "Tyrone A. Bobb Ministries", "designationCode": "B", "categoryCode": "39", "address": "15 SHEPHERD RD", "city": "WHITBY", "province": "ON", "country": "CA", "postalCode": "L1M1G8", "twitter": "None", "instagram": "None", "facebook": "None", "youtube": "None", "website": "None", "summary": "None", "logo": "None", "latitude": 43.931317566766594, "longitude": -78.99232064744122}, "827599580RR0001": {"name": "Tytoo Gardens Canada", "designationCode": "C", "categoryCode": "09", "address": "52 HOWE DRIVE                 BOX 124", "city": "SHALLOW LAKE", "province": "ON", "country": "CA", "postalCode": "N0H2K0", "twitter": "None", "instagram": "None", "facebook": "None", "youtube": "None", "website": "None", "summary": "None", "logo": "None", "latitude": 49.7372640279614, "longitude": -92.83644787967974}, "844980631RR0001": {"name": "Tzu Chi Medical Centre of Traditional Chinese Medicine Canada Foundation", "designationCode": "C", "categoryCode": "11", "address": "8850 OSLER ST", "city": "VANCOUVER", "province": "BC", "country": "CA", "postalCode": "V6P4G2", "twitter": "None", "instagram": "None", "facebook": "None", "youtube": "None", "website": "None", "summary": "None", "logo": "None", "latitude": 49.20498705107044, "longitude": -123.13171043280073}, "119208130RR0001": {"name": "TABER & DISTRICT MUSEUM SOCIETY", "designationCode": "C", "categoryCode": "50", "address": "4702 50 STREET", "city": "TABER", "province": "AB", "country": "CA", "postalCode": "T1G2B6", "twitter": "None", "instagram": "None", "facebook": "None", "youtube": "None", "website": "None", "summary": "None", "logo": "None", "latitude": 49.782977580904856, "longitude": -112.14968300245191}, "119288918RR0417": {"name": "TABER ALBERTA CONGREGATION OF JEHOVAH'S WITNESSES", "designationCode": "C", "categoryCode": "61", "address": "6002 51 ST", "city": "TABER", "province": "AB", "country": "CA", "postalCode": "T1G1K5", "twitter": "None", "instagram": "None", "facebook": "None", "youtube": "None", "website": "None", "summary": "None", "logo": "None", "latitude": 49.79643300000001, "longitude": -112.1479725517916}, "138484647RR0001": {"name": "TABER AND DISTRICT HEALTH FOUNDATION", "designationCode": "A", "categoryCode": "15", "address": "4326 50TH AVENUE", "city": "TABER", "province": "AB", "country": "CA", "postalCode": "T1G1N9", "twitter": "None", "instagram": "None", "facebook": "None", "youtube": "None", "website": "None", "summary": "None", "logo": "None", "latitude": 49.78588452899767, "longitude": -112.16447991618097}, "894992817RR0001": {"name": "TABER AND DISTRICT HOUSING FOUNDATION", "designationCode": "C", "categoryCode": "09", "address": "5318 48 AVENUE", "city": "TABER", "province": "AB", "country": "CA", "postalCode": "T1G1S2", "twitter": "None", "instagram": "None", "facebook": "None", "youtube": "None", "website": "None", "summary": "None", "logo": "None", "latitude": 49.784776722170974, "longitude": -112.14395789425242}, "108062449RR0001": {"name": "TABER CHILD CARE CENTRE SOCIETY", "designationCode": "C", "categoryCode": "20", "address": "6008 55 STREET", "city": "TABER", "province": "AB", "country": "CA", "postalCode": "T1G1K3", "twitter": "None", "instagram": "None", "facebook": "None", "youtube": "None", "website": "None", "summary": "None", "logo": "None", "latitude": 49.79691883236194, "longitude": -112.14148502567946}, "893307868RR0001": {"name": "TABER CHURCH OF CHRIST", "designationCode": "C", "categoryCode": "39", "address": "5303 - 50 ST", "city": "TABER", "province": "AB", "country": "CA", "postalCode": "T1G1M2", "twitter": "None", "instagram": "None", "facebook": "None", "youtube": "None", "website": "None", "summary": "None", "logo": "None", "latitude": 49.789232999999996, "longitude": -112.14961145599868}, "898168976RR0001": {"name": "TABER COMMUNITY ACTION AND PREVENTION SOCIETY (TCAPS)", "designationCode": "C", "categoryCode": "59", "address": "5700-50 AVE", "city": "TABER", "province": "AB", "country": "CA", "postalCode": "T1G2H7", "twitter": "None", "instagram": "None", "facebook": "None", "youtube": "None", "website": "None", "summary": "None", "logo": "None", "latitude": 49.78595652899769, "longitude": -112.13686358381904}, "878558766RR0001": {"name": "TABER EMC CHURCH", "designationCode": "C", "categoryCode": "34", "address": "BOX 4348", "city": "TABER", "province": "AB", "country": "CA", "postalCode": "T1G2C7", "twitter": "None", "instagram": "None", "facebook": "None", "youtube": "None", "website": "None", "summary": "None", "logo": "None", "latitude": 49.787853000000055, "longitude": -112.12714249999993}, "879561322RR0001": {"name": "TABER FOOD BANK SOCIETY", "designationCode": "C", "categoryCode": "09", "address": "5512-48 AVE", "city": "TABER", "province": "AB", "country": "CA", "postalCode": "T1G1S4", "twitter": "None", "instagram": "None", "facebook": "None", "youtube": "None", "website": "None", "summary": "None", "logo": "None", "latitude": 49.78555474712926, "longitude": -112.13986402663174}, "119208239RR0001": {"name": "TABER PASTORAL CHARGE", "designationCode": "C", "categoryCode": "44", "address": "4929-50TH AVE", "city": "TABER", "province": "AB", "country": "CA", "postalCode": "T1G1H7", "twitter": "None", "instagram": "None", "facebook": "None", "youtube": "None", "website": "None", "summary": "None", "logo": "None", "latitude": 49.786006452680475, "longitude": -112.15019322300768}, "129204079RR0001": {"name": "TABER PUBLIC LIBRARY", "designationCode": "C", "categoryCode": "50", "address": "5415 50TH AVE", "city": "TABER", "province": "AB", "country": "CA", "postalCode": "T1G1V2", "twitter": "None", "instagram": "None", "facebook": "None", "youtube": "None", "website": "None", "summary": "None", "logo": "None", "latitude": 49.78601545268045, "longitude": -112.14195283236194}, "107990509RR0001": {"name": "TABER SPECIAL NEEDS SOCIETY", "designationCode": "C", "categoryCode": "09", "address": "6005 60 AVE", "city": "TABER", "province": "AB", "country": "CA", "postalCode": "T1G2C1", "twitter": "None", "instagram": "None", "facebook": "None", "youtube": "None", "website": "None", "summary": "None", "logo": "None", "latitude": 49.79642951096429, "longitude": -112.13122058381903}, "108062555RR0001": {"name": "TABERNACLE BAPTIST CHURCH", "designationCode": "C", "categoryCode": "31", "address": "RESTALL & RESTALL LLP         295 BROADWAY AVE. 2ND FLOOR", "city": "WINNIPEG", "province": "MB", "country": "CA", "postalCode": "R3C0R9", "twitter": "None", "instagram": "None", "facebook": "None", "youtube": "None", "website": "None", "summary": "None", "logo": "None", "latitude": 49.88789215072984, "longitude": -97.13955650181768}, "119208171RR0001": {"name": "TABERNACLE LIFE CHURCH INC", "designationCode": "C", "categoryCode": "39", "address": "30 AVONDALE STATION RD", "city": "AVONDALE", "province": "NB", "country": "CA", "postalCode": "E7K1Y7", "twitter": "None", "instagram": "None", "facebook": "None", "youtube": "None", "website": "None", "summary": "None", "logo": "None", "latitude": 46.303358344970995, "longitude": -67.66220173645345}, "868449596RR0001": {"name": "TABERNACLE OF PRAISE", "designationCode": "C", "categoryCode": "39", "address": "872 PROGRESS AVENUE", "city": "SCARBOROUGH", "province": "ON", "country": "CA", "postalCode": "M1H2X7", "twitter": "None", "instagram": "None", "facebook": "None", "youtube": "None", "website": "None", "summary": "None", "logo": "None", "latitude": 43.7811361690517, "longitude": -79.23703678019497}, "892024043RR0001": {"name": "TABERNACLE OF PRAISE NEW TESTAMENT CHURCH OF GOD", "designationCode": "C", "categoryCode": "36", "address": "117 EDDYSTONE AVE", "city": "NORTH YORK", "province": "ON", "country": "CA", "postalCode": "M3N1H5", "twitter": "None", "instagram": "None", "facebook": "None", "youtube": "None", "website": "None", "summary": "None", "logo": "None", "latitude": 43.748305827630084, "longitude": -79.5190858956374}, "119208197RR0001": {"name": "TABERNACLE OF PRAISE PENTECOSTAL CHURCH", "designationCode": "C", "categoryCode": "36", "address": "PO BOX 5634", "city": "FT. MCMURRAY", "province": "AB", "country": "CA", "postalCode": "T9H3G6", "twitter": "None", "instagram": "None", "facebook": "None", "youtube": "None", "website": "None", "summary": "None", "logo": "None", "latitude": 56.72059001832189, "longitude": -111.35877005886067}, "871387270RR0001": {"name": "TABERNACLE OF THE CONGREGATION", "designationCode": "C", "categoryCode": "47", "address": "61 ST. JAMES STREET           POST OFFICE BOX 1299", "city": "WATERFORD", "province": "ON", "country": "CA", "postalCode": "N0E1Y0", "twitter": "None", "instagram": "None", "facebook": "None", "youtube": "None", "website": "None", "summary": "None", "logo": "None", "latitude": 42.93292888649081, "longitude": -80.29353679929623}, "137570594RR0001": {"name": "TABERNACULO BIBILICO BAUTISTA EL REDENTOR", "designationCode": "C", "categoryCode": "31", "address": "2551 49TH AVE E", "city": "VANCOUVER", "province": "BC", "country": "CA", "postalCode": "V5S1J6", "twitter": "None", "instagram": "None", "facebook": "None", "youtube": "None", "website": "None", "summary": "None", "logo": "None", "latitude": 49.22484050432782, "longitude": -123.05545102553523}, "890184641RR0001": {"name": "TABERNACULO DE ADORACION JESUCRISTO ESPERANZA DE VIDA", "designationCode": "C", "categoryCode": "39", "address": "497 OSGOODE DR", "city": "LONDON", "province": "ON", "country": "CA", "postalCode": "N6E1B6", "twitter": "None", "instagram": "None", "facebook": "None", "youtube": "None", "website": "None", "summary": "None", "logo": "None", "latitude": 42.93755117626506, "longitude": -81.20839864530548}, "864997002RR0001": {"name": "TABERNACULO EVANGELICO DEL NAZARENO CHURCH OF THE NAZARENE", "designationCode": "C", "categoryCode": "47", "address": "3093 CHURCHILL AVE", "city": "MISSISSAUGA", "province": "ON", "country": "CA", "postalCode": "L4T1R6", "twitter": "None", "instagram": "None", "facebook": "None", "youtube": "None", "website": "None", "summary": "None", "logo": "None", "latitude": 43.70849219291348, "longitude": -79.6439909674243}, "889399598RR0001": {"name": "TABITHA FOUNDATION CANADA", "designationCode": "C", "categoryCode": "09", "address": "PO BOX 65057                  MERIVALE RD POSTAL OUTLET", "city": "OTTAWA", "province": "ON", "country": "CA", "postalCode": "K2G5Y3", "twitter": "None", "instagram": "None", "facebook": "None", "youtube": "None", "website": "None", "summary": "None", "logo": "None", "latitude": 45.29701695693335, "longitude": -75.70271334015752}, "893165852RR0001": {"name": "TABLE DE CONCERTATION LOCALE POUR PERSONNES AGEES DU TEMISCAMINGUE INC", "designationCode": "C", "categoryCode": "09", "address": "96 RUE SAINTE-ANNE", "city": "VILLE-MARIE", "province": "QC", "country": "CA", "postalCode": "J9V2B7", "twitter": "None", "instagram": "None", "facebook": "None", "youtube": "None", "website": "None", "summary": "None", "logo": "None", "latitude": 47.332628761556, "longitude": -79.43306539465647}, "873848915RR0001": {"name": "TABLE DE CONCERTATION SUR LA FAIM ET LE DEVELOPPEMENT SOCIAL DE L'OUTAOUAIS", "designationCode": "C", "categoryCode": "09", "address": "180, BOULEVARD MONT-BLEU", "city": "GATINEAU", "province": "QC", "country": "CA", "postalCode": "J8Z3J5", "twitter": "None", "instagram": "None", "facebook": "None", "youtube": "None", "website": "None", "summary": "None", "logo": "None", "latitude": 45.46100249047804, "longitude": -75.76368227130817}, "140358516RR0001": {"name": "TABLE DE CONCERTATION SUR LA FAIM ET LE DEVELOPPPEMENT SOCIAL DU MONTREAL METROPOLITAIN", "designationCode": "C", "categoryCode": "09", "address": "8605 BERRI, 3E ETAGE", "city": "MONTREAL", "province": "QC", "country": "CA", "postalCode": "H2P2G5", "twitter": "None", "instagram": "None", "facebook": "None", "youtube": "None", "website": "None", "summary": "None", "logo": "None", "latitude": 45.54530088426911, "longitude": -73.6359224933349}, "890093099RR0001": {"name": "TABLE DES AMIS DE LOUISEVILLE", "designationCode": "C", "categoryCode": "09", "address": "801 ST-MARC                   R.R.1", "city": "LOUISEVILLE", "province": "QC", "country": "CA", "postalCode": "J5V2L4", "twitter": "None", "instagram": "None", "facebook": "None", "youtube": "None", "website": "None", "summary": "None", "logo": "None", "latitude": 46.27670041519662, "longitude": -72.95791661322936}, "105119952RR0001": {"name": "TABLE REGIONALE DES ORGANISMES VOLONTAIRES D'EDUCATION POPULAIRE DE MONTREAL", "designationCode": "C", "categoryCode": "09", "address": "326, BOUL. GOUNOD", "city": "MONTREAL", "province": "QC", "country": "CA", "postalCode": "H2R1B3", "twitter": "None", "instagram": "None", "facebook": "None", "youtube": "None", "website": "None", "summary": "None", "logo": "None", "latitude": 45.540834244792, "longitude": -73.62659245946114}, "108062688RR0001": {"name": "TABOR BAPTIST CHAPEL", "designationCode": "C", "categoryCode": "31", "address": "710 MADELINE ST", "city": "WINNIPEG", "province": "MB", "country": "CA", "postalCode": "R2C2S6", "twitter": "None", "instagram": "None", "facebook": "None", "youtube": "None", "website": "None", "summary": "None", "logo": "None", "latitude": 49.89886359256161, "longitude": -97.01203839713794}, "875765794RR0001": {"name": "TABOR HOME FUND INC", "designationCode": "A", "categoryCode": "15", "address": "12 ALEXANDRIA BAY", "city": "MORDEN", "province": "MB", "country": "CA", "postalCode": "R6M1R3", "twitter": "None", "instagram": "None", "facebook": "None", "youtube": "None", "website": "None", "summary": "None", "logo": "None", "latitude": 49.20055951399405, "longitude": -98.10504063918864}, "119208262RR0001": {"name": "TABOR HOME INC", "designationCode": "C", "categoryCode": "01", "address": "450 LOREN DR", "city": "MORDEN", "province": "MB", "country": "CA", "postalCode": "R6M0E2", "twitter": "None", "instagram": "None", "facebook": "None", "youtube": "None", "website": "None", "summary": "None", "logo": "None", "latitude": 49.19406047908878, "longitude": -98.08083002640419}, "108062696RR0001": {"name": "TABOR HOME SOCIETY", "designationCode": "C", "categoryCode": "01", "address": "31944 SUNRISE CRES", "city": "ABBOTSFORD", "province": "BC", "country": "CA", "postalCode": "V2T1N5", "twitter": "None", "instagram": "None", "facebook": "None", "youtube": "None", "website": "None", "summary": "None", "logo": "None", "latitude": 49.046799648707506, "longitude": -122.33843462149461}, "893284414RR0001": {"name": "TABOR LAKE CLEANUP SOCIETY", "designationCode": "C", "categoryCode": "59", "address": "PO BOX 1473", "city": "PRINCE GEORGE", "province": "BC", "country": "CA", "postalCode": "V2L4V5", "twitter": "None", "instagram": "None", "facebook": "None", "youtube": "None", "website": "None", "summary": "None", "logo": "None", "latitude": 53.91241800000006, "longitude": -122.74463149999994}, "892388968RR0001": {"name": "TABRNACULO \"LA PEQUENA MANADA\" CHURCH (KITCHENER)", "designationCode": "C", "categoryCode": "39", "address": "421 PRESTON PKY", "city": "CAMBRIDGE", "province": "ON", "country": "CA", "postalCode": "N3H4X3", "twitter": "None", "instagram": "None", "facebook": "None", "youtube": "None", "website": "None", "summary": "None", "logo": "None", "latitude": 43.3964562850424, "longitude": -80.37762403424914}, "119208288RR0001": {"name": "TABUSINTAC CENTENNIAL MEMORIAL LIBRARY AND MUSEUM", "designationCode": "C", "categoryCode": "50", "address": "4490 ROUTE 11", "city": "TABUSINTAC", "province": "NB", "country": "CA", "postalCode": "E9H1J3", "twitter": "None", "instagram": "None", "facebook": "None", "youtube": "None", "website": "None", "summary": "None", "logo": "None", "latitude": 47.327282170099814, "longitude": -65.01094482795689}, "860815448RR0001": {"name": "TABUSINTAC COMMUNITY CENTER INC.", "designationCode": "C", "categoryCode": "55", "address": "1605 ROUTE 460", "city": "TABUSINTAC", "province": "NB", "country": "CA", "postalCode": "E9H1C2", "twitter": "None", "instagram": "None", "facebook": "None", "youtube": "None", "website": "None", "summary": "None", "logo": "None", "latitude": 47.3618373381602, "longitude": -65.07321098282907}, "105120349RR0001": {"name": "TABUSINTAC NURSING HOME INC.", "designationCode": "C", "categoryCode": "10", "address": "10 OLD MANSE RD", "city": "TABUSINTAC", "province": "NB", "country": "CA", "postalCode": "E9H1G4", "twitter": "None", "instagram": "None", "facebook": "None", "youtube": "None", "website": "None", "summary": "None", "logo": "None", "latitude": 47.32735883497798, "longitude": -65.00976496966638}, "888932688RR0001": {"name": "TABUSINTAC RIVERSIDE CEMETERY INC", "designationCode": "C", "categoryCode": "59", "address": "39 HIERLIHY ROAD", "city": "TABUSINTAC", "province": "NB", "country": "CA", "postalCode": "E9H1Y5", "twitter": "None", "instagram": "None", "facebook": "None", "youtube": "None", "website": "None", "summary": "None", "logo": "None", "latitude": 47.32923344653498, "longitude": -65.01624350017289}, "832129324RR0001": {"name": "TACHANE FOUNDATION INC.", "designationCode": "B", "categoryCode": "03", "address": "3 HILLSIDE CRT", "city": "ORO-MEDONTE", "province": "ON", "country": "CA", "postalCode": "L0L2L0", "twitter": "None", "instagram": "None", "facebook": "None", "youtube": "None", "website": "None", "summary": "None", "logo": "None", "latitude": 44.553800748491106, "longitude": -79.66070318532313}, "887974269RR0001": {"name": "TACHE CHRISTMAS HAMPER COMMITTEE", "designationCode": "C", "categoryCode": "09", "address": "10 ROSA ST", "city": "LORETTE", "province": "MB", "country": "CA", "postalCode": "R0A0Y0", "twitter": "None", "instagram": "None", "facebook": "None", "youtube": "None", "website": "None", "summary": "None", "logo": "None", "latitude": 49.74390596324128, "longitude": -96.87486562463508}, "136681087RR0001": {"name": "TACHE COMMUNITY DAY CARE INC.", "designationCode": "C", "categoryCode": "20", "address": "BOX 520", "city": "LORETTE", "province": "MB", "country": "CA", "postalCode": "R0A0Y0", "twitter": "None", "instagram": "None", "facebook": "None", "youtube": "None", "website": "None", "summary": "None", "logo": "None", "latitude": 49.739720000000034, "longitude": -96.87469999999996}, "809687544RR0001": {"name": "TACTUS VOCAL ENSEMBLE", "designationCode": "C", "categoryCode": "22", "address": "3 WOODYCREST DRIVE", "city": "GUELPH", "province": "ON", "country": "CA", "postalCode": "N1H6E6", "twitter": "None", "instagram": "None", "facebook": "None", "youtube": "None", "website": "None", "summary": "None", "logo": "None", "latitude": 43.53052857120998, "longitude": -80.26233381305912}, "822024311RR0001": {"name": "TADD Charitable Foundation Inc.", "designationCode": "A", "categoryCode": "03", "address": "55 UNION STREET               SUITE 600", "city": "SAINT JOHN", "province": "NB", "country": "CA", "postalCode": "E2L5B7", "twitter": "None", "instagram": "None", "facebook": "None", "youtube": "None", "website": "None", "summary": "None", "logo": "None", "latitude": 45.274123256188965, "longitude": -66.06469612406943}, "897776613RR0001": {"name": "TADDLEWOOD HERITAGE ASSOCIATION", "designationCode": "C", "categoryCode": "52", "address": "50 BRAEMORE GARDENS", "city": "TORONTO", "province": "ON", "country": "CA", "postalCode": "M6G2C8", "twitter": "None", "instagram": "None", "facebook": "None", "youtube": "None", "website": "None", "summary": "None", "logo": "None", "latitude": 43.676855769634734, "longitude": -79.42242556385239}, "119208320RR0001": {"name": "TAFELMUSIK", "designationCode": "C", "categoryCode": "22", "address": "427 BLOOR STREET WEST         BOX 14", "city": "TORONTO", "province": "ON", "country": "CA", "postalCode": "M5S1X7", "twitter": "None", "instagram": "None", "facebook": "None", "youtube": "None", "website": "None", "summary": "None", "logo": "None", "latitude": 43.66623986759201, "longitude": -79.40579707048882}, "119288918RR1341": {"name": "TAGALOG SOUTH CONGREGATION OF JEHOVAH'S WITNESSES, MONTREAL, QUEBEC", "designationCode": "C", "categoryCode": "61", "address": "5195 RUE HUBERT-GUERTIN", "city": "SAINT-HUBERT", "province": "QC", "country": "CA", "postalCode": "J3Y2J3", "twitter": "None", "instagram": "None", "facebook": "None", "youtube": "None", "website": "None", "summary": "None", "logo": "None", "latitude": 45.4778958306885, "longitude": -73.4381443771713}, "119288918RR1413": {"name": "TAGALOG WEST CONGREGATION OF JEHOVAH'S WITNESSES, TORONTO, ONTARIO", "designationCode": "C", "categoryCode": "61", "address": "5 MAPLE LEAF DRIVE", "city": "TORONTO", "province": "ON", "country": "CA", "postalCode": "M6L1N4", "twitter": "None", "instagram": "None", "facebook": "None", "youtube": "None", "website": "None", "summary": "None", "logo": "None", "latitude": 43.70940867773697, "longitude": -79.50452675116864}, "119208361RR0001": {"name": "TAI BAY BUDDHIST TEMPLE OF TORONTO", "designationCode": "C", "categoryCode": "35", "address": "300 BATHURST STREET", "city": "TORONTO", "province": "ON", "country": "CA", "postalCode": "M5T2S3", "twitter": "None", "instagram": "None", "facebook": "None", "youtube": "None", "website": "None", "summary": "None", "logo": "None", "latitude": 43.650801712735905, "longitude": -79.40545422955721}, "894755958RR0001": {"name": "TAI KONG UNITED CHURCH", "designationCode": "C", "categoryCode": "44", "address": "4720 ELGIN ST", "city": "VANCOUVER", "province": "BC", "country": "CA", "postalCode": "V5V4S1", "twitter": "None", "instagram": "None", "facebook": "None", "youtube": "None", "website": "None", "summary": "None", "logo": "None", "latitude": 49.242257077990644, "longitude": -123.08270844001409}, "806960357RR0001": {"name": "TAIBU Community Health Centre", "designationCode": "C", "categoryCode": "11", "address": "1-27 TAPSCOTT ROAD", "city": "SCARBOROUGH", "province": "ON", "country": "CA", "postalCode": "M1B4Y7", "twitter": "None", "instagram": "None", "facebook": "None", "youtube": "None", "website": "None", "summary": "None", "logo": "None", "latitude": 43.80573338926779, "longitude": -79.22067075868627}, "858749500RR0001": {"name": "TAIWAN ENTREPRENEURS SOCIETY TAIPEI / TORONTO CHARITABLE FOUNDATION", "designationCode": "A", "categoryCode": "03", "address": "885 PROGRESS AVENUE           UNIT 213", "city": "SCARBOROUGH", "province": "ON", "country": "CA", "postalCode": "M1H3G3", "twitter": "None", "instagram": "None", "facebook": "None", "youtube": "None", "website": "None", "summary": "None", "logo": "None", "latitude": 43.78130181983979, "longitude": -79.2360182525536}, "880832423RR0001": {"name": "TAIWAN PRESBYTERIAN CHURCH IN CANADA", "designationCode": "C", "categoryCode": "37", "address": "708-6081 NO 3 RD", "city": "RICHMOND", "province": "BC", "country": "CA", "postalCode": "V6Y2B2", "twitter": "None", "instagram": "None", "facebook": "None", "youtube": "None", "website": "None", "summary": "None", "logo": "None", "latitude": 49.16951428645726, "longitude": -123.13668028645726}, "866444466RR0001": {"name": "TAIWANESE CANADIAN COMMUNITY SERVICE ASSOCIATION", "designationCode": "C", "categoryCode": "09", "address": "3636 STEELES AVE E SUITE 312", "city": "MARKHAM", "province": "ON", "country": "CA", "postalCode": "L3R1K9", "twitter": "None", "instagram": "None", "facebook": "None", "youtube": "None", "website": "None", "summary": "None", "logo": "None", "latitude": 43.81829613240798, "longitude": -79.33056820650349}, "133223784RR0001": {"name": "TAIWANESE CANADIAN CULTURAL SOCIETY", "designationCode": "C", "categoryCode": "09", "address": "8853 SELKIRK ST", "city": "VANCOUVER", "province": "BC", "country": "CA", "postalCode": "V6P4J6", "twitter": "None", "instagram": "None", "facebook": "None", "youtube": "None", "website": "None", "summary": "None", "logo": "None", "latitude": 49.20470448903572, "longitude": -123.1334623995612}, "140511791RR0001": {"name": "TAIWANESE ROBERT CAMPBELL MEMORIAL PRESBYTERIAN CHURCH OF MONTREAL", "designationCode": "C", "categoryCode": "37", "address": "2225 REGENT AVE.", "city": "MONTREAL", "province": "QC", "country": "CA", "postalCode": "H4A2R2", "twitter": "None", "instagram": "None", "facebook": "None", "youtube": "None", "website": "None", "summary": "None", "logo": "None", "latitude": 45.46835125036056, "longitude": -73.61550877586713}, "119208387RR0001": {"name": "TAIWANESE UNITED CHURCH IN TORONTO", "designationCode": "C", "categoryCode": "44", "address": "53 CUMMER AVENUE", "city": "WILLOWDALE", "province": "ON", "country": "CA", "postalCode": "M2M2E5", "twitter": "None", "instagram": "None", "facebook": "None", "youtube": "None", "website": "None", "summary": "None", "logo": "None", "latitude": 43.78747484537504, "longitude": -79.41507758491555}, "891394611RR0001": {"name": "TAKE A HIKE, YOUTH AT RISK FOUNDATION", "designationCode": "C", "categoryCode": "20", "address": "320 - 736 GRANVILLE ST", "city": "VANCOUVER", "province": "BC", "country": "CA", "postalCode": "V6Z1E4", "twitter": "None", "instagram": "None", "facebook": "None", "youtube": "None", "website": "None", "summary": "None", "logo": "None", "latitude": 49.28200470439737, "longitude": -123.11877746875197}, "128936705RR0001": {"name": "TAKE PRIDE WINNIPEG INC", "designationCode": "C", "categoryCode": "59", "address": "502 - 177 LOMBARD AVE", "city": "WINNIPEG", "province": "MB", "country": "CA", "postalCode": "R3B0W5", "twitter": "None", "instagram": "None", "facebook": "None", "youtube": "None", "website": "None", "summary": "None", "logo": "None", "latitude": 49.89626240218695, "longitude": -97.13760688758732}, "871983268RR0001": {"name": "TAKE YOUNG PEOPLE SERIOUSLY (ALMONTE) INC.", "designationCode": "C", "categoryCode": "09", "address": "12 LAROSE ST", "city": "ALMONTE", "province": "ON", "country": "CA", "postalCode": "K0A1A0", "twitter": "None", "instagram": "None", "facebook": "None", "youtube": "None", "website": "None", "summary": "None", "logo": "None", "latitude": 45.22767281236665, "longitude": -76.18314857565338}, "899129068RR0001": {"name": "TAKING CHARGE! INC/SE PRENDRE EN MAIN! INC", "designationCode": "C", "categoryCode": "20", "address": "276 COLONY ST", "city": "WINNIPEG", "province": "MB", "country": "CA", "postalCode": "R3C1W3", "twitter": "None", "instagram": "None", "facebook": "None", "youtube": "None", "website": "None", "summary": "None", "logo": "None", "latitude": 49.888611366639736, "longitude": -97.15113612118391}, "866686991RR0001": {"name": "TAKING IT GLOBAL YOUTH ASSOCIATION", "designationCode": "C", "categoryCode": "29", "address": "212 - 117 PETER ST", "city": "TORONTO", "province": "ON", "country": "CA", "postalCode": "M5V0M3", "twitter": "None", "instagram": "None", "facebook": "None", "youtube": "None", "website": "None", "summary": "None", "logo": "None", "latitude": 43.64821322176693, "longitude": -79.39314874101241}, "897960001RR0001": {"name": "TAKING THE GOSPEL MINISTRIES", "designationCode": "C", "categoryCode": "47", "address": "8730 WELLINGTON RD. 124", "city": "GUELPH", "province": "ON", "country": "CA", "postalCode": "N1H6H7", "twitter": "None", "instagram": "None", "facebook": "None", "youtube": "None", "website": "None", "summary": "None", "logo": "None", "latitude": 43.681284672664376, "longitude": -80.15183238798443}, "864131032RR0001": {"name": "TAKLA FOUNDATION", "designationCode": "B", "categoryCode": "03", "address": "439 BRENTCLIFFE DRIVE", "city": "WATERLOO", "province": "ON", "country": "CA", "postalCode": "N2T2J6", "twitter": "None", "instagram": "None", "facebook": "None", "youtube": "None", "website": "None", "summary": "None", "logo": "None", "latitude": 43.467043370506204, "longitude": -80.5751729937676}, "837117126RR0001": {"name": "TAL AM", "designationCode": "C", "categoryCode": "21", "address": "4600 THIMENS", "city": "SAINT LAURENT", "province": "QC", "country": "CA", "postalCode": "H4R2B2", "twitter": "None", "instagram": "None", "facebook": "None", "youtube": "None", "website": "None", "summary": "None", "logo": "None", "latitude": 45.495508971897294, "longitude": -73.72596005637924}, "806274742RR0001": {"name": "TALBOT CREEK COMMUNITY CHURCH", "designationCode": "C", "categoryCode": "49", "address": "TALBOT CREEK                  P.O. BOX 309", "city": "BRECHIN", "province": "ON", "country": "CA", "postalCode": "L0K1B0", "twitter": "None", "instagram": "None", "facebook": "None", "youtube": "None", "website": "None", "summary": "None", "logo": "None", "latitude": 44.472087382039625, "longitude": -79.16303860806673}, "119208395RR0001": {"name": "TALBOT HOUSE (SOCIETY)", "designationCode": "C", "categoryCode": "57", "address": "1777 FRENCHVALE RD", "city": "FRENCHVALE", "province": "NS", "country": "CA", "postalCode": "B2A4E2", "twitter": "None", "instagram": "None", "facebook": "None", "youtube": "None", "website": "None", "summary": "None", "logo": "None", "latitude": 46.101084006347975, "longitude": -60.39208503367221}, "859971319RR0001": {"name": "TALBOT STREET UNITED CHURCH", "designationCode": "C", "categoryCode": "44", "address": "3864 TALBOT TRAIL             RR 3", "city": "MERLIN", "province": "ON", "country": "CA", "postalCode": "N0P1W0", "twitter": "None", "instagram": "None", "facebook": "None", "youtube": "None", "website": "None", "summary": "None", "logo": "None", "latitude": 42.16821650150056, "longitude": -82.27944126920204}, "119208411RR0001": {"name": "TALBOTVILLE UNITED CHURCH,", "designationCode": "C", "categoryCode": "44", "address": "39863 LONGHURST  LINE         RR #7", "city": "ST. THOMAS", "province": "ON", "country": "CA", "postalCode": "N5P3T2", "twitter": "None", "instagram": "None", "facebook": "None", "youtube": "None", "website": "None", "summary": "None", "logo": "None", "latitude": 42.81607367894997, "longitude": -81.2708410045599}, "887126191RR0001": {"name": "TALIM-UL-ISLAM ONTARIO", "designationCode": "C", "categoryCode": "60", "address": "86 RIWALDA ROAD", "city": "WESTON", "province": "ON", "country": "CA", "postalCode": "M9M2M8", "twitter": "None", "instagram": "None", "facebook": "None", "youtube": "None", "website": "None", "summary": "None", "logo": "None", "latitude": 43.74056365805877, "longitude": -79.53549776925935}, "865096093RR0001": {"name": "TALISKER PLAYERS CHAMBER MUSIC", "designationCode": "C", "categoryCode": "22", "address": "4 DEVONSHIRE PLACE", "city": "TORONTO", "province": "ON", "country": "CA", "postalCode": "M5S2E1", "twitter": "None", "instagram": "None", "facebook": "None", "youtube": "None", "website": "None", "summary": "None", "logo": "None", "latitude": 43.664489738271136, "longitude": -79.3970538094811}, "890548910RR0001": {"name": "TALITHA KOUM SOCIETY", "designationCode": "C", "categoryCode": "01", "address": "1820 COMO LAKE AVE", "city": "COQUITLAM", "province": "BC", "country": "CA", "postalCode": "V3J3P8", "twitter": "None", "instagram": "None", "facebook": "None", "youtube": "None", "website": "None", "summary": "None", "logo": "None", "latitude": 49.26334950678068, "longitude": -122.84317277699232}, "894267608RR0001": {"name": "TALK IS FREE THEATRE INC.", "designationCode": "C", "categoryCode": "22", "address": "P.O. BOX 247", "city": "BARRIE", "province": "ON", "country": "CA", "postalCode": "L4M4T2", "twitter": "None", "instagram": "None", "facebook": "None", "youtube": "None", "website": "None", "summary": "None", "logo": "None", "latitude": 44.38929300000005, "longitude": -79.68626449999994}, "887877819RR0001": {"name": "TALLGRASS ONTARIO", "designationCode": "C", "categoryCode": "52", "address": "16 - 93 PINE VALLEY GATE", "city": "LONDON", "province": "ON", "country": "CA", "postalCode": "N6J4L5", "twitter": "None", "instagram": "None", "facebook": "None", "youtube": "None", "website": "None", "summary": "None", "logo": "None", "latitude": 42.942898434647056, "longitude": -81.2823528079519}, "890506371RR0001": {"name": "TALMUD TORAH BETH JACOB SYNAGOGUE INC.", "designationCode": "C", "categoryCode": "42", "address": "1525 MAIN ST", "city": "WINNIPEG", "province": "MB", "country": "CA", "postalCode": "R2W3W3", "twitter": "None", "instagram": "None", "facebook": "None", "youtube": "None", "website": "None", "summary": "None", "logo": "None", "latitude": 49.928561413815046, "longitude": -97.12333101953395}, "891201741RR0001": {"name": "TAMARA FOUNDATION", "designationCode": "B", "categoryCode": "03", "address": "400-221 WEST ESPLANADE", "city": "NORTH VANCOUVER", "province": "BC", "country": "CA", "postalCode": "V7M3J3", "twitter": "None", "instagram": "None", "facebook": "None", "youtube": "None", "website": "None", "summary": "None", "logo": "None", "latitude": 49.312626508713905, "longitude": -123.08325259411949}, "108063538RR0001": {"name": "TAMARACK FOUNDATION", "designationCode": "C", "categoryCode": "09", "address": "510 CYNTHIA ST.", "city": "SASKATOON", "province": "SK", "country": "CA", "postalCode": "S7L7K7", "twitter": "None", "instagram": "None", "facebook": "None", "youtube": "None", "website": "None", "summary": "None", "logo": "None", "latitude": 52.15972629672783, "longitude": -106.67143512796457}, "862808615RR0001": {"name": "TAMARACK INSTITUTE FOR COMMUNITY ENGAGEMENT", "designationCode": "C", "categoryCode": "23", "address": "140 WESTMOUNT ROAD N          CONRAD GREBEL UC", "city": "WATERLOO", "province": "ON", "country": "CA", "postalCode": "N2L3G6", "twitter": "None", "instagram": "None", "facebook": "None", "youtube": "None", "website": "None", "summary": "None", "logo": "None", "latitude": 43.465850000000046, "longitude": -80.54520999999994}, "131159337RR0001": {"name": "TAMARACK REHAB INC", "designationCode": "C", "categoryCode": "57", "address": "60 BALMORAL ST.", "city": "WINNIPEG", "province": "MB", "country": "CA", "postalCode": "R3C1X4", "twitter": "None", "instagram": "None", "facebook": "None", "youtube": "None", "website": "None", "summary": "None", "logo": "None", "latitude": 49.883509655288826, "longitude": -97.1529227204106}, "892437963RR0001": {"name": "TAMIL CATHOLIC COMMUNITY OF TORONTO", "designationCode": "C", "categoryCode": "39", "address": "162 CAROLBREEN SQUARE", "city": "SCARBOROUGH", "province": "ON", "country": "CA", "postalCode": "M1V1H5", "twitter": "None", "instagram": "None", "facebook": "None", "youtube": "None", "website": "None", "summary": "None", "logo": "None", "latitude": 43.80752980930821, "longitude": -79.28230701220501}, "857715080RR0001": {"name": "TAMIL CATHOLIC NEW LIFE GOOD NEWS PRAYER GROUP", "designationCode": "C", "categoryCode": "38", "address": "90 LING ROAD - UNIT 1002", "city": "SCARBOROUGH", "province": "ON", "country": "CA", "postalCode": "M1E4Y3", "twitter": "None", "instagram": "None", "facebook": "None", "youtube": "None", "website": "None", "summary": "None", "logo": "None", "latitude": 43.767066115816874, "longitude": -79.18375844411078}, "119208486RR0001": {"name": "TAMIL CHRISTIAN CHURCH OF CANADA", "designationCode": "C", "categoryCode": "39", "address": "2300 BRIDLETOWNE CIRCLE", "city": "SCARBOROUGH", "province": "ON", "country": "CA", "postalCode": "M1W2L2", "twitter": "None", "instagram": "None", "facebook": "None", "youtube": "None", "website": "None", "summary": "None", "logo": "None", "latitude": 43.79962201552325, "longitude": -79.31444248961265}}