{"851447953RR0001": {"name": "Canadian Mesothelioma Foundation", "designationCode": "B", "categoryCode": "13", "address": "4302-50 YORKVILLE AVE", "city": "TORONTO", "province": "ON", "country": "CA", "postalCode": "M4W0A3", "twitter": "None", "instagram": "None", "facebook": "None", "youtube": "None", "website": "None", "summary": "None", "logo": "None", "latitude": 43.67152917236992, "longitude": -79.38944756869982}, "800775223RR0001": {"name": "Canadian Midwest Quizzing-\"CMQ\"", "designationCode": "C", "categoryCode": "39", "address": "SITE 510, BOX 6, RR # 5", "city": "SASKATOON", "province": "SK", "country": "CA", "postalCode": "S7K3J8", "twitter": "None", "instagram": "None", "facebook": "None", "youtube": "None", "website": "None", "summary": "None", "logo": "None", "latitude": 52.13049000000005, "longitude": -106.65926449999994}, "838877751RR0001": {"name": "Canadian Military Education Centre Society", "designationCode": "C", "categoryCode": "50", "address": "POST OFFICE BOX 2123          SARDIS STATION MAIN", "city": "CHILLIWACK", "province": "BC", "country": "CA", "postalCode": "V2R1A5", "twitter": "None", "instagram": "None", "facebook": "None", "youtube": "None", "website": "None", "summary": "None", "logo": "None", "latitude": 49.129320000000064, "longitude": -121.96022999999997}, "817249287RR0001": {"name": "Canadian Ministries for Islamic Learning Edmonton", "designationCode": "C", "categoryCode": "60", "address": "331-71 ST SW", "city": "EDMONTON", "province": "AB", "country": "CA", "postalCode": "T6X1A3", "twitter": "None", "instagram": "None", "facebook": "None", "youtube": "None", "website": "None", "summary": "None", "logo": "None", "latitude": 53.429525884817366, "longitude": -113.4470548894346}, "856357660RR0001": {"name": "Canadian Motorsport Heritage Foundation / La Fondation du Patrimoine du Sport Automobile Canadien", "designationCode": "C", "categoryCode": "50", "address": "12 GORDON CRT", "city": "BARRIE", "province": "ON", "country": "CA", "postalCode": "L4N7A4", "twitter": "None", "instagram": "None", "facebook": "None", "youtube": "None", "website": "None", "summary": "None", "logo": "None", "latitude": 44.40504590426441, "longitude": -79.72365702582368}, "890894637RR0001": {"name": "Canadian Multifaith Federation", "designationCode": "C", "categoryCode": "49", "address": "207-3570 VICTORIA PARK AVE", "city": "NORTH YORK", "province": "ON", "country": "CA", "postalCode": "M2H3S2", "twitter": "None", "instagram": "None", "facebook": "None", "youtube": "None", "website": "None", "summary": "None", "logo": "None", "latitude": 43.803557907573364, "longitude": -79.33610374280191}, "820990935RR0001": {"name": "Canadian Museum of Fraternal Lodges", "designationCode": "C", "categoryCode": "50", "address": "83 BRIDGE STREET WEST,", "city": "NAPANEE", "province": "ON", "country": "CA", "postalCode": "K7R2C7", "twitter": "None", "instagram": "None", "facebook": "None", "youtube": "None", "website": "None", "summary": "None", "logo": "None", "latitude": 44.247163540726824, "longitude": -76.95455735807762}, "875479701RR0001": {"name": "Canadian Museum of Indian Civilization Inc.", "designationCode": "C", "categoryCode": "50", "address": "8640 YONGE STREET", "city": "RICHMOND HILL", "province": "ON", "country": "CA", "postalCode": "L4C6Z4", "twitter": "None", "instagram": "None", "facebook": "None", "youtube": "None", "website": "None", "summary": "None", "logo": "None", "latitude": 43.8382472204402, "longitude": -79.42959725514571}, "118834563RR0001": {"name": "Canadian Music Centre / Centre de musique canadienne", "designationCode": "C", "categoryCode": "22", "address": "20 SAINT JOSEPH ST.", "city": "TORONTO", "province": "ON", "country": "CA", "postalCode": "M4Y1J9", "twitter": "None", "instagram": "None", "facebook": "None", "youtube": "None", "website": "None", "summary": "None", "logo": "None", "latitude": 43.66585438386507, "longitude": -79.38641480988512}, "805215357RR0001": {"name": "Canadian Muslim Heritage Association", "designationCode": "C", "categoryCode": "60", "address": "2050 KIPLING AVENUE", "city": "TORONTO", "province": "ON", "country": "CA", "postalCode": "M9W4J9", "twitter": "None", "instagram": "None", "facebook": "None", "youtube": "None", "website": "None", "summary": "None", "logo": "None", "latitude": 43.71352876989453, "longitude": -79.56761413483123}, "825986540RR0001": {"name": "Canadian Muslim Women's Institute Inc. / L'Institut de Femmes Canadiennes Musalmanes Inc.", "designationCode": "C", "categoryCode": "09", "address": "212 WAYFIELD DR", "city": "WINNIPEG", "province": "MB", "country": "CA", "postalCode": "R3T6C7", "twitter": "None", "instagram": "None", "facebook": "None", "youtube": "None", "website": "None", "summary": "None", "logo": "None", "latitude": 49.79308185541565, "longitude": -97.16986931891616}, "839766136RR0001": {"name": "Canadian MPN Group / Le Groupe Canadien MPN", "designationCode": "C", "categoryCode": "11", "address": "435 SAINT-LAURENT BOULEVARD   SUITE 199", "city": "OTTAWA", "province": "ON", "country": "CA", "postalCode": "K1K2X8", "twitter": "None", "instagram": "None", "facebook": "None", "youtube": "None", "website": "None", "summary": "None", "logo": "None", "latitude": 45.44755740550517, "longitude": -75.65046011639473}, "848744751RR0001": {"name": "Canadian National Day of Service Foundation", "designationCode": "C", "categoryCode": "29", "address": "63 FURROW LANE", "city": "ETOBICOKE", "province": "ON", "country": "CA", "postalCode": "M8Z0A2", "twitter": "None", "instagram": "None", "facebook": "None", "youtube": "None", "website": "None", "summary": "None", "logo": "None", "latitude": 43.63711932252286, "longitude": -79.52124002755536}, "119129971RR0001": {"name": "Canadian National Network", "designationCode": "C", "categoryCode": "22", "address": "501-31 MCEWEN AVENUE", "city": "OTTAWA", "province": "ON", "country": "CA", "postalCode": "K2B5K6", "twitter": "None", "instagram": "None", "facebook": "None", "youtube": "None", "website": "None", "summary": "None", "logo": "None", "latitude": 45.37285681877194, "longitude": -75.78344106241009}, "831740493RR0001": {"name": "Canadian National Trust for Scotland Foundation", "designationCode": "A", "categoryCode": "03", "address": "700 - 11 KING ST W", "city": "TORONTO", "province": "ON", "country": "CA", "postalCode": "M5H4C7", "twitter": "None", "instagram": "None", "facebook": "None", "youtube": "None", "website": "None", "summary": "None", "logo": "None", "latitude": 43.6489678309483, "longitude": -79.37855601941838}, "866840523RR0001": {"name": "Canadian Network For The Prevention of Elder Abuse/R\u00e9seau Canadien Pour La Pr\u00e9vention du Mauvais Traitement Des Ain\u00e9s", "designationCode": "C", "categoryCode": "11", "address": "15008 26 AVE", "city": "SURREY", "province": "BC", "country": "CA", "postalCode": "V4P3H5", "twitter": "None", "instagram": "None", "facebook": "None", "youtube": "None", "website": "None", "summary": "None", "logo": "None", "latitude": 49.04902259449485, "longitude": -122.80394659466774}, "833497407RR0001": {"name": "Canadian Neurovascular Health Society", "designationCode": "C", "categoryCode": "21", "address": "3098 MIDLAND ROAD", "city": "VICTORIA", "province": "BC", "country": "CA", "postalCode": "V8R6P2", "twitter": "None", "instagram": "None", "facebook": "None", "youtube": "None", "website": "None", "summary": "None", "logo": "None", "latitude": 48.44398173050952, "longitude": -123.30310647922529}, "835080904RR0001": {"name": "Canadian Nurses for Africa", "designationCode": "C", "categoryCode": "11", "address": "3023 NEW ST.PO BOX 91545", "city": "BURLINGTON", "province": "ON", "country": "CA", "postalCode": "L7R4L6", "twitter": "None", "instagram": "None", "facebook": "None", "youtube": "None", "website": "None", "summary": "None", "logo": "None", "latitude": 43.3391675817989, "longitude": -79.78440552994904}, "824061246RR0001": {"name": "Canadian Nutrition Society Food for Health Foundation", "designationCode": "C", "categoryCode": "11", "address": "1867 LA CHAPELLE ST", "city": "ORLEANS", "province": "ON", "country": "CA", "postalCode": "K1C6A8", "twitter": "None", "instagram": "None", "facebook": "None", "youtube": "None", "website": "None", "summary": "None", "logo": "None", "latitude": 45.444109294217654, "longitude": -75.53553332335956}, "810762146RR0001": {"name": "Canadian Obesity Network Inc./Reseau Canadien en Obesite Inc.", "designationCode": "C", "categoryCode": "11", "address": "1-116 LI KA SHING CENTRE FOR  HEALTH RESEARCH 8602-112 STREE", "city": "EDMONTON", "province": "AB", "country": "CA", "postalCode": "T6G2E1", "twitter": "None", "instagram": "None", "facebook": "None", "youtube": "None", "website": "None", "summary": "None", "logo": "None", "latitude": 53.52053100000006, "longitude": -113.52709699999994}, "862216165RR0001": {"name": "Canadian Online Giving Foundation / Fondation canadienne de dons en ligne", "designationCode": "B", "categoryCode": "03", "address": "#100 402, 11 AVENUE SE", "city": "CALGARY", "province": "AB", "country": "CA", "postalCode": "T2G0Y4", "twitter": "None", "instagram": "None", "facebook": "None", "youtube": "None", "website": "None", "summary": "None", "logo": "None", "latitude": 51.04214047489747, "longitude": -114.0553630269202}, "801038803RR0001": {"name": "Canadian Ophthalmological Society Foundation/Fondation de la Societe canadienne d'optalmologie", "designationCode": "C", "categoryCode": "11", "address": "610-1525 CARLING AVENUE", "city": "OTTAWA", "province": "ON", "country": "CA", "postalCode": "K1Z8R9", "twitter": "None", "instagram": "None", "facebook": "None", "youtube": "None", "website": "None", "summary": "None", "logo": "None", "latitude": 45.38198222929743, "longitude": -75.7437751592126}, "130140494RR0001": {"name": "Canadian Organic Growers Inc. / Cultivons Biologique Canada Inc.", "designationCode": "C", "categoryCode": "56", "address": "410 - 100 GLOUCESTER ST", "city": "OTTAWA", "province": "ON", "country": "CA", "postalCode": "K2P0A4", "twitter": "None", "instagram": "None", "facebook": "None", "youtube": "None", "website": "None", "summary": "None", "logo": "None", "latitude": 45.419043563679494, "longitude": -75.69582114680604}, "802203539RR0001": {"name": "Canadian Organization For Yoga And Mental Health Inc.", "designationCode": "C", "categoryCode": "11", "address": "33 MILL STREET, 1703", "city": "TORONTO", "province": "ON", "country": "CA", "postalCode": "M5A3R3", "twitter": "None", "instagram": "None", "facebook": "None", "youtube": "None", "website": "None", "summary": "None", "logo": "None", "latitude": 43.650454842056796, "longitude": -79.36085540285076}, "828272336RR0001": {"name": "Canadian Paramedic Memorial Foundation", "designationCode": "C", "categoryCode": "59", "address": "811-829 NORWEST ROAD,", "city": "KINGSTON", "province": "ON", "country": "CA", "postalCode": "K7P2N3", "twitter": "None", "instagram": "None", "facebook": "None", "youtube": "None", "website": "None", "summary": "None", "logo": "None", "latitude": 44.2573784878819, "longitude": -76.57505002553522}, "831909460RR0001": {"name": "Canadian Parents of Murdered Children and Survivors of Homicide Victims", "designationCode": "C", "categoryCode": "59", "address": "806 - 1203 MARITIME WAY", "city": "KANATA", "province": "ON", "country": "CA", "postalCode": "K2K0H5", "twitter": "None", "instagram": "None", "facebook": "None", "youtube": "None", "website": "None", "summary": "None", "logo": "None", "latitude": 45.314124441600626, "longitude": -75.90084823108641}, "118835230RR0001": {"name": "Canadian Physicians for Aid and Relief", "designationCode": "C", "categoryCode": "11", "address": "1425 BLOOR STREET WEST", "city": "TORONTO", "province": "ON", "country": "CA", "postalCode": "M6P3L6", "twitter": "None", "instagram": "None", "facebook": "None", "youtube": "None", "website": "None", "summary": "None", "logo": "None", "latitude": 43.65716087870052, "longitude": -79.44817612155927}, "838285641RR0001": {"name": "Canadian Physicians for Research and Education in Peace (C-PREP)", "designationCode": "C", "categoryCode": "21", "address": "30 CLEARY AVE.", "city": "OTTAWA", "province": "ON", "country": "CA", "postalCode": "K2A4A1", "twitter": "None", "instagram": "None", "facebook": "None", "youtube": "None", "website": "None", "summary": "None", "logo": "None", "latitude": 45.381881502654394, "longitude": -75.7718032598243}, "782671697RR0001": {"name": "Canadian Polar Bear Habitat", "designationCode": "C", "categoryCode": "54", "address": "1 DRURY PARK ROAD", "city": "COCHRANE", "province": "ON", "country": "CA", "postalCode": "P0L1C0", "twitter": "None", "instagram": "None", "facebook": "None", "youtube": "None", "website": "None", "summary": "None", "logo": "None", "latitude": 49.06068685986241, "longitude": -81.02967167701594}, "106865611RR0001": {"name": "Canadian Power and Sail Squadrons - Escadrilles canadiennes de plaisance", "designationCode": "C", "categoryCode": "59", "address": "26 GOLDEN GATE COURT", "city": "SCARBOROUGH", "province": "ON", "country": "CA", "postalCode": "M1P3A5", "twitter": "None", "instagram": "None", "facebook": "None", "youtube": "None", "website": "None", "summary": "None", "logo": "None", "latitude": 43.77158511466305, "longitude": -79.2636396848634}, "801837287RR0001": {"name": "Canadian Premature Babies Foundation Fondation pour B\u00e9b\u00e9s Pr\u00e9matur\u00e9s Canadiens", "designationCode": "C", "categoryCode": "11", "address": "685 SHAW ST", "city": "TORONTO", "province": "ON", "country": "CA", "postalCode": "M6G3L8", "twitter": "None", "instagram": "None", "facebook": "None", "youtube": "None", "website": "None", "summary": "None", "logo": "None", "latitude": 43.66072639661836, "longitude": -79.42251878876465}, "850554858RR0001": {"name": "Canadian Pulmonary Fibrosis Foundation", "designationCode": "B", "categoryCode": "13", "address": "47 SQUIRE BAKERS LANE", "city": "MARKHAM", "province": "ON", "country": "CA", "postalCode": "L3P3G8", "twitter": "None", "instagram": "None", "facebook": "None", "youtube": "None", "website": "None", "summary": "None", "logo": "None", "latitude": 43.87160290313923, "longitude": -79.24670641338234}, "837837129RR0001": {"name": "Canadian Radiation Oncology Foundation/Fondation canadienne de radio-oncologie", "designationCode": "C", "categoryCode": "13", "address": "20 CROWN STEEL DRIVE          UNIT 6", "city": "MARKHAM", "province": "ON", "country": "CA", "postalCode": "L3R9X9", "twitter": "None", "instagram": "None", "facebook": "None", "youtube": "None", "website": "None", "summary": "None", "logo": "None", "latitude": 43.83918666443543, "longitude": -79.32514310482394}, "821094273RR0001": {"name": "Canadian Relief & Development Agency", "designationCode": "C", "categoryCode": "02", "address": "44 MICHELANGELO BLVD", "city": "BRAMPTON", "province": "ON", "country": "CA", "postalCode": "L6P0G9", "twitter": "None", "instagram": "None", "facebook": "None", "youtube": "None", "website": "None", "summary": "None", "logo": "None", "latitude": 43.79364070999461, "longitude": -79.72301213685137}, "818791410RR0001": {"name": "Canadian Religious Stewardship / Soutien aux religieux et religieuses du Canada", "designationCode": "C", "categoryCode": "59", "address": "6299 AIRPORT ROAD             SUITE 100", "city": "MISSISSAUGA", "province": "ON", "country": "CA", "postalCode": "L4V1N3", "twitter": "None", "instagram": "None", "facebook": "None", "youtube": "None", "website": "None", "summary": "None", "logo": "None", "latitude": 43.690123284263, "longitude": -79.62375186534166}, "135528701RR0001": {"name": "Canadian Resource Centre for Victims of Crime", "designationCode": "C", "categoryCode": "09", "address": "101 - 141 CATHERINE ST", "city": "OTTAWA", "province": "ON", "country": "CA", "postalCode": "K2P1C3", "twitter": "None", "instagram": "None", "facebook": "None", "youtube": "None", "website": "None", "summary": "None", "logo": "None", "latitude": 45.410169403571906, "longitude": -75.69055498087006}, "835406687RR0001": {"name": "Canadian Resources for Missions Foundation", "designationCode": "C", "categoryCode": "47", "address": "PO BOX 91078 RPO ROYAL OAK", "city": "CALGARY", "province": "AB", "country": "CA", "postalCode": "T3G5W6", "twitter": "None", "instagram": "None", "facebook": "None", "youtube": "None", "website": "None", "summary": "None", "logo": "None", "latitude": 51.148903502076145, "longitude": -114.22687356374645}, "822759072RR0001": {"name": "Canadian Revival Training Centre Inc.", "designationCode": "C", "categoryCode": "20", "address": "329-38 ST E", "city": "PRINCE ALBERT", "province": "SK", "country": "CA", "postalCode": "S6W1A5", "twitter": "None", "instagram": "None", "facebook": "None", "youtube": "None", "website": "None", "summary": "None", "logo": "None", "latitude": 53.17852871107476, "longitude": -105.74564249974586}, "832296602RR0001": {"name": "Canadian Roots Exchange", "designationCode": "C", "categoryCode": "29", "address": "956 COLLEGE STREET, UNIT B", "city": "TORONTO", "province": "ON", "country": "CA", "postalCode": "M6H1A5", "twitter": "None", "instagram": "None", "facebook": "None", "youtube": "None", "website": "None", "summary": "None", "logo": "None", "latitude": 43.65350314683471, "longitude": -79.42703737844072}, "869159186RR0001": {"name": "Canadian Rugby Foundation", "designationCode": "A", "categoryCode": "03", "address": "PO BOX 8003", "city": "VICTORIA", "province": "BC", "country": "CA", "postalCode": "V8W3R7", "twitter": "None", "instagram": "None", "facebook": "None", "youtube": "None", "website": "None", "summary": "None", "logo": "None", "latitude": 48.42854700000005, "longitude": -123.36445249999994}, "875659864RR0001": {"name": "Canadian Safe Boating Council / Conseil canadien de la s\u00e9curit\u00e9 nautique", "designationCode": "C", "categoryCode": "59", "address": "116 RUE CHARTRAND", "city": "GATINEAU", "province": "QC", "country": "CA", "postalCode": "J9H6Y1", "twitter": "None", "instagram": "None", "facebook": "None", "youtube": "None", "website": "None", "summary": "None", "logo": "None", "latitude": 45.389147668330565, "longitude": -75.84661889358858}, "805900461RR0001": {"name": "Canadian Scholarship Society", "designationCode": "C", "categoryCode": "21", "address": "102 - 13463  78 AVENUE", "city": "SURREY", "province": "BC", "country": "CA", "postalCode": "V3W0A8", "twitter": "None", "instagram": "None", "facebook": "None", "youtube": "None", "website": "None", "summary": "None", "logo": "None", "latitude": 49.144550489324196, "longitude": -122.84927002553522}, "729448092RR0001": {"name": "Canadian School Libraries", "designationCode": "C", "categoryCode": "21", "address": "299 CANTERBURY DRIVE", "city": "WATERLOO", "province": "ON", "country": "CA", "postalCode": "N2K3C1", "twitter": "None", "instagram": "None", "facebook": "None", "youtube": "None", "website": "None", "summary": "None", "logo": "None", "latitude": 43.497330255612034, "longitude": -80.49917485610814}, "859755415RR0001": {"name": "Canadian Sea Turtle Network Incorporated", "designationCode": "C", "categoryCode": "54", "address": "101 - 6156 QUINPOOL RD", "city": "HALIFAX", "province": "NS", "country": "CA", "postalCode": "B3L1A3", "twitter": "None", "instagram": "None", "facebook": "None", "youtube": "None", "website": "None", "summary": "None", "logo": "None", "latitude": 44.64609296973291, "longitude": -63.594766729384325}, "119219913RR0001": {"name": "Canadian Ski Hall of Fame and Museum - Temple de la renomm\u00e9e du ski canadien et Mus\u00e9e", "designationCode": "C", "categoryCode": "50", "address": "1984 CH DU VILLAGE", "city": "MONT-TREMBLANT", "province": "QC", "country": "CA", "postalCode": "J8E1K4", "twitter": "None", "instagram": "None", "facebook": "None", "youtube": "None", "website": "None", "summary": "None", "logo": "None", "latitude": 46.19531192812619, "longitude": -74.6271809156327}, "118836162RR0001": {"name": "Canadian Ski Patrol - Patrouille canadienne de ski", "designationCode": "C", "categoryCode": "59", "address": "4531 SOUTHCLARK PLACE", "city": "OTTAWA", "province": "ON", "country": "CA", "postalCode": "K1T3V2", "twitter": "None", "instagram": "None", "facebook": "None", "youtube": "None", "website": "None", "summary": "None", "logo": "None", "latitude": 45.320503713861086, "longitude": -75.61840387659439}, "811674787RR0001": {"name": "Canadian Social Youth Trust Society", "designationCode": "C", "categoryCode": "59", "address": "1250-1500 GEORGIA W ST        PO BOX 62", "city": "VANCOUVER", "province": "BC", "country": "CA", "postalCode": "V6G2Z6", "twitter": "None", "instagram": "None", "facebook": "None", "youtube": "None", "website": "None", "summary": "None", "logo": "None", "latitude": 49.29013479542975, "longitude": -123.1300069287031}, "790081715RR0001": {"name": "Canadian Society for the Andalusian Horse", "designationCode": "C", "categoryCode": "54", "address": "1594 BARKERVILLE HWY", "city": "QUESNEL", "province": "BC", "country": "CA", "postalCode": "V2J6T3", "twitter": "None", "instagram": "None", "facebook": "None", "youtube": "None", "website": "None", "summary": "None", "logo": "None", "latitude": 53.028116984523066, "longitude": -122.27949375279218}, "811512680RR0001": {"name": "Canadian Society for the Protection of Nature in Israel/ La Soci\u00e9t\u00e9 canadienne pour la protection de la nature en Isra\u00ebl", "designationCode": "C", "categoryCode": "52", "address": "SUITE 200                     25 IMPERIAL STREET", "city": "TORONTO", "province": "ON", "country": "CA", "postalCode": "M5P1B9", "twitter": "None", "instagram": "None", "facebook": "None", "youtube": "None", "website": "None", "summary": "None", "logo": "None", "latitude": 43.69960479488151, "longitude": -79.39764736580301}, "816889604RR0001": {"name": "Canadian Society for Circumpolar Health", "designationCode": "C", "categoryCode": "19", "address": "3506 MCDONALD DRIVE, 2ND FLR  PO BOX 11050", "city": "YELLOWKNIFE", "province": "NT", "country": "CA", "postalCode": "X1A3X7", "twitter": "None", "instagram": "None", "facebook": "None", "youtube": "None", "website": "None", "summary": "None", "logo": "None", "latitude": 62.466507419095166, "longitude": -114.34618573359658}, "834359077RR0001": {"name": "Canadian Society for Educating Girls of Rural China", "designationCode": "C", "categoryCode": "21", "address": "2580 COUNTRYSIDE DR", "city": "BRAMPTON", "province": "ON", "country": "CA", "postalCode": "L6R3T4", "twitter": "None", "instagram": "None", "facebook": "None", "youtube": "None", "website": "None", "summary": "None", "logo": "None", "latitude": 43.77609529894952, "longitude": -79.7590817820413}, "886251594RR0001": {"name": "Canadian Society for Persian Studies", "designationCode": "C", "categoryCode": "20", "address": "3145 MIDLAND ROAD", "city": "VICTORIA", "province": "BC", "country": "CA", "postalCode": "V8R6G1", "twitter": "None", "instagram": "None", "facebook": "None", "youtube": "None", "website": "None", "summary": "None", "logo": "None", "latitude": 48.44580733914261, "longitude": -123.30236024860116}, "892206442RR0001": {"name": "Canadian Society of Cytopathology", "designationCode": "C", "categoryCode": "11", "address": "DEPT. OF PATHOLOGY, R. C. H.  330 E COLUMBIA ST.", "city": "NEW WESTMINSTER", "province": "BC", "country": "CA", "postalCode": "V3L3W7", "twitter": "None", "instagram": "None", "facebook": "None", "youtube": "None", "website": "None", "summary": "None", "logo": "None", "latitude": 49.226604789341565, "longitude": -122.89281120200276}, "840810360RR0001": {"name": "Canadian Society of Peace & Relief", "designationCode": "C", "categoryCode": "60", "address": "6680 CAMPOBELLO RD", "city": "MISSISSAUGA", "province": "ON", "country": "CA", "postalCode": "L5N2L8", "twitter": "None", "instagram": "None", "facebook": "None", "youtube": "None", "website": "None", "summary": "None", "logo": "None", "latitude": 43.60854339024172, "longitude": -79.73303564412205}, "118836303RR0001": {"name": "Canadian Society of Soil Science Inc. / Soci\u00e9t\u00e9 canadienne de la science du sol inc.", "designationCode": "C", "categoryCode": "21", "address": "426 AZURE PLACE", "city": "KAMLOOPS", "province": "BC", "country": "CA", "postalCode": "V2E2R1", "twitter": "None", "instagram": "None", "facebook": "None", "youtube": "None", "website": "None", "summary": "None", "logo": "None", "latitude": 50.65836945406545, "longitude": -120.35217480893284}, "835040577RR0001": {"name": "Canadian South Asian Growth and Support Services (CSAGSS)", "designationCode": "C", "categoryCode": "09", "address": "518 - 70 MORNELLE CRT", "city": "SCARBOROUGH", "province": "ON", "country": "CA", "postalCode": "M1E4S8", "twitter": "None", "instagram": "None", "facebook": "None", "youtube": "None", "website": "None", "summary": "None", "logo": "None", "latitude": 43.78665699391182, "longitude": -79.19638987370791}, "826841223RR0001": {"name": "Canadian Spine Research & Education Fund", "designationCode": "C", "categoryCode": "11", "address": "10 ARMSTRONG CRES             PO BOX 1065", "city": "MARKDALE", "province": "ON", "country": "CA", "postalCode": "N0C1H0", "twitter": "None", "instagram": "None", "facebook": "None", "youtube": "None", "website": "None", "summary": "None", "logo": "None", "latitude": 44.31430680653827, "longitude": -80.64774557259496}, "816792295RR0001": {"name": "Canadian Stress Society Stresshelp /La Soci\u00e9t\u00e9 Canadienne du Stress Stressaide", "designationCode": "C", "categoryCode": "21", "address": "161, DE LA GONDOLE", "city": "SAINT-EUSTACHE", "province": "QC", "country": "CA", "postalCode": "J7P1N6", "twitter": "None", "instagram": "None", "facebook": "None", "youtube": "None", "website": "None", "summary": "None", "logo": "None", "latitude": 45.57590830362406, "longitude": -73.86619807103709}, "888229838RR0001": {"name": "Canadian Supply Chain Research Foundation", "designationCode": "A", "categoryCode": "23", "address": "2810-777 BAY STREET           P.O. BOX 112", "city": "TORONTO", "province": "ON", "country": "CA", "postalCode": "M5G2C8", "twitter": "None", "instagram": "None", "facebook": "None", "youtube": "None", "website": "None", "summary": "None", "logo": "None", "latitude": 43.66021130956474, "longitude": -79.38552929210722}, "871287223RR0001": {"name": "Canadian Support of Rural African Initiatives (CSRAI)", "designationCode": "C", "categoryCode": "11", "address": "PO BOX 19037, 360A BLOOR ST. W", "city": "TORONTO", "province": "ON", "country": "CA", "postalCode": "M5S1X1", "twitter": "None", "instagram": "None", "facebook": "None", "youtube": "None", "website": "None", "summary": "None", "logo": "None", "latitude": 43.6665077600754, "longitude": -79.40499142685711}, "784930893RR0001": {"name": "Canadian Sustainability and Regeneration Fund/Fonds de r\u00e9g\u00e9n\u00e9ration et de d\u00e9veloppement durable du Canada", "designationCode": "A", "categoryCode": "53", "address": "136 DE GAULLE BLVD.", "city": "LORRAINE", "province": "QC", "country": "CA", "postalCode": "J6Z3Z3", "twitter": "None", "instagram": "None", "facebook": "None", "youtube": "None", "website": "None", "summary": "None", "logo": "None", "latitude": 45.66994024144511, "longitude": -73.78817779075521}, "823467279RR0001": {"name": "Canadian Tamil Medical Association", "designationCode": "A", "categoryCode": "03", "address": "7- 2466 EGLINGTON AVENUE EAST", "city": "TORONTO", "province": "ON", "country": "CA", "postalCode": "M1K5J8", "twitter": "None", "instagram": "None", "facebook": "None", "youtube": "None", "website": "None", "summary": "None", "logo": "None", "latitude": 43.73423312519461, "longitude": -79.26088736692819}, "785703687RR0001": {"name": "Canadian Tapdx Foundation", "designationCode": "C", "categoryCode": "20", "address": "20 AYHART ST", "city": "MARKHAM", "province": "ON", "country": "CA", "postalCode": "L6E1H5", "twitter": "None", "instagram": "None", "facebook": "None", "youtube": "None", "website": "None", "summary": "None", "logo": "None", "latitude": 43.90027425284209, "longitude": -79.27382508078927}, "106867260RR0001": {"name": "Canadian Tax Foundation / Fondation canadienne de fiscalit\u00e9", "designationCode": "C", "categoryCode": "21", "address": "1200-595 BAY ST", "city": "TORONTO", "province": "ON", "country": "CA", "postalCode": "M5G2N5", "twitter": "None", "instagram": "None", "facebook": "None", "youtube": "None", "website": "None", "summary": "None", "logo": "None", "latitude": 43.65610279545842, "longitude": -79.38386884687557}, "118836543RR0001": {"name": "Canadian Therapeutic Riding Association / L'Association Canadienne d'\u00e9quitation th\u00e9rapeutique", "designationCode": "C", "categoryCode": "56", "address": "5420 HWY, 6 NORTH, RR#5", "city": "GUELPH", "province": "ON", "country": "CA", "postalCode": "N1H6J2", "twitter": "None", "instagram": "None", "facebook": "None", "youtube": "None", "website": "None", "summary": "None", "logo": "None", "latitude": 43.57296517735107, "longitude": -80.28245636726805}, "807050620RR0001": {"name": "Canadian Transplant Society", "designationCode": "C", "categoryCode": "11", "address": "6 BLACK WILLOWAY", "city": "NORTH YORK", "province": "ON", "country": "CA", "postalCode": "M2J2A8", "twitter": "None", "instagram": "None", "facebook": "None", "youtube": "None", "website": "None", "summary": "None", "logo": "None", "latitude": 43.77737510297761, "longitude": -79.36578069109581}, "118836592RR0001": {"name": "Canadian Transportation Education Foundation / La Fondation Canadienne d'\u00e9ducation sur les transports", "designationCode": "A", "categoryCode": "21", "address": "SUITE 1014                    425 WILSON AVENUE", "city": "KITCHENER", "province": "ON", "country": "CA", "postalCode": "N2C2R8", "twitter": "None", "instagram": "None", "facebook": "None", "youtube": "None", "website": "None", "summary": "None", "logo": "None", "latitude": 43.422825336603786, "longitude": -80.4454114471692}, "809409378RR0001": {"name": "Canadian United Community of Ugandan Muslims", "designationCode": "C", "categoryCode": "60", "address": "1690 EGLINTON AVE W", "city": "YORK", "province": "ON", "country": "CA", "postalCode": "M6E2H5", "twitter": "None", "instagram": "None", "facebook": "None", "youtube": "None", "website": "None", "summary": "None", "logo": "None", "latitude": 43.696679216227025, "longitude": -79.44582947766742}, "875403925RR0001": {"name": "Canadian United Pentecostal Church/Eglise pentecotiste unie canadienne", "designationCode": "C", "categoryCode": "39", "address": "4865 BOUL. DAVIS", "city": "ST-HUBERT", "province": "QC", "country": "CA", "postalCode": "J3Y8K1", "twitter": "None", "instagram": "None", "facebook": "None", "youtube": "None", "website": "None", "summary": "None", "logo": "None", "latitude": 45.49881842157667, "longitude": -73.43855158050081}, "129905600RR0001": {"name": "Canadian University Music Society/Soci\u00e9t\u00e9 de musique des universit\u00e9s canadiennes", "designationCode": "C", "categoryCode": "22", "address": "10 MORROW AVE. SUITE 202", "city": "TORONTO", "province": "ON", "country": "CA", "postalCode": "M6R2J1", "twitter": "None", "instagram": "None", "facebook": "None", "youtube": "None", "website": "None", "summary": "None", "logo": "None", "latitude": 43.652675819031735, "longitude": -79.44734521302436}, "782538292RR0001": {"name": "Canadian Urban Planning Foundation", "designationCode": "B", "categoryCode": "21", "address": "207-314 CORDOVA W ST", "city": "VANCOUVER", "province": "BC", "country": "CA", "postalCode": "V6B1E8", "twitter": "None", "instagram": "None", "facebook": "None", "youtube": "None", "website": "None", "summary": "None", "logo": "None", "latitude": 49.283538540132334, "longitude": -123.10917003196711}, "839865797RR0001": {"name": "Canadian Veteran Service Dog Unit (CVSDU)", "designationCode": "C", "categoryCode": "11", "address": "108 - 190 MENTEN PL", "city": "NEPEAN", "province": "ON", "country": "CA", "postalCode": "K2H9G3", "twitter": "None", "instagram": "None", "facebook": "None", "youtube": "None", "website": "None", "summary": "None", "logo": "None", "latitude": 45.32761049792253, "longitude": -75.83388410505508}, "806295747RR0001": {"name": "Canadian Vincentian Congregation Association", "designationCode": "C", "categoryCode": "49", "address": "69 WILLIAM ST", "city": "YORK", "province": "ON", "country": "CA", "postalCode": "M9N2G6", "twitter": "None", "instagram": "None", "facebook": "None", "youtube": "None", "website": "None", "summary": "None", "logo": "None", "latitude": 43.70392085648351, "longitude": -79.5127052679613}, "855201364RR0001": {"name": "Canadian Volunteers for International Development Society", "designationCode": "C", "categoryCode": "09", "address": "13432-118 AVENUE", "city": "EDMONTON", "province": "AB", "country": "CA", "postalCode": "T5L2L8", "twitter": "None", "instagram": "None", "facebook": "None", "youtube": "None", "website": "None", "summary": "None", "logo": "None", "latitude": 53.57043652596791, "longitude": -113.55393141618097}, "887961423RR0001": {"name": "Canadian VHL Alliance", "designationCode": "C", "categoryCode": "11", "address": "602 COWAN CIR", "city": "PICKERING", "province": "ON", "country": "CA", "postalCode": "L1W3K7", "twitter": "None", "instagram": "None", "facebook": "None", "youtube": "None", "website": "None", "summary": "None", "logo": "None", "latitude": 43.80512498309179, "longitude": -79.12002012129948}, "813232253RR0001": {"name": "Canadian Welfare and Development Foundation/Fondation Canadi", "designationCode": "C", "categoryCode": "09", "address": "274, AVENUE L\u00c9VIS", "city": "VANIER", "province": "ON", "country": "CA", "postalCode": "K1L6H6", "twitter": "None", "instagram": "None", "facebook": "None", "youtube": "None", "website": "None", "summary": "None", "logo": "None", "latitude": 45.435641543424396, "longitude": -75.65884116180968}, "888800976RR0001": {"name": "Canadian Whale Institute", "designationCode": "C", "categoryCode": "20", "address": "20 MORNING STAR LANE", "city": "WILSON'S BEACH", "province": "NB", "country": "CA", "postalCode": "E5E1S9", "twitter": "None", "instagram": "None", "facebook": "None", "youtube": "None", "website": "None", "summary": "None", "logo": "None", "latitude": 44.92831992642409, "longitude": -66.93318740339903}, "106868755RR0001": {"name": "Canadian Wildlife Federation / F\u00e9d\u00e9ration canadienne de la faune", "designationCode": "C", "categoryCode": "54", "address": "350 MICHAEL COWPLAND DRIVE", "city": "KANATA", "province": "ON", "country": "CA", "postalCode": "K2M2W1", "twitter": "None", "instagram": "None", "facebook": "None", "youtube": "None", "website": "None", "summary": "None", "logo": "None", "latitude": 45.284264994114295, "longitude": -75.87623676155597}, "122085434RR0001": {"name": "Canadian Wildlife Foundation / Fondation canadienne de la faune", "designationCode": "A", "categoryCode": "53", "address": "350 MICHAEL COWPLAND DRIVE", "city": "KANATA", "province": "ON", "country": "CA", "postalCode": "K2M2W1", "twitter": "None", "instagram": "None", "facebook": "None", "youtube": "None", "website": "None", "summary": "None", "logo": "None", "latitude": 45.284264994114295, "longitude": -75.87623676155597}, "820914984RR0001": {"name": "Canadian Women and Words Foundation", "designationCode": "C", "categoryCode": "22", "address": "PO BOX 55004 STN CADBORO BAY", "city": "VICTORIA", "province": "BC", "country": "CA", "postalCode": "V8N6L8", "twitter": "None", "instagram": "None", "facebook": "None", "youtube": "None", "website": "None", "summary": "None", "logo": "None", "latitude": 48.46145192891008, "longitude": -123.29265604642143}, "887718203RR0001": {"name": "Canadian Women for Women in Afghanistan Inc. / Femmes canadiennes pour les femmes en afghanistan inc.", "designationCode": "C", "categoryCode": "09", "address": "MARDA LOOP BOX 86016", "city": "CALGARY", "province": "AB", "country": "CA", "postalCode": "T2T6B7", "twitter": "None", "instagram": "None", "facebook": "None", "youtube": "None", "website": "None", "summary": "None", "logo": "None", "latitude": 51.02152998179576, "longitude": -114.11198527182971}, "878081520RR0001": {"name": "Canadian Women's Health Network Inc. / Le R\u00e9seau canadien pour la sant\u00e9 des femmes", "designationCode": "C", "categoryCode": "11", "address": "40 ALLOWAY AVE", "city": "WINNIPEG", "province": "MB", "country": "CA", "postalCode": "R3G0Z8", "twitter": "None", "instagram": "None", "facebook": "None", "youtube": "None", "website": "None", "summary": "None", "logo": "None", "latitude": 49.883494506780686, "longitude": -97.16252386372554}, "845611953RR0001": {"name": "Canadian World Education Society", "designationCode": "C", "categoryCode": "20", "address": "1019 LOCH GLEN PL", "city": "VICTORIA", "province": "BC", "country": "CA", "postalCode": "V9B4N9", "twitter": "None", "instagram": "None", "facebook": "None", "youtube": "None", "website": "None", "summary": "None", "logo": "None", "latitude": 48.438158187604714, "longitude": -123.51943319334617}, "859918146RR0001": {"name": "Canadian Worship and Music Ministry Association", "designationCode": "C", "categoryCode": "22", "address": "4350 STEELES AVE EAST         UNIT 97-H2 BOX 51", "city": "MARKHAM", "province": "ON", "country": "CA", "postalCode": "L3R9V4", "twitter": "None", "instagram": "None", "facebook": "None", "youtube": "None", "website": "None", "summary": "None", "logo": "None", "latitude": 43.82424314854531, "longitude": -79.30495467781827}, "891535015RR0001": {"name": "Canadian Youth and Community Life Transformation Foundation", "designationCode": "C", "categoryCode": "49", "address": "31 WEST TERRACE PLACE", "city": "SPRUCE GROVE", "province": "AB", "country": "CA", "postalCode": "T7X1T3", "twitter": "None", "instagram": "None", "facebook": "None", "youtube": "None", "website": "None", "summary": "None", "logo": "None", "latitude": 53.54749609215759, "longitude": -113.92053537131427}, "106868854RR0001": {"name": "Canadian 4-H Council / Le Conseil des 4-H du Canada", "designationCode": "C", "categoryCode": "21", "address": "960 CARLING AVE. BLD 26", "city": "OTTAWA", "province": "ON", "country": "CA", "postalCode": "K1A0C6", "twitter": "None", "instagram": "None", "facebook": "None", "youtube": "None", "website": "None", "summary": "None", "logo": "None", "latitude": 45.39472772078597, "longitude": -75.71385141465174}, "887411288RR0001": {"name": "Canadian 4-H Foundation/ La fondation des 4-H du Canada", "designationCode": "A", "categoryCode": "29", "address": "930 CARLING AVE. BLDG #26", "city": "OTTAWA", "province": "ON", "country": "CA", "postalCode": "K1A0C6", "twitter": "None", "instagram": "None", "facebook": "None", "youtube": "None", "website": "None", "summary": "None", "logo": "None", "latitude": 45.39474862358612, "longitude": -75.71367262227439}, "882538960RR0001": {"name": "Canadian-Korean Buddhists' Association", "designationCode": "C", "categoryCode": "35", "address": "1564 EGLINTON AVE W", "city": "TORONTO", "province": "ON", "country": "CA", "postalCode": "M6E2G8", "twitter": "None", "instagram": "None", "facebook": "None", "youtube": "None", "website": "None", "summary": "None", "logo": "None", "latitude": 43.697429139621356, "longitude": -79.44228576187311}, "118833425RR0001": {"name": "Canadiana.org", "designationCode": "C", "categoryCode": "52", "address": "P.O.BOX 55059 SPARKS ST.", "city": "OTTAWA", "province": "ON", "country": "CA", "postalCode": "K1P1A1", "twitter": "None", "instagram": "None", "facebook": "None", "youtube": "None", "website": "None", "summary": "None", "logo": "None", "latitude": 45.42192993217273, "longitude": -75.69958344887577}, "825656630RR0001": {"name": "Canadians for a New Partnership", "designationCode": "C", "categoryCode": "29", "address": "203 - 291 DALHOUSIE ST", "city": "OTTAWA", "province": "ON", "country": "CA", "postalCode": "K1N7E5", "twitter": "None", "instagram": "None", "facebook": "None", "youtube": "None", "website": "None", "summary": "None", "logo": "None", "latitude": 45.42983237191985, "longitude": -75.6919236547119}, "891387722RR0001": {"name": "Canadians for a Safe Learning Environment Society (CASLE)", "designationCode": "C", "categoryCode": "19", "address": "115 FARMERS DAIRY LANE", "city": "BEDFORD", "province": "NS", "country": "CA", "postalCode": "B4B2C9", "twitter": "None", "instagram": "None", "facebook": "None", "youtube": "None", "website": "None", "summary": "None", "logo": "None", "latitude": 44.736706793208064, "longitude": -63.70662937769091}, "805551165RR0001": {"name": "Canadians for Vanessa's Law Inc.", "designationCode": "C", "categoryCode": "19", "address": "2443 MONTAGNE AVENUE", "city": "OAKVILLE", "province": "ON", "country": "CA", "postalCode": "L6M0J5", "twitter": "None", "instagram": "None", "facebook": "None", "youtube": "None", "website": "None", "summary": "None", "logo": "None", "latitude": 43.43335775160132, "longitude": -79.76823122843203}, "896230760RR0001": {"name": "Canadians Assisting in Relief Efforts Society", "designationCode": "C", "categoryCode": "47", "address": "33140 MILL LAKE ROAD SUITE 201", "city": "ABBOTSFORD", "province": "BC", "country": "CA", "postalCode": "V2S2A5", "twitter": "None", "instagram": "None", "facebook": "None", "youtube": "None", "website": "None", "summary": "None", "logo": "None", "latitude": 49.04963061336497, "longitude": -122.3059362712795}, "842497729RR0001": {"name": "Canadians Organized for Relief Effort Foundation", "designationCode": "C", "categoryCode": "09", "address": "29 AUBURN CREST LANE SE", "city": "CALGARY", "province": "AB", "country": "CA", "postalCode": "T3M0Z1", "twitter": "None", "instagram": "None", "facebook": "None", "youtube": "None", "website": "None", "summary": "None", "logo": "None", "latitude": 50.886508421316876, "longitude": -113.94682744200465}, "847805249RR0001": {"name": "Canadians Sharing Locally and Globally", "designationCode": "C", "categoryCode": "09", "address": "130 WREN STREET               RURAL ROUTE 1", "city": "OTTAWA", "province": "ON", "country": "CA", "postalCode": "K0A1T0", "twitter": "None", "instagram": "None", "facebook": "None", "youtube": "None", "website": "None", "summary": "None", "logo": "None", "latitude": 45.4779710747011, "longitude": -75.99950734107584}, "798254710RR0001": {"name": "Canado Foundation", "designationCode": "B", "categoryCode": "03", "address": "100 ST CHARLES ST E", "city": "MARYHILL", "province": "ON", "country": "CA", "postalCode": "N0B2B0", "twitter": "None", "instagram": "None", "facebook": "None", "youtube": "None", "website": "None", "summary": "None", "logo": "None", "latitude": 43.53867866362736, "longitude": -80.38443517851542}, "815630538RR0001": {"name": "Canard Community Church", "designationCode": "C", "categoryCode": "39", "address": "925 BAINS RD", "city": "CANNING", "province": "NS", "country": "CA", "postalCode": "B0P1H0", "twitter": "None", "instagram": "None", "facebook": "None", "youtube": "None", "website": "None", "summary": "None", "logo": "None", "latitude": 45.15927012577155, "longitude": -64.49100895464235}, "811460211RR0001": {"name": "Canary Foundation", "designationCode": "B", "categoryCode": "05", "address": "400-221 WEST ESPLANADE", "city": "NORTH VANCOUVER", "province": "BC", "country": "CA", "postalCode": "V7M3J3", "twitter": "None", "instagram": "None", "facebook": "None", "youtube": "None", "website": "None", "summary": "None", "logo": "None", "latitude": 49.312626508713905, "longitude": -123.08325259411949}, "848402632RR0001": {"name": "Cancare N.B. Foundation Inc.", "designationCode": "C", "categoryCode": "11", "address": "82 CHESTNUT ST                UNIT:2", "city": "MINTO", "province": "NB", "country": "CA", "postalCode": "E4B3L5", "twitter": "None", "instagram": "None", "facebook": "None", "youtube": "None", "website": "None", "summary": "None", "logo": "None", "latitude": 46.07048947458034, "longitude": -66.07111926689342}, "845560309RR0001": {"name": "Cancer Chic Trust", "designationCode": "C", "categoryCode": "15", "address": "78 JOSEPH MARQUIS CRES S.W.", "city": "CALGARY", "province": "AB", "country": "CA", "postalCode": "T3E7S4", "twitter": "None", "instagram": "None", "facebook": "None", "youtube": "None", "website": "None", "summary": "None", "logo": "None", "latitude": 51.004152000000005, "longitude": -114.12339763812079}}