{"119081446RR0001": {"name": "PAROISSE COEUR IMMACULE DE MARIE", "designationCode": "C", "categoryCode": "38", "address": "1007 ST MARY'S RD", "city": "WINNIPEG", "province": "MB", "country": "CA", "postalCode": "R2M3S5", "twitter": "None", "instagram": "None", "facebook": "None", "youtube": "None", "website": "None", "summary": "None", "logo": "None", "latitude": 49.840256074383966, "longitude": -97.1121188378732}, "132130840RR0001": {"name": "PAROISSE COEUR TRES PUR DE MARIE", "designationCode": "C", "categoryCode": "38", "address": "277 PRINCIPALE", "city": "PLAISANCE", "province": "QC", "country": "CA", "postalCode": "J0V1S0", "twitter": "None", "instagram": "None", "facebook": "None", "youtube": "None", "website": "None", "summary": "None", "logo": "None", "latitude": 45.60645346104767, "longitude": -75.1114658551272}, "107876476RR0045": {"name": "PAROISSE DE L'ANNONCIATION", "designationCode": "C", "categoryCode": "38", "address": "1168, AVENUE NORTHWAY", "city": "SUDBURY", "province": "ON", "country": "CA", "postalCode": "P3A3A8", "twitter": "None", "instagram": "None", "facebook": "None", "youtube": "None", "website": "None", "summary": "None", "logo": "None", "latitude": 46.52311370272392, "longitude": -80.96779511968428}, "130091135RR0032": {"name": "PAROISSE DE L'ANNONCIATION", "designationCode": "C", "categoryCode": "38", "address": "576, RUE CENTRALE", "city": "MEMRAMCOOK", "province": "NB", "country": "CA", "postalCode": "E4K3S7", "twitter": "None", "instagram": "None", "facebook": "None", "youtube": "None", "website": "None", "summary": "None", "logo": "None", "latitude": 45.97494287786062, "longitude": -64.56542577132997}, "129930228RR0017": {"name": "PAROISSE DE L'ASSOMPTION", "designationCode": "C", "categoryCode": "38", "address": "355 CHAPEL", "city": "GRAND-SAULT", "province": "NB", "country": "CA", "postalCode": "E3Z2M5", "twitter": "None", "instagram": "None", "facebook": "None", "youtube": "None", "website": "None", "summary": "None", "logo": "None", "latitude": 47.044983159790476, "longitude": -67.74061640862088}, "892076449RR0001": {"name": "PAROISSE DE L'ASSOMPTION,", "designationCode": "C", "categoryCode": "38", "address": "4609 50 AVE", "city": "ST PAUL", "province": "AB", "country": "CA", "postalCode": "T0A3A3", "twitter": "None", "instagram": "None", "facebook": "None", "youtube": "None", "website": "None", "summary": "None", "logo": "None", "latitude": 53.99135148730496, "longitude": -111.28695202553523}, "107876476RR0082": {"name": "PAROISSE DE L'IMMACULEE CONCEPTION", "designationCode": "C", "categoryCode": "38", "address": "P.O. BOX 488", "city": "MASSEY", "province": "ON", "country": "CA", "postalCode": "P0P1P0", "twitter": "None", "instagram": "None", "facebook": "None", "youtube": "None", "website": "None", "summary": "None", "logo": "None", "latitude": 46.21236000000006, "longitude": -82.07723599999993}, "122418601RR0015": {"name": "PAROISSE DE L'IMMACULEE CONCEPTION", "designationCode": "C", "categoryCode": "38", "address": "PUBNICO-EST", "city": "PUBNICO-EST", "province": "NS", "country": "CA", "postalCode": "B0W2A0", "twitter": "None", "instagram": "None", "facebook": "None", "youtube": "None", "website": "None", "summary": "None", "logo": "None", "latitude": 43.661103000000054, "longitude": -65.76266599999994}, "130091135RR0037": {"name": "PAROISSE DE L'IMMACULEE CONCEPTION", "designationCode": "C", "categoryCode": "38", "address": "4049 ROUTE 480", "city": "ACADIEVILLE", "province": "NB", "country": "CA", "postalCode": "E4Y1Z3", "twitter": "None", "instagram": "None", "facebook": "None", "youtube": "None", "website": "None", "summary": "None", "logo": "None", "latitude": 46.72988680832306, "longitude": -65.26608823329225}, "130311608RR0001": {"name": "PAROISSE DE L'IMMACULEE-CONCEPTION-DE-LA-SAINTE-VIERGE", "designationCode": "C", "categoryCode": "38", "address": "1285 RUE SAINT-FRANCOIS-XAVIER", "city": "TROIS-RIVIERES", "province": "QC", "country": "CA", "postalCode": "G9A1R9", "twitter": "None", "instagram": "None", "facebook": "None", "youtube": "None", "website": "None", "summary": "None", "logo": "None", "latitude": 46.35206754980105, "longitude": -72.5473823025562}, "119081529RR0001": {"name": "PAROISSE DE LA CATHEDRALE DE SAINT-HYACINTHE", "designationCode": "C", "categoryCode": "38", "address": "1900 GIROUARD OUEST,C.P.190", "city": "SAINT-HYACINTHE", "province": "QC", "country": "CA", "postalCode": "J2S7B4", "twitter": "None", "instagram": "None", "facebook": "None", "youtube": "None", "website": "None", "summary": "None", "logo": "None", "latitude": 45.62391797590707, "longitude": -72.94864985033708}, "106960651RR0001": {"name": "PAROISSE DE LA COMMUNAUTE CHRETIENNE DE SAINT-RICHARD DE LA CITE DE GATINEAU, P.Q.", "designationCode": "C", "categoryCode": "38", "address": "445 BOUL SAINT-RENE OUEST", "city": "GATINEAU", "province": "QC", "country": "CA", "postalCode": "J8P2W5", "twitter": "None", "instagram": "None", "facebook": "None", "youtube": "None", "website": "None", "summary": "None", "logo": "None", "latitude": 45.49110042050881, "longitude": -75.66783536234055}, "107585515RR0030": {"name": "PAROISSE DE LA NATIVITE DE LA BIENHEUREUSE VIERGE MARIE", "designationCode": "C", "categoryCode": "38", "address": "CP 180", "city": "MOONBEAM", "province": "ON", "country": "CA", "postalCode": "P0L1V0", "twitter": "None", "instagram": "None", "facebook": "None", "youtube": "None", "website": "None", "summary": "None", "logo": "None", "latitude": 37.54422190043971, "longitude": -122.2361597725908}, "107585515RR0021": {"name": "PAROISSE DE LA TRANSFIGURATION", "designationCode": "C", "categoryCode": "38", "address": "C.P. 520", "city": "COCHRANE", "province": "ON", "country": "CA", "postalCode": "P0L1C0", "twitter": "None", "instagram": "None", "facebook": "None", "youtube": "None", "website": "None", "summary": "None", "logo": "None", "latitude": 49.07076000000005, "longitude": -81.00274849999994}, "107876476RR0080": {"name": "PAROISSE DE LA VISITATION", "designationCode": "C", "categoryCode": "38", "address": "C.P. 99", "city": "VERNER", "province": "ON", "country": "CA", "postalCode": "P0H2M0", "twitter": "None", "instagram": "None", "facebook": "None", "youtube": "None", "website": "None", "summary": "None", "logo": "None", "latitude": 46.40693100000006, "longitude": -80.12398399999994}, "130091135RR0031": {"name": "PAROISSE DE LA VISITATION", "designationCode": "C", "categoryCode": "38", "address": "416 ROUTE 530", "city": "GRANDE-DIGUE", "province": "NB", "country": "CA", "postalCode": "E4R5K3", "twitter": "None", "instagram": "None", "facebook": "None", "youtube": "None", "website": "None", "summary": "None", "logo": "None", "latitude": 46.293556363637585, "longitude": -64.56405803937062}, "130091135RR0047": {"name": "PAROISSE DE LOUIS DE GONZAGUE", "designationCode": "C", "categoryCode": "38", "address": "940 RUE MAIN", "city": "RICHIBUCTO", "province": "NB", "country": "CA", "postalCode": "E4W4E3", "twitter": "None", "instagram": "None", "facebook": "None", "youtube": "None", "website": "None", "summary": "None", "logo": "None", "latitude": 46.68793355849439, "longitude": -64.86388797592404}, "119081735RR0001": {"name": "PAROISSE DE NEW RICHMOND", "designationCode": "C", "categoryCode": "38", "address": "129 BOUL. PERRON OUEST", "city": "NEW RICHMOND", "province": "QC", "country": "CA", "postalCode": "G0C2B0", "twitter": "None", "instagram": "None", "facebook": "None", "youtube": "None", "website": "None", "summary": "None", "logo": "None", "latitude": 48.161815250620386, "longitude": -65.85943051540767}, "107585515RR0022": {"name": "PAROISSE DE NOTRE-DAME-DES-SEPT-DOULEURS", "designationCode": "C", "categoryCode": "38", "address": "CP 53", "city": "FOLEYET", "province": "ON", "country": "CA", "postalCode": "P0M1T0", "twitter": "None", "instagram": "None", "facebook": "None", "youtube": "None", "website": "None", "summary": "None", "logo": "None", "latitude": 48.24385800000006, "longitude": -82.44075049999994}, "119081750RR0001": {"name": "PAROISSE DE NOTRE-DAME-DU-ROYAUME", "designationCode": "C", "categoryCode": "38", "address": "514 RUE RACINE EST", "city": "CHICOUTIMI", "province": "QC", "country": "CA", "postalCode": "G7H1T9", "twitter": "None", "instagram": "None", "facebook": "None", "youtube": "None", "website": "None", "summary": "None", "logo": "None", "latitude": 48.428727601708204, "longitude": -71.05260704801204}, "129930228RR0025": {"name": "PAROISSE DE SAINT BASILE", "designationCode": "C", "categoryCode": "38", "address": "321 RUE PRINCIPALE", "city": "ST-BASILE", "province": "NB", "country": "CA", "postalCode": "E7C1H7", "twitter": "None", "instagram": "None", "facebook": "None", "youtube": "None", "website": "None", "summary": "None", "logo": "None", "latitude": 47.35658047177923, "longitude": -68.23010447742337}, "129930228RR0007": {"name": "PAROISSE DE SAINT JACQUES", "designationCode": "C", "categoryCode": "38", "address": "6 RUE DE L'\u00c9COLE", "city": "SAINT-JACQUES", "province": "NB", "country": "CA", "postalCode": "E7B1E7", "twitter": "None", "instagram": "None", "facebook": "None", "youtube": "None", "website": "None", "summary": "None", "logo": "None", "latitude": 47.42944546411796, "longitude": -68.38599436403678}, "129930228RR0028": {"name": "PAROISSE DE SAINT JEAN BAPTISTE", "designationCode": "C", "categoryCode": "38", "address": "9869 ROUTE 17", "city": "ST JEAN-BAPTISTE", "province": "NB", "country": "CA", "postalCode": "E8B1Y7", "twitter": "None", "instagram": "None", "facebook": "None", "youtube": "None", "website": "None", "summary": "None", "logo": "None", "latitude": 47.787506035433765, "longitude": -67.20060521786326}, "129930228RR0008": {"name": "PAROISSE DE SAINT JOSEPH", "designationCode": "C", "categoryCode": "38", "address": "554 CH. TOUSSAINT", "city": "SAINT-JOSEPH-DE-MADAWASKA", "province": "NB", "country": "CA", "postalCode": "E7B2T8", "twitter": "None", "instagram": "None", "facebook": "None", "youtube": "None", "website": "None", "summary": "None", "logo": "None", "latitude": 47.455130525957365, "longitude": -68.31490097598845}, "129930228RR0021": {"name": "PAROISSE DE SAINT LEONARD", "designationCode": "C", "categoryCode": "38", "address": "668, RUE PRINCIPALE", "city": "ST-L\u00c9ONARD", "province": "NB", "country": "CA", "postalCode": "E7E2H6", "twitter": "None", "instagram": "None", "facebook": "None", "youtube": "None", "website": "None", "summary": "None", "logo": "None", "latitude": 47.165910434070156, "longitude": -67.92600314576684}, "130091135RR0008": {"name": "PAROISSE DE SAINT NORBERT", "designationCode": "C", "categoryCode": "38", "address": "2350 ROUTE 515", "city": "SAINTE-MARIE-DE-KENT", "province": "NB", "country": "CA", "postalCode": "E4S2E3", "twitter": "None", "instagram": "None", "facebook": "None", "youtube": "None", "website": "None", "summary": "None", "logo": "None", "latitude": 46.41523076732213, "longitude": -64.82802754275258}, "129930228RR0019": {"name": "PAROISSE DE SAINT-ANDRE", "designationCode": "C", "categoryCode": "38", "address": "482, CHEMIN DE L'\u00c9GLISE", "city": "SAINT-ANDR\u00c9", "province": "NB", "country": "CA", "postalCode": "E3Y2Y5", "twitter": "None", "instagram": "None", "facebook": "None", "youtube": "None", "website": "None", "summary": "None", "logo": "None", "latitude": 47.10114292560313, "longitude": -67.76576989024402}, "130091135RR0035": {"name": "PAROISSE DE SAINT-ANSELME", "designationCode": "C", "categoryCode": "38", "address": "1014 RUE AMIRAULT", "city": "DIEPPE", "province": "NB", "country": "CA", "postalCode": "E1A1C9", "twitter": "None", "instagram": "None", "facebook": "None", "youtube": "None", "website": "None", "summary": "None", "logo": "None", "latitude": 46.07034063142704, "longitude": -64.72101203647084}, "130091135RR0007": {"name": "PAROISSE DE SAINT-LOUIS-DES-FRANCAIS", "designationCode": "C", "categoryCode": "38", "address": "10565 RUE PRINCIPALE", "city": "SAINT-LOUIS-DE-KENT", "province": "NB", "country": "CA", "postalCode": "E4X1E9", "twitter": "None", "instagram": "None", "facebook": "None", "youtube": "None", "website": "None", "summary": "None", "logo": "None", "latitude": 46.738737197905145, "longitude": -64.97565501220501}, "130091135RR0027": {"name": "PAROISSE DE SAINT-PAUL", "designationCode": "C", "categoryCode": "38", "address": "6479 ROUTE 515", "city": "ST PAUL DE KENT", "province": "NB", "country": "CA", "postalCode": "E4T3S5", "twitter": "None", "instagram": "None", "facebook": "None", "youtube": "None", "website": "None", "summary": "None", "logo": "None", "latitude": 46.32755555071481, "longitude": -65.01687113689253}, "129930228RR0023": {"name": "PAROISSE DE SAINTE ANNE", "designationCode": "C", "categoryCode": "38", "address": "99 RUE PRINICPALE", "city": "SAINTE-ANNE-DE-MADAWASKA", "province": "NB", "country": "CA", "postalCode": "E7E1A8", "twitter": "None", "instagram": "None", "facebook": "None", "youtube": "None", "website": "None", "summary": "None", "logo": "None", "latitude": 47.24525400000006, "longitude": -68.02590049999993}, "129930228RR0009": {"name": "PAROISSE DE ST HILAIRE", "designationCode": "C", "categoryCode": "38", "address": "2200 RUE CENTRALE", "city": "SAINT-HILAIRE", "province": "NB", "country": "CA", "postalCode": "E3V4W1", "twitter": "None", "instagram": "None", "facebook": "None", "youtube": "None", "website": "None", "summary": "None", "logo": "None", "latitude": 47.29042193466536, "longitude": -68.39843197598145}, "119081941RR0001": {"name": "PAROISSE DE ST. FRONT ST. FRONT'S CHURCH", "designationCode": "C", "categoryCode": "38", "address": "RR# 1, BOX 13, SITE 2", "city": "ROSE VALLEY", "province": "SK", "country": "CA", "postalCode": "S0E1M0", "twitter": "None", "instagram": "None", "facebook": "None", "youtube": "None", "website": "None", "summary": "None", "logo": "None", "latitude": 52.289658, "longitude": -103.80684149999999}, "129930228RR0018": {"name": "PAROISSE DE ST-GEORGES", "designationCode": "C", "categoryCode": "38", "address": "226 RUE SAINT-GEORGES", "city": "GRAND-SAULT/GRAND FALLS", "province": "NB", "country": "CA", "postalCode": "E3Y1C3", "twitter": "None", "instagram": "None", "facebook": "None", "youtube": "None", "website": "None", "summary": "None", "logo": "None", "latitude": 47.053183849039016, "longitude": -67.73426033842145}, "130091135RR0001": {"name": "PAROISSE DE ST-IGNACE DE LOYOLA", "designationCode": "C", "categoryCode": "38", "address": "1921 CH SAINT-IGNACE", "city": "SAINT-IGNACE", "province": "NB", "country": "CA", "postalCode": "E4X2H6", "twitter": "None", "instagram": "None", "facebook": "None", "youtube": "None", "website": "None", "summary": "None", "logo": "None", "latitude": 46.697366872035424, "longitude": -65.07971527127951}, "866781032RR0001": {"name": "PAROISSE DE TOUS LES SAINTS", "designationCode": "C", "categoryCode": "39", "address": "2 RUE DES REMPARTS #5", "city": "QUEBEC", "province": "QC", "country": "CA", "postalCode": "G1R3R3", "twitter": "None", "instagram": "None", "facebook": "None", "youtube": "None", "website": "None", "summary": "None", "logo": "None", "latitude": 46.815657758526235, "longitude": -71.20416468861431}, "119081909RR0001": {"name": "PAROISSE DES SAINTS MARTYRS CANADIENS", "designationCode": "C", "categoryCode": "38", "address": "CP 5", "city": "TANGENT", "province": "AB", "country": "CA", "postalCode": "T0H3J0", "twitter": "None", "instagram": "None", "facebook": "None", "youtube": "None", "website": "None", "summary": "None", "logo": "None", "latitude": 55.831227000000055, "longitude": -117.68126299999994}, "119018737RR0040": {"name": "PAROISSE DES SS-MARTYRS CANADIENS", "designationCode": "C", "categoryCode": "38", "address": "4 CENTRAL ST", "city": "CAMPBELLTON", "province": "NB", "country": "CA", "postalCode": "E3N1Z5", "twitter": "None", "instagram": "None", "facebook": "None", "youtube": "None", "website": "None", "summary": "None", "logo": "None", "latitude": 48.00584310750667, "longitude": -66.67064434014542}, "890064041RR0001": {"name": "PAROISSE DRUMMONDVILLE/MAURICIE DE L'EGLISE UNIE DU CANADA", "designationCode": "C", "categoryCode": "44", "address": "17 RUE JULIEN", "city": "BATISCAN", "province": "QC", "country": "CA", "postalCode": "G0X1A0", "twitter": "None", "instagram": "None", "facebook": "None", "youtube": "None", "website": "None", "summary": "None", "logo": "None", "latitude": 46.50609238605812, "longitude": -72.24528139399261}, "119018737RR0002": {"name": "PAROISSE DU CHRIST ROI", "designationCode": "C", "categoryCode": "38", "address": "CP 390", "city": "BATHURST", "province": "NB", "country": "CA", "postalCode": "E2A3Z3", "twitter": "None", "instagram": "None", "facebook": "None", "youtube": "None", "website": "None", "summary": "None", "logo": "None", "latitude": 47.61677400000005, "longitude": -65.64889249999993}, "130091135RR0013": {"name": "PAROISSE DU CHRIST-ROI", "designationCode": "C", "categoryCode": "38", "address": "854 MOUNTAIN RD", "city": "MONCTON", "province": "NB", "country": "CA", "postalCode": "E1C2R8", "twitter": "None", "instagram": "None", "facebook": "None", "youtube": "None", "website": "None", "summary": "None", "logo": "None", "latitude": 46.100568889232115, "longitude": -64.80991010395856}, "122418601RR0022": {"name": "PAROISSE DU SACRE COEUR", "designationCode": "C", "categoryCode": "38", "address": "CP 71", "city": "SAULNIERVILLE", "province": "NS", "country": "CA", "postalCode": "B0W2Z0", "twitter": "None", "instagram": "None", "facebook": "None", "youtube": "None", "website": "None", "summary": "None", "logo": "None", "latitude": 44.26185761364002, "longitude": -66.13166556149737}, "128967353RR0121": {"name": "PAROISSE DU SACRE COEUR", "designationCode": "C", "categoryCode": "38", "address": "591 RUE CUMBERLAND", "city": "OTTAWA", "province": "ON", "country": "CA", "postalCode": "K1N7K3", "twitter": "None", "instagram": "None", "facebook": "None", "youtube": "None", "website": "None", "summary": "None", "logo": "None", "latitude": 45.42423518847009, "longitude": -75.68441648802612}, "132360132RR0001": {"name": "PAROISSE DU SACRE COEUR", "designationCode": "C", "categoryCode": "38", "address": "CP 229", "city": "DONNELLY", "province": "AB", "country": "CA", "postalCode": "T0H1G0", "twitter": "None", "instagram": "None", "facebook": "None", "youtube": "None", "website": "None", "summary": "None", "logo": "None", "latitude": 52.25531195407247, "longitude": -113.75531095650507}, "107585515RR0020": {"name": "PAROISSE DU SACRE-COEUR", "designationCode": "C", "categoryCode": "38", "address": "CP 490", "city": "CHAPLEAU", "province": "ON", "country": "CA", "postalCode": "P0M1K0", "twitter": "None", "instagram": "None", "facebook": "None", "youtube": "None", "website": "None", "summary": "None", "logo": "None", "latitude": 47.842467000000056, "longitude": -83.40490249999993}, "119122778RR0003": {"name": "PAROISSE DU SACRE-COEUR", "designationCode": "C", "categoryCode": "38", "address": "SACRE COEUR                   225 SUD, RUE MAIN, CP 670", "city": "ALEXANDRIA", "province": "ON", "country": "CA", "postalCode": "K0C1A0", "twitter": "None", "instagram": "None", "facebook": "None", "youtube": "None", "website": "None", "summary": "None", "logo": "None", "latitude": 45.30546998435199, "longitude": -74.63187622125184}, "130091135RR0030": {"name": "PAROISSE DU SACRE-COEUR", "designationCode": "C", "categoryCode": "38", "address": "1-2648, CHEMIN ACADIE", "city": "CAP-PELE", "province": "NB", "country": "CA", "postalCode": "E4N1E4", "twitter": "None", "instagram": "None", "facebook": "None", "youtube": "None", "website": "None", "summary": "None", "logo": "None", "latitude": 46.215320208631596, "longitude": -64.27098598822965}, "119109791RR0003": {"name": "PAROISSE DU SACRE-COEUR, WELLAND", "designationCode": "C", "categoryCode": "38", "address": "72, RUE EMPIRE", "city": "WELLAND", "province": "ON", "country": "CA", "postalCode": "L3B2L4", "twitter": "None", "instagram": "None", "facebook": "None", "youtube": "None", "website": "None", "summary": "None", "logo": "None", "latitude": 42.99118811933757, "longitude": -79.23985708488689}, "838795144RR0001": {"name": "PAROISSE DU SAINT-ROSAIRE DE LA RESERVE KITIGAN ZIBI/HOLY ROSARY PARISH KITIGAN ZIBI RESERVE", "designationCode": "C", "categoryCode": "38", "address": "306 RUE FAFARD", "city": "MANIWAKI", "province": "QC", "country": "CA", "postalCode": "J9E1Z1", "twitter": "None", "instagram": "None", "facebook": "None", "youtube": "None", "website": "None", "summary": "None", "logo": "None", "latitude": 46.36949017304387, "longitude": -75.98349157734599}, "107585515RR0026": {"name": "PAROISSE DU ST-NOM-DE-JESUS", "designationCode": "C", "categoryCode": "38", "address": "P.O. BOX 220", "city": "HORNEPAYNE", "province": "ON", "country": "CA", "postalCode": "P0M1Z0", "twitter": "None", "instagram": "None", "facebook": "None", "youtube": "None", "website": "None", "summary": "None", "logo": "None", "latitude": 49.170080784352486, "longitude": -84.86323931324436}, "129930228RR0003": {"name": "PAROISSE DU TRES SAINT SACREMENT", "designationCode": "C", "categoryCode": "38", "address": "188 RUE CANADA", "city": "ST-QUENTIN", "province": "NB", "country": "CA", "postalCode": "E8A1G9", "twitter": "None", "instagram": "None", "facebook": "None", "youtube": "None", "website": "None", "summary": "None", "logo": "None", "latitude": 47.510469, "longitude": -67.39212269693672}, "129950804RR0021": {"name": "PAROISSE FRANCAISE ST-JEAN BAPTISTE", "designationCode": "C", "categoryCode": "38", "address": "1-4044 NELTHORPE ST", "city": "VICTORIA", "province": "BC", "country": "CA", "postalCode": "V8X2A1", "twitter": "None", "instagram": "None", "facebook": "None", "youtube": "None", "website": "None", "summary": "None", "logo": "None", "latitude": 48.47131038328815, "longitude": -123.37383839205938}, "889870069RR0001": {"name": "PAROISSE GAYATRI - NOUVELLES FRONTIETES, MONTREAL (CANADA)", "designationCode": "C", "categoryCode": "39", "address": "P.O. BOX 34548,               CSP PLACE VERTU", "city": "ST.LAURENT", "province": "QC", "country": "CA", "postalCode": "H4R2P4", "twitter": "None", "instagram": "None", "facebook": "None", "youtube": "None", "website": "None", "summary": "None", "logo": "None", "latitude": 45.49783997605228, "longitude": -73.70516997331089}, "891638462RR0001": {"name": "PAROISSE GRECO-CATHOLIQUE (BYZANTING) DE LA SAINTE-TRANSFIGURATION", "designationCode": "C", "categoryCode": "38", "address": "14 AVE DU CROCHET", "city": "LAVAL", "province": "QC", "country": "CA", "postalCode": "H7N3Z2", "twitter": "None", "instagram": "None", "facebook": "None", "youtube": "None", "website": "None", "summary": "None", "logo": "None", "latitude": 45.55116553260435, "longitude": -73.70001263892884}, "107585515RR0018": {"name": "PAROISSE IMMACULEE CONCEPTION", "designationCode": "C", "categoryCode": "38", "address": "4, AVENUE SUMMERS", "city": "KAPUSKASING", "province": "ON", "country": "CA", "postalCode": "P5N3J7", "twitter": "None", "instagram": "None", "facebook": "None", "youtube": "None", "website": "None", "summary": "None", "logo": "None", "latitude": 49.418344105634745, "longitude": -82.43044720862586}, "119109791RR0004": {"name": "PAROISSE IMMACULEE CONCEPTION", "designationCode": "C", "categoryCode": "38", "address": "99-101 GARNET ST.", "city": "ST.CATHARINES", "province": "ON", "country": "CA", "postalCode": "L2M5G3", "twitter": "None", "instagram": "None", "facebook": "None", "youtube": "None", "website": "None", "summary": "None", "logo": "None", "latitude": 43.179338195787636, "longitude": -79.22199244200523}, "130599442RR0020": {"name": "PAROISSE IMMACULEE CONCEPTION", "designationCode": "C", "categoryCode": "38", "address": "C.P. 40", "city": "VAL GAGNE", "province": "ON", "country": "CA", "postalCode": "P0K1W0", "twitter": "None", "instagram": "None", "facebook": "None", "youtube": "None", "website": "None", "summary": "None", "logo": "None", "latitude": 48.61085261264122, "longitude": -80.63715655568062}, "119018737RR0038": {"name": "PAROISSE IMMACULEE-CONCEPTION", "designationCode": "C", "categoryCode": "38", "address": "C.P. 3238 SUCC BUREAU CHEF", "city": "TRACADIE-SHEILA", "province": "NB", "country": "CA", "postalCode": "E1X1G5", "twitter": "None", "instagram": "None", "facebook": "None", "youtube": "None", "website": "None", "summary": "None", "logo": "None", "latitude": 47.52130200000006, "longitude": -64.91063149999994}, "119018737RR0041": {"name": "PAROISSE IMMACULEE-CONCEPTION", "designationCode": "C", "categoryCode": "38", "address": "4 CENTRAL ST", "city": "CAMPBELLTON", "province": "NB", "country": "CA", "postalCode": "E3N1Z5", "twitter": "None", "instagram": "None", "facebook": "None", "youtube": "None", "website": "None", "summary": "None", "logo": "None", "latitude": 48.00584310750667, "longitude": -66.67064434014542}, "107586646RR0001": {"name": "PAROISSE KATERI TEKAKWITA DE POINTE-BLEUE", "designationCode": "C", "categoryCode": "38", "address": "1761 RUE AMISHK", "city": "MASHTEUIATSH", "province": "QC", "country": "CA", "postalCode": "G0W2H0", "twitter": "None", "instagram": "None", "facebook": "None", "youtube": "None", "website": "None", "summary": "None", "logo": "None", "latitude": 48.58064685062648, "longitude": -72.23326125056306}, "107020331RR0063": {"name": "PAROISSE L'ASCENSION", "designationCode": "C", "categoryCode": "38", "address": "1913 CH BEAVERBROOK", "city": "BEAVERBROOK", "province": "NB", "country": "CA", "postalCode": "E1V4S8", "twitter": "None", "instagram": "None", "facebook": "None", "youtube": "None", "website": "None", "summary": "None", "logo": "None", "latitude": 47.129934151888556, "longitude": -65.60994861201114}, "119082287RR0001": {"name": "PAROISSE MARIE MEDIATRICE", "designationCode": "C", "categoryCode": "38", "address": "1250 CH GU\u00c9RETTE", "city": "POH\u00c9N\u00c9GAMOOK", "province": "QC", "country": "CA", "postalCode": "G0L1J0", "twitter": "None", "instagram": "None", "facebook": "None", "youtube": "None", "website": "None", "summary": "None", "logo": "None", "latitude": 47.46107243049214, "longitude": -69.2247986422184}, "130599442RR0002": {"name": "PAROISSE MARIE REINE DU MONDE", "designationCode": "C", "categoryCode": "38", "address": "458 4E AVENUE CP 620", "city": "MATHESON", "province": "ON", "country": "CA", "postalCode": "P0K1N0", "twitter": "None", "instagram": "None", "facebook": "None", "youtube": "None", "website": "None", "summary": "None", "logo": "None", "latitude": 48.532810440385695, "longitude": -80.46405698645587}, "119018737RR0027": {"name": "PAROISSE MARIE-MEDIATRICE", "designationCode": "C", "categoryCode": "38", "address": "4 CENTRAL ST", "city": "CAMPBELLTON", "province": "NB", "country": "CA", "postalCode": "E3N1Z5", "twitter": "None", "instagram": "None", "facebook": "None", "youtube": "None", "website": "None", "summary": "None", "logo": "None", "latitude": 48.00584310750667, "longitude": -66.67064434014542}, "128967353RR0108": {"name": "PAROISSE MARIE-MEDIATRICE", "designationCode": "C", "categoryCode": "38", "address": "344 AVE CYR", "city": "VANIER", "province": "ON", "country": "CA", "postalCode": "K1L7P1", "twitter": "None", "instagram": "None", "facebook": "None", "youtube": "None", "website": "None", "summary": "None", "logo": "None", "latitude": 45.432447810433395, "longitude": -75.66245195576754}, "128967353RR0088": {"name": "PAROISSE NATIVITE DE NOTRE SEIGNEUR JESUS CHRIST", "designationCode": "C", "categoryCode": "38", "address": "355 ACTON", "city": "OTTAWA", "province": "ON", "country": "CA", "postalCode": "K1G0L4", "twitter": "None", "instagram": "None", "facebook": "None", "youtube": "None", "website": "None", "summary": "None", "logo": "None", "latitude": 45.40568948658288, "longitude": -75.65069457383571}, "842531741RR0001": {"name": "PAROISSE NOTRE DAME DE L'ANNONCIATION POUR LES GREC-MELKITES CATHOLIQUES DE L'OUEST DE L'ILE", "designationCode": "C", "categoryCode": "39", "address": "9501 BOUL. GOUIN OUEST", "city": "PIERREFONDS", "province": "QC", "country": "CA", "postalCode": "H8Y1T7", "twitter": "None", "instagram": "None", "facebook": "None", "youtube": "None", "website": "None", "summary": "None", "logo": "None", "latitude": 45.50570224372415, "longitude": -73.77579333406403}, "848454161RR0001": {"name": "PAROISSE NOTRE DAME DE L'ASSOMPTION", "designationCode": "C", "categoryCode": "38", "address": "PO BOX 540", "city": "GRAVELBOURG", "province": "SK", "country": "CA", "postalCode": "S0H1X0", "twitter": "None", "instagram": "None", "facebook": "None", "youtube": "None", "website": "None", "summary": "None", "logo": "None", "latitude": 49.87668000000008, "longitude": -106.55736999999999}, "859086969RR0001": {"name": "PAROISSE NOTRE DAME DE LA CONFIANCE/OUR LADY OF CONFIDENCE PARISH", "designationCode": "C", "categoryCode": "38", "address": "P. O. BOX 129", "city": "CADILLAC", "province": "SK", "country": "CA", "postalCode": "S0N0K0", "twitter": "None", "instagram": "None", "facebook": "None", "youtube": "None", "website": "None", "summary": "None", "logo": "None", "latitude": 49.73336000000006, "longitude": -107.75133999999997}, "129930228RR0022": {"name": "PAROISSE NOTRE DAME DE LOURDES", "designationCode": "C", "categoryCode": "38", "address": "541 CH NOTRE DAME DE LOURDES", "city": "NOTRE DAME DE LOURDES", "province": "NB", "country": "CA", "postalCode": "E7E1V9", "twitter": "None", "instagram": "None", "facebook": "None", "youtube": "None", "website": "None", "summary": "None", "logo": "None", "latitude": 47.256187118982076, "longitude": -67.93525106153264}, "131032328RR0001": {"name": "PAROISSE NOTRE DAME DE LOURDES", "designationCode": "C", "categoryCode": "38", "address": "4 DE L'\u00c9GLISE NORD, C.P.87", "city": "LORRAINVILLE", "province": "QC", "country": "CA", "postalCode": "J0Z2R0", "twitter": "None", "instagram": "None", "facebook": "None", "youtube": "None", "website": "None", "summary": "None", "logo": "None", "latitude": 47.35419300000001, "longitude": -79.35080341874938}, "128967353RR0071": {"name": "PAROISSE NOTRE DAME DES CHAMPS", "designationCode": "C", "categoryCode": "38", "address": "3739, CHEMIN NAVAN", "city": "NAVAN", "province": "ON", "country": "CA", "postalCode": "K4B1H9", "twitter": "None", "instagram": "None", "facebook": "None", "youtube": "None", "website": "None", "summary": "None", "logo": "None", "latitude": 45.425336728316466, "longitude": -75.48653226100772}, "129930228RR0027": {"name": "PAROISSE NOTRE DAME DES PRODIGES", "designationCode": "C", "categoryCode": "38", "address": "92 RUE NOTRE-DAME", "city": "KEDGWICK", "province": "NB", "country": "CA", "postalCode": "E8B1H6", "twitter": "None", "instagram": "None", "facebook": "None", "youtube": "None", "website": "None", "summary": "None", "logo": "None", "latitude": 47.645832895098465, "longitude": -67.34940140800866}, "130599442RR0015": {"name": "PAROISSE NOTRE DAME DU LAC", "designationCode": "C", "categoryCode": "38", "address": "49 4E AVE CP 340", "city": "LARDER LAKE", "province": "ON", "country": "CA", "postalCode": "P0K1L0", "twitter": "None", "instagram": "None", "facebook": "None", "youtube": "None", "website": "None", "summary": "None", "logo": "None", "latitude": 48.09839033019277, "longitude": -79.71512938319287}, "122418601RR0026": {"name": "PAROISSE NOTRE DAME DU MONT CARMEL", "designationCode": "C", "categoryCode": "38", "address": "RR#1 BOX 132C", "city": "CHURCH POINT", "province": "NS", "country": "CA", "postalCode": "B0W1M0", "twitter": "None", "instagram": "None", "facebook": "None", "youtube": "None", "website": "None", "summary": "None", "logo": "None", "latitude": 43.4177000034202, "longitude": -65.62247285511256}, "129397238RR0001": {"name": "PAROISSE NOTRE DAME DU MONT CARMEL", "designationCode": "C", "categoryCode": "38", "address": "24, RUE PRINCIPALE", "city": "FUG\u00c8REVILLE", "province": "QC", "country": "CA", "postalCode": "J0Z2A0", "twitter": "None", "instagram": "None", "facebook": "None", "youtube": "None", "website": "None", "summary": "None", "logo": "None", "latitude": 47.398373329447736, "longitude": -79.19979046433723}, "888489598RR0001": {"name": "PAROISSE NOTRE DAME DU PERPETUEL-SECOURS,", "designationCode": "C", "categoryCode": "38", "address": "1331, RUE DESGAGNE", "city": "SHERBROOKE", "province": "QC", "country": "CA", "postalCode": "J1J1H5", "twitter": "None", "instagram": "None", "facebook": "None", "youtube": "None", "website": "None", "summary": "None", "logo": "None", "latitude": 45.41262150043268, "longitude": -71.90896972009348}, "128883212RR0001": {"name": "PAROISSE NOTRE DAME DU ROSAIRE,", "designationCode": "C", "categoryCode": "38", "address": "18 NOTRE-DAME NORD", "city": "VILLE-MARIE", "province": "QC", "country": "CA", "postalCode": "J9V1W7", "twitter": "None", "instagram": "None", "facebook": "None", "youtube": "None", "website": "None", "summary": "None", "logo": "None"}, "890398449RR0001": {"name": "PAROISSE NOTRE DAME DU TRES ST ROSAIRE", "designationCode": "C", "categoryCode": "38", "address": "5 RUE SAINT-ARTHUR", "city": "GATINEAU", "province": "QC", "country": "CA", "postalCode": "J8T3C2", "twitter": "None", "instagram": "None", "facebook": "None", "youtube": "None", "website": "None", "summary": "None", "logo": "None", "latitude": 45.469817820445385, "longitude": -75.68995542293297}, "119018737RR0065": {"name": "PAROISSE NOTRE-DAME AUXILIATRICE", "designationCode": "C", "categoryCode": "38", "address": "4 CENTRAL ST", "city": "CAMPBELLTON", "province": "NB", "country": "CA", "postalCode": "E3N1Z5", "twitter": "None", "instagram": "None", "facebook": "None", "youtube": "None", "website": "None", "summary": "None", "logo": "None", "latitude": 48.00584310750667, "longitude": -66.67064434014542}, "130091135RR0006": {"name": "PAROISSE NOTRE-DAME D'ACADIE", "designationCode": "C", "categoryCode": "38", "address": "UNIVERSITE DE MONCTON         18 AVE ANTONINE-MAILLET", "city": "MONCTON", "province": "NB", "country": "CA", "postalCode": "E1A3E9", "twitter": "None", "instagram": "None", "facebook": "None", "youtube": "None", "website": "None", "summary": "None", "logo": "None", "latitude": 46.10445000000004, "longitude": -64.78059999999994}, "847334323RR0001": {"name": "PAROISSE NOTRE-DAME D'AUVERGNE", "designationCode": "C", "categoryCode": "38", "address": "BOX 540", "city": "PONTEIX", "province": "SK", "country": "CA", "postalCode": "S0N1Z0", "twitter": "None", "instagram": "None", "facebook": "None", "youtube": "None", "website": "None", "summary": "None", "logo": "None", "latitude": 49.746290000000045, "longitude": -107.49463999999995}, "130091135RR0003": {"name": "PAROISSE NOTRE-DAME DE GRACE", "designationCode": "C", "categoryCode": "38", "address": "854 MOUNTAIN RD", "city": "MONCTON", "province": "NB", "country": "CA", "postalCode": "E1C2R8", "twitter": "None", "instagram": "None", "facebook": "None", "youtube": "None", "website": "None", "summary": "None", "logo": "None", "latitude": 46.100568889232115, "longitude": -64.80991010395856}, "119082451RR0001": {"name": "PAROISSE NOTRE-DAME DE LA GARDE", "designationCode": "C", "categoryCode": "38", "address": "579, ROUTE 309                C.P. 13", "city": "VAL-DES-BOIS", "province": "QC", "country": "CA", "postalCode": "J0X3C0", "twitter": "None", "instagram": "None", "facebook": "None", "youtube": "None", "website": "None", "summary": "None", "logo": "None", "latitude": 45.91334253758393, "longitude": -75.59488191557121}, "130091135RR0033": {"name": "PAROISSE NOTRE-DAME DE LORETTE", "designationCode": "C", "categoryCode": "38", "address": "1014 RUE AMIRAULT", "city": "DIEPPE", "province": "NB", "country": "CA", "postalCode": "E1A1C9", "twitter": "None", "instagram": "None", "facebook": "None", "youtube": "None", "website": "None", "summary": "None", "logo": "None", "latitude": 46.07034063142704, "longitude": -64.72101203647084}, "119082626RR0001": {"name": "PAROISSE NOTRE-DAME DE LOURDES", "designationCode": "C", "categoryCode": "38", "address": "CP 100", "city": "LOURDES-DE-BLANC-SABLON", "province": "QC", "country": "CA", "postalCode": "G0G1W0", "twitter": "None", "instagram": "None", "facebook": "None", "youtube": "None", "website": "None", "summary": "None", "logo": "None", "latitude": 51.41719500000005, "longitude": -57.20170849999994}, "119082683RR0001": {"name": "PAROISSE NOTRE-DAME DE LOURDES", "designationCode": "C", "categoryCode": "38", "address": "CP 159", "city": "GIROUXVILLE", "province": "AB", "country": "CA", "postalCode": "T0H1S0", "twitter": "None", "instagram": "None", "facebook": "None", "youtube": "None", "website": "None", "summary": "None", "logo": "None", "latitude": 58.390100000000075, "longitude": -116.01802999999995}, "107585515RR0005": {"name": "PAROISSE NOTRE-DAME DES VICTOIRES", "designationCode": "C", "categoryCode": "38", "address": "6, CHEM BRUNELLE S", "city": "KAPUSKASING", "province": "ON", "country": "CA", "postalCode": "P5N2T2", "twitter": "None", "instagram": "None", "facebook": "None", "youtube": "None", "website": "None", "summary": "None", "logo": "None", "latitude": 49.40830614933961, "longitude": -82.40329549337481}, "119073989RR0001": {"name": "PAROISSE NOTRE-DAME DES VICTOIRES", "designationCode": "C", "categoryCode": "38", "address": "CP 115", "city": "LAURIER", "province": "MB", "country": "CA", "postalCode": "R0J1A0", "twitter": "None", "instagram": "None", "facebook": "None", "youtube": "None", "website": "None", "summary": "None", "logo": "None", "latitude": 49.178761164221406, "longitude": -99.67153164476555}, "131641987RR0001": {"name": "PAROISSE NOTRE-DAME DES VICTOIRES", "designationCode": "C", "categoryCode": "38", "address": "4609 50 AVE", "city": "ST PAUL", "province": "AB", "country": "CA", "postalCode": "T0A3A3", "twitter": "None", "instagram": "None", "facebook": "None", "youtube": "None", "website": "None", "summary": "None", "logo": "None", "latitude": 53.99135148730496, "longitude": -111.28695202553523}, "119082816RR0001": {"name": "PAROISSE NOTRE-DAME DU CAP", "designationCode": "C", "categoryCode": "38", "address": "139,RUE DE L'EGLISE", "city": "MALIOTENAM", "province": "QC", "country": "CA", "postalCode": "G4R4K2", "twitter": "None", "instagram": "None", "facebook": "None", "youtube": "None", "website": "None", "summary": "None", "logo": "None", "latitude": 50.2125334782157, "longitude": -66.19548057799065}, "130083934RR0001": {"name": "PAROISSE NOTRE-DAME DU MONT CARMEL", "designationCode": "C", "categoryCode": "38", "address": "7645 RUE DU MANS", "city": "ST-LEONARD", "province": "QC", "country": "CA", "postalCode": "H1S2A1", "twitter": "None", "instagram": "None", "facebook": "None", "youtube": "None", "website": "None", "summary": "None", "logo": "None", "latitude": 45.58385326868243, "longitude": -73.58355100178902}, "812235802RR0001": {"name": "PAROISSE NOTRE-DAME DU MONT-CARMEL ROMAN CATHOLIC PARISH INC.", "designationCode": "C", "categoryCode": "38", "address": "P.O. BOX 80", "city": "WELLINGTON", "province": "PE", "country": "CA", "postalCode": "C0B2E0", "twitter": "None", "instagram": "None", "facebook": "None", "youtube": "None", "website": "None", "summary": "None", "logo": "None", "latitude": 46.451227719875675, "longitude": -63.99615305664649}, "119082881RR0001": {"name": "PAROISSE NOTRE-DAME DU MOUNT CARMEL MISSION", "designationCode": "C", "categoryCode": "38", "address": "CHAIRPERSON", "city": "KAZABAZUA", "province": "QC", "country": "CA", "postalCode": "J0X1X0", "twitter": "None", "instagram": "None", "facebook": "None", "youtube": "None", "website": "None", "summary": "None", "logo": "None", "latitude": 46.00473000000005, "longitude": -76.03490599999994}, "107585515RR0008": {"name": "PAROISSE NOTRE-DAME DU ROSAIRE", "designationCode": "C", "categoryCode": "38", "address": "83, RUE POUPORE               CP 39", "city": "GOGAMA", "province": "ON", "country": "CA", "postalCode": "P0M1W0", "twitter": "None", "instagram": "None", "facebook": "None", "youtube": "None", "website": "None", "summary": "None", "logo": "None", "latitude": 47.67433985813494, "longitude": -81.72273350430906}, "129930228RR0013": {"name": "PAROISSE NOTRE-DAME DU ROSAIRE CONNORS", "designationCode": "C", "categoryCode": "38", "address": "3725 RTE 205", "city": "ST-FRANCOIS", "province": "NB", "country": "CA", "postalCode": "E7A1S4", "twitter": "None", "instagram": "None", "facebook": "None", "youtube": "None", "website": "None", "summary": "None", "logo": "None", "latitude": 47.20649352231067, "longitude": -68.83454662799758}, "130091135RR0021": {"name": "PAROISSE NOTRE-DAME DU SACRE COEUR", "designationCode": "C", "categoryCode": "38", "address": "3863 ROUTE 115", "city": "NOTRE-DAME", "province": "NB", "country": "CA", "postalCode": "E4V2E8", "twitter": "None", "instagram": "None", "facebook": "None", "youtube": "None", "website": "None", "summary": "None", "logo": "None", "latitude": 46.30680918642419, "longitude": -64.73364505066613}, "130599442RR0014": {"name": "PAROISSE NOTRE-DAME-DE-BON-SECOURS,", "designationCode": "C", "categoryCode": "38", "address": "C.P. 454 6 ST. JOSEPH", "city": "BELLE VALLEE", "province": "ON", "country": "CA", "postalCode": "P0J1A0", "twitter": "None", "instagram": "None", "facebook": "None", "youtube": "None", "website": "None", "summary": "None", "logo": "None", "latitude": 47.652322841819284, "longitude": -79.59181743921972}, "119018737RR0037": {"name": "PAROISSE NOTRE-DAME-DE-FATIMA", "designationCode": "C", "categoryCode": "38", "address": "4 CENTRAL ST", "city": "CAMPBELLTON", "province": "NB", "country": "CA", "postalCode": "E3N1Z5", "twitter": "None", "instagram": "None", "facebook": "None", "youtube": "None", "website": "None", "summary": "None", "logo": "None", "latitude": 48.00584310750667, "longitude": -66.67064434014542}, "130091135RR0041": {"name": "PAROISSE NOTRE-DAME-DE-FATIMA", "designationCode": "C", "categoryCode": "38", "address": "1111 RUE PRINCIPALE", "city": "ROGERSVILLE", "province": "NB", "country": "CA", "postalCode": "E4Y2N3", "twitter": "None", "instagram": "None", "facebook": "None", "youtube": "None", "website": "None", "summary": "None", "logo": "None", "latitude": 46.73250553052131, "longitude": -65.42754236705048}}