{"873084917RR0001": {"name": "LANGLEY SCHOOL DISTRICT FOUNDATION", "designationCode": "A", "categoryCode": "23", "address": "4875-222ND STREET", "city": "LANGLEY", "province": "BC", "country": "CA", "postalCode": "V3A3Z7", "twitter": "None", "instagram": "None", "facebook": "None", "youtube": "None", "website": "None", "summary": "None", "logo": "None", "latitude": 49.090464, "longitude": -122.60822397068426}, "121924229RR0001": {"name": "LANGLEY SENIOR RESOURCES SOCIETY", "designationCode": "C", "categoryCode": "01", "address": "20605 - 51B AVENUE", "city": "LANGLEY", "province": "BC", "country": "CA", "postalCode": "V3A9H1", "twitter": "None", "instagram": "None", "facebook": "None", "youtube": "None", "website": "None", "summary": "None", "logo": "None", "latitude": 49.097042699127734, "longitude": -122.65138454323476}, "119288918RR0576": {"name": "LANGLEY SOUTH CONGREGATION OF JEHOVAH'S WITNESSES", "designationCode": "C", "categoryCode": "61", "address": "21771 48A AVE", "city": "LANGLEY", "province": "BC", "country": "CA", "postalCode": "V3A3P7", "twitter": "None", "instagram": "None", "facebook": "None", "youtube": "None", "website": "None", "summary": "None", "logo": "None", "latitude": 49.090447579551395, "longitude": -122.62044168345032}, "119005346RR0001": {"name": "LANGLEY UKULELE ASSOCIATION", "designationCode": "C", "categoryCode": "22", "address": "BOX 93012                     135-19705 FRASER HIGHWAY", "city": "LANGLEY", "province": "BC", "country": "CA", "postalCode": "V3A8H2", "twitter": "None", "instagram": "None", "facebook": "None", "youtube": "None", "website": "None", "summary": "None", "logo": "None", "latitude": 49.1129555909941, "longitude": -122.67749359673714}, "119005494RR0001": {"name": "LANGRUTH UNITED CHURCH", "designationCode": "C", "categoryCode": "44", "address": "BOX 232", "city": "LANGRUTH", "province": "MB", "country": "CA", "postalCode": "R0H0N0", "twitter": "None", "instagram": "None", "facebook": "None", "youtube": "None", "website": "None", "summary": "None", "logo": "None", "latitude": 50.38602000000003, "longitude": -98.67416999999995}, "107596306RR0001": {"name": "LANGS FARM VILLAGE ASSOCIATION", "designationCode": "C", "categoryCode": "59", "address": "1145 CONCESSION RD", "city": "CAMBRIDGE", "province": "ON", "country": "CA", "postalCode": "N3H4L5", "twitter": "None", "instagram": "None", "facebook": "None", "youtube": "None", "website": "None", "summary": "None", "logo": "None", "latitude": 43.396713145997985, "longitude": -80.34480731259777}, "889679049RR0001": {"name": "LANGSTAFF GOSPEL HALL", "designationCode": "C", "categoryCode": "39", "address": "1350 LANGSTAFF ROAD", "city": "THORNHILL", "province": "ON", "country": "CA", "postalCode": "L4J8P8", "twitter": "None", "instagram": "None", "facebook": "None", "youtube": "None", "website": "None", "summary": "None", "logo": "None", "latitude": 43.8249054505161, "longitude": -79.4745204888915}, "893228262RR0001": {"name": "LANGTON BAPTIST CHURCH", "designationCode": "C", "categoryCode": "31", "address": "1111 HAZEN RD                 RR 2", "city": "LANGTON", "province": "ON", "country": "CA", "postalCode": "N0E1G0", "twitter": "None", "instagram": "None", "facebook": "None", "youtube": "None", "website": "None", "summary": "None", "logo": "None", "latitude": 42.681812846788674, "longitude": -80.55620543049211}, "118912831RR0002": {"name": "LANGUAGES OF LIFE INC.", "designationCode": "C", "categoryCode": "09", "address": "99 FIFTH AVENUE               UNIT 14", "city": "OTTAWA", "province": "ON", "country": "CA", "postalCode": "K1S5K4", "twitter": "None", "instagram": "None", "facebook": "None", "youtube": "None", "website": "None", "summary": "None", "logo": "None", "latitude": 45.40190147296422, "longitude": -75.68712467112917}, "847799129RR0001": {"name": "LANIGAN & DISTRICT YOUTH CENTRE INC.", "designationCode": "C", "categoryCode": "59", "address": "BOX 572", "city": "LANIGAN", "province": "SK", "country": "CA", "postalCode": "S0K2M0", "twitter": "None", "instagram": "None", "facebook": "None", "youtube": "None", "website": "None", "summary": "None", "logo": "None", "latitude": 51.84617000000003, "longitude": -105.03797999999995}, "869590737RR0001": {"name": "LANIGAN AND DISTRICT FOOD BANK", "designationCode": "C", "categoryCode": "09", "address": "P.O. BOX 142", "city": "LANIGAN", "province": "SK", "country": "CA", "postalCode": "S0K2M0", "twitter": "None", "instagram": "None", "facebook": "None", "youtube": "None", "website": "None", "summary": "None", "logo": "None", "latitude": 51.84617000000003, "longitude": -105.03797999999995}, "119005536RR0001": {"name": "LANIGAN CO-OPERATIVE DAY CARE", "designationCode": "C", "categoryCode": "01", "address": "BOX 814", "city": "LANIGAN", "province": "SK", "country": "CA", "postalCode": "S0K2M0", "twitter": "None", "instagram": "None", "facebook": "None", "youtube": "None", "website": "None", "summary": "None", "logo": "None", "latitude": 51.84617000000003, "longitude": -105.03797999999995}, "131080897RR0001": {"name": "LANIGAN PASTORAL CHARGE", "designationCode": "C", "categoryCode": "44", "address": "P.O. BOX 506", "city": "LANIGAN", "province": "SK", "country": "CA", "postalCode": "S0K2M0", "twitter": "None", "instagram": "None", "facebook": "None", "youtube": "None", "website": "None", "summary": "None", "logo": "None", "latitude": 51.84617000000003, "longitude": -105.03797999999995}, "886433960RR0001": {"name": "LANKA CHARITABLE FOUNDATION", "designationCode": "B", "categoryCode": "03", "address": "242 - 20 COACHWAY RD SW", "city": "CALGARY", "province": "AB", "country": "CA", "postalCode": "T3H1E6", "twitter": "None", "instagram": "None", "facebook": "None", "youtube": "None", "website": "None", "summary": "None", "logo": "None", "latitude": 51.06053453234403, "longitude": -114.18666959086245}, "119005619RR0001": {"name": "LANSDOWNE AGRICULTURAL SOCIETY", "designationCode": "C", "categoryCode": "56", "address": "PO BOX 119", "city": "LANDSDOWNE", "province": "ON", "country": "CA", "postalCode": "K0E1L0", "twitter": "None", "instagram": "None", "facebook": "None", "youtube": "None", "website": "None", "summary": "None", "logo": "None", "latitude": 44.37270600000005, "longitude": -75.98540599999993}, "119005643RR0001": {"name": "LANSDOWNE CHILDREN'S CENTRE", "designationCode": "C", "categoryCode": "11", "address": "39 MT PLEASANT", "city": "BRANTFORD", "province": "ON", "country": "CA", "postalCode": "N3T1S7", "twitter": "None", "instagram": "None", "facebook": "None", "youtube": "None", "website": "None", "summary": "None", "logo": "None", "latitude": 43.13044886940847, "longitude": -80.27573639263605}, "118816883RR0001": {"name": "LANSDOWNE CHILDREN'S CENTRE FOUNDATION", "designationCode": "C", "categoryCode": "11", "address": "39 MOUNT PLEASANT ST", "city": "BRANTFORD", "province": "ON", "country": "CA", "postalCode": "N3T1S7", "twitter": "None", "instagram": "None", "facebook": "None", "youtube": "None", "website": "None", "summary": "None", "logo": "None", "latitude": 43.13044886940847, "longitude": -80.27573639263605}, "119005650RR0001": {"name": "LANSDOWNE CHINESE BAPTIST CHURCH", "designationCode": "C", "categoryCode": "31", "address": "5011 122A STREET", "city": "EDMONTON", "province": "AB", "country": "CA", "postalCode": "T6H3S8", "twitter": "None", "instagram": "None", "facebook": "None", "youtube": "None", "website": "None", "summary": "None", "logo": "None", "latitude": 53.488097832361944, "longitude": -113.54216530734631}, "119288918RR0315": {"name": "LANSDOWNE CONGREGATION OF JEHOVAH'S WITNESSES", "designationCode": "C", "categoryCode": "61", "address": "1162 NELLIS ST", "city": "WOODSTOCK", "province": "ON", "country": "CA", "postalCode": "N4T1N5", "twitter": "None", "instagram": "None", "facebook": "None", "youtube": "None", "website": "None", "summary": "None", "logo": "None", "latitude": 43.13982935276127, "longitude": -80.72425259449484}, "119288918RR0340": {"name": "LANSDOWNE CONGREGATION OF JEHOVAH'S WITNESSES, VANCOUVER, BRITISH COLUMBIA", "designationCode": "C", "categoryCode": "61", "address": "43 - 8120 GENERAL CURRIE ROAD", "city": "RICHMOND", "province": "BC", "country": "CA", "postalCode": "V6Y3V8", "twitter": "None", "instagram": "None", "facebook": "None", "youtube": "None", "website": "None", "summary": "None", "logo": "None", "latitude": 49.15915729419374, "longitude": -123.13493491716038}, "119288918RR0013": {"name": "LANSDOWNE CONGREGATION OF JEHOVAH'S WITNESSES, WINNIPEG, MANITOBA", "designationCode": "C", "categoryCode": "61", "address": "18 O'MEARA STREET", "city": "WINNIPEG", "province": "MB", "country": "CA", "postalCode": "R2W3Y9", "twitter": "None", "instagram": "None", "facebook": "None", "youtube": "None", "website": "None", "summary": "None", "logo": "None", "latitude": 49.922289512637725, "longitude": -97.1254897099946}, "107596587RR0001": {"name": "LANSDOWNE DAY CARE SOCIETY", "designationCode": "C", "categoryCode": "20", "address": "12323 - 51 AVENUE", "city": "EDMONTON", "province": "AB", "country": "CA", "postalCode": "T6H0M6", "twitter": "None", "instagram": "None", "facebook": "None", "youtube": "None", "website": "None", "summary": "None", "logo": "None", "latitude": 53.48811153390336, "longitude": -113.54455252553522}, "896633872RR0001": {"name": "LANSDOWNE OUTDOOR RECREATIONAL DEVELOPMENT ASSOCIATION", "designationCode": "C", "categoryCode": "56", "address": "PO BOX 591", "city": "WESTVILLE", "province": "NS", "country": "CA", "postalCode": "B0K2A0", "twitter": "None", "instagram": "None", "facebook": "None", "youtube": "None", "website": "None", "summary": "None", "logo": "None", "latitude": 45.559140000000056, "longitude": -62.70123049999994}, "119005718RR0001": {"name": "LANSDOWNE UNITED CHURCH", "designationCode": "C", "categoryCode": "44", "address": "25 MILLER STREET              BOX 189", "city": "LANSDOWNE", "province": "ON", "country": "CA", "postalCode": "K0E1L0", "twitter": "None", "instagram": "None", "facebook": "None", "youtube": "None", "website": "None", "summary": "None", "logo": "None", "latitude": 44.4047688753823, "longitude": -76.01958377404947}, "119005734RR0001": {"name": "LANSING AVENUE BAPTIST CHAPEL", "designationCode": "C", "categoryCode": "31", "address": "1174 LANSING AVE", "city": "SUDBURY", "province": "ON", "country": "CA", "postalCode": "P3A4C3", "twitter": "None", "instagram": "None", "facebook": "None", "youtube": "None", "website": "None", "summary": "None", "logo": "None", "latitude": 46.52269183236194, "longitude": -80.92902059045547}, "107596702RR0001": {"name": "LANSING CO-OPERATIVE NURSERY SCHOOL", "designationCode": "C", "categoryCode": "20", "address": "80 CHURCH AVE", "city": "WILLOWDALE", "province": "ON", "country": "CA", "postalCode": "M2N4G1", "twitter": "None", "instagram": "None", "facebook": "None", "youtube": "None", "website": "None", "summary": "None", "logo": "None", "latitude": 43.7747461906918, "longitude": -79.40963826187311}, "119005742RR0001": {"name": "LANSING GOSPEL HALL", "designationCode": "C", "categoryCode": "39", "address": "41 ELMHURST AVE.", "city": "WILLOWDALE", "province": "ON", "country": "CA", "postalCode": "M2N1R3", "twitter": "None", "instagram": "None", "facebook": "None", "youtube": "None", "website": "None", "summary": "None", "logo": "None", "latitude": 43.76263488591389, "longitude": -79.41354403774024}, "119005759RR0001": {"name": "LANSING UNITED CHURCH", "designationCode": "C", "categoryCode": "44", "address": "49 BOGERT AVE", "city": "NORTH YORK", "province": "ON", "country": "CA", "postalCode": "M2N1K4", "twitter": "None", "instagram": "None", "facebook": "None", "youtube": "None", "website": "None", "summary": "None", "logo": "None", "latitude": 43.76005980599, "longitude": -79.41341935994596}, "872941901RR0001": {"name": "LANTERN COMMUNITY CHRISTIAN REFORMED CHURCH OF CALGARY", "designationCode": "C", "categoryCode": "39", "address": "1401 10 AVE SE", "city": "CALGARY", "province": "AB", "country": "CA", "postalCode": "T2G0X1", "twitter": "None", "instagram": "None", "facebook": "None", "youtube": "None", "website": "None", "summary": "None", "logo": "None", "latitude": 51.03926024672524, "longitude": -114.0322127153903}, "865379119RR0005": {"name": "LANTZ RESIDENTIAL PROGRAMS", "designationCode": "C", "categoryCode": "09", "address": "1178 HIGHWAY #2", "city": "LANTZ", "province": "NS", "country": "CA", "postalCode": "B2S1T4", "twitter": "None", "instagram": "None", "facebook": "None", "youtube": "None", "website": "None", "summary": "None", "logo": "None", "latitude": 44.98752918557436, "longitude": -63.478889478427725}, "898382957RR0001": {"name": "LANXESS FOUNDATION / FONDATION LANXESS", "designationCode": "B", "categoryCode": "03", "address": "1265 VIDAL STREET SOUTH", "city": "SARNIA", "province": "ON", "country": "CA", "postalCode": "N7T1G6", "twitter": "None", "instagram": "None", "facebook": "None", "youtube": "None", "website": "None", "summary": "None", "logo": "None", "latitude": 42.94101981427017, "longitude": -82.42177125027179}, "881541676RR0001": {"name": "LAO ALBERTA BUDDHIST TEMPLE", "designationCode": "C", "categoryCode": "35", "address": "9315-103A AVENUE", "city": "EDMONTON", "province": "AB", "country": "CA", "postalCode": "T5H0H3", "twitter": "None", "instagram": "None", "facebook": "None", "youtube": "None", "website": "None", "summary": "None", "logo": "None", "latitude": 53.5482956488835, "longitude": -113.47781722271922}, "102969227RR0001": {"name": "LAO ASSOCIATION OF ONTARIO", "designationCode": "C", "categoryCode": "99", "address": "956 WILSON AVE.", "city": "TORONTO", "province": "ON", "country": "CA", "postalCode": "M3K1E7", "twitter": "None", "instagram": "None", "facebook": "None", "youtube": "None", "website": "None", "summary": "None", "logo": "None", "latitude": 43.729705234548874, "longitude": -79.47103750320265}, "877257329RR0001": {"name": "LAO BUDDHIST ASSOCIATION OF OTTAWA - VALLEY", "designationCode": "C", "categoryCode": "35", "address": "24 TURRET COURT", "city": "KANATA", "province": "ON", "country": "CA", "postalCode": "K2L2L1", "twitter": "None", "instagram": "None", "facebook": "None", "youtube": "None", "website": "None", "summary": "None", "logo": "None", "latitude": 45.29330239246343, "longitude": -75.88632444832398}, "870769460RR0001": {"name": "LAO CANADIAN BUDDHIST TEMPLE SOCIETY", "designationCode": "C", "categoryCode": "35", "address": "210 - 32900 SOUTH FRASER WAY", "city": "ABBOTSFORD", "province": "BC", "country": "CA", "postalCode": "V2S5A1", "twitter": "None", "instagram": "None", "facebook": "None", "youtube": "None", "website": "None", "summary": "None", "logo": "None", "latitude": 49.05083104548338, "longitude": -122.3119581199999}, "812175867RR0001": {"name": "LAO CANADIAN EVANGELICAL MENNONITE CHURCH", "designationCode": "C", "categoryCode": "39", "address": "2300 FINCH AVE WEST, UNIT #23", "city": "TORONTO", "province": "ON", "country": "CA", "postalCode": "M9M2Y3", "twitter": "None", "instagram": "None", "facebook": "None", "youtube": "None", "website": "None", "summary": "None", "logo": "None", "latitude": 43.75216424854196, "longitude": -79.54176834823096}, "890260664RR0001": {"name": "LAO CATHOLIC MISSION INC/MISSION CATHOLIQUE LAO INC", "designationCode": "C", "categoryCode": "39", "address": "91 FRIGATE BAY", "city": "WINNIPEG", "province": "MB", "country": "CA", "postalCode": "R3X2E9", "twitter": "None", "instagram": "None", "facebook": "None", "youtube": "None", "website": "None", "summary": "None", "logo": "None", "latitude": 49.827651884528905, "longitude": -97.05732074880271}, "890591340RR0001": {"name": "LAO CHRISTIAN CHURCH", "designationCode": "C", "categoryCode": "39", "address": "2051 WINDSOR STREET", "city": "ABBOTSFORD", "province": "BC", "country": "CA", "postalCode": "V2T6L9", "twitter": "None", "instagram": "None", "facebook": "None", "youtube": "None", "website": "None", "summary": "None", "logo": "None", "latitude": 49.03930803136362, "longitude": -122.35553391571868}, "119005817RR0001": {"name": "LAO CHRISTIAN FELLOWSHIP CHURCH OF ST. CATHARINES", "designationCode": "C", "categoryCode": "39", "address": "79 PAGE ST                    P.O. BOX 20084", "city": "ST CATHARINES", "province": "ON", "country": "CA", "postalCode": "L2M7W7", "twitter": "None", "instagram": "None", "facebook": "None", "youtube": "None", "website": "None", "summary": "None", "logo": "None", "latitude": 38.32417568282987, "longitude": -122.7059257574802}, "870296860RR0001": {"name": "LAOTIAN BAPTIST CHURCH", "designationCode": "C", "categoryCode": "31", "address": "PO BOX 73043, RP-O            EVERGREEN", "city": "SURREY", "province": "BC", "country": "CA", "postalCode": "V3R0J2", "twitter": "None", "instagram": "None", "facebook": "None", "youtube": "None", "website": "None", "summary": "None", "logo": "None", "latitude": 49.19164800000006, "longitude": -122.85002149999994}, "869220269RR0001": {"name": "LAOTIAN CHRISTIAN FELLOWSHIP", "designationCode": "C", "categoryCode": "39", "address": "15 SN VITO WAY", "city": "DOWNSVIEW", "province": "ON", "country": "CA", "postalCode": "M3L2G7", "twitter": "None", "instagram": "None", "facebook": "None", "youtube": "None", "website": "None", "summary": "None", "logo": "None", "latitude": 43.739889862340554, "longitude": -79.51091764804679}, "884323114RR0001": {"name": "LAPANI DRAMATIC THEATRE INC.", "designationCode": "C", "categoryCode": "22", "address": "1-55 DUNLOP ST E", "city": "BARRIE", "province": "ON", "country": "CA", "postalCode": "L4M1A2", "twitter": "None", "instagram": "None", "facebook": "None", "youtube": "None", "website": "None", "summary": "None", "logo": "None", "latitude": 44.38936110413797, "longitude": -79.68298796534319}, "119006617RR0001": {"name": "LAPLAND AND DISTRICT FIRE DEPARTMENT", "designationCode": "C", "categoryCode": "59", "address": "1632 CAMPERDOWN ROAD", "city": "CAMPERDOWN", "province": "NS", "country": "CA", "postalCode": "B4V6S5", "twitter": "None", "instagram": "None", "facebook": "None", "youtube": "None", "website": "None", "summary": "None", "logo": "None", "latitude": 44.28130706027437, "longitude": -64.63408507519203}, "893779660RR0001": {"name": "LAPLAND UNITED BAPTIST CHURCH", "designationCode": "C", "categoryCode": "31", "address": "1556 LAPLAND ROAD", "city": "LAPLAND", "province": "NS", "country": "CA", "postalCode": "B4V7T3", "twitter": "None", "instagram": "None", "facebook": "None", "youtube": "None", "website": "None", "summary": "None", "logo": "None", "latitude": 44.320527502769025, "longitude": -64.64722432930257}, "107597452RR0001": {"name": "LAPPE LUTHERAN CHURCH", "designationCode": "C", "categoryCode": "32", "address": "3215 DOG LAKE ROAD", "city": "GORHAM", "province": "ON", "country": "CA", "postalCode": "P7G0C3", "twitter": "None", "instagram": "None", "facebook": "None", "youtube": "None", "website": "None", "summary": "None", "logo": "None", "latitude": 48.56155093533487, "longitude": -89.35635642915123}, "808364319RR0001": {"name": "LARCH de Karinapella", "designationCode": "B", "categoryCode": "09", "address": "CASE POSTALE 2042", "city": "ROUYN-NORANDA", "province": "QC", "country": "CA", "postalCode": "J9X5A5", "twitter": "None", "instagram": "None", "facebook": "None", "youtube": "None", "website": "None", "summary": "None", "logo": "None", "latitude": 48.237252000000055, "longitude": -79.01455399999993}, "132552787RR0001": {"name": "LARCH HALF WAY HOUSE OF SUDBURY", "designationCode": "C", "categoryCode": "59", "address": "238 LARCH STREET", "city": "SUDBURY", "province": "ON", "country": "CA", "postalCode": "P3B1M1", "twitter": "None", "instagram": "None", "facebook": "None", "youtube": "None", "website": "None", "summary": "None", "logo": "None", "latitude": 46.49133445715253, "longitude": -80.9884812783773}, "133142554RR0001": {"name": "LARCH STREET KIDS CHILD CARE CENTRE INC.", "designationCode": "C", "categoryCode": "20", "address": "202-199 LARCH STREET", "city": "SUDBURY", "province": "ON", "country": "CA", "postalCode": "P3E5P9", "twitter": "None", "instagram": "None", "facebook": "None", "youtube": "None", "website": "None", "summary": "None", "logo": "None", "latitude": 46.491227048180605, "longitude": -80.98919398788944}, "119006963RR0001": {"name": "LARCHWOOD BIBLE CHAPEL", "designationCode": "C", "categoryCode": "39", "address": "PO BOX 518", "city": "DOWLING", "province": "ON", "country": "CA", "postalCode": "P0M1R0", "twitter": "None", "instagram": "None", "facebook": "None", "youtube": "None", "website": "None", "summary": "None", "logo": "None", "latitude": 46.58615000000003, "longitude": -81.33186999999998}, "889344792RR0001": {"name": "LARCHWOOD MEMORIAL UNITED CHURCH", "designationCode": "C", "categoryCode": "44", "address": "BOX 490                       15 DOUGLAS CRESCENT", "city": "DOWLING", "province": "ON", "country": "CA", "postalCode": "P0M1R0", "twitter": "None", "instagram": "None", "facebook": "None", "youtube": "None", "website": "None", "summary": "None", "logo": "None", "latitude": 46.58725251875456, "longitude": -81.33104266763806}, "119006971RR0001": {"name": "LARDEAU HISTORICAL SOCIETY", "designationCode": "C", "categoryCode": "52", "address": "BOX 74", "city": "MEADOW CREEK", "province": "BC", "country": "CA", "postalCode": "V0G1N0", "twitter": "None", "instagram": "None", "facebook": "None", "youtube": "None", "website": "None", "summary": "None", "logo": "None", "latitude": 49.191390679383154, "longitude": -117.39572160325528}, "107597775RR0001": {"name": "LARDEAU VALLEY CHAPEL", "designationCode": "C", "categoryCode": "39", "address": "BOX 152", "city": "MEADOW CREEK", "province": "BC", "country": "CA", "postalCode": "V0G1N0", "twitter": "None", "instagram": "None", "facebook": "None", "youtube": "None", "website": "None", "summary": "None", "logo": "None", "latitude": 49.188429733101664, "longitude": -117.39544696208837}, "119007045RR0001": {"name": "LAREN SOCIETY: JOURNEY FROM INSIDE OUT", "designationCode": "C", "categoryCode": "59", "address": "138 DALLAS RD.", "city": "VICTORIA", "province": "BC", "country": "CA", "postalCode": "V8V1A3", "twitter": "None", "instagram": "None", "facebook": "None", "youtube": "None", "website": "None", "summary": "None", "logo": "None", "latitude": 48.416646016936895, "longitude": -123.38496352882478}, "119007094RR0001": {"name": "LARLEE CREEK CHURCH & CEMETERY INC.", "designationCode": "C", "categoryCode": "59", "address": "20 RUSSETT STREET", "city": "PERTH-ANDOVER", "province": "NB", "country": "CA", "postalCode": "E7H4T2", "twitter": "None", "instagram": "None", "facebook": "None", "youtube": "None", "website": "None", "summary": "None", "logo": "None", "latitude": 46.74554121680394, "longitude": -67.71876590065773}, "892618844RR0001": {"name": "LARRY'S RIVER & DISTRICT VOLUNTEER FIRE DEPARTMENT ASSOCIATION", "designationCode": "C", "categoryCode": "59", "address": "LARRY'S RIVER", "city": "GUYS", "province": "NS", "country": "CA", "postalCode": "B0H1T0", "twitter": "None", "instagram": "None", "facebook": "None", "youtube": "None", "website": "None", "summary": "None", "logo": "None", "latitude": 45.23173195618234, "longitude": -61.382529896004776}, "866589856RR0001": {"name": "LARUE BECANCOUR INC.", "designationCode": "C", "categoryCode": "59", "address": "2750 BOUL BECANCOUR", "city": "BECANCOUR", "province": "QC", "country": "CA", "postalCode": "G9H3V8", "twitter": "None", "instagram": "None", "facebook": "None", "youtube": "None", "website": "None", "summary": "None", "logo": "None", "latitude": 46.401567736337896, "longitude": -72.27702761102769}, "119288918RR1420": {"name": "LAS PALMAS CONGREGATION OF JEHOVAH'S WITNESSES, OTTAWA ONTARIO", "designationCode": "C", "categoryCode": "61", "address": "412 - 2 HAMMILL CRT", "city": "NEPEAN", "province": "ON", "country": "CA", "postalCode": "K2H1A8", "twitter": "None", "instagram": "None", "facebook": "None", "youtube": "None", "website": "None", "summary": "None", "logo": "None", "latitude": 45.3166563871833, "longitude": -75.83624319689554}, "119007284RR0001": {"name": "LASALLE BAPTIST FOUNDATION INCORPORATED", "designationCode": "C", "categoryCode": "09", "address": "775 PROGRESS AVENUE", "city": "KINGSTON", "province": "ON", "country": "CA", "postalCode": "K7M6R8", "twitter": "None", "instagram": "None", "facebook": "None", "youtube": "None", "website": "None", "summary": "None", "logo": "None", "latitude": 44.247478078510255, "longitude": -76.57765954720396}, "872862917RR0001": {"name": "LASALLE CHARITABLE FOUNDATION INC.", "designationCode": "A", "categoryCode": "03", "address": "5 RIVERWOOD DR", "city": "LA SALLE", "province": "MB", "country": "CA", "postalCode": "R0G0A2", "twitter": "None", "instagram": "None", "facebook": "None", "youtube": "None", "website": "None", "summary": "None", "logo": "None", "latitude": 49.698602206186386, "longitude": -97.25871312611825}, "140263492RR0001": {"name": "LASALLE COMMUNITY RECREATION CORPORATION", "designationCode": "C", "categoryCode": "56", "address": "900 LAURIER DRIVE", "city": "LASALLE", "province": "ON", "country": "CA", "postalCode": "N9J1N1", "twitter": "None", "instagram": "None", "facebook": "None", "youtube": "None", "website": "None", "summary": "None", "logo": "None", "latitude": 42.2307060305596, "longitude": -83.07975777275406}, "118793074RR0044": {"name": "LASALLE NEW LIFE SEVENTH-DAY ADVENTIST CHURCH", "designationCode": "C", "categoryCode": "41", "address": "7780 BOUL CHAMPLAIN", "city": "LASALLE", "province": "QC", "country": "CA", "postalCode": "H8P1B2", "twitter": "None", "instagram": "None", "facebook": "None", "youtube": "None", "website": "None", "summary": "None", "logo": "None", "latitude": 45.429477686075494, "longitude": -73.60821828432124}, "107599037RR0001": {"name": "LASALLE NURSERY SCHOOL INC.", "designationCode": "C", "categoryCode": "20", "address": "PO BOX 156", "city": "LA SALLE", "province": "MB", "country": "CA", "postalCode": "R0G1B0", "twitter": "None", "instagram": "None", "facebook": "None", "youtube": "None", "website": "None", "summary": "None", "logo": "None", "latitude": 49.69362000000007, "longitude": -97.26464999999996}, "119007359RR0001": {"name": "LASHBURN & DISTRICT COMBINED APPEAL DONORS CHOICE", "designationCode": "C", "categoryCode": "05", "address": "BOX 83", "city": "MARSHALL", "province": "SK", "country": "CA", "postalCode": "S0M1R0", "twitter": "None", "instagram": "None", "facebook": "None", "youtube": "None", "website": "None", "summary": "None", "logo": "None", "latitude": 56.49266700000001, "longitude": -109.4480955}, "119241602RR0001": {"name": "LASHBURN COMMUNITY CHURCH", "designationCode": "C", "categoryCode": "39", "address": "PO BOX 460", "city": "LASHBURN", "province": "SK", "country": "CA", "postalCode": "S0M1H0", "twitter": "None", "instagram": "None", "facebook": "None", "youtube": "None", "website": "None", "summary": "None", "logo": "None", "latitude": 53.13346000000007, "longitude": -109.60150999999996}, "125627638RR0001": {"name": "LASHBURN SAVE OUR SCHOOL ASSOCIATION INC", "designationCode": "C", "categoryCode": "56", "address": "BOX 436", "city": "LASHBURN", "province": "SK", "country": "CA", "postalCode": "S0M1H0", "twitter": "None", "instagram": "None", "facebook": "None", "youtube": "None", "website": "None", "summary": "None", "logo": "None", "latitude": 53.13346000000007, "longitude": -109.60150999999996}, "892025743RR0001": {"name": "LASKEEK BAY CONSERVATION SOCIETY", "designationCode": "C", "categoryCode": "54", "address": "BOX 867", "city": "QUEEN CHARLOTTE", "province": "BC", "country": "CA", "postalCode": "V0T1S0", "twitter": "None", "instagram": "None", "facebook": "None", "youtube": "None", "website": "None", "summary": "None", "logo": "None", "latitude": 53.50199672573152, "longitude": -132.2619050828624}, "119008225RR0001": {"name": "LASQUETI COMMUNITY ASSOCIATION", "designationCode": "C", "categoryCode": "59", "address": "GRAND ROAD", "city": "LASQUETI ISLAND", "province": "BC", "country": "CA", "postalCode": "V0R2J0", "twitter": "None", "instagram": "None", "facebook": "None", "youtube": "None", "website": "None", "summary": "None", "logo": "None", "latitude": 49.46286182513555, "longitude": -124.22590699617545}, "861119261RR0001": {"name": "LASQUETI LAST RESORT SOCIETY", "designationCode": "C", "categoryCode": "09", "address": "1 CHINA CLOUD BAY RD", "city": "LASQUETI ISLAND", "province": "BC", "country": "CA", "postalCode": "V0R2J0", "twitter": "None", "instagram": "None", "facebook": "None", "youtube": "None", "website": "None", "summary": "None", "logo": "None", "latitude": 49.491924000000054, "longitude": -124.34609149999994}, "891205346RR0001": {"name": "LASSONDE FAMILY FOUNDATION", "designationCode": "B", "categoryCode": "03", "address": "104 FOREST HILL ROAD", "city": "TORONTO", "province": "ON", "country": "CA", "postalCode": "M4V2L7", "twitter": "None", "instagram": "None", "facebook": "None", "youtube": "None", "website": "None", "summary": "None", "logo": "None", "latitude": 43.6911623336027, "longitude": -79.40522400031712}, "888608700RR0001": {"name": "LAST DAYS BIBLE CONFERENCE ASSOCIATION", "designationCode": "C", "categoryCode": "49", "address": "272 MARQUIS PLACE", "city": "AIRDRIE", "province": "AB", "country": "CA", "postalCode": "T4A1Y1", "twitter": "None", "instagram": "None", "facebook": "None", "youtube": "None", "website": "None", "summary": "None", "logo": "None", "latitude": 51.272352511541186, "longitude": -113.98606183236194}, "863121927RR0001": {"name": "LAST MOUNTAIN DISTRICT MUSIC FESTIVAL ASSOCIATION", "designationCode": "C", "categoryCode": "22", "address": "PO BOX 371", "city": "STRASBOURG", "province": "SK", "country": "CA", "postalCode": "S0G4V0", "twitter": "None", "instagram": "None", "facebook": "None", "youtube": "None", "website": "None", "summary": "None", "logo": "None", "latitude": 51.07036000000005, "longitude": -104.96119999999996}, "899392195RR0001": {"name": "LAST MOUNTAIN PIONEER HOME FOUNDATION INC", "designationCode": "C", "categoryCode": "01", "address": "PO BOX 85", "city": "DUVAL", "province": "SK", "country": "CA", "postalCode": "S0G1G0", "twitter": "None", "instagram": "None", "facebook": "None", "youtube": "None", "website": "None", "summary": "None", "logo": "None", "latitude": 51.18300902692534, "longitude": -104.58907553640175}, "107601270RR0001": {"name": "LAST MOUNTAIN REGIONAL PARK AUTHORITY", "designationCode": "C", "categoryCode": "56", "address": "BOX 27", "city": "GOVAN", "province": "SK", "country": "CA", "postalCode": "S0G1Z0", "twitter": "None", "instagram": "None", "facebook": "None", "youtube": "None", "website": "None", "summary": "None", "logo": "None", "latitude": 51.30007000000006, "longitude": -105.00114999999994}, "119009181RR0002": {"name": "LAST POST FUND", "designationCode": "C", "categoryCode": "59", "address": "401-505 RENE-LEVESQUE OUEST", "city": "MONTREAL", "province": "QC", "country": "CA", "postalCode": "H2Z1Y7", "twitter": "None", "instagram": "None", "facebook": "None", "youtube": "None", "website": "None", "summary": "None", "logo": "None", "latitude": 45.50392864891217, "longitude": -73.56588739344436}, "133638825RR0001": {"name": "LATCHKEY DAY CARE & LEARNING CENTRE INC.", "designationCode": "C", "categoryCode": "20", "address": "13163 TECUMSEH RD E           UNIT A", "city": "TECUMSEH", "province": "ON", "country": "CA", "postalCode": "N8N3T4", "twitter": "None", "instagram": "None", "facebook": "None", "youtube": "None", "website": "None", "summary": "None", "logo": "None", "latitude": 42.31215154558878, "longitude": -82.87229891756594}, "876495904RR0001": {"name": "LATHOM CHARITABLE TRUST", "designationCode": "B", "categoryCode": "39", "address": "3425-2 AVE S", "city": "LETHBRIDGE", "province": "AB", "country": "CA", "postalCode": "T1J4V1", "twitter": "None", "instagram": "None", "facebook": "None", "youtube": "None", "website": "None", "summary": "None", "logo": "None", "latitude": 49.696839530439966, "longitude": -112.78914308381903}, "107601593RR0001": {"name": "LATIN AMERICA MISSION (CANADA) INC.", "designationCode": "C", "categoryCode": "47", "address": "500 COLDSTREAM AVENUE", "city": "TORONTO", "province": "ON", "country": "CA", "postalCode": "M6B2K6", "twitter": "None", "instagram": "None", "facebook": "None", "youtube": "None", "website": "None", "summary": "None", "logo": "None", "latitude": 43.71507634752916, "longitude": -79.4288537282443}, "873039846RR0001": {"name": "LATITUDE MINISTRIES", "designationCode": "C", "categoryCode": "39", "address": "10255 BEVERLEY DRIVE", "city": "CHILLIWACK", "province": "BC", "country": "CA", "postalCode": "V2P6B2", "twitter": "None", "instagram": "None", "facebook": "None", "youtube": "None", "website": "None", "summary": "None", "logo": "None", "latitude": 49.18853465245564, "longitude": -121.93266028627414}, "129916169RR0001": {"name": "LATITUDE 53 SOCIETY OF ARTISTS", "designationCode": "C", "categoryCode": "22", "address": "10242 106 ST NW", "city": "EDMONTON", "province": "AB", "country": "CA", "postalCode": "T5J1H7", "twitter": "None", "instagram": "None", "facebook": "None", "youtube": "None", "website": "None", "summary": "None", "logo": "None", "latitude": 53.544023465722205, "longitude": -113.50293915658688}, "119009298RR0001": {"name": "LATONA (DORNOCH) PRESBYTERIAN CHURCH", "designationCode": "C", "categoryCode": "37", "address": "P.O. BOX 53", "city": "WILLIAMSFORD", "province": "ON", "country": "CA", "postalCode": "N0H2V0", "twitter": "None", "instagram": "None", "facebook": "None", "youtube": "None", "website": "None", "summary": "None", "logo": "None", "latitude": 44.37373000000008, "longitude": -80.87032999999997}, "107797383RR0089": {"name": "LATTER RAIN SEVENTH-DAY ADVENTIST CHURCH", "designationCode": "C", "categoryCode": "41", "address": "7 ELINOR AVENUE", "city": "SCARBOROUGH", "province": "ON", "country": "CA", "postalCode": "M1R3H1", "twitter": "None", "instagram": "None", "facebook": "None", "youtube": "None", "website": "None", "summary": "None", "logo": "None", "latitude": 43.74476725451551, "longitude": -79.30079662833994}, "892256967RR0001": {"name": "LATVIA RELIEF AND DEVELOPMENT FUND (ONTARIO)", "designationCode": "C", "categoryCode": "09", "address": "4 CREDIT UNION DRIVE", "city": "TORONTO", "province": "ON", "country": "CA", "postalCode": "M4A2N8", "twitter": "None", "instagram": "None", "facebook": "None", "youtube": "None", "website": "None", "summary": "None", "logo": "None", "latitude": 43.725596051330236, "longitude": -79.31810456266895}, "108122722RR0001": {"name": "LATVIAN BAPTIST CONGREGATION", "designationCode": "C", "categoryCode": "31", "address": "1 SNOWY MEADOW AVE", "city": "RICHMOND HILL", "province": "ON", "country": "CA", "postalCode": "L4E3V3", "twitter": "None", "instagram": "None", "facebook": "None", "youtube": "None", "website": "None", "summary": "None", "logo": "None", "latitude": 43.939476440186986, "longitude": -79.45591634220102}, "119009397RR0001": {"name": "LATVIAN CANADIAN CULTURAL CENTRE", "designationCode": "C", "categoryCode": "22", "address": "4 CREDIT UNION DR", "city": "TORONTO", "province": "ON", "country": "CA", "postalCode": "M4A2N8", "twitter": "None", "instagram": "None", "facebook": "None", "youtube": "None", "website": "None", "summary": "None", "logo": "None", "latitude": 43.725596051330236, "longitude": -79.31810456266895}, "119009405RR0001": {"name": "LATVIAN DIEVTURI COMMUNION BURTNIEKI - TORONTO", "designationCode": "C", "categoryCode": "39", "address": "8 - 268 PRESLAND RD", "city": "OTTAWA", "province": "ON", "country": "CA", "postalCode": "K1K2B8", "twitter": "None", "instagram": "None", "facebook": "None", "youtube": "None", "website": "None", "summary": "None", "logo": "None", "latitude": 45.42306452120739, "longitude": -75.65454205384042}, "889036992RR0001": {"name": "LATVIAN EVANGELICAL LUTHERAN CONGREGATION OF CALGARY", "designationCode": "C", "categoryCode": "39", "address": "4729 19 AVE NW", "city": "CALGARY", "province": "AB", "country": "CA", "postalCode": "T3B0S5", "twitter": "None", "instagram": "None", "facebook": "None", "youtube": "None", "website": "None", "summary": "None", "logo": "None", "latitude": 51.074019178458094, "longitude": -114.16060927214488}, "131921397RR0001": {"name": "LATVIAN LUTHERAN CHURCH,", "designationCode": "C", "categoryCode": "32", "address": "47 WOODELM DRIVE", "city": "ST. CATHARINES", "province": "ON", "country": "CA", "postalCode": "L2M4N6", "twitter": "None", "instagram": "None", "facebook": "None", "youtube": "None", "website": "None", "summary": "None", "logo": "None", "latitude": 43.1887846275319, "longitude": -79.21674102986304}, "890521578RR0001": {"name": "LATVIAN NATIONAL FEDERATION INCANADA EDUCATIONAL & CULTURAL FOUNDATION", "designationCode": "C", "categoryCode": "21", "address": "4 CREDIT UNION DRIVE", "city": "TORONTO", "province": "ON", "country": "CA", "postalCode": "M4A2N8", "twitter": "None", "instagram": "None", "facebook": "None", "youtube": "None", "website": "None", "summary": "None", "logo": "None", "latitude": 43.725596051330236, "longitude": -79.31810456266895}, "892991761RR0001": {"name": "LATVIAN NATIONAL OPERA FUND", "designationCode": "C", "categoryCode": "22", "address": "40 LONGWATER CHASE", "city": "UNIONVILLE", "province": "ON", "country": "CA", "postalCode": "L3R4A5", "twitter": "None", "instagram": "None", "facebook": "None", "youtube": "None", "website": "None", "summary": "None", "logo": "None", "latitude": 43.87743543632051, "longitude": -79.3102229748688}, "119009447RR0001": {"name": "LATVIAN SENIOR CITIZENS ASSOCIATION IN METROPOLITAN TORONTO", "designationCode": "C", "categoryCode": "09", "address": "4 CREDIT UNION DR", "city": "TORONTO", "province": "ON", "country": "CA", "postalCode": "M4B2N8", "twitter": "None", "instagram": "None", "facebook": "None", "youtube": "None", "website": "None", "summary": "None", "logo": "None", "latitude": 43.725596051330236, "longitude": -79.31810456266895}, "885423541RR0001": {"name": "LAU WING CHUEN CHINESE PERFORMING ARTS ASSOCIATION", "designationCode": "C", "categoryCode": "22", "address": "105-3650 VICTORIA PARK AVENUE", "city": "TORONTO", "province": "ON", "country": "CA", "postalCode": "M2H3P7", "twitter": "None", "instagram": "None", "facebook": "None", "youtube": "None", "website": "None", "summary": "None", "logo": "None", "latitude": 43.808095342201035, "longitude": -79.33815580480656}, "890509847RR0001": {"name": "LAU-REN CAMP CORPORATION", "designationCode": "C", "categoryCode": "49", "address": "89 SHORT ROAD", "city": "ARNPRIOR", "province": "ON", "country": "CA", "postalCode": "K7S3X9", "twitter": "None", "instagram": "None", "facebook": "None", "youtube": "None", "website": "None", "summary": "None", "logo": "None", "latitude": 45.4303954946043, "longitude": -76.34388139104976}, "119021202RR0001": {"name": "LAUBACH LITERACY FREDERICTON INC.", "designationCode": "C", "categoryCode": "09", "address": "ROOM 289, 65 BRUNSWICK STREET", "city": "FREDERICTON", "province": "NB", "country": "CA", "postalCode": "E3B1G5", "twitter": "None", "instagram": "None", "facebook": "None", "youtube": "None", "website": "None", "summary": "None", "logo": "None", "latitude": 45.96439337333348, "longitude": -66.6524763918865}, "119009488RR0001": {"name": "LAUBACH LITERACY OF CANADA - PRINCE EDWARD ISLAND", "designationCode": "C", "categoryCode": "21", "address": "73 PINE STREET", "city": "BRACKLEY BEACH", "province": "PE", "country": "CA", "postalCode": "C1E1Z3", "twitter": "None", "instagram": "None", "facebook": "None", "youtube": "None", "website": "None", "summary": "None", "logo": "None", "latitude": 46.41223154342441, "longitude": -63.20679790882337}, "133503250RR0001": {"name": "LAUBACH LITERACY ONTARIO", "designationCode": "C", "categoryCode": "29", "address": "8A-65 NOECKER STREET", "city": "WATERLOO", "province": "ON", "country": "CA", "postalCode": "N2J2R6", "twitter": "None", "instagram": "None", "facebook": "None", "youtube": "None", "website": "None", "summary": "None", "logo": "None", "latitude": 43.47176672548919, "longitude": -80.5203377396561}, "141112656RR0001": {"name": "LAUBACH LITERACY-NEW BRUNSWICK/ALPHABETISATION LAUBACH NOUVEAU BRUNSWICK", "designationCode": "C", "categoryCode": "21", "address": "347 MOUNTAIN RD", "city": "MONCTON", "province": "NB", "country": "CA", "postalCode": "E1C2M7", "twitter": "None", "instagram": "None", "facebook": "None", "youtube": "None", "website": "None", "summary": "None", "logo": "None", "latitude": 46.09636704858896, "longitude": -64.79219282041672}, "891127599RR0001": {"name": "LAUDATE SINGERS SOCIETY", "designationCode": "C", "categoryCode": "22", "address": "307-150 15TH ST E", "city": "NORTH VANCOUVER", "province": "BC", "country": "CA", "postalCode": "V7L4N9", "twitter": "None", "instagram": "None", "facebook": "None", "youtube": "None", "website": "None", "summary": "None", "logo": "None", "latitude": 49.32193372651161, "longitude": -123.05927397116108}, "887855260RR0001": {"name": "LAUDEM, L'ASSOCIATION DES MUSICIENS LITURGIQUES DU CANADA", "designationCode": "C", "categoryCode": "47", "address": "1085, RUE DE LA CATHEDRALE", "city": "MONTREAL", "province": "QC", "country": "CA", "postalCode": "H3B2V3", "twitter": "None", "instagram": "None", "facebook": "None", "youtube": "None", "website": "None", "summary": "None", "logo": "None", "latitude": 45.49899498115855, "longitude": -73.56889778778371}, "119009512RR0001": {"name": "LAUDER HALL FUND", "designationCode": "C", "categoryCode": "56", "address": "BOX 77", "city": "LAUDER", "province": "MB", "country": "CA", "postalCode": "R0M1C0", "twitter": "None", "instagram": "None", "facebook": "None", "youtube": "None", "website": "None", "summary": "None", "logo": "None", "latitude": 49.39179000000007, "longitude": -100.67748999999998}, "119009520RR0001": {"name": "LAUDER UNITED CHURCH BOARD", "designationCode": "C", "categoryCode": "44", "address": "", "city": "LAUDER", "province": "MB", "country": "CA", "postalCode": "R0M1C0", "twitter": "None", "instagram": "None", "facebook": "None", "youtube": "None", "website": "None", "summary": "None", "logo": "None", "latitude": 49.39179000000007, "longitude": -100.67748999999998}}