{"866511694RR0001": {"name": "THE SISTERS OF SAINT KOSMAS AITOLOS GREEK ORTHODOX MONASTERY", "designationCode": "C", "categoryCode": "46", "address": "14155 CALEDON KING TOWNLINE RDSOUTH", "city": "BOLTON", "province": "ON", "country": "CA", "postalCode": "L7E5R7", "twitter": "None", "instagram": "None", "facebook": "None", "youtube": "None", "website": "None", "summary": "None", "logo": "None", "latitude": 43.91205686594724, "longitude": -79.73166135400201}, "119151314RR0001": {"name": "THE SISTERS OF SOCIAL SERVICE", "designationCode": "C", "categoryCode": "46", "address": "500 HURON ST", "city": "TORONTO", "province": "ON", "country": "CA", "postalCode": "M5R2R3", "twitter": "None", "instagram": "None", "facebook": "None", "youtube": "None", "website": "None", "summary": "None", "logo": "None", "latitude": 43.668802582289835, "longitude": -79.4021951034103}, "119254340RR0001": {"name": "THE SISTERS OF ST ANN", "designationCode": "C", "categoryCode": "46", "address": "1550 BEGBIE ST", "city": "VICTORIA", "province": "BC", "country": "CA", "postalCode": "V8R1K8", "twitter": "None", "instagram": "None", "facebook": "None", "youtube": "None", "website": "None", "summary": "None", "logo": "None", "latitude": 48.428868760488115, "longitude": -123.33754077505907}, "119048197RR0001": {"name": "THE SISTERS OF ST. JOSEPH OF THE DIOCESE OF LONDON IN ONTARIO FOUNDATION", "designationCode": "A", "categoryCode": "03", "address": "P.O. BOX 487                  485 WINDERMERE ROAD", "city": "LONDON", "province": "ON", "country": "CA", "postalCode": "N6A4X3", "twitter": "None", "instagram": "None", "facebook": "None", "youtube": "None", "website": "None", "summary": "None", "logo": "None", "latitude": 43.01818794362078, "longitude": -81.26582712917667}, "107983579RR0001": {"name": "THE SISTERS OF THE GOOD SHEPHERD OF TORONTO", "designationCode": "C", "categoryCode": "46", "address": "25 GOOD SHEPHERD COURT", "city": "TORONTO", "province": "ON", "country": "CA", "postalCode": "M6B4E7", "twitter": "None", "instagram": "None", "facebook": "None", "youtube": "None", "website": "None", "summary": "None", "logo": "None", "latitude": 43.71204759530292, "longitude": -79.45797556090953}, "108098898RR0001": {"name": "THE SISTERS OF THE PRESENTATION", "designationCode": "C", "categoryCode": "46", "address": "1405 BISHOP PASCAL PL", "city": "PRINCE ALBERT", "province": "SK", "country": "CA", "postalCode": "S6V5J1", "twitter": "None", "instagram": "None", "facebook": "None", "youtube": "None", "website": "None", "summary": "None", "logo": "None", "latitude": 53.2002530111085, "longitude": -105.76719889344436}, "871525333RR0001": {"name": "THE SIXTY THREE FOUNDATION", "designationCode": "B", "categoryCode": "03", "address": "95 WELLINGTON STREET WEST     SUITE 800", "city": "TORONTO", "province": "ON", "country": "CA", "postalCode": "M5J2N7", "twitter": "None", "instagram": "None", "facebook": "None", "youtube": "None", "website": "None", "summary": "None", "logo": "None", "latitude": 43.64677776155599, "longitude": -79.38220741589251}, "119254407RR0001": {"name": "THE SLAVE LAKE NATIVE FRIENDSHIP CENTRE SOCIETY", "designationCode": "C", "categoryCode": "09", "address": "416-6 AVENUE N.E.", "city": "SLAVE LAKE", "province": "AB", "country": "CA", "postalCode": "T0G2A2", "twitter": "None", "instagram": "None", "facebook": "None", "youtube": "None", "website": "None", "summary": "None", "logo": "None", "latitude": 55.28684348658289, "longitude": -114.7646835}, "877856567RR0001": {"name": "THE SLOCAN VALLEY SENIORS' HOUSING SOCIETY", "designationCode": "C", "categoryCode": "09", "address": "3650 PASSMORE OLD RD", "city": "WINLAW", "province": "BC", "country": "CA", "postalCode": "V0G2J0", "twitter": "None", "instagram": "None", "facebook": "None", "youtube": "None", "website": "None", "summary": "None", "logo": "None", "latitude": 49.53836890455288, "longitude": -117.64812570964881}, "899775308RR0001": {"name": "THE SLOVANIC CEMETERY COMPANY", "designationCode": "C", "categoryCode": "59", "address": "PO BOX 186", "city": "MAYERTHORPE", "province": "AB", "country": "CA", "postalCode": "T0E1N0", "twitter": "None", "instagram": "None", "facebook": "None", "youtube": "None", "website": "None", "summary": "None", "logo": "None", "latitude": 53.952450000000056, "longitude": -115.13884999999999}, "864360243RR0001": {"name": "THE SLOVENIAN-CANADIAN SCHOLARSHIP FOUNDATION INC.", "designationCode": "C", "categoryCode": "21", "address": "23 DELAWANA DRIVE", "city": "HAMILTON", "province": "ON", "country": "CA", "postalCode": "L8E3N6", "twitter": "None", "instagram": "None", "facebook": "None", "youtube": "None", "website": "None", "summary": "None", "logo": "None", "latitude": 43.23295882462897, "longitude": -79.76484007628855}, "119254423RR0001": {"name": "THE SMALL TALK SOCIETY FOR DEVELOPMENTAL LANGUAGE DISORDERS IN PRE-SCHOOL AGED CHILDREN", "designationCode": "C", "categoryCode": "20", "address": "1787 DRUMMOND DRIVE", "city": "VANCOUVER", "province": "BC", "country": "CA", "postalCode": "V6T1B7", "twitter": "None", "instagram": "None", "facebook": "None", "youtube": "None", "website": "None", "summary": "None", "logo": "None", "latitude": 49.27154179153463, "longitude": -123.22128845149703}, "862943156RR0001": {"name": "THE SMDL CHARITABLE FOUNDATION", "designationCode": "B", "categoryCode": "03", "address": "333 BAY STREET                SUITE 3400", "city": "TORONTO", "province": "ON", "country": "CA", "postalCode": "M3H2S7", "twitter": "None", "instagram": "None", "facebook": "None", "youtube": "None", "website": "None", "summary": "None", "logo": "None", "latitude": 43.65025349737428, "longitude": -79.38084819908858}, "119254431RR0001": {"name": "THE SMILE COMPANY - THEATRICAL PRODUCTIONS", "designationCode": "C", "categoryCode": "22", "address": "188 LOWTHER AVE", "city": "TORONTO", "province": "ON", "country": "CA", "postalCode": "M5R1E8", "twitter": "None", "instagram": "None", "facebook": "None", "youtube": "None", "website": "None", "summary": "None", "logo": "None", "latitude": 43.66825715404807, "longitude": -79.4071798529055}, "119254449RR0001": {"name": "THE SMITH`S COVE HISTORICAL SOCIETY", "designationCode": "C", "categoryCode": "52", "address": "590 HWY 1", "city": "SMITH'S COVE", "province": "NS", "country": "CA", "postalCode": "B0S1S0", "twitter": "None", "instagram": "None", "facebook": "None", "youtube": "None", "website": "None", "summary": "None", "logo": "None", "latitude": 44.882406636044266, "longitude": -65.16439396269244}, "892812769RR0001": {"name": "THE SMITHS FALLS COMMUNITY HOSPITAL AUXILIARY", "designationCode": "C", "categoryCode": "19", "address": "60 CORNELIA STREET WEST", "city": "SMITHS FALLS", "province": "ON", "country": "CA", "postalCode": "K7A2H9", "twitter": "None", "instagram": "None", "facebook": "None", "youtube": "None", "website": "None", "summary": "None", "logo": "None", "latitude": 44.90662412362888, "longitude": -76.02528468544331}, "107986226RR0001": {"name": "THE SMOKY LAKE AGRICULTURAL SOCIETY", "designationCode": "C", "categoryCode": "56", "address": "BOX 571", "city": "SMOKY LAKE", "province": "AB", "country": "CA", "postalCode": "T0A3C0", "twitter": "None", "instagram": "None", "facebook": "None", "youtube": "None", "website": "None", "summary": "None", "logo": "None", "latitude": 54.113230000000044, "longitude": -112.47107999999997}, "890257868RR0001": {"name": "THE SMOKY LAKE COUNTY RURAL CRIME WATCH ASSOCIATION", "designationCode": "C", "categoryCode": "59", "address": "PO BOX 784", "city": "SMOKY LAKE", "province": "AB", "country": "CA", "postalCode": "T0A3C0", "twitter": "None", "instagram": "None", "facebook": "None", "youtube": "None", "website": "None", "summary": "None", "logo": "None", "latitude": 54.113230000000044, "longitude": -112.47107999999997}, "823598636RR0001": {"name": "THE SNOWSUIT FUND/LE FONDS HABINEIGE", "designationCode": "C", "categoryCode": "09", "address": "225-235 DONALD ST             UNIT 134-136", "city": "OTTAWA", "province": "ON", "country": "CA", "postalCode": "K1K1N1", "twitter": "None", "instagram": "None", "facebook": "None", "youtube": "None", "website": "None", "summary": "None", "logo": "None", "latitude": 45.427350377288306, "longitude": -75.66212452626833}, "119254472RR0001": {"name": "THE SOBEY FOUNDATION", "designationCode": "B", "categoryCode": "23", "address": "115 KING ST.", "city": "STELLARTON", "province": "NS", "country": "CA", "postalCode": "B0K1S0", "twitter": "None", "instagram": "None", "facebook": "None", "youtube": "None", "website": "None", "summary": "None", "logo": "None", "latitude": 45.56046585345377, "longitude": -62.65718627710788}, "890550270RR0001": {"name": "THE SOCIAL NETWORK FOR YOUTH OF OTTAWA-CARLETON", "designationCode": "C", "categoryCode": "01", "address": "2266 KIPLING STREET", "city": "OTTAWA", "province": "ON", "country": "CA", "postalCode": "K1H6T5", "twitter": "None", "instagram": "None", "facebook": "None", "youtube": "None", "website": "None", "summary": "None", "logo": "None", "latitude": 45.38542061004674, "longitude": -75.6387993969068}, "133376996RR0001": {"name": "THE SOCIAL RESEARCH AND DEMONSTRATION CORPORATION", "designationCode": "C", "categoryCode": "09", "address": "55 MURRAY ST                  SUITE 400", "city": "OTTAWA", "province": "ON", "country": "CA", "postalCode": "K1N5M3", "twitter": "None", "instagram": "None", "facebook": "None", "youtube": "None", "website": "None", "summary": "None", "logo": "None", "latitude": 45.42937233417961, "longitude": -75.69445119568344}, "129999215RR0001": {"name": "THE SOCIAL SERVICE BUREAU OF SARNIA - LAMBTON INCORPORATED", "designationCode": "C", "categoryCode": "09", "address": "1086 MODELAND RD              BLDG 1030 2ND FL", "city": "SARNIA", "province": "ON", "country": "CA", "postalCode": "N7S6L2", "twitter": "None", "instagram": "None", "facebook": "None", "youtube": "None", "website": "None", "summary": "None", "logo": "None", "latitude": 42.97219249710436, "longitude": -82.34461187408675}, "877803403RR0001": {"name": "THE SOCIETY FOR CANADIAN STUDIES & YOUTH ENRICHMENT", "designationCode": "C", "categoryCode": "23", "address": "217 DEERVIEW DRIVE SE", "city": "CALGARY", "province": "AB", "country": "CA", "postalCode": "T2J6W7", "twitter": "None", "instagram": "None", "facebook": "None", "youtube": "None", "website": "None", "summary": "None", "logo": "None", "latitude": 50.929497471550576, "longitude": -114.02305131753118}, "882772866RR0001": {"name": "THE SOCIETY FOR DEVELOPMENT IN THIRD WORLD COUNTRIES", "designationCode": "C", "categoryCode": "23", "address": "353 WESTRIDGE ROAD NW", "city": "EDMONTON", "province": "AB", "country": "CA", "postalCode": "T5T1C4", "twitter": "None", "instagram": "None", "facebook": "None", "youtube": "None", "website": "None", "summary": "None", "logo": "None", "latitude": 53.50725270275258, "longitude": -113.6044381981363}, "132928110RR0001": {"name": "THE SOCIETY FOR KOREAN AND RELATED STUDIES", "designationCode": "C", "categoryCode": "21", "address": "UNIT 21,                      900 DUNDAS STREET WEST", "city": "MISSISSAUGA", "province": "ON", "country": "CA", "postalCode": "L5C3B3", "twitter": "None", "instagram": "None", "facebook": "None", "youtube": "None", "website": "None", "summary": "None", "logo": "None", "latitude": 43.56150058116465, "longitude": -79.63793160488218}, "129778353RR0001": {"name": "THE SOCIETY FOR SELECTIONS: A CAREER SUPPORT SERVICE", "designationCode": "C", "categoryCode": "09", "address": "205 4209 99 ST NW", "city": "EDMONTON", "province": "AB", "country": "CA", "postalCode": "T6E5V7", "twitter": "None", "instagram": "None", "facebook": "None", "youtube": "None", "website": "None", "summary": "None", "logo": "None", "latitude": 53.508704978646115, "longitude": -113.48628420213538}, "119254555RR0001": {"name": "THE SOCIETY FOR THE EDUCATION OF CHILDREN WITH SPECIFIC LEARNING DISABILITES", "designationCode": "C", "categoryCode": "20", "address": "420 SEYMOUR RIVER PLACE", "city": "NORTH VANCOUVER", "province": "BC", "country": "CA", "postalCode": "V7H1S8", "twitter": "None", "instagram": "None", "facebook": "None", "youtube": "None", "website": "None", "summary": "None", "logo": "None", "latitude": 49.308768502914205, "longitude": -123.01749135172301}, "119254589RR0001": {"name": "THE SOCIETY FOR THE PRESERVATION OF HISTORIC THORNHILL", "designationCode": "C", "categoryCode": "52", "address": "P.O. BOX 53120                10 ROYAL ORCHARD BLVD", "city": "THORNHILL", "province": "ON", "country": "CA", "postalCode": "L3T7R9", "twitter": "None", "instagram": "None", "facebook": "None", "youtube": "None", "website": "None", "summary": "None", "logo": "None", "latitude": 43.82305151269504, "longitude": -79.42438906396795}, "867973307RR0001": {"name": "THE SOCIETY FOR THE PRESERVATION OF THE GREENHILL COMMUNITY CHURCH", "designationCode": "C", "categoryCode": "52", "address": "9 ROBIE AVENUE, R.R. #6", "city": "KINGSTON", "province": "NS", "country": "CA", "postalCode": "B0P1R0", "twitter": "None", "instagram": "None", "facebook": "None", "youtube": "None", "website": "None", "summary": "None", "logo": "None", "latitude": 44.970080950054744, "longitude": -64.95414696791525}, "877346502RR0001": {"name": "THE SOCIETY FOR THE PRESERVATION OF VAUDEVILLE", "designationCode": "A", "categoryCode": "03", "address": "6675 LYON ROAD", "city": "DELTA", "province": "BC", "country": "CA", "postalCode": "V4E1H6", "twitter": "None", "instagram": "None", "facebook": "None", "youtube": "None", "website": "None", "summary": "None", "logo": "None", "latitude": 49.12392499417163, "longitude": -122.92004593952315}, "899365084RR0001": {"name": "THE SOCIETY FOR THE PREVENTION OF CRUELTY TO ANIMALS (NEWFOUNDLAND & LABRADOR)", "designationCode": "C", "categoryCode": "54", "address": "POST OFFICE BOX 29053", "city": "SAINT JOHN'S", "province": "NL", "country": "CA", "postalCode": "A1A5B5", "twitter": "None", "instagram": "None", "facebook": "None", "youtube": "None", "website": "None", "summary": "None", "logo": "None", "latitude": 47.600088000000056, "longitude": -52.692861499999935}, "128882883RR0001": {"name": "THE SOCIETY FOR THE PROPAGATION OF THE FAITH FOR CANADA, ENGLISH SECTOR", "designationCode": "C", "categoryCode": "47", "address": "2219 KENNEDY RD", "city": "SCARBOROUGH", "province": "ON", "country": "CA", "postalCode": "M1T3G5", "twitter": "None", "instagram": "None", "facebook": "None", "youtube": "None", "website": "None", "summary": "None", "logo": "None", "latitude": 43.78121555704306, "longitude": -79.28717990143713}, "133194704RR0001": {"name": "THE SOCIETY FOR THE STUDY OF EGYPTIAN ANTIQUITIES", "designationCode": "C", "categoryCode": "21", "address": "360A BLOOR ST W               PO BOX 19004 WALMER", "city": "TORONTO", "province": "ON", "country": "CA", "postalCode": "M5S3C9", "twitter": "None", "instagram": "None", "facebook": "None", "youtube": "None", "website": "None", "summary": "None", "logo": "None", "latitude": 43.6665077600754, "longitude": -79.40499142685711}, "106780844RR0001": {"name": "THE SOCIETY OF BEAUX ESPRITS PLAYSCHOOL", "designationCode": "C", "categoryCode": "20", "address": "7 - 7925 158 ST NW", "city": "EDMONTON", "province": "AB", "country": "CA", "postalCode": "T5R2B9", "twitter": "None", "instagram": "None", "facebook": "None", "youtube": "None", "website": "None", "summary": "None", "logo": "None", "latitude": 53.51041993955418, "longitude": -113.59319635461175}, "882201189RR0001": {"name": "THE SOCIETY OF BRIAR HILL CHILDRENS PROGRAMS", "designationCode": "C", "categoryCode": "01", "address": "319-104 1240 KENSINGTON RD NW", "city": "CALGARY", "province": "AB", "country": "CA", "postalCode": "T2N3P7", "twitter": "None", "instagram": "None", "facebook": "None", "youtube": "None", "website": "None", "summary": "None", "logo": "None", "latitude": 51.05254445325738, "longitude": -114.0913305}, "882539588RR0001": {"name": "THE SOCIETY OF CHRIST FATHERS IN CANADA", "designationCode": "C", "categoryCode": "47", "address": "625 MIDDLEFIELD ROAD", "city": "SCARBOROUGH", "province": "ON", "country": "CA", "postalCode": "M1V5B8", "twitter": "None", "instagram": "None", "facebook": "None", "youtube": "None", "website": "None", "summary": "None", "logo": "None", "latitude": 43.81466296171149, "longitude": -79.25971769227924}, "119254654RR0001": {"name": "THE SOCIETY OF FRIENDS OF NEPAL", "designationCode": "C", "categoryCode": "09", "address": "11630 74 AVE NW", "city": "EDMONTON", "province": "AB", "country": "CA", "postalCode": "T6G0G2", "twitter": "None", "instagram": "None", "facebook": "None", "youtube": "None", "website": "None", "summary": "None", "logo": "None", "latitude": 53.51037052596793, "longitude": -113.5331415}, "895636462RR0001": {"name": "THE SOCIETY OF FRIENDS OF THE MEDICINE HAT PUBLIC LIBRARY", "designationCode": "A", "categoryCode": "53", "address": "414 FIRST STREET SE", "city": "MEDICINE HAT", "province": "AB", "country": "CA", "postalCode": "T1A0A8", "twitter": "None", "instagram": "None", "facebook": "None", "youtube": "None", "website": "None", "summary": "None", "logo": "None", "latitude": 50.04029900083673, "longitude": -110.68081942284606}, "893784181RR0001": {"name": "THE SOCIETY OF FRIENDS OF THE RED DEER PUBLIC LIBRARY", "designationCode": "C", "categoryCode": "59", "address": "13 REEVES CRES.", "city": "RED DEER", "province": "AB", "country": "CA", "postalCode": "T4P2Z4", "twitter": "None", "instagram": "None", "facebook": "None", "youtube": "None", "website": "None", "summary": "None", "logo": "None", "latitude": 52.268255488458806, "longitude": -113.76279352553523}, "135227387RR0001": {"name": "THE SOCIETY OF HIGH PRAIRIE REGIONAL ENVIRONMENTAL ACTION COMMITTEE", "designationCode": "C", "categoryCode": "29", "address": "PO BOX 84", "city": "FAUST", "province": "AB", "country": "CA", "postalCode": "T0G0X0", "twitter": "None", "instagram": "None", "facebook": "None", "youtube": "None", "website": "None", "summary": "None", "logo": "None", "latitude": 55.31970000000007, "longitude": -115.65382999999997}, "129995288RR0001": {"name": "THE SOCIETY OF HOUSING OPPORTUNITIES AND PROGRESSIVE EMPLOYMENT", "designationCode": "C", "categoryCode": "01", "address": "101-2055 BENVOULIN CRT", "city": "KELOWNA", "province": "BC", "country": "CA", "postalCode": "V1W2C7", "twitter": "None", "instagram": "None", "facebook": "None", "youtube": "None", "website": "None", "summary": "None", "logo": "None", "latitude": 49.87698402692022, "longitude": -119.4394028958972}, "863014635RR0001": {"name": "THE SOCIETY OF NANTON FIRST BAPTIST FELLOWSHIP", "designationCode": "C", "categoryCode": "31", "address": "PO BOX 635", "city": "NANTON", "province": "AB", "country": "CA", "postalCode": "T0L1R0", "twitter": "None", "instagram": "None", "facebook": "None", "youtube": "None", "website": "None", "summary": "None", "logo": "None", "latitude": 50.448604499999995, "longitude": -113.84751825000001}, "867038689RR0001": {"name": "THE SOCIETY OF SAINT ATHANASIUS OF THE COMOX VALLEY", "designationCode": "C", "categoryCode": "39", "address": "591 PRITCHARD ROAD", "city": "COMOX", "province": "BC", "country": "CA", "postalCode": "V9M3H9", "twitter": "None", "instagram": "None", "facebook": "None", "youtube": "None", "website": "None", "summary": "None", "logo": "None", "latitude": 49.68460816763806, "longitude": -124.91703242801061}, "132410671RR0365": {"name": "THE SOCIETY OF SAINT VINCENT DE PAUL - ATLANTIC REGIONAL COUNCIL", "designationCode": "C", "categoryCode": "09", "address": "65 CORTLAND ST", "city": "CHARLOTTETOWN", "province": "PE", "country": "CA", "postalCode": "C1E1T4", "twitter": "None", "instagram": "None", "facebook": "None", "youtube": "None", "website": "None", "summary": "None", "logo": "None", "latitude": 46.262004463788976, "longitude": -63.161391473079796}, "132410671RR0326": {"name": "THE SOCIETY OF SAINT VINCENT DE PAUL - BLESSED SACRAMENT CONFERENCE", "designationCode": "C", "categoryCode": "09", "address": "36 FAIRCOURT AVENUE", "city": "CHATHAM", "province": "ON", "country": "CA", "postalCode": "N7L2X1", "twitter": "None", "instagram": "None", "facebook": "None", "youtube": "None", "website": "None", "summary": "None", "logo": "None", "latitude": 42.417632735760954, "longitude": -82.19294010257359}, "132410671RR0273": {"name": "THE SOCIETY OF SAINT VINCENT DE PAUL - BLESSED SACRAMENT CONFERENCE OR COUNCIL", "designationCode": "C", "categoryCode": "09", "address": "3-15 POTTER DRIVE RR2", "city": "BURFORD", "province": "ON", "country": "CA", "postalCode": "N0E1A0", "twitter": "None", "instagram": "None", "facebook": "None", "youtube": "None", "website": "None", "summary": "None", "logo": "None", "latitude": 43.099097075711626, "longitude": -80.43458385276033}, "132410671RR0074": {"name": "THE SOCIETY OF SAINT VINCENT DE PAUL - BLESSED TRINITY, NORTH YORK CONFERENCE", "designationCode": "C", "categoryCode": "09", "address": "3220 BAYVIEW AVE", "city": "NORTH YORK", "province": "ON", "country": "CA", "postalCode": "M2M3R7", "twitter": "None", "instagram": "None", "facebook": "None", "youtube": "None", "website": "None", "summary": "None", "logo": "None", "latitude": 43.78735111711588, "longitude": -79.39266847411805}, "132410671RR0373": {"name": "THE SOCIETY OF SAINT VINCENT DE PAUL - CHRISTOPHER'S CONFERENCE", "designationCode": "C", "categoryCode": "09", "address": "4924 DOUGLAS LINE", "city": "PLYMPTON-WYOMING", "province": "ON", "country": "CA", "postalCode": "N0N1J5", "twitter": "None", "instagram": "None", "facebook": "None", "youtube": "None", "website": "None", "summary": "None", "logo": "None", "latitude": 43.077517499852036, "longitude": -82.08737999650889}, "132410671RR0019": {"name": "THE SOCIETY OF SAINT VINCENT DE PAUL - HOLY FAMILY CONFERENCE, HANOVER", "designationCode": "C", "categoryCode": "09", "address": "352 10TH AVENUE", "city": "HANOVER", "province": "ON", "country": "CA", "postalCode": "N4N2N6", "twitter": "None", "instagram": "None", "facebook": "None", "youtube": "None", "website": "None", "summary": "None", "logo": "None", "latitude": 44.149523846788654, "longitude": -81.02577611702897}, "132410671RR0434": {"name": "THE SOCIETY OF SAINT VINCENT DE PAUL - OUR LADY OF THE ANNUNCIATION CONFERENCE, RICHMOND HILL, ON", "designationCode": "C", "categoryCode": "09", "address": "97 KING ROAD", "city": "RICHMOND HILL", "province": "ON", "country": "CA", "postalCode": "L4E1A7", "twitter": "None", "instagram": "None", "facebook": "None", "youtube": "None", "website": "None", "summary": "None", "logo": "None", "latitude": 43.943789833689614, "longitude": -79.45847780694228}, "132410671RR0439": {"name": "THE SOCIETY OF SAINT VINCENT DE PAUL - PARTICULAR COUNCIL CALGARY NORTH, CALGARY, AB", "designationCode": "C", "categoryCode": "09", "address": "11, 366-94 AVENUE SOUTHEAST", "city": "CALGARY", "province": "AB", "country": "CA", "postalCode": "T2J5P1", "twitter": "None", "instagram": "None", "facebook": "None", "youtube": "None", "website": "None", "summary": "None", "logo": "None", "latitude": 50.9686504565756, "longitude": -114.06136444463039}, "132410671RR0429": {"name": "THE SOCIETY OF SAINT VINCENT DE PAUL - PEEL NORTH PARTICULAR COUNCIL", "designationCode": "C", "categoryCode": "09", "address": "187 CONESTOGA DR", "city": "BRAMPTON", "province": "ON", "country": "CA", "postalCode": "L6Z3X8", "twitter": "None", "instagram": "None", "facebook": "None", "youtube": "None", "website": "None", "summary": "None", "logo": "None", "latitude": 43.72235400556859, "longitude": -79.79071155534095}, "132410671RR0073": {"name": "THE SOCIETY OF SAINT VINCENT DE PAUL - SAINT MICHAEL'S CONFERENCE, HALIFAX", "designationCode": "C", "categoryCode": "09", "address": "440 HERRING COVE ROAD", "city": "HALIFAX", "province": "NS", "country": "CA", "postalCode": "B3R1W4", "twitter": "None", "instagram": "None", "facebook": "None", "youtube": "None", "website": "None", "summary": "None", "logo": "None", "latitude": 44.606745229817, "longitude": -63.614267771279515}, "132410671RR0274": {"name": "THE SOCIETY OF SAINT VINCENT DE PAUL - ST BASIL'S CONFERENCE", "designationCode": "C", "categoryCode": "09", "address": "50 PALACE ST", "city": "BRANTFORD", "province": "ON", "country": "CA", "postalCode": "N3T3W9", "twitter": "None", "instagram": "None", "facebook": "None", "youtube": "None", "website": "None", "summary": "None", "logo": "None", "latitude": 43.144688028910764, "longitude": -80.26919510384299}, "132410671RR0029": {"name": "THE SOCIETY OF SAINT VINCENT DE PAUL - ST DENIS CONFERENCE", "designationCode": "C", "categoryCode": "09", "address": "230 LAKE ST", "city": "ST. CATHARINES", "province": "ON", "country": "CA", "postalCode": "L2R5Z3", "twitter": "None", "instagram": "None", "facebook": "None", "youtube": "None", "website": "None", "summary": "None", "logo": "None", "latitude": 43.17267728864908, "longitude": -79.2510533974264}, "132410671RR0271": {"name": "THE SOCIETY OF SAINT VINCENT DE PAUL - ST MARY'S CONFERENCE", "designationCode": "C", "categoryCode": "09", "address": "133 MURRAY STREET", "city": "BRANTFORD", "province": "ON", "country": "CA", "postalCode": "N3S5P8", "twitter": "None", "instagram": "None", "facebook": "None", "youtube": "None", "website": "None", "summary": "None", "logo": "None", "latitude": 43.1385862186614, "longitude": -80.25204386457858}, "132410671RR0275": {"name": "THE SOCIETY OF SAINT VINCENT DE PAUL - ST PIUS X CONFERENCE", "designationCode": "C", "categoryCode": "09", "address": "9 WAVERLY ST", "city": "BRANTFORD", "province": "ON", "country": "CA", "postalCode": "N3R2K2", "twitter": "None", "instagram": "None", "facebook": "None", "youtube": "None", "website": "None", "summary": "None", "logo": "None", "latitude": 43.16402037665171, "longitude": -80.27136586678397}, "132410671RR0377": {"name": "THE SOCIETY OF SAINT VINCENT DE PAUL - ST. AGNES CONFERENCE", "designationCode": "C", "categoryCode": "09", "address": "6903 MUNFORD ROAD", "city": "HALIFAX", "province": "NS", "country": "CA", "postalCode": "B3L3E5", "twitter": "None", "instagram": "None", "facebook": "None", "youtube": "None", "website": "None", "summary": "None", "logo": "None"}, "132410671RR0376": {"name": "THE SOCIETY OF SAINT VINCENT DE PAUL - ST. DUNSTAN CONFERENCE", "designationCode": "C", "categoryCode": "09", "address": "6 JOHNSON DR", "city": "STRATFORD", "province": "PE", "country": "CA", "postalCode": "C1B1K9", "twitter": "None", "instagram": "None", "facebook": "None", "youtube": "None", "website": "None", "summary": "None", "logo": "None", "latitude": 46.21549618373822, "longitude": -63.04827598000469}, "132410671RR0441": {"name": "THE SOCIETY OF SAINT VINCENT DE PAUL - ST. JOSEPH'S BASILICA CONFERENCE, EDMONTON, AB", "designationCode": "C", "categoryCode": "09", "address": "10044-113 STREET", "city": "EDMONTON", "province": "AB", "country": "CA", "postalCode": "T5K1N8", "twitter": "None", "instagram": "None", "facebook": "None", "youtube": "None", "website": "None", "summary": "None", "logo": "None", "latitude": 53.54019841326678, "longitude": -113.51584924372412}, "132410671RR0379": {"name": "THE SOCIETY OF SAINT VINCENT DE PAUL - ST. LUKES'S CONFERENCE", "designationCode": "C", "categoryCode": "09", "address": "20285 DEWDNEY TRUNK ROAD", "city": "MAPLE RIDGE", "province": "BC", "country": "CA", "postalCode": "V2X3C9", "twitter": "None", "instagram": "None", "facebook": "None", "youtube": "None", "website": "None", "summary": "None", "logo": "None", "latitude": 49.22150753593496, "longitude": -122.65846412199461}, "132410671RR0403": {"name": "THE SOCIETY OF SAINT VINCENT DE PAUL - ST. MARK'S CONFERENCE, IN AYLMER", "designationCode": "C", "categoryCode": "09", "address": "160 RUE PRINCIPALE", "city": "GATINEAU AYLMER", "province": "QC", "country": "CA", "postalCode": "J9H3M8", "twitter": "None", "instagram": "None", "facebook": "None", "youtube": "None", "website": "None", "summary": "None", "logo": "None", "latitude": 45.395220575596056, "longitude": -75.83966941895093}, "132410671RR0389": {"name": "THE SOCIETY OF SAINT VINCENT DE PAUL - ST. MARTIN OF TOURS CONFERENCE, IN MISSISSAUGA, (ONTARIO)", "designationCode": "C", "categoryCode": "09", "address": "1290 MCBRIDE AVE.", "city": "MISSISSAUGA", "province": "ON", "country": "CA", "postalCode": "L5C1M8", "twitter": "None", "instagram": "None", "facebook": "None", "youtube": "None", "website": "None", "summary": "None", "logo": "None", "latitude": 43.55969262972492, "longitude": -79.65628488963614}, "132410671RR0413": {"name": "THE SOCIETY OF SAINT VINCENT DE PAUL - ST. MARY'S CONFERENCE", "designationCode": "C", "categoryCode": "09", "address": "219-18TH AVE SW", "city": "CALGARY", "province": "AB", "country": "CA", "postalCode": "T2S0C2", "twitter": "None", "instagram": "None", "facebook": "None", "youtube": "None", "website": "None", "summary": "None", "logo": "None", "latitude": 51.03700852063048, "longitude": -114.06625199999999}, "132410671RR0415": {"name": "THE SOCIETY OF SAINT VINCENT DE PAUL - ST. PIUS X CONFERENCE, CHARLOTTETOWN, PEI", "designationCode": "C", "categoryCode": "09", "address": "105 - 9 HARLEY ST", "city": "CHARLOTTETOWN", "province": "PE", "country": "CA", "postalCode": "C1A5T9", "twitter": "None", "instagram": "None", "facebook": "None", "youtube": "None", "website": "None", "summary": "None", "logo": "None", "latitude": 46.249431400751746, "longitude": -63.12427606580446}, "132410671RR0420": {"name": "THE SOCIETY OF SAINT VINCENT DE PAUL - ST. TIMOTHY CONFERENCE", "designationCode": "C", "categoryCode": "09", "address": "135 JOHN FORSYTH RD", "city": "WINNIPEG", "province": "MB", "country": "CA", "postalCode": "R2N1R3", "twitter": "None", "instagram": "None", "facebook": "None", "youtube": "None", "website": "None", "summary": "None", "logo": "None", "latitude": 49.811461511801, "longitude": -97.10138668601724}, "132410671RR0419": {"name": "THE SOCIETY OF SAINT VINCENT DE PAUL - ST.MICHAEL'S CONFERENCE", "designationCode": "C", "categoryCode": "09", "address": "PO BOX 942", "city": "BLACK DIAMOND", "province": "AB", "country": "CA", "postalCode": "T0L0H0", "twitter": "None", "instagram": "None", "facebook": "None", "youtube": "None", "website": "None", "summary": "None", "logo": "None", "latitude": 50.70011000000005, "longitude": -114.23529999999994}, "132410671RR0442": {"name": "THE SOCIETY OF SAINT VINCENT DE PAUL ST. FRANCIS XAVIER CONFERENCE, MISSISSAUGA, ON", "designationCode": "C", "categoryCode": "09", "address": "ST. FRANCIS XAVIER CHURCH     5650 MAVIS RD", "city": "MISSISSAUGA", "province": "ON", "country": "CA", "postalCode": "L5V2N6", "twitter": "None", "instagram": "None", "facebook": "None", "youtube": "None", "website": "None", "summary": "None", "logo": "None", "latitude": 43.60702116870592, "longitude": -79.68885932826431}, "132410671RR0412": {"name": "THE SOCIETY OF SAINT VINCENT DE PAUL ST. JUSTIN'S CONFERENCE", "designationCode": "C", "categoryCode": "09", "address": "64 CLIFTON CR", "city": "LONDON", "province": "ON", "country": "CA", "postalCode": "N6C3V8", "twitter": "None", "instagram": "None", "facebook": "None", "youtube": "None", "website": "None", "summary": "None", "logo": "None", "latitude": 42.94441424923539, "longitude": -81.24309823884805}, "132410671RR0383": {"name": "THE SOCIETY OF SAINT VINCENT DE PAUL-IMMACULATE HEART CONFERENCE", "designationCode": "C", "categoryCode": "09", "address": "2256 MOY AVE", "city": "WINDSOR", "province": "ON", "country": "CA", "postalCode": "N8W2M6", "twitter": "None", "instagram": "None", "facebook": "None", "youtube": "None", "website": "None", "summary": "None", "logo": "None", "latitude": 42.2972620505222, "longitude": -83.00272240893894}, "132410671RR0362": {"name": "THE SOCIETY OF SAINT VINCENT DE PAUL-OUR LADY OF PERPETUAL HELP CONFERENCE", "designationCode": "C", "categoryCode": "09", "address": "168 BRIAR AVE", "city": "KAMLOOPS", "province": "BC", "country": "CA", "postalCode": "V2B1C1", "twitter": "None", "instagram": "None", "facebook": "None", "youtube": "None", "website": "None", "summary": "None", "logo": "None", "latitude": 50.685984449362245, "longitude": -120.35357054954123}, "132410671RR0388": {"name": "THE SOCIETY OF SAINT VINCENT DE PAUL-SACRED HEART CONFERENCE", "designationCode": "C", "categoryCode": "09", "address": "75 MANITOBA ST.", "city": "GUELPH", "province": "ON", "country": "CA", "postalCode": "N1E3G2", "twitter": "None", "instagram": "None", "facebook": "None", "youtube": "None", "website": "None", "summary": "None", "logo": "None", "latitude": 43.54655088897231, "longitude": -80.23520562862839}, "132410671RR0424": {"name": "THE SOCIETY OF SAINT VINCENT DE PAUL-SIMCOE COUNTY NORTH PARTICULAR COUNCIL", "designationCode": "C", "categoryCode": "09", "address": "115 WEST ST N", "city": "ORILLIA", "province": "ON", "country": "CA", "postalCode": "L3V5C4", "twitter": "None", "instagram": "None", "facebook": "None", "youtube": "None", "website": "None", "summary": "None", "logo": "None", "latitude": 44.61141375019598, "longitude": -79.42232368801953}, "132410671RR0428": {"name": "THE SOCIETY OF SAINT VINCENT DE PAUL-ST CHARLES GARNIER CONFERENCE", "designationCode": "C", "categoryCode": "09", "address": "209 MAIN STREET               P.O. BOX 495", "city": "GLENCOE", "province": "ON", "country": "CA", "postalCode": "N0L1M0", "twitter": "None", "instagram": "None", "facebook": "None", "youtube": "None", "website": "None", "summary": "None", "logo": "None", "latitude": 42.74774894007141, "longitude": -81.71072514637335}, "132410671RR0319": {"name": "THE SOCIETY OF SAINT VINCENT DE PAUL-ST PATRICK, STAYNER ONTARIO, CONFERENCE/ARCHDIOCEASE OF TORONTO, COUNCIL", "designationCode": "C", "categoryCode": "09", "address": "215 PINE STREET BOX 640", "city": "STAYNER", "province": "ON", "country": "CA", "postalCode": "L0M1S0", "twitter": "None", "instagram": "None", "facebook": "None", "youtube": "None", "website": "None", "summary": "None", "logo": "None", "latitude": 44.41697038354797, "longitude": -80.09142801667709}, "132410671RR0431": {"name": "THE SOCIETY OF SAINT VINCENT DE PAUL-ST. BERNADETTE CONFERENCE", "designationCode": "C", "categoryCode": "09", "address": "7103 20A STREET S.E.", "city": "CALGARY", "province": "AB", "country": "CA", "postalCode": "T2C0R6", "twitter": "None", "instagram": "None", "facebook": "None", "youtube": "None", "website": "None", "summary": "None", "logo": "None", "latitude": 50.989543292255775, "longitude": -114.01021345158394}, "132410671RR0343": {"name": "THE SOCIETY OF SAINT VINCENT DE PAUL-ST. MARY'S & ST. JUDE'S CONFERENCE", "designationCode": "C", "categoryCode": "09", "address": "P O BOX 578", "city": "BROOKS", "province": "AB", "country": "CA", "postalCode": "T1R1B5", "twitter": "None", "instagram": "None", "facebook": "None", "youtube": "None", "website": "None", "summary": "None", "logo": "None", "latitude": 50.56584900000006, "longitude": -111.89848399999994}, "132410671RR0387": {"name": "THE SOCIETY OF SAINT VINCENT DE PAUL-ST. PATRICK'S CONFERENCE, IN MISSISSAUGA, (ONTARIO)", "designationCode": "C", "categoryCode": "09", "address": "921 FLAGSHIP DRIVE", "city": "MISSISSAUGA", "province": "ON", "country": "CA", "postalCode": "L4Y2J6", "twitter": "None", "instagram": "None", "facebook": "None", "youtube": "None", "website": "None", "summary": "None", "logo": "None", "latitude": 43.60440806191914, "longitude": -79.60095371556318}, "132410671RR0437": {"name": "THE SOCIETY OF SAINT VINCENT DE PAUL-ST. PETER CONFERENCE, CALGARY, AB", "designationCode": "C", "categoryCode": "09", "address": "541 SILVERGROVE DRIVE NW", "city": "CALGARY", "province": "AB", "country": "CA", "postalCode": "T3B4R9", "twitter": "None", "instagram": "None", "facebook": "None", "youtube": "None", "website": "None", "summary": "None", "logo": "None", "latitude": 51.1127607521496, "longitude": -114.19228821954523}, "132410671RR0346": {"name": "THE SOCIETY OF SAINT VINCENT DE PAUL-ST. STEPHENS CONFERENCE (FLORENCE, NOVA SCOTIA)", "designationCode": "C", "categoryCode": "09", "address": "51 ORAM DRIVE", "city": "FLORENCE", "province": "NS", "country": "CA", "postalCode": "B1Y1M8", "twitter": "None", "instagram": "None", "facebook": "None", "youtube": "None", "website": "None", "summary": "None", "logo": "None", "latitude": 46.25374124704236, "longitude": -60.25445277909845}, "132410671RR0351": {"name": "THE SOCIETY OF SAINT VINCENT DE PAUL-ST. THOMAS MORE CONFER ENCE", "designationCode": "C", "categoryCode": "09", "address": "32 SARATOGA DR", "city": "DARTMOUTH", "province": "NS", "country": "CA", "postalCode": "B2X3P8", "twitter": "None", "instagram": "None", "facebook": "None", "youtube": "None", "website": "None", "summary": "None", "logo": "None", "latitude": 44.70403893031924, "longitude": -63.53745845172818}, "132410671RR0438": {"name": "THE SOCIETY OF SAINT VINCENT DE PAUL-ST. THOMAS MORE, CALGARY, AB", "designationCode": "C", "categoryCode": "09", "address": "15 TEMPLEBOW RD NE            ST THOMAS MORE CHURCH", "city": "CALGARY", "province": "AB", "country": "CA", "postalCode": "T1Y6J3", "twitter": "None", "instagram": "None", "facebook": "None", "youtube": "None", "website": "None", "summary": "None", "logo": "None", "latitude": 51.09523233527614, "longitude": -113.95170348848747}, "132410671RR0386": {"name": "THE SOCIETY OF SAINT VINCENT DE PAUL-ST.CLEMENT'S CONFERENCE", "designationCode": "C", "categoryCode": "09", "address": "6 FOXGROVE LANE", "city": "DARTMOUTH", "province": "NS", "country": "CA", "postalCode": "B2Y4N8", "twitter": "None", "instagram": "None", "facebook": "None", "youtube": "None", "website": "None", "summary": "None", "logo": "None", "latitude": 44.66917378686008, "longitude": -63.54634411558666}, "132410671RR0368": {"name": "THE SOCIETY OF SAINT VINCENT DE PAUL-ST.JOHN THE BAPTIST CONFERENCE", "designationCode": "C", "categoryCode": "09", "address": "2016 BLAIRHOLM AVENUE", "city": "BURLINGTON", "province": "ON", "country": "CA", "postalCode": "L7R1V4", "twitter": "None", "instagram": "None", "facebook": "None", "youtube": "None", "website": "None", "summary": "None", "logo": "None", "latitude": 43.33174481958, "longitude": -79.80526240172559}, "132410671RR0411": {"name": "THE SOCIETY OF SAINT VINCENT DE PAUL-ST.MARY'S CONFERENCE", "designationCode": "C", "categoryCode": "09", "address": "211 UNION STREET", "city": "SIMCOE", "province": "ON", "country": "CA", "postalCode": "N3Y2B3", "twitter": "None", "instagram": "None", "facebook": "None", "youtube": "None", "website": "None", "summary": "None", "logo": "None", "latitude": 42.83876334332621, "longitude": -80.3121078769115}, "132410671RR0369": {"name": "THE SOCIETY OF SAINT VINCENT DE PAUL/ST.KEVIN CONFERENCE", "designationCode": "C", "categoryCode": "09", "address": "303 NIAGARA STREET", "city": "WELLAND", "province": "ON", "country": "CA", "postalCode": "L3C1K5", "twitter": "None", "instagram": "None", "facebook": "None", "youtube": "None", "website": "None", "summary": "None", "logo": "None", "latitude": 42.999335245628714, "longitude": -79.25284106650678}, "132410671RR0464": {"name": "THE SOCIETY OF SAINT VINCENT DE PAUL, ANNUNCIATION OF OUR LORD CONFERENCE FROM HAMILTON ONTARIO", "designationCode": "C", "categoryCode": "09", "address": "280 LIMERIDGE ROAD WEST", "city": "HAMILTON", "province": "ON", "country": "CA", "postalCode": "L9C2V2", "twitter": "None", "instagram": "None", "facebook": "None", "youtube": "None", "website": "None", "summary": "None", "logo": "None", "latitude": 43.22306505695616, "longitude": -79.8980173921463}, "132410671RR0455": {"name": "THE SOCIETY OF SAINT VINCENT DE PAUL, GLACE BAY PARTICULAR COUNCIL OF GLACE BAY, N.,S.", "designationCode": "C", "categoryCode": "09", "address": "138 WALLACE RD.", "city": "GLACE BAY", "province": "NS", "country": "CA", "postalCode": "B1A4N7", "twitter": "None", "instagram": "None", "facebook": "None", "youtube": "None", "website": "None", "summary": "None", "logo": "None", "latitude": 46.20933755890476, "longitude": -59.974051170529286}, "132410671RR0454": {"name": "THE SOCIETY OF SAINT VINCENT DE PAUL, IMMACULATE CONCEPTION CONFERENCE OF DOMINION N.S.", "designationCode": "C", "categoryCode": "09", "address": "105 OCEANVIEW CRESCENT", "city": "DOMINION", "province": "NS", "country": "CA", "postalCode": "B1G1R5", "twitter": "None", "instagram": "None", "facebook": "None", "youtube": "None", "website": "None", "summary": "None", "logo": "None", "latitude": 46.214326704011924, "longitude": -60.00558961284072}, "132410671RR0450": {"name": "THE SOCIETY OF SAINT VINCENT DE PAUL, ST DUNSTAN'S CONFERENCE IN TORONTO, ON", "designationCode": "C", "categoryCode": "09", "address": "3150 DANFORTH AVE", "city": "SCARBOROUGH", "province": "ON", "country": "CA", "postalCode": "M1L1B6", "twitter": "None", "instagram": "None", "facebook": "None", "youtube": "None", "website": "None", "summary": "None", "logo": "None", "latitude": 43.691809157943204, "longitude": -79.28591861977026}, "132410671RR0471": {"name": "THE SOCIETY OF SAINT VINCENT DE PAUL, ST. AUGUSTINE'S CONFERENCE", "designationCode": "C", "categoryCode": "09", "address": "5009 48TH AVENUE", "city": "TABER", "province": "AB", "country": "CA", "postalCode": "T1G1T4", "twitter": "None", "instagram": "None", "facebook": "None", "youtube": "None", "website": "None", "summary": "None", "logo": "None", "latitude": 49.78385431057762, "longitude": -112.14917807729816}, "132410671RR0459": {"name": "THE SOCIETY OF SAINT VINCENT DE PAUL, ST. BENEDICT CONFERENCE OF TORONTO, ON", "designationCode": "C", "categoryCode": "09", "address": "2194 KIPLING AVENUE", "city": "ETOBICOKE", "province": "ON", "country": "CA", "postalCode": "M9W4K9", "twitter": "None", "instagram": "None", "facebook": "None", "youtube": "None", "website": "None", "summary": "None", "logo": "None"}, "132410671RR0468": {"name": "THE SOCIETY OF SAINT VINCENT DE PAUL, ST. MICHAEL'S AND ARE A CONFERENCE OF LEDUC AB", "designationCode": "C", "categoryCode": "09", "address": "5105-45A STREET", "city": "LEDUC", "province": "AB", "country": "CA", "postalCode": "T9E5X1", "twitter": "None", "instagram": "None", "facebook": "None", "youtube": "None", "website": "None", "summary": "None", "logo": "None", "latitude": 53.26619842131686, "longitude": -113.54300933657512}, "132410671RR0463": {"name": "THE SOCIETY OF SAINT VINCENT DE PAUL, ST. RAPHAEL OF HAMILTON ON", "designationCode": "C", "categoryCode": "09", "address": "4072 NEW STREET", "city": "BURLINGTON", "province": "ON", "country": "CA", "postalCode": "L7L1S9", "twitter": "None", "instagram": "None", "facebook": "None", "youtube": "None", "website": "None", "summary": "None", "logo": "None", "latitude": 43.35508094139909, "longitude": -79.76699296981982}, "132410671RR0469": {"name": "THE SOCIETY OF SAINT VINCENT DE PAUL, ST. THERESA'S CONFERENCE OF Edmonton Alberta", "designationCode": "C", "categoryCode": "09", "address": "7508 - 29 AVE. N.W.", "city": "EDMONTON", "province": "AB", "country": "CA", "postalCode": "T6K3Y8", "twitter": "None", "instagram": "None", "facebook": "None", "youtube": "None", "website": "None", "summary": "None", "logo": "None", "latitude": 53.46011348658289, "longitude": -113.4459428366611}, "132410671RR0451": {"name": "THE SOCIETY OF SAINT VINCENT DE PAUL, THE EPIPHANY OF OUR LORD CONFERENCE IN TORONTO, ON", "designationCode": "C", "categoryCode": "09", "address": "3200 PHARMACY AVENUE", "city": "SCARBOROUGH", "province": "ON", "country": "CA", "postalCode": "M1W3J5", "twitter": "None", "instagram": "None", "facebook": "None", "youtube": "None", "website": "None", "summary": "None", "logo": "None", "latitude": 43.80034520009818, "longitude": -79.32903608609804}, "132410671RR0483": {"name": "THE SOCIETY OF SAINT VINCENT DE PAUL'S, SAINT JOSEPHINE BAKHITA CONFERENCE, IN REGINA SK", "designationCode": "C", "categoryCode": "09", "address": "2104 GARNET STREET", "city": "REGINA", "province": "SK", "country": "CA", "postalCode": "S4T6Y5", "twitter": "None", "instagram": "None", "facebook": "None", "youtube": "None", "website": "None", "summary": "None", "logo": "None", "latitude": 50.44543496672795, "longitude": -104.62689023176368}, "132410671RR0482": {"name": "THE SOCIETY OF SAINT VINCENT DE PAUL'S, ST. CHARLES OF EDMONTON AB", "designationCode": "C", "categoryCode": "09", "address": "17511 - 112 STREET", "city": "EDMONTON", "province": "AB", "country": "CA", "postalCode": "T5X5Z2", "twitter": "None", "instagram": "None", "facebook": "None", "youtube": "None", "website": "None", "summary": "None", "logo": "None", "latitude": 53.63880263336026, "longitude": -113.51647669957953}, "132410671RR0417": {"name": "THE SOCIETY OF SAINT-VINCENT DE PAUL - ST. JUSTIN MARTYR CONFERENCE", "designationCode": "C", "categoryCode": "09", "address": "3898 HIGHWAY #7", "city": "UNIONVILLE", "province": "ON", "country": "CA", "postalCode": "L3R1L3", "twitter": "None", "instagram": "None", "facebook": "None", "youtube": "None", "website": "None", "summary": "None", "logo": "None", "latitude": 43.85710719069062, "longitude": -79.32841631740622}}