{"131788184RR0001": {"name": "REDEEMER EVANGELICAL LUTHERAN CHURCH,", "designationCode": "C", "categoryCode": "32", "address": "1 FRANK PLACE", "city": "LONDON", "province": "ON", "country": "CA", "postalCode": "N6C1W1", "twitter": "None", "instagram": "None", "facebook": "None", "youtube": "None", "website": "None", "summary": "None", "logo": "None", "latitude": 42.96898264749852, "longitude": -81.23589217176433}, "107879264RR0001": {"name": "REDEEMER LUTHERAN CHURCH", "designationCode": "C", "categoryCode": "32", "address": "375 CLARK BLVD", "city": "BRAMPTON", "province": "ON", "country": "CA", "postalCode": "L6T2E2", "twitter": "None", "instagram": "None", "facebook": "None", "youtube": "None", "website": "None", "summary": "None", "logo": "None", "latitude": 43.71956257475934, "longitude": -79.71153257501913}, "107879280RR0001": {"name": "REDEEMER LUTHERAN CHURCH", "designationCode": "C", "categoryCode": "32", "address": "PO BOX 567", "city": "HAGERSVILLE", "province": "ON", "country": "CA", "postalCode": "N0A1H0", "twitter": "None", "instagram": "None", "facebook": "None", "youtube": "None", "website": "None", "summary": "None", "logo": "None", "latitude": 42.96624567435869, "longitude": -80.04526476987148}, "107879314RR0001": {"name": "REDEEMER LUTHERAN CHURCH", "designationCode": "C", "categoryCode": "32", "address": "271 ELM STREET", "city": "ST-THOMAS", "province": "ON", "country": "CA", "postalCode": "N5R5C5", "twitter": "None", "instagram": "None", "facebook": "None", "youtube": "None", "website": "None", "summary": "None", "logo": "None", "latitude": 42.76408816451527, "longitude": -81.17735266451527}, "107879355RR0001": {"name": "REDEEMER LUTHERAN CHURCH", "designationCode": "C", "categoryCode": "32", "address": "PO BOX 179", "city": "KAKABEKA FALLS", "province": "ON", "country": "CA", "postalCode": "P0T1W0", "twitter": "None", "instagram": "None", "facebook": "None", "youtube": "None", "website": "None", "summary": "None", "logo": "None", "latitude": 48.40169000000003, "longitude": -89.61458999999996}, "107879520RR0001": {"name": "REDEEMER LUTHERAN CHURCH", "designationCode": "C", "categoryCode": "32", "address": "1474 NALABILA BLVD", "city": "KITIMAT", "province": "BC", "country": "CA", "postalCode": "V8C1E5", "twitter": "None", "instagram": "None", "facebook": "None", "youtube": "None", "website": "None", "summary": "None", "logo": "None", "latitude": 54.06076360785371, "longitude": -128.62899014819104}, "107879546RR0001": {"name": "REDEEMER LUTHERAN CHURCH", "designationCode": "C", "categoryCode": "32", "address": "812 PRESTON AVE", "city": "SASKATOON", "province": "SK", "country": "CA", "postalCode": "S7H2V2", "twitter": "None", "instagram": "None", "facebook": "None", "youtube": "None", "website": "None", "summary": "None", "logo": "None", "latitude": 52.117164, "longitude": -106.62282520944635}, "119112753RR0001": {"name": "REDEEMER LUTHERAN CHURCH", "designationCode": "C", "categoryCode": "32", "address": "207 SELBY ST.", "city": "MONKTON", "province": "ON", "country": "CA", "postalCode": "N0K1P0", "twitter": "None", "instagram": "None", "facebook": "None", "youtube": "None", "website": "None", "summary": "None", "logo": "None", "latitude": 43.58897499108647, "longitude": -81.0826821740658}, "119112787RR0001": {"name": "REDEEMER LUTHERAN CHURCH", "designationCode": "C", "categoryCode": "32", "address": "429 INDIAN RD N", "city": "SARNIA", "province": "ON", "country": "CA", "postalCode": "N7T7G3", "twitter": "None", "instagram": "None", "facebook": "None", "youtube": "None", "website": "None", "summary": "None", "logo": "None", "latitude": 42.971746474569535, "longitude": -82.37615197281755}, "119112803RR0001": {"name": "REDEEMER LUTHERAN CHURCH", "designationCode": "C", "categoryCode": "32", "address": "725 FERGUSON ST", "city": "NORTH BAY", "province": "ON", "country": "CA", "postalCode": "P1B1X8", "twitter": "None", "instagram": "None", "facebook": "None", "youtube": "None", "website": "None", "summary": "None", "logo": "None", "latitude": 46.312506807923235, "longitude": -79.45917880570154}, "119112811RR0001": {"name": "REDEEMER LUTHERAN CHURCH", "designationCode": "C", "categoryCode": "32", "address": "P.O. BOX 2188 STN . A", "city": "SUDBURY", "province": "ON", "country": "CA", "postalCode": "P3A4S1", "twitter": "None", "instagram": "None", "facebook": "None", "youtube": "None", "website": "None", "summary": "None", "logo": "None", "latitude": 46.48958700000006, "longitude": -80.99011249999994}, "119112829RR0001": {"name": "REDEEMER LUTHERAN CHURCH", "designationCode": "C", "categoryCode": "32", "address": "P.O. BOX 277", "city": "WHITEMOUTH", "province": "MB", "country": "CA", "postalCode": "R0E2G0", "twitter": "None", "instagram": "None", "facebook": "None", "youtube": "None", "website": "None", "summary": "None", "logo": "None", "latitude": 49.95072450000001, "longitude": -95.9638005}, "119112878RR0001": {"name": "REDEEMER LUTHERAN CHURCH", "designationCode": "C", "categoryCode": "32", "address": "PO 668", "city": "THE PAS", "province": "MB", "country": "CA", "postalCode": "R9A1K7", "twitter": "None", "instagram": "None", "facebook": "None", "youtube": "None", "website": "None", "summary": "None", "logo": "None", "latitude": 53.81342700000006, "longitude": -101.25038149999993}, "119112936RR0001": {"name": "REDEEMER LUTHERAN CHURCH", "designationCode": "C", "categoryCode": "32", "address": "BOX 746", "city": "HANNA", "province": "AB", "country": "CA", "postalCode": "T0J1P0", "twitter": "None", "instagram": "None", "facebook": "None", "youtube": "None", "website": "None", "summary": "None", "logo": "None", "latitude": 51.64780345530559, "longitude": -111.93814762829588}, "119112969RR0001": {"name": "REDEEMER LUTHERAN CHURCH", "designationCode": "C", "categoryCode": "32", "address": "BOX 479", "city": "CRESTON", "province": "BC", "country": "CA", "postalCode": "V0B1G0", "twitter": "None", "instagram": "None", "facebook": "None", "youtube": "None", "website": "None", "summary": "None", "logo": "None", "latitude": 49.738704000000055, "longitude": -115.87167349999993}, "119112977RR0001": {"name": "REDEEMER LUTHERAN CHURCH", "designationCode": "C", "categoryCode": "32", "address": "1499 LAURIER AVE", "city": "VANCOUVER", "province": "BC", "country": "CA", "postalCode": "V6H1Z2", "twitter": "None", "instagram": "None", "facebook": "None", "youtube": "None", "website": "None", "summary": "None", "logo": "None", "latitude": 49.250865497114475, "longitude": -123.13823366472387}, "119112985RR0001": {"name": "REDEEMER LUTHERAN CHURCH", "designationCode": "C", "categoryCode": "32", "address": "6574 ARRANWOOD DR", "city": "SOOKE", "province": "BC", "country": "CA", "postalCode": "V9Z0W4", "twitter": "None", "instagram": "None", "facebook": "None", "youtube": "None", "website": "None", "summary": "None", "logo": "None", "latitude": 48.38833060228513, "longitude": -123.72204609758192}, "129926473RR0001": {"name": "REDEEMER LUTHERAN CHURCH", "designationCode": "C", "categoryCode": "32", "address": "BOX 487", "city": "DIDSBURY", "province": "AB", "country": "CA", "postalCode": "T0M0W0", "twitter": "None", "instagram": "None", "facebook": "None", "youtube": "None", "website": "None", "summary": "None", "logo": "None", "latitude": 51.666270000000054, "longitude": -114.13792999999998}, "131894800RR0001": {"name": "REDEEMER LUTHERAN CHURCH", "designationCode": "C", "categoryCode": "32", "address": "BOX 40", "city": "ESTERHAZY", "province": "SK", "country": "CA", "postalCode": "S0A0X0", "twitter": "None", "instagram": "None", "facebook": "None", "youtube": "None", "website": "None", "summary": "None", "logo": "None", "latitude": 50.65157000000005, "longitude": -102.05784999999997}, "129800405RR0001": {"name": "REDEEMER LUTHERAN CHURCH OF EDMONTON, ALBERTA", "designationCode": "C", "categoryCode": "32", "address": "9654-74TH AVENUE", "city": "EDMONTON", "province": "AB", "country": "CA", "postalCode": "T6E1E6", "twitter": "None", "instagram": "None", "facebook": "None", "youtube": "None", "website": "None", "summary": "None", "logo": "None", "latitude": 53.51040650432784, "longitude": -113.4792405}, "137689642RR0001": {"name": "REDEEMER LUTHERAN CHURCH OF HIGH PRAIRIE, ALBERTA", "designationCode": "C", "categoryCode": "32", "address": "5105-53 AVE                   PO BOX 2620", "city": "HIGH PRAIRIE", "province": "AB", "country": "CA", "postalCode": "T0G1E0", "twitter": "None", "instagram": "None", "facebook": "None", "youtube": "None", "website": "None", "summary": "None", "logo": "None", "latitude": 55.43276235762045, "longitude": -116.49823935762046}, "119112894RR0001": {"name": "REDEEMER LUTHERAN CHURCH OF PORCUPINE PLAIN INC.", "designationCode": "C", "categoryCode": "39", "address": "BOX 207", "city": "PORCUPINE PLAIN", "province": "SK", "country": "CA", "postalCode": "S0E1H0", "twitter": "None", "instagram": "None", "facebook": "None", "youtube": "None", "website": "None", "summary": "None", "logo": "None", "latitude": 52.59907000000004, "longitude": -103.26022999999998}, "119112704RR0001": {"name": "REDEEMER LUTHERAN CHURCH OF PRINCE ALBERT", "designationCode": "C", "categoryCode": "32", "address": "310-27TH ST WEST", "city": "PRINCE ALBERT", "province": "SK", "country": "CA", "postalCode": "S6V4S2", "twitter": "None", "instagram": "None", "facebook": "None", "youtube": "None", "website": "None", "summary": "None", "logo": "None", "latitude": 53.188656525967914, "longitude": -105.76302227699232}, "893043844RR0001": {"name": "REDEEMER LUTHERAN CHURCH OF WEST KELOWNA, B C", "designationCode": "C", "categoryCode": "32", "address": "3637 BROWN ROAD", "city": "KELOWNA", "province": "BC", "country": "CA", "postalCode": "V4T1P7", "twitter": "None", "instagram": "None", "facebook": "None", "youtube": "None", "website": "None", "summary": "None", "logo": "None", "latitude": 49.831676077990664, "longitude": -119.62814789381973}, "119112696RR0001": {"name": "REDEEMER LUTHERAN CHURCH-BIGGAR,INC.", "designationCode": "C", "categoryCode": "32", "address": "PO BOX 1232", "city": "BIGGAR", "province": "SK", "country": "CA", "postalCode": "S0K0M0", "twitter": "None", "instagram": "None", "facebook": "None", "youtube": "None", "website": "None", "summary": "None", "logo": "None", "latitude": 52.065150000000074, "longitude": -107.99375999999995}, "130331168RR0001": {"name": "REDEEMER LUTHERAN CHURCH,", "designationCode": "C", "categoryCode": "32", "address": "78 JOHN ST W", "city": "WATERLOO", "province": "ON", "country": "CA", "postalCode": "N2L1B8", "twitter": "None", "instagram": "None", "facebook": "None", "youtube": "None", "website": "None", "summary": "None", "logo": "None", "latitude": 43.455953674475126, "longitude": -80.5213621817555}, "131636102RR0001": {"name": "REDEEMER LUTHERAN CHURCH,", "designationCode": "C", "categoryCode": "32", "address": "114 ASH GROVE BLVD", "city": "BRANDON", "province": "MB", "country": "CA", "postalCode": "R7B1E1", "twitter": "None", "instagram": "None", "facebook": "None", "youtube": "None", "website": "None", "summary": "None", "logo": "None", "latitude": 49.83041658090485, "longitude": -99.97733609175354}, "132671256RR0001": {"name": "REDEEMER LUTHERAN CHURCH,", "designationCode": "C", "categoryCode": "32", "address": "20 RICHMOND CR.", "city": "STONEY CREEK", "province": "ON", "country": "CA", "postalCode": "L8E5S9", "twitter": "None", "instagram": "None", "facebook": "None", "youtube": "None", "website": "None", "summary": "None", "logo": "None", "latitude": 43.220678565064496, "longitude": -79.64140100805008}, "882770373RR0001": {"name": "REDEEMER LUTHERAN CHURCH,", "designationCode": "C", "categoryCode": "32", "address": "20 12TH ST NW", "city": "PORTAGE LA PRAIRIE", "province": "MB", "country": "CA", "postalCode": "R1N2S6", "twitter": "None", "instagram": "None", "facebook": "None", "youtube": "None", "website": "None", "summary": "None", "logo": "None", "latitude": 49.97347494599254, "longitude": -98.30613130368452}, "107445124RR0001": {"name": "REDEEMER REFORMATION CHURCH OF REGINA INC.", "designationCode": "C", "categoryCode": "37", "address": "3717 HILL AVE", "city": "REGINA", "province": "SK", "country": "CA", "postalCode": "S4S0X4", "twitter": "None", "instagram": "None", "facebook": "None", "youtube": "None", "website": "None", "summary": "None", "logo": "None", "latitude": 50.426380710485546, "longitude": -104.6349979958164}, "123313660RR0001": {"name": "REDEEMER UNIVERSITY COLLEGE", "designationCode": "C", "categoryCode": "20", "address": "777 GARNER RD EAST", "city": "ANCASTER", "province": "ON", "country": "CA", "postalCode": "L9K1J4", "twitter": "None", "instagram": "None", "facebook": "None", "youtube": "None", "website": "None", "summary": "None", "logo": "None", "latitude": 43.20723234058491, "longitude": -79.9487968297362}, "854259520RR0001": {"name": "REDEEMER'S LOVE MINISTRIES", "designationCode": "C", "categoryCode": "39", "address": "12 DOMINY DR", "city": "AJAX", "province": "ON", "country": "CA", "postalCode": "L1T3H7", "twitter": "None", "instagram": "None", "facebook": "None", "youtube": "None", "website": "None", "summary": "None", "logo": "None", "latitude": 43.868062488199016, "longitude": -79.03097388415352}, "888184215RR0001": {"name": "REDEMPTION APOSTOLIC PENTECOSTAL TEMPLE INC.", "designationCode": "C", "categoryCode": "39", "address": "306 REXDALE BLVD.,            UNIT 12", "city": "TORONTO", "province": "ON", "country": "CA", "postalCode": "M9W1R6", "twitter": "None", "instagram": "None", "facebook": "None", "youtube": "None", "website": "None", "summary": "None", "logo": "None", "latitude": 43.71438907527802, "longitude": -79.58342459253294}, "863156816RR0001": {"name": "REDEMPTION MINISTRIES INC. - LES MINISTERES REDEMPTION INC.", "designationCode": "C", "categoryCode": "39", "address": "579 - 581 RUE CHARON", "city": "MONTREAL", "province": "QC", "country": "CA", "postalCode": "H4K2P4", "twitter": "None", "instagram": "None", "facebook": "None", "youtube": "None", "website": "None", "summary": "None", "logo": "None", "latitude": 45.47923649321934, "longitude": -73.55809341618097}, "107833394RR0084": {"name": "REDEMPTION PENTECOSTAL CHURCH", "designationCode": "C", "categoryCode": "36", "address": "P.O. BOX 40", "city": "PORT ANSON", "province": "NL", "country": "CA", "postalCode": "A0J1N0", "twitter": "None", "instagram": "None", "facebook": "None", "youtube": "None", "website": "None", "summary": "None", "logo": "None", "latitude": 49.53640499999999, "longitude": -55.80836324999999}, "895683274RR0001": {"name": "REDEMPTION PRISON MINISTRY", "designationCode": "C", "categoryCode": "47", "address": "BOX 696 HESPELER RD", "city": "CAMBRIDGE", "province": "ON", "country": "CA", "postalCode": "N1R5W6", "twitter": "None", "instagram": "None", "facebook": "None", "youtube": "None", "website": "None", "summary": "None", "logo": "None", "latitude": 43.40881948127995, "longitude": -80.32851181123202}, "890755929RR0001": {"name": "REDEMPTORIS MATER MISSIONARY SEMINARY, ARCHDIOCESE OF TORONTO", "designationCode": "C", "categoryCode": "46", "address": "2661 KINGSTON RD", "city": "SCARBOROUGH", "province": "ON", "country": "CA", "postalCode": "M1M1M3", "twitter": "None", "instagram": "None", "facebook": "None", "youtube": "None", "website": "None", "summary": "None", "logo": "None", "latitude": 43.71557727563129, "longitude": -79.24317754791616}, "119113009RR0001": {"name": "REDEMPTORIST CENTRE FOR GROWTH SOCIETY", "designationCode": "C", "categoryCode": "49", "address": "9810-165 ST", "city": "EDMONTON", "province": "AB", "country": "CA", "postalCode": "T5P3S7", "twitter": "None", "instagram": "None", "facebook": "None", "youtube": "None", "website": "None", "summary": "None", "logo": "None", "latitude": 53.536600413079675, "longitude": -113.60599843836088}, "119113033RR0001": {"name": "REDEMPTORIST FATHERS PROVINCE OF EDMONTON CONGREGATION OF THE MOST HOLY REDEEMER", "designationCode": "C", "categoryCode": "46", "address": "426 ST GERMAIN AVE", "city": "TORONTO", "province": "ON", "country": "CA", "postalCode": "M5M1W7", "twitter": "None", "instagram": "None", "facebook": "None", "youtube": "None", "website": "None", "summary": "None", "logo": "None", "latitude": 43.729033241762245, "longitude": -79.41766567513989}, "130726268RR0001": {"name": "REDEMPTORISTINE NUNS", "designationCode": "C", "categoryCode": "46", "address": "120B MARKET ST", "city": "BRANTFORD", "province": "ON", "country": "CA", "postalCode": "N3T3A1", "twitter": "None", "instagram": "None", "facebook": "None", "youtube": "None", "website": "None", "summary": "None", "logo": "None", "latitude": 43.14232236556222, "longitude": -80.26403481952842}, "119113074RR0001": {"name": "REDISCOVERY-CHRISTIAN EXPERIENCE TO ALLEVIATE MARRIAGE BREAKDOWN", "designationCode": "C", "categoryCode": "09", "address": "45 KINGSBRIDGE GARDEN CIR     APT 2911", "city": "MISSISSAUGA", "province": "ON", "country": "CA", "postalCode": "L5R3K4", "twitter": "None", "instagram": "None", "facebook": "None", "youtube": "None", "website": "None", "summary": "None", "logo": "None", "latitude": 43.60284528786914, "longitude": -79.65021514366812}, "119288918RR0725": {"name": "REDLANDS CONGREGATION OF JEHOVAH'S WITNESSES", "designationCode": "C", "categoryCode": "61", "address": "2240 NARAMATA RD", "city": "NARAMATA", "province": "BC", "country": "CA", "postalCode": "V0H1N1", "twitter": "None", "instagram": "None", "facebook": "None", "youtube": "None", "website": "None", "summary": "None", "logo": "None", "latitude": 49.564361063563936, "longitude": -119.57598142711659}, "119113157RR0001": {"name": "REDNERSVILLE PASTORAL CHARGE", "designationCode": "C", "categoryCode": "44", "address": "2681 COUNTY ROAD 3", "city": "CARRYING PLACE", "province": "ON", "country": "CA", "postalCode": "K0K1L0", "twitter": "None", "instagram": "None", "facebook": "None", "youtube": "None", "website": "None", "summary": "None", "logo": "None", "latitude": 44.082452712627095, "longitude": -77.52095436040327}, "898877196RR0001": {"name": "REDPOLL FOUNDATION", "designationCode": "B", "categoryCode": "03", "address": "188 MCINTYRE STREET EAST", "city": "NORTH BAY", "province": "ON", "country": "CA", "postalCode": "P1B1C4", "twitter": "None", "instagram": "None", "facebook": "None", "youtube": "None", "website": "None", "summary": "None", "logo": "None", "latitude": 46.30960832767732, "longitude": -79.4617072672453}, "894770635RR0001": {"name": "REDVERS & DISTRICT COMMUNITY HEALTH FOUNDATION INC.", "designationCode": "A", "categoryCode": "13", "address": "PO BOX 766", "city": "REDVERS", "province": "SK", "country": "CA", "postalCode": "S0C2H0", "twitter": "None", "instagram": "None", "facebook": "None", "youtube": "None", "website": "None", "summary": "None", "logo": "None", "latitude": 49.573392000000055, "longitude": -101.69623249999994}, "896336781RR0001": {"name": "REDVERS ACTIVITY CENTRE FOUNDATION INC.", "designationCode": "A", "categoryCode": "13", "address": "BOX 418", "city": "REDVERS", "province": "SK", "country": "CA", "postalCode": "S0C2H0", "twitter": "None", "instagram": "None", "facebook": "None", "youtube": "None", "website": "None", "summary": "None", "logo": "None", "latitude": 49.573392000000055, "longitude": -101.69623249999994}, "132174046RR0001": {"name": "REDVERS ACTIVITY CENTRE INC", "designationCode": "C", "categoryCode": "11", "address": "PO BOX 418", "city": "REDVERS", "province": "SK", "country": "CA", "postalCode": "S0C2H0", "twitter": "None", "instagram": "None", "facebook": "None", "youtube": "None", "website": "None", "summary": "None", "logo": "None", "latitude": 49.573392000000055, "longitude": -101.69623249999994}, "119113223RR0001": {"name": "REDVERS AND DISTRICT COMMUNITY CENTRE AND ARTS COUNCIL INC.", "designationCode": "C", "categoryCode": "22", "address": "9 WARREN STREET BOX 727", "city": "REDVERS", "province": "SK", "country": "CA", "postalCode": "S0C2H0", "twitter": "None", "instagram": "None", "facebook": "None", "youtube": "None", "website": "None", "summary": "None", "logo": "None", "latitude": 49.57160119573102, "longitude": -101.7006517589626}, "897311122RR0001": {"name": "REDVERS EARLY LEARNING & CHILD CARE CENTRES INC.", "designationCode": "C", "categoryCode": "01", "address": "30 SOURIS ST.", "city": "REDVERS", "province": "SK", "country": "CA", "postalCode": "S0C2H0", "twitter": "None", "instagram": "None", "facebook": "None", "youtube": "None", "website": "None", "summary": "None", "logo": "None", "latitude": 49.17460224433743, "longitude": -101.4519027135951}, "865860605RR0001": {"name": "REDVERS GATEWAY PENTECOSTAL CHURCH", "designationCode": "C", "categoryCode": "36", "address": "BOX 358", "city": "CARLYLE", "province": "SK", "country": "CA", "postalCode": "S0C0R0", "twitter": "None", "instagram": "None", "facebook": "None", "youtube": "None", "website": "None", "summary": "None", "logo": "None", "latitude": 49.628016, "longitude": -102.26315694795335}, "107880288RR0001": {"name": "REDWATER ALLIANCE CHURCH", "designationCode": "C", "categoryCode": "39", "address": "BOX 543", "city": "REDWATER", "province": "AB", "country": "CA", "postalCode": "T0A2W0", "twitter": "None", "instagram": "None", "facebook": "None", "youtube": "None", "website": "None", "summary": "None", "logo": "None", "latitude": 53.94921000000005, "longitude": -113.10568999999998}, "119113298RR0001": {"name": "REDWATER AND DISTRICT MUSEUM", "designationCode": "C", "categoryCode": "50", "address": "PO BOX 355", "city": "REDWATER", "province": "AB", "country": "CA", "postalCode": "T0A2W0", "twitter": "None", "instagram": "None", "facebook": "None", "youtube": "None", "website": "None", "summary": "None", "logo": "None", "latitude": 53.94921000000005, "longitude": -113.10568999999998}, "886534395RR0001": {"name": "REDWATER FELLOWSHIP OF CHURCHES FOODBANK", "designationCode": "C", "categoryCode": "09", "address": "PO BOX 582", "city": "REDWATER", "province": "AB", "country": "CA", "postalCode": "T0A2W0", "twitter": "None", "instagram": "None", "facebook": "None", "youtube": "None", "website": "None", "summary": "None", "logo": "None", "latitude": 53.94921000000005, "longitude": -113.10568999999998}, "891424046RR0001": {"name": "REDWATER HEALTH CENTRE AUXILIARY ASSOCIATION", "designationCode": "C", "categoryCode": "19", "address": "P.O. BOX 270", "city": "REDWATER", "province": "AB", "country": "CA", "postalCode": "T0A2W0", "twitter": "None", "instagram": "None", "facebook": "None", "youtube": "None", "website": "None", "summary": "None", "logo": "None", "latitude": 53.94921000000005, "longitude": -113.10568999999998}, "847616745RR0001": {"name": "REDWOOD MEADOWS FIREFIGHTERS' ASSOCIATION", "designationCode": "C", "categoryCode": "59", "address": "1 MANYHORSES DRIVE", "city": "REDWOOD MEADOWS", "province": "AB", "country": "CA", "postalCode": "T3Z1A4", "twitter": "None", "instagram": "None", "facebook": "None", "youtube": "None", "website": "None", "summary": "None", "logo": "None", "latitude": 50.98805565901167, "longitude": -114.50288457542159}, "119222818RR0001": {"name": "REDWOOD PARK CHURCH", "designationCode": "C", "categoryCode": "39", "address": "2609 REDWOOD AVE", "city": "THUNDER BAY", "province": "ON", "country": "CA", "postalCode": "P7C1Y9", "twitter": "None", "instagram": "None", "facebook": "None", "youtube": "None", "website": "None", "summary": "None", "logo": "None", "latitude": 48.39287064175613, "longitude": -89.27450268131498}, "850892365RR0001": {"name": "REEL CANADA", "designationCode": "C", "categoryCode": "22", "address": "504 - 720 BATHURST ST", "city": "TORONTO", "province": "ON", "country": "CA", "postalCode": "M5S2R4", "twitter": "None", "instagram": "None", "facebook": "None", "youtube": "None", "website": "None", "summary": "None", "logo": "None", "latitude": 43.66323143574358, "longitude": -79.41047606191914}, "880418702RR0001": {"name": "REEL TO REAL: A CELEBRATION OF MOVING IMAGES FOR YOUTH SOCIETY", "designationCode": "C", "categoryCode": "22", "address": "3782 24TH AVE W", "city": "VANCOUVER", "province": "BC", "country": "CA", "postalCode": "V6S1L6", "twitter": "None", "instagram": "None", "facebook": "None", "youtube": "None", "website": "None", "summary": "None", "logo": "None", "latitude": 49.251051546742616, "longitude": -123.18772444463039}, "858648371RR0001": {"name": "REELOUT ARTS PROJECT INC.", "designationCode": "C", "categoryCode": "22", "address": "82 SYDENHAM ST", "city": "KINGSTON", "province": "ON", "country": "CA", "postalCode": "K7L3H4", "twitter": "None", "instagram": "None", "facebook": "None", "youtube": "None", "website": "None", "summary": "None", "logo": "None", "latitude": 44.23000006089627, "longitude": -76.48791174431742}, "873045611RR0001": {"name": "REELWORLD FOUNDATION", "designationCode": "C", "categoryCode": "03", "address": "200 - 50 CARROLL ST", "city": "TORONTO", "province": "ON", "country": "CA", "postalCode": "M4M3G3", "twitter": "None", "instagram": "None", "facebook": "None", "youtube": "None", "website": "None", "summary": "None", "logo": "None", "latitude": 43.66032515875126, "longitude": -79.35336533599727}, "108093642RR0001": {"name": "REENA", "designationCode": "C", "categoryCode": "01", "address": "927 CLARK AVENUE WEST", "city": "THORNHILL", "province": "ON", "country": "CA", "postalCode": "L4J8G6", "twitter": "None", "instagram": "None", "facebook": "None", "youtube": "None", "website": "None", "summary": "None", "logo": "None", "latitude": 43.80245980483617, "longitude": -79.45339757380705}, "897952719RR0001": {"name": "REENA FOUNDATION", "designationCode": "A", "categoryCode": "13", "address": "308-1 PROMENADE CIRCLE", "city": "THORNHILL", "province": "ON", "country": "CA", "postalCode": "L4J4P8", "twitter": "None", "instagram": "None", "facebook": "None", "youtube": "None", "website": "None", "summary": "None", "logo": "None", "latitude": 43.80919830898373, "longitude": -79.4530287868}, "825705908RR0001": {"name": "REFINER'S HOUSE OF PRAYER", "designationCode": "C", "categoryCode": "39", "address": "247 CRANBROOK ST", "city": "KITCHENER", "province": "ON", "country": "CA", "postalCode": "N2P0B5", "twitter": "None", "instagram": "None", "facebook": "None", "youtube": "None", "website": "None", "summary": "None", "logo": "None", "latitude": 43.376704743811054, "longitude": -80.43692515292288}, "893368266RR0001": {"name": "REFLECTION OF CHRIST MINISTRIES", "designationCode": "C", "categoryCode": "39", "address": "154 S. CHRISTINA STREET", "city": "SARNIA", "province": "ON", "country": "CA", "postalCode": "N7T2N1", "twitter": "None", "instagram": "None", "facebook": "None", "youtube": "None", "website": "None", "summary": "None", "logo": "None", "latitude": 42.96910577924036, "longitude": -82.40832168229478}, "862991064RR0001": {"name": "REFLECTIONS - SOCIETY FOR EMPOWERING PEOPLE TO SUCCEED", "designationCode": "C", "categoryCode": "11", "address": "P.O. BOX 7790", "city": "EDSON", "province": "AB", "country": "CA", "postalCode": "T7E1V8", "twitter": "None", "instagram": "None", "facebook": "None", "youtube": "None", "website": "None", "summary": "None", "logo": "None", "latitude": 53.58212700000006, "longitude": -116.43412399999994}, "126084334RR0001": {"name": "REFLECTIONS ON ISLAM TV PROGRAM", "designationCode": "C", "categoryCode": "29", "address": "P.O. BOX 763 DON MILLS STATION", "city": "TORONTO", "province": "ON", "country": "CA", "postalCode": "M3C4G5", "twitter": "None", "instagram": "None", "facebook": "None", "youtube": "None", "website": "None", "summary": "None", "logo": "None", "latitude": 43.70566232484685, "longitude": -79.33386344904338}, "889609178RR0001": {"name": "REFORMATION CHRISTIAN MINISTRIES", "designationCode": "C", "categoryCode": "47", "address": "1500 GEORGIA ST W, SUITE 1250 BOX 62", "city": "VANCOUVER", "province": "BC", "country": "CA", "postalCode": "V6G2Z6", "twitter": "None", "instagram": "None", "facebook": "None", "youtube": "None", "website": "None", "summary": "None", "logo": "None", "latitude": 49.2900638104334, "longitude": -123.12989899362336}, "805082476RR0001": {"name": "REFORMATION HOUSE", "designationCode": "C", "categoryCode": "39", "address": "1961 CYPRESS AVE", "city": "QUESNEL", "province": "BC", "country": "CA", "postalCode": "V2J4B1", "twitter": "None", "instagram": "None", "facebook": "None", "youtube": "None", "website": "None", "summary": "None", "logo": "None", "latitude": 52.96154548066853, "longitude": -122.45266260935426}, "890812282RR0001": {"name": "REFORMED CONGREGATION IN NORTH AMERICA (NORWICH)", "designationCode": "C", "categoryCode": "39", "address": "2881 WINDHAM LINE RD          RR 1", "city": "NORWICH", "province": "ON", "country": "CA", "postalCode": "N0J1P0", "twitter": "None", "instagram": "None", "facebook": "None", "youtube": "None", "website": "None", "summary": "None", "logo": "None", "latitude": 42.9668214775688, "longitude": -80.53645479613198}, "860764836RR0001": {"name": "REFORMED EVANGELISTIC OUTREACH", "designationCode": "C", "categoryCode": "39", "address": "25 WESTCHESTER WAY", "city": "BRANTFORD", "province": "ON", "country": "CA", "postalCode": "N3R6T4", "twitter": "None", "instagram": "None", "facebook": "None", "youtube": "None", "website": "None", "summary": "None", "logo": "None", "latitude": 43.188187674418735, "longitude": -80.2632394911132}, "866771686RR0001": {"name": "REFORMED EXPRESSION OF WORLDWIDE MARRIAGE ENCOUNTER, IN CANADA", "designationCode": "C", "categoryCode": "49", "address": "352 QUEENSTON ST", "city": "ST CATHARINES", "province": "ON", "country": "CA", "postalCode": "L2P2X4", "twitter": "None", "instagram": "None", "facebook": "None", "youtube": "None", "website": "None", "summary": "None", "logo": "None", "latitude": 43.15878820618638, "longitude": -79.21494010840196}, "892671017RR0001": {"name": "REFORMED FAITH AND LIFE-CANADA", "designationCode": "C", "categoryCode": "47", "address": "PO BOX 27021 DUNDAS MCLAREN   115 DUNDAS STREET", "city": "CAMBRIDGE", "province": "ON", "country": "CA", "postalCode": "N1R5N6", "twitter": "None", "instagram": "None", "facebook": "None", "youtube": "None", "website": "None", "summary": "None", "logo": "None", "latitude": 43.35893934725, "longitude": -80.29456827944516}, "891316093RR0001": {"name": "REFORMED FAITH WITNESS", "designationCode": "C", "categoryCode": "47", "address": "2 AITKEN STREET", "city": "ST CATHARINES", "province": "ON", "country": "CA", "postalCode": "L2N1V8", "twitter": "None", "instagram": "None", "facebook": "None", "youtube": "None", "website": "None", "summary": "None", "logo": "None", "latitude": 43.19469073327945, "longitude": -79.23382549177703}, "890059520RR0001": {"name": "REFORMED HUNGARIAN CHURCH, ASSOCIATE REFORMED PRESBYTERIAN", "designationCode": "C", "categoryCode": "39", "address": "11 ROOSEVELT DRIVE", "city": "RICHMOND HILL", "province": "ON", "country": "CA", "postalCode": "L4C6V1", "twitter": "None", "instagram": "None", "facebook": "None", "youtube": "None", "website": "None", "summary": "None", "logo": "None", "latitude": 43.84198094030257, "longitude": -79.43266546543374}, "119113488RR0001": {"name": "REFORMED MENNONITE CHURCH", "designationCode": "C", "categoryCode": "34", "address": "1091 HUTCHINSON RD", "city": "LOWBANKS", "province": "ON", "country": "CA", "postalCode": "N0A1K0", "twitter": "None", "instagram": "None", "facebook": "None", "youtube": "None", "website": "None", "summary": "None", "logo": "None", "latitude": 42.92212557299709, "longitude": -79.51137762775816}, "890675770RR0001": {"name": "REFORMED MENNONITE CHURCH", "designationCode": "C", "categoryCode": "34", "address": "5083 PERTH RD 107             RR1", "city": "GADSHILL", "province": "ON", "country": "CA", "postalCode": "N0K1J0", "twitter": "None", "instagram": "None", "facebook": "None", "youtube": "None", "website": "None", "summary": "None", "logo": "None", "latitude": 44.43403606609927, "longitude": -76.48486313120561}, "119113538RR0001": {"name": "REFORMED PRESBYTERIAN CHURCH", "designationCode": "C", "categoryCode": "37", "address": "22265 BRODIE                  GWEN BRODIE", "city": "DALKEITH", "province": "ON", "country": "CA", "postalCode": "K0B1E0", "twitter": "None", "instagram": "None", "facebook": "None", "youtube": "None", "website": "None", "summary": "None", "logo": "None", "latitude": 45.42673000000008, "longitude": -74.53495999999996}, "107880734RR0001": {"name": "REFORMED PRESBYTERIAN CHURCH ALMONTE", "designationCode": "C", "categoryCode": "37", "address": "33 NELSON STREET", "city": "CARLETON PLACE", "province": "ON", "country": "CA", "postalCode": "K7C3X5", "twitter": "None", "instagram": "None", "facebook": "None", "youtube": "None", "website": "None", "summary": "None", "logo": "None", "latitude": 45.131486059829506, "longitude": -76.13458739835313}, "108093659RR0001": {"name": "REFORMED PRESBYTERIAN CHURCH OF OTTAWA", "designationCode": "C", "categoryCode": "39", "address": "BOX 23139", "city": "OTTAWA", "province": "ON", "country": "CA", "postalCode": "K2A4E2", "twitter": "None", "instagram": "None", "facebook": "None", "youtube": "None", "website": "None", "summary": "None", "logo": "None", "latitude": 45.42177300000006, "longitude": -75.69115999999994}, "119113546RR0001": {"name": "REFORMED UKRAINIAN NATIVE FAITH, INC.", "designationCode": "C", "categoryCode": "39", "address": "52 HEATH ST E", "city": "TORONTO", "province": "ON", "country": "CA", "postalCode": "M4T1S3", "twitter": "None", "instagram": "None", "facebook": "None", "youtube": "None", "website": "None", "summary": "None", "logo": "None", "latitude": 43.690549241762234, "longitude": -79.39223528449413}, "851113761RR0001": {"name": "REFUAH V'CHESED", "designationCode": "C", "categoryCode": "09", "address": "206 - 5655 AV DU PARC", "city": "MONTREAL", "province": "QC", "country": "CA", "postalCode": "H2V4H2", "twitter": "None", "instagram": "None", "facebook": "None", "youtube": "None", "website": "None", "summary": "None", "logo": "None", "latitude": 45.52295926868244, "longitude": -73.60387142518334}, "891563249RR0001": {"name": "REFUAH YESHUAH OF/DE CANADA INC", "designationCode": "C", "categoryCode": "39", "address": "11 BETH HALEVY", "city": "BOISBRIAND", "province": "QC", "country": "CA", "postalCode": "J7E4H4", "twitter": "None", "instagram": "None", "facebook": "None", "youtube": "None", "website": "None", "summary": "None", "logo": "None", "latitude": 45.61404744240869, "longitude": -73.87133537246811}, "857746648RR0001": {"name": "REFUGE CITY PENTECOSTAL CHURCH", "designationCode": "C", "categoryCode": "39", "address": "10 FULLER ROAD", "city": "AJAX", "province": "ON", "country": "CA", "postalCode": "L1S3R2", "twitter": "None", "instagram": "None", "facebook": "None", "youtube": "None", "website": "None", "summary": "None", "logo": "None", "latitude": 43.83792636271594, "longitude": -79.034032983236}, "833265077RR0001": {"name": "REFUGE DELIVERANCE MINISTRIES INTERNATIONAL INC.", "designationCode": "C", "categoryCode": "39", "address": "51 THE CHIMNEYSTACK ROAD      UNIT 27", "city": "NORTH YORK", "province": "ON", "country": "CA", "postalCode": "M3J3L9", "twitter": "None", "instagram": "None", "facebook": "None", "youtube": "None", "website": "None", "summary": "None", "logo": "None", "latitude": 43.77661783816167, "longitude": -79.49921744281271}, "128972015RR0001": {"name": "REFUGE DES JEUNES DE MONTREAL", "designationCode": "C", "categoryCode": "01", "address": "1836, RUE STE-CATHERINE EST", "city": "MONTR\u00c9AL", "province": "QC", "country": "CA", "postalCode": "H2K2H3", "twitter": "None", "instagram": "None", "facebook": "None", "youtube": "None", "website": "None", "summary": "None", "logo": "None", "latitude": 45.523043235905185, "longitude": -73.55191006714195}, "104448246RR0001": {"name": "REFUGE JEUNESSE MALARTIC INC.", "designationCode": "C", "categoryCode": "09", "address": "530 RUE L\u00c9VIS", "city": "MALARTIC", "province": "QC", "country": "CA", "postalCode": "J0Y1Z0", "twitter": "None", "instagram": "None", "facebook": "None", "youtube": "None", "website": "None", "summary": "None", "logo": "None", "latitude": 48.13828851788918, "longitude": -78.12907469138428}, "873837017RR0001": {"name": "REFUGE MINISTRIES CANADA", "designationCode": "C", "categoryCode": "47", "address": "512 GREY STREET", "city": "LONDON", "province": "ON", "country": "CA", "postalCode": "N6B1H5", "twitter": "None", "instagram": "None", "facebook": "None", "youtube": "None", "website": "None", "summary": "None", "logo": "None", "latitude": 42.98055392091282, "longitude": -81.23172152207277}, "897823720RR0001": {"name": "REFUGE POUR CHATS (VERDUN)/REFUGE FOR CATS (VERDUN)", "designationCode": "C", "categoryCode": "54", "address": "SUCCURSALE POSTALE JEAN COUTU C.P. 28536", "city": "VERDUN", "province": "QC", "country": "CA", "postalCode": "H4G3L7", "twitter": "None", "instagram": "None", "facebook": "None", "youtube": "None", "website": "None", "summary": "None", "logo": "None", "latitude": 45.45814005107052, "longitude": -73.57185000057689}, "108201294RR0001": {"name": "REFUGE POUR LES FEMMES DE L'OUEST DE L'ILE/WEST ISLAND WOMEN'S SHELTER", "designationCode": "C", "categoryCode": "09", "address": "C.P.217", "city": "KIRKLAND", "province": "QC", "country": "CA", "postalCode": "H9H0A3", "twitter": "None", "instagram": "None", "facebook": "None", "youtube": "None", "website": "None", "summary": "None", "logo": "None", "latitude": 45.44932200000005, "longitude": -73.85611399999993}, "890440068RR0001": {"name": "REFUGE RR POUR CHEVAUX", "designationCode": "C", "categoryCode": "54", "address": "21305 CONCESSION 10           RR#2", "city": "ALEXANDRIA", "province": "ON", "country": "CA", "postalCode": "K0C1A0", "twitter": "None", "instagram": "None", "facebook": "None", "youtube": "None", "website": "None", "summary": "None", "logo": "None", "latitude": 45.3199087994758, "longitude": -74.5401556689927}, "891128993RR0001": {"name": "REFUGE TABERNACLE CHURCH OF JESUS CHRIST (APOSTOLIC FAITH)", "designationCode": "C", "categoryCode": "39", "address": "76 SAM FRUSTAGLIO DRIVE", "city": "TORONTO", "province": "ON", "country": "CA", "postalCode": "M9N3Y7", "twitter": "None", "instagram": "None", "facebook": "None", "youtube": "None", "website": "None", "summary": "None", "logo": "None", "latitude": 43.69870630362408, "longitude": -79.50798656815157}, "888645066RR0001": {"name": "REFUGE TEMPLE APOSTOLIC CHURCH", "designationCode": "C", "categoryCode": "39", "address": "3140 PARSONS RD NW", "city": "EDMONTON", "province": "AB", "country": "CA", "postalCode": "T6N1L6", "twitter": "None", "instagram": "None", "facebook": "None", "youtube": "None", "website": "None", "summary": "None", "logo": "None", "latitude": 53.463573, "longitude": -113.48617014547837}, "892974361RR0001": {"name": "REFUGE TEMPLE CHURCH OF THE FIRST BORN (APOSTOLIC) OF ONTARIO", "designationCode": "C", "categoryCode": "39", "address": "76 BRYDON DRIVE", "city": "TORONTO", "province": "ON", "country": "CA", "postalCode": "M9W4N6", "twitter": "None", "instagram": "None", "facebook": "None", "youtube": "None", "website": "None", "summary": "None", "logo": "None", "latitude": 43.71974816734962, "longitude": -79.57341204945432}, "859131872RR0001": {"name": "REFUGEE AID COMMITTEE OF CHILLIWACK & YARROW", "designationCode": "C", "categoryCode": "99", "address": "46187 CHRISTINA DR", "city": "CHILLIWACK", "province": "BC", "country": "CA", "postalCode": "V2R2B6", "twitter": "None", "instagram": "None", "facebook": "None", "youtube": "None", "website": "None", "summary": "None", "logo": "None", "latitude": 49.126694280599, "longitude": -121.94689166942707}, "870595899RR0001": {"name": "REFUGEE AND IMMIGRANT ADVISORY COUNCIL INC.", "designationCode": "C", "categoryCode": "09", "address": "PO BOX 28052 RPO AVALON MALL", "city": "ST. JOHN'S", "province": "NL", "country": "CA", "postalCode": "A1B4J8", "twitter": "None", "instagram": "None", "facebook": "None", "youtube": "None", "website": "None", "summary": "None", "logo": "None", "latitude": 47.56084000000004, "longitude": -52.75374999999997}, "107880874RR0001": {"name": "REGAL ROAD BAPTIST CHURCH", "designationCode": "C", "categoryCode": "31", "address": "6 REGAL RD", "city": "DARTMOUTH", "province": "NS", "country": "CA", "postalCode": "B2W4Z7", "twitter": "None", "instagram": "None", "facebook": "None", "youtube": "None", "website": "None", "summary": "None", "logo": "None", "latitude": 44.67120884569213, "longitude": -63.50828091739306}, "129032892RR0001": {"name": "REGARD EN ELLE", "designationCode": "C", "categoryCode": "09", "address": "CP 147", "city": "REPENTIGNY", "province": "QC", "country": "CA", "postalCode": "J6A5H7", "twitter": "None", "instagram": "None", "facebook": "None", "youtube": "None", "website": "None", "summary": "None", "logo": "None", "latitude": 45.741372000000055, "longitude": -73.45104199999993}, "885139576RR0001": {"name": "REGEN COMMUNITY DEVELOPMENT FOUNDATION", "designationCode": "C", "categoryCode": "09", "address": "2238 GOLDENEYE WAY", "city": "VICTORIA", "province": "BC", "country": "CA", "postalCode": "V9B6W2", "twitter": "None", "instagram": "None", "facebook": "None", "youtube": "None", "website": "None", "summary": "None", "logo": "None", "latitude": 48.46860841326679, "longitude": -123.50642395103569}, "887702017RR0001": {"name": "REGENCY CHRISTIAN CHURCH", "designationCode": "C", "categoryCode": "39", "address": "1 51121 RANGE ROAD 271", "city": "SPRUCE GROVE", "province": "AB", "country": "CA", "postalCode": "T7Y1G7", "twitter": "None", "instagram": "None", "facebook": "None", "youtube": "None", "website": "None", "summary": "None", "logo": "None", "latitude": 53.39048834895746, "longitude": -113.86119366260037}, "119113611RR0001": {"name": "REGENCY MANOR AUXILIARY", "designationCode": "C", "categoryCode": "09", "address": "P.O. BOX 361", "city": "CENTRAL BUTTE", "province": "SK", "country": "CA", "postalCode": "S0H0T0", "twitter": "None", "instagram": "None", "facebook": "None", "youtube": "None", "website": "None", "summary": "None", "logo": "None", "latitude": 50.80006000000003, "longitude": -106.51793999999995}}