{"119093441RR0001": {"name": "PINAWA ALLIANCE CHURCH INC.", "designationCode": "C", "categoryCode": "31", "address": "BOX 8", "city": "PINAWA", "province": "MB", "country": "CA", "postalCode": "R0E1L0", "twitter": "None", "instagram": "None", "facebook": "None", "youtube": "None", "website": "None", "summary": "None", "logo": "None", "latitude": 50.310997570508235, "longitude": -95.8027417506436}, "866731789RR0001": {"name": "PINAWA CHRISTIAN FELLOWSHIP, INC.", "designationCode": "C", "categoryCode": "39", "address": "P.O. BOX 582", "city": "PINAWA", "province": "MB", "country": "CA", "postalCode": "R0E1L0", "twitter": "None", "instagram": "None", "facebook": "None", "youtube": "None", "website": "None", "summary": "None", "logo": "None", "latitude": 50.310997570508235, "longitude": -95.8027417506436}, "119093466RR0001": {"name": "PINAWA LUTHERAN CHURCH INC.", "designationCode": "C", "categoryCode": "32", "address": "BOX 235 25 MASSEY AVENUE", "city": "PINAWA", "province": "MB", "country": "CA", "postalCode": "R0E1L0", "twitter": "None", "instagram": "None", "facebook": "None", "youtube": "None", "website": "None", "summary": "None", "logo": "None", "latitude": 50.149731295144335, "longitude": -95.87442740847321}, "119093532RR0001": {"name": "PINCHER CARE BEARS SOCIETY", "designationCode": "C", "categoryCode": "11", "address": "BOX 44", "city": "PINCHER CREEK", "province": "AB", "country": "CA", "postalCode": "T0K1W0", "twitter": "None", "instagram": "None", "facebook": "None", "youtube": "None", "website": "None", "summary": "None", "logo": "None", "latitude": 49.48739000000006, "longitude": -113.9366800732874}, "887232684RR0001": {"name": "PINCHER CREEK & DISTRICT HISTORICAL SOCIETY", "designationCode": "C", "categoryCode": "50", "address": "P.O. BOX 1226", "city": "PINCHER CREEK", "province": "AB", "country": "CA", "postalCode": "T0K1W0", "twitter": "None", "instagram": "None", "facebook": "None", "youtube": "None", "website": "None", "summary": "None", "logo": "None", "latitude": 49.48739000000006, "longitude": -113.9366800732874}, "133011965RR0001": {"name": "PINCHER CREEK ALBERTA CONGREGATION OF JEHOVAH'S WITNESSES", "designationCode": "C", "categoryCode": "61", "address": "BOX 2637", "city": "PINCHER CREEK", "province": "AB", "country": "CA", "postalCode": "T0K1W0", "twitter": "None", "instagram": "None", "facebook": "None", "youtube": "None", "website": "None", "summary": "None", "logo": "None", "latitude": 49.48739000000006, "longitude": -113.9366800732874}, "893841668RR0001": {"name": "PINCHER CREEK AND DISTRICT AGRICULTURAL SOCIETY", "designationCode": "C", "categoryCode": "56", "address": "PO BOX 326", "city": "PINCHER CREEK", "province": "AB", "country": "CA", "postalCode": "T0K1W0", "twitter": "None", "instagram": "None", "facebook": "None", "youtube": "None", "website": "None", "summary": "None", "logo": "None", "latitude": 49.48739000000006, "longitude": -113.9366800732874}, "870142031RR0001": {"name": "PINCHER CREEK CHARITABLE TRUST", "designationCode": "B", "categoryCode": "39", "address": "600 - 400 4 AVE S", "city": "LETHBRIDGE", "province": "AB", "country": "CA", "postalCode": "T1J4E1", "twitter": "None", "instagram": "None", "facebook": "None", "youtube": "None", "website": "None", "summary": "None", "logo": "None", "latitude": 49.69414437897621, "longitude": -112.8416383481493}, "131044521RR0001": {"name": "PINCHER CREEK FOUNDATION (ALBERTA)", "designationCode": "C", "categoryCode": "01", "address": "PO BOX 1058", "city": "PINCHER CREEK", "province": "AB", "country": "CA", "postalCode": "T0K1W0", "twitter": "None", "instagram": "None", "facebook": "None", "youtube": "None", "website": "None", "summary": "None", "logo": "None", "latitude": 49.48739000000006, "longitude": -113.9366800732874}, "119093508RR0001": {"name": "PINCHER CREEK HANDI-BUS SOCIETY", "designationCode": "C", "categoryCode": "09", "address": "BOX 915", "city": "PINCHER CREEK", "province": "AB", "country": "CA", "postalCode": "T0K1W0", "twitter": "None", "instagram": "None", "facebook": "None", "youtube": "None", "website": "None", "summary": "None", "logo": "None", "latitude": 49.48739000000006, "longitude": -113.9366800732874}, "107845463RR0001": {"name": "PINCHER CREEK PASTORAL CHARGE", "designationCode": "C", "categoryCode": "44", "address": "PINCHER CREEK UNITED CHURCH   BOX 667", "city": "PINCHER CREEK", "province": "AB", "country": "CA", "postalCode": "T0K1W0", "twitter": "None", "instagram": "None", "facebook": "None", "youtube": "None", "website": "None", "summary": "None", "logo": "None", "latitude": 49.48817610802999, "longitude": -113.94040239057814}, "862605318RR0001": {"name": "PINCHER CREEK SEARCH AND RESCUE SOCIETY", "designationCode": "C", "categoryCode": "59", "address": "P.O. BOX 1705", "city": "PINCHER CREEK", "province": "AB", "country": "CA", "postalCode": "T0K1W0", "twitter": "None", "instagram": "None", "facebook": "None", "youtube": "None", "website": "None", "summary": "None", "logo": "None", "latitude": 49.48739000000006, "longitude": -113.9366800732874}, "139999437RR0001": {"name": "PINCHER CREEK WOMEN'S EMERGENCY SHELTER ASSOCIATION", "designationCode": "C", "categoryCode": "09", "address": "P.O. BOX 2092", "city": "PINCHER CREEK", "province": "AB", "country": "CA", "postalCode": "T0K1W0", "twitter": "None", "instagram": "None", "facebook": "None", "youtube": "None", "website": "None", "summary": "None", "logo": "None", "latitude": 49.48739000000006, "longitude": -113.9366800732874}, "119288918RR0406": {"name": "PINCOURT CONGREGATION OF JEHOVAH'S WITNESSES MONTREAL P Q", "designationCode": "C", "categoryCode": "61", "address": "2599 RUE DU MANOIR", "city": "VAUDREUIL", "province": "QC", "country": "CA", "postalCode": "J7V8W5", "twitter": "None", "instagram": "None", "facebook": "None", "youtube": "None", "website": "None", "summary": "None", "logo": "None", "latitude": 45.404270100727274, "longitude": -74.04019529626646}, "119093573RR0001": {"name": "PINE BEACH CITIZENS' ASSOCIATION", "designationCode": "C", "categoryCode": "56", "address": "1510 HERON ROAD,", "city": "DORVAL", "province": "QC", "country": "CA", "postalCode": "H9S1B7", "twitter": "None", "instagram": "None", "facebook": "None", "youtube": "None", "website": "None", "summary": "None", "logo": "None", "latitude": 45.44870050288553, "longitude": -73.76234255398464}, "890844640RR0001": {"name": "PINE CREEK COMMUNITY RESIDENCE INC", "designationCode": "C", "categoryCode": "59", "address": "PO BOX 241", "city": "AUSTIN", "province": "MB", "country": "CA", "postalCode": "R0H0C0", "twitter": "None", "instagram": "None", "facebook": "None", "youtube": "None", "website": "None", "summary": "None", "logo": "None", "latitude": 49.95037000000008, "longitude": -98.93634999999995}, "129954855RR0001": {"name": "PINE CREEK SCHOOL DIVISION", "designationCode": "C", "categoryCode": "20", "address": "BOX 420", "city": "GLADSTONE", "province": "MB", "country": "CA", "postalCode": "R0J0T0", "twitter": "None", "instagram": "None", "facebook": "None", "youtube": "None", "website": "None", "summary": "None", "logo": "None", "latitude": 50.22542000000004, "longitude": -98.95074999999997}, "891317943RR0001": {"name": "PINE FALLS & DISTRICT CHRISTMAS HAMPER FUND", "designationCode": "C", "categoryCode": "09", "address": "BOX 45", "city": "POWERVIEW", "province": "MB", "country": "CA", "postalCode": "R0E1P0", "twitter": "None", "instagram": "None", "facebook": "None", "youtube": "None", "website": "None", "summary": "None", "logo": "None", "latitude": 50.567270000000065, "longitude": -96.19834999999995}, "892912569RR0001": {"name": "PINE FALLS DISTRICT HEALTH CARE FOUNDATION INC.", "designationCode": "A", "categoryCode": "13", "address": "37 MAPLE STREET, P.O.BOX 2000", "city": "PINE FALLS", "province": "MB", "country": "CA", "postalCode": "R0E1M0", "twitter": "None", "instagram": "None", "facebook": "None", "youtube": "None", "website": "None", "summary": "None", "logo": "None", "latitude": 50.564358723356946, "longitude": -96.21777191815758}, "119093623RR0001": {"name": "PINE FALLS HEALTH AUXILIARY", "designationCode": "C", "categoryCode": "15", "address": "HOSPITAL                      BOX 2000", "city": "PINE FALLS", "province": "MB", "country": "CA", "postalCode": "R0E1M0", "twitter": "None", "instagram": "None", "facebook": "None", "youtube": "None", "website": "None", "summary": "None", "logo": "None", "latitude": 50.56314000000003, "longitude": -96.21541999999994}, "119093631RR0001": {"name": "PINE FALLS PASTORAL CHARGE", "designationCode": "C", "categoryCode": "44", "address": "BOX 597", "city": "PINE FALLS", "province": "MB", "country": "CA", "postalCode": "R0E1M0", "twitter": "None", "instagram": "None", "facebook": "None", "youtube": "None", "website": "None", "summary": "None", "logo": "None", "latitude": 50.56733000000003, "longitude": -96.21714999999995}, "130500226RR0001": {"name": "PINE GROVE BIBLE CHURCH", "designationCode": "C", "categoryCode": "47", "address": "2144 EAST ACRES ROAD", "city": "GLOUCESTER", "province": "ON", "country": "CA", "postalCode": "K1J9A5", "twitter": "None", "instagram": "None", "facebook": "None", "youtube": "None", "website": "None", "summary": "None", "logo": "None", "latitude": 45.44537799469123, "longitude": -75.58921456506447}, "122343775RR0001": {"name": "PINE GROVE CEMETERY CO", "designationCode": "C", "categoryCode": "59", "address": "BOX 967,", "city": "MIDDLETON", "province": "NS", "country": "CA", "postalCode": "B0S1P0", "twitter": "None", "instagram": "None", "facebook": "None", "youtube": "None", "website": "None", "summary": "None", "logo": "None", "latitude": 45.01449600000005, "longitude": -65.06449099999993}, "889756649RR0001": {"name": "PINE GROVE CEMETERY COMPANY", "designationCode": "C", "categoryCode": "59", "address": "2840 ALTON ROAD", "city": "EAST STEWIACKE", "province": "NS", "country": "CA", "postalCode": "B0N2J0", "twitter": "None", "instagram": "None", "facebook": "None", "youtube": "None", "website": "None", "summary": "None", "logo": "None", "latitude": 45.141186111027686, "longitude": -63.29669658058772}, "119093672RR0001": {"name": "PINE GROVE CHURCH", "designationCode": "C", "categoryCode": "44", "address": "PINE GROVE CHURCH             RR4", "city": "UXBRIDGE", "province": "ON", "country": "CA", "postalCode": "L9P1R4", "twitter": "None", "instagram": "None", "facebook": "None", "youtube": "None", "website": "None", "summary": "None", "logo": "None", "latitude": 44.11022934421258, "longitude": -79.12822140406288}, "119093680RR0001": {"name": "PINE GROVE COMMUNITY CHURCH", "designationCode": "C", "categoryCode": "39", "address": "RR #1", "city": "SEELEY'S BAY", "province": "ON", "country": "CA", "postalCode": "K0H2N0", "twitter": "None", "instagram": "None", "facebook": "None", "youtube": "None", "website": "None", "summary": "None", "logo": "None", "latitude": 44.47407000000004, "longitude": -76.23896999999994}, "881605612RR0001": {"name": "PINE GROVE COUNCIL NO. 11273 CHARITABLE WELFARE TRUST", "designationCode": "A", "categoryCode": "03", "address": "8500 ISLINGTON AVE.", "city": "WOODBRIDGE", "province": "ON", "country": "CA", "postalCode": "L4L1X4", "twitter": "None", "instagram": "None", "facebook": "None", "youtube": "None", "website": "None", "summary": "None", "logo": "None", "latitude": 43.801137021091826, "longitude": -79.5849199789655}, "119236255RR0001": {"name": "PINE GROVE FOUNDATION INC.", "designationCode": "A", "categoryCode": "03", "address": "521 WOODSTOCK ROAD", "city": "FREDERICTON", "province": "NB", "country": "CA", "postalCode": "E3B2J2", "twitter": "None", "instagram": "None", "facebook": "None", "youtube": "None", "website": "None", "summary": "None", "logo": "None", "latitude": 45.96177346378898, "longitude": -66.67139684263373}, "876462870RR0001": {"name": "PINE GROVE LODGE RESIDENTS' SOCIETY", "designationCode": "C", "categoryCode": "09", "address": "313 MCGOWAN AVE", "city": "KAMLOOPS", "province": "BC", "country": "CA", "postalCode": "V2B2N8", "twitter": "None", "instagram": "None", "facebook": "None", "youtube": "None", "website": "None", "summary": "None", "logo": "None", "latitude": 50.687670018033415, "longitude": -120.35058217098494}, "119093706RR0001": {"name": "PINE HILL CEMETERY ASSOCIATION", "designationCode": "A", "categoryCode": "59", "address": "431, CH. DES PERES", "city": "MAGOG", "province": "QC", "country": "CA", "postalCode": "J1X7Z1", "twitter": "None", "instagram": "None", "facebook": "None", "youtube": "None", "website": "None", "summary": "None", "logo": "None", "latitude": 45.27105659339832, "longitude": -72.20456712577153}, "119093714RR0001": {"name": "PINE HILL CEMETERY LTD.", "designationCode": "C", "categoryCode": "59", "address": "2631 RIVER ROAD", "city": "SALISBURY", "province": "NB", "country": "CA", "postalCode": "E4J2R1", "twitter": "None", "instagram": "None", "facebook": "None", "youtube": "None", "website": "None", "summary": "None", "logo": "None", "latitude": 46.02407200888679, "longitude": -65.03675311558666}, "891350076RR0001": {"name": "PINE HILL CHARITABLE TRUST", "designationCode": "B", "categoryCode": "39", "address": "3425 2 AVE S", "city": "LETHBRIDGE", "province": "AB", "country": "CA", "postalCode": "T1J4V1", "twitter": "None", "instagram": "None", "facebook": "None", "youtube": "None", "website": "None", "summary": "None", "logo": "None", "latitude": 49.696839530439966, "longitude": -112.78914308381903}, "119093730RR0001": {"name": "PINE HILL DIVINITY HALL", "designationCode": "C", "categoryCode": "20", "address": "660 FRANCKLYN ST", "city": "HALIFAX", "province": "NS", "country": "CA", "postalCode": "B3H3B5", "twitter": "None", "instagram": "None", "facebook": "None", "youtube": "None", "website": "None", "summary": "None", "logo": "None", "latitude": 44.62714001884148, "longitude": -63.58014373775152}, "139837413RR0001": {"name": "PINE ISLAND LODGE LTD", "designationCode": "C", "categoryCode": "01", "address": "PO BOX 363", "city": "MAIDSTONE", "province": "SK", "country": "CA", "postalCode": "S0M1M0", "twitter": "None", "instagram": "None", "facebook": "None", "youtube": "None", "website": "None", "summary": "None", "logo": "None", "latitude": 53.087690000000066, "longitude": -109.29660999999999}, "846752210RR0001": {"name": "PINE ORCHARD CAMP", "designationCode": "C", "categoryCode": "39", "address": "SUITE 241-1111 DAVIS DR       UNIT 23", "city": "NEWMARKET", "province": "ON", "country": "CA", "postalCode": "L3Y9E5", "twitter": "None", "instagram": "None", "facebook": "None", "youtube": "None", "website": "None", "summary": "None", "logo": "None", "latitude": 44.06604516573349, "longitude": -79.43088971097555}, "890402191RR0001": {"name": "PINE REST CEMETERY", "designationCode": "C", "categoryCode": "59", "address": "4791 HWY 210, RR.#1", "city": "GREENFIELD", "province": "NS", "country": "CA", "postalCode": "B0T1E0", "twitter": "None", "instagram": "None", "facebook": "None", "youtube": "None", "website": "None", "summary": "None", "logo": "None", "latitude": 44.283551380279754, "longitude": -64.83473078001471}, "891941577RR0001": {"name": "PINE RIDGE BIBLE CHAPEL", "designationCode": "C", "categoryCode": "39", "address": "7717 OLD SCUGOG RD", "city": "ENNISKILLEN", "province": "ON", "country": "CA", "postalCode": "L0B1J0", "twitter": "None", "instagram": "None", "facebook": "None", "youtube": "None", "website": "None", "summary": "None", "logo": "None", "latitude": 44.01311971186963, "longitude": -78.76880790918617}, "132465527RR0001": {"name": "PINE RIDGE FELLOWSHIP CHAPEL", "designationCode": "C", "categoryCode": "34", "address": "BOX 13", "city": "HUDSON BAY", "province": "SK", "country": "CA", "postalCode": "S0E0Y0", "twitter": "None", "instagram": "None", "facebook": "None", "youtube": "None", "website": "None", "summary": "None", "logo": "None", "latitude": 52.862685000000056, "longitude": -102.38924149999994}, "122739980RR0001": {"name": "PINE RIDGE WILDLIFE AND ENVIRONMENT FOUNDATION INC", "designationCode": "B", "categoryCode": "53", "address": "19 KILLINGTON BAY", "city": "WINNIPEG", "province": "MB", "country": "CA", "postalCode": "R2G2Y4", "twitter": "None", "instagram": "None", "facebook": "None", "youtube": "None", "website": "None", "summary": "None", "logo": "None", "latitude": 49.939393410496834, "longitude": -97.05365468454629}, "822415477RR0001": {"name": "PINE RIVER CONGREGATE MEAL PROGRAM INC.", "designationCode": "C", "categoryCode": "09", "address": "PO BOX 56                     417 2ND AVE", "city": "PINE RIVER", "province": "MB", "country": "CA", "postalCode": "R0L1M0", "twitter": "None", "instagram": "None", "facebook": "None", "youtube": "None", "website": "None", "summary": "None", "logo": "None", "latitude": 51.915837008869815, "longitude": -101.54270621866219}, "856494737RR0001": {"name": "PINE RIVER COUNTRY CHURCH", "designationCode": "C", "categoryCode": "34", "address": "BOX 242", "city": "PINE RIVER", "province": "MB", "country": "CA", "postalCode": "R0L1M0", "twitter": "None", "instagram": "None", "facebook": "None", "youtube": "None", "website": "None", "summary": "None", "logo": "None", "latitude": 51.23491200000001, "longitude": -101.35325540038455}, "118903210RR0001": {"name": "PINE RIVER EVANGELICAL CHURCH", "designationCode": "C", "categoryCode": "39", "address": "BOX 148", "city": "PINE RIVER", "province": "MB", "country": "CA", "postalCode": "R0L1M0", "twitter": "None", "instagram": "None", "facebook": "None", "youtube": "None", "website": "None", "summary": "None", "logo": "None", "latitude": 51.23491200000001, "longitude": -101.35325540038455}, "874627516RR0001": {"name": "PINE RIVER INSTITUTE", "designationCode": "C", "categoryCode": "57", "address": "2 ST CLAIR AVENUE EAST        SUITE 800", "city": "TORONTO", "province": "ON", "country": "CA", "postalCode": "M4T2T5", "twitter": "None", "instagram": "None", "facebook": "None", "youtube": "None", "website": "None", "summary": "None", "logo": "None", "latitude": 43.688418118241074, "longitude": -79.39419137881609}, "886886993RR0001": {"name": "PINE RIVER PASTORAL CHARGE,", "designationCode": "C", "categoryCode": "44", "address": "337 DURHAM ST", "city": "KINCARDINE", "province": "ON", "country": "CA", "postalCode": "N2Z2X9", "twitter": "None", "instagram": "None", "facebook": "None", "youtube": "None", "website": "None", "summary": "None", "logo": "None", "latitude": 44.17848238856828, "longitude": -81.63277955966879}, "107846065RR0001": {"name": "PINE RIVER UNITED CHURCH", "designationCode": "C", "categoryCode": "44", "address": "408 RAILWAY AVENUE            BOX 27", "city": "PINE RIVER", "province": "MB", "country": "CA", "postalCode": "R0L1M0", "twitter": "None", "instagram": "None", "facebook": "None", "youtube": "None", "website": "None", "summary": "None", "logo": "None", "latitude": 51.17664312172479, "longitude": -100.70457354640486}, "119093904RR0001": {"name": "PINE VALLEY SENIORS ASSOCIATION", "designationCode": "C", "categoryCode": "56", "address": "BOX 1362", "city": "CHETWYND", "province": "BC", "country": "CA", "postalCode": "V0C1J0", "twitter": "None", "instagram": "None", "facebook": "None", "youtube": "None", "website": "None", "summary": "None", "logo": "None", "latitude": 55.13200336111122, "longitude": -121.00608273128003}, "119093946RR0001": {"name": "PINE VIEW FREE METHODIST CHURCH", "designationCode": "C", "categoryCode": "39", "address": "BOX 175", "city": "CLOYNE", "province": "ON", "country": "CA", "postalCode": "K0H1K0", "twitter": "None", "instagram": "None", "facebook": "None", "youtube": "None", "website": "None", "summary": "None", "logo": "None", "latitude": 44.82319000000007, "longitude": -77.18713999999994}, "132945890RR0001": {"name": "PINECREST BAPTIST BIBLE CAMP", "designationCode": "C", "categoryCode": "49", "address": "606 7 ST SW", "city": "MEDICINE HAT", "province": "AB", "country": "CA", "postalCode": "T1A4K8", "twitter": "None", "instagram": "None", "facebook": "None", "youtube": "None", "website": "None", "summary": "None", "logo": "None", "latitude": 50.032466496537566, "longitude": -110.70049041618097}, "869996397RR0001": {"name": "PINECREST HOME AUXILIARY", "designationCode": "A", "categoryCode": "09", "address": "1220 VALLEY DRIVE", "city": "KENORA", "province": "ON", "country": "CA", "postalCode": "P9N2W7", "twitter": "None", "instagram": "None", "facebook": "None", "youtube": "None", "website": "None", "summary": "None", "logo": "None", "latitude": 49.779276578423335, "longitude": -94.46418079491015}, "130572407RR0001": {"name": "PINECREST-QUEENSWAY COMMUNITY HEALTH CENTRE / CENTRE DE SANT\u00c9 COMMUNAUTAIRE PINECREST-QUEENSWAY", "designationCode": "C", "categoryCode": "09", "address": "203 - 1365 RICHMOND ROAD", "city": "OTTAWA", "province": "ON", "country": "CA", "postalCode": "K2B6R7", "twitter": "None", "instagram": "None", "facebook": "None", "youtube": "None", "website": "None", "summary": "None", "logo": "None", "latitude": 45.36672750403937, "longitude": -75.78704501182965}, "840070676RR0001": {"name": "PINEDALE CEMETERY INC.", "designationCode": "C", "categoryCode": "59", "address": "S1825 CONSESSION RD 4         RR 4", "city": "SUNDERLAND", "province": "ON", "country": "CA", "postalCode": "L0C1H0", "twitter": "None", "instagram": "None", "facebook": "None", "youtube": "None", "website": "None", "summary": "None", "logo": "None", "latitude": 44.19987900000005, "longitude": -79.03574449999994}, "107845737RR0001": {"name": "PINEGROVE FELLOWSHIP BAPTIST CHURCH", "designationCode": "C", "categoryCode": "31", "address": "295 TAYLOR ROAD", "city": "BRACEBRIDGE", "province": "ON", "country": "CA", "postalCode": "P1L1K1", "twitter": "None", "instagram": "None", "facebook": "None", "youtube": "None", "website": "None", "summary": "None", "logo": "None", "latitude": 45.04910265725071, "longitude": -79.29811468044865}, "134716216RR0001": {"name": "PINEGROVE UNITED CHURCH,", "designationCode": "C", "categoryCode": "44", "address": "100 HIGHWAY 130", "city": "ROSSLYN", "province": "ON", "country": "CA", "postalCode": "P7K0B6", "twitter": "None", "instagram": "None", "facebook": "None", "youtube": "None", "website": "None", "summary": "None", "logo": "None", "latitude": 48.371778829247766, "longitude": -89.41586072765968}, "887419232RR0001": {"name": "PINEHILL CEMETERY COMMITTEE", "designationCode": "C", "categoryCode": "59", "address": "1647 HIGHWAY 312 JERSEY COVE  RR#1", "city": "ENGLISHTOWN", "province": "NS", "country": "CA", "postalCode": "B0C1H0", "twitter": "None", "instagram": "None", "facebook": "None", "youtube": "None", "website": "None", "summary": "None", "logo": "None", "latitude": 46.31151619748216, "longitude": -60.54598020197314}, "119093722RR0001": {"name": "PINEHILL CHURCH OF CHRIST", "designationCode": "C", "categoryCode": "39", "address": "366 BOUNDARY RD", "city": "SAULT STE MARIE", "province": "ON", "country": "CA", "postalCode": "P6A5C1", "twitter": "None", "instagram": "None", "facebook": "None", "youtube": "None", "website": "None", "summary": "None", "logo": "None", "latitude": 46.51321483236194, "longitude": -84.27081253938503}, "140681255RR0001": {"name": "PINEHILL UNION CEMETERY", "designationCode": "C", "categoryCode": "59", "address": "PO BOX 1337", "city": "MATTAWA", "province": "ON", "country": "CA", "postalCode": "P0H1V0", "twitter": "None", "instagram": "None", "facebook": "None", "youtube": "None", "website": "None", "summary": "None", "logo": "None", "latitude": 46.352402765527096, "longitude": -78.81283329813716}, "899941710RR0001": {"name": "PINEHOUSE CHRISTIAN FELLOWSHIP INC.", "designationCode": "C", "categoryCode": "38", "address": "BOX 310", "city": "PINEHOUSE", "province": "SK", "country": "CA", "postalCode": "S0J2B0", "twitter": "None", "instagram": "None", "facebook": "None", "youtube": "None", "website": "None", "summary": "None", "logo": "None", "latitude": 55.51597798599864, "longitude": -106.57160446315399}, "893197772RR0001": {"name": "PINEHURST COMMUNITY CEMETERY SOCIETY", "designationCode": "C", "categoryCode": "59", "address": "RR#2", "city": "NEW GERMANY", "province": "NS", "country": "CA", "postalCode": "B0R1E0", "twitter": "None", "instagram": "None", "facebook": "None", "youtube": "None", "website": "None", "summary": "None", "logo": "None", "latitude": 44.53315800000006, "longitude": -64.71399049999994}, "107845901RR0001": {"name": "PINELAND BAPTIST CHURCH", "designationCode": "C", "categoryCode": "31", "address": "5100 NEW STREET", "city": "BURLINGTON", "province": "ON", "country": "CA", "postalCode": "L7L1V1", "twitter": "None", "instagram": "None", "facebook": "None", "youtube": "None", "website": "None", "summary": "None", "logo": "None", "latitude": 43.36947102911326, "longitude": -79.75118170783115}, "118823764RR0001": {"name": "PINERIDGE CHRISTIAN FELLOWSHIP", "designationCode": "C", "categoryCode": "34", "address": "119 PINETOWN PL NE", "city": "CALGARY", "province": "AB", "country": "CA", "postalCode": "T1Y5J1", "twitter": "None", "instagram": "None", "facebook": "None", "youtube": "None", "website": "None", "summary": "None", "logo": "None", "latitude": 51.07489453621104, "longitude": -113.95412319415423}, "107846081RR0001": {"name": "PINERY BAPTIST CHURCH", "designationCode": "C", "categoryCode": "31", "address": "RR 1                          8751 LAKESHORE RD", "city": "THEDFORD", "province": "ON", "country": "CA", "postalCode": "N0M2N0", "twitter": "None", "instagram": "None", "facebook": "None", "youtube": "None", "website": "None", "summary": "None", "logo": "None", "latitude": 43.21705393637875, "longitude": -81.87163804613704}, "809942535RR0001": {"name": "PINES BIBLE CAMP", "designationCode": "C", "categoryCode": "56", "address": "10005 NORTH FORK ROAD", "city": "GRAND FORKS", "province": "BC", "country": "CA", "postalCode": "V0H1H8", "twitter": "None", "instagram": "None", "facebook": "None", "youtube": "None", "website": "None", "summary": "None", "logo": "None", "latitude": 49.08166812981476, "longitude": -118.45963565232461}, "107846255RR0001": {"name": "PINEVIEW ALLIANCE CHURCH", "designationCode": "C", "categoryCode": "31", "address": "BOX 734", "city": "GRANDE CACHE", "province": "AB", "country": "CA", "postalCode": "T0E0Y0", "twitter": "None", "instagram": "None", "facebook": "None", "youtube": "None", "website": "None", "summary": "None", "logo": "None", "latitude": 53.888100000000065, "longitude": -119.11633999999998}, "119288918RR0413": {"name": "PINEVIEW CONGREGATION OF JEHOVAH'S WITNESSES, BROCKVILLE, ONTARIO", "designationCode": "C", "categoryCode": "61", "address": "52 CHISLETT ST", "city": "BROCKVILLE", "province": "ON", "country": "CA", "postalCode": "K6V4L1", "twitter": "None", "instagram": "None", "facebook": "None", "youtube": "None", "website": "None", "summary": "None", "logo": "None", "latitude": 44.59275280711518, "longitude": -75.69722669499095}, "119093938RR0001": {"name": "PINEVIEW CONSERVATIVE MENNONITE CHURCH", "designationCode": "C", "categoryCode": "34", "address": "RR#1", "city": "STRATTON", "province": "ON", "country": "CA", "postalCode": "P0W1N0", "twitter": "None", "instagram": "None", "facebook": "None", "youtube": "None", "website": "None", "summary": "None", "logo": "None", "latitude": 48.6817658060751, "longitude": -94.1647005}, "883371270RR0001": {"name": "PINGALWARA SOCIETY OF ONTARIO", "designationCode": "C", "categoryCode": "09", "address": "124 BLACKMERE CIRCLE", "city": "BRAMPTON", "province": "ON", "country": "CA", "postalCode": "L6W4C1", "twitter": "None", "instagram": "None", "facebook": "None", "youtube": "None", "website": "None", "summary": "None", "logo": "None", "latitude": 43.66016336637993, "longitude": -79.71572588631791}, "119093979RR0001": {"name": "PINHEY'S POINT FOUNDATION", "designationCode": "C", "categoryCode": "52", "address": "3121 GREENLAND ROAD           R.R. 1", "city": "DUNROBIN", "province": "ON", "country": "CA", "postalCode": "K0A1T0", "twitter": "None", "instagram": "None", "facebook": "None", "youtube": "None", "website": "None", "summary": "None", "logo": "None", "latitude": 45.45001225238167, "longitude": -76.00850370944447}, "894730159RR0001": {"name": "PINK INK THEATRE PRODUCTIONS ASSOCIATION", "designationCode": "C", "categoryCode": "22", "address": "203-739 GORE AVE", "city": "VANCOUVER", "province": "BC", "country": "CA", "postalCode": "V6A2Z9", "twitter": "None", "instagram": "None", "facebook": "None", "youtube": "None", "website": "None", "summary": "None", "logo": "None", "latitude": 49.2778654365803, "longitude": -123.09704293701299}, "133627166RR0001": {"name": "PINKHAM DAY CARE INC", "designationCode": "C", "categoryCode": "01", "address": "765 PACIFIC AVE.", "city": "WINNIPEG", "province": "MB", "country": "CA", "postalCode": "R3E1G1", "twitter": "None", "instagram": "None", "facebook": "None", "youtube": "None", "website": "None", "summary": "None", "logo": "None", "latitude": 49.907875943129845, "longitude": -97.1581016175199}, "119288918RR1371": {"name": "PINNACLE RIDGE CONGREGATION OF JEHOVAH'S WITNESSES, GRANDE PRAIRIE, ALBERTA", "designationCode": "C", "categoryCode": "61", "address": "11208B 75A AVE", "city": "GRANDE PRAIRIE", "province": "AB", "country": "CA", "postalCode": "T8W0G5", "twitter": "None", "instagram": "None", "facebook": "None", "youtube": "None", "website": "None", "summary": "None", "logo": "None", "latitude": 55.15039751300373, "longitude": -118.83507071198207}, "889339248RR0001": {"name": "PIONEER ACRES PLOWMEN AND THRESHERMENS CLUB", "designationCode": "C", "categoryCode": "52", "address": "BOX 58", "city": "IRRICANA", "province": "AB", "country": "CA", "postalCode": "T0M1B0", "twitter": "None", "instagram": "None", "facebook": "None", "youtube": "None", "website": "None", "summary": "None", "logo": "None", "latitude": 51.32701000000003, "longitude": -113.59144999999995}, "131036907RR0001": {"name": "PIONEER BAPTIST CHURCH", "designationCode": "C", "categoryCode": "31", "address": "PO BOX 119                    7553 HWY 35", "city": "NORLAND", "province": "ON", "country": "CA", "postalCode": "K0M2L0", "twitter": "None", "instagram": "None", "facebook": "None", "youtube": "None", "website": "None", "summary": "None", "logo": "None", "latitude": 44.73047837983215, "longitude": -78.81812135780099}, "892009648RR0001": {"name": "PIONEER BIBLE TRANSLATORS OF CANADA", "designationCode": "C", "categoryCode": "47", "address": "5300-53RD AVENUE NW", "city": "CALGARY", "province": "AB", "country": "CA", "postalCode": "T3A2G8", "twitter": "None", "instagram": "None", "facebook": "None", "youtube": "None", "website": "None", "summary": "None", "logo": "None", "latitude": 51.10203246768411, "longitude": -114.16175983236194}, "130330053RR0001": {"name": "PIONEER CIRCLE ELK POINT, ALBERTA", "designationCode": "C", "categoryCode": "56", "address": "P.O. BOX 488,", "city": "ELK POINT", "province": "AB", "country": "CA", "postalCode": "T0A1A0", "twitter": "None", "instagram": "None", "facebook": "None", "youtube": "None", "website": "None", "summary": "None", "logo": "None", "latitude": 54.815265, "longitude": -111.92067675}, "887351864RR0001": {"name": "PIONEER CLUB ATIKOKAN", "designationCode": "C", "categoryCode": "56", "address": "BOX 354", "city": "ATIKOKAN", "province": "ON", "country": "CA", "postalCode": "P0T1C0", "twitter": "None", "instagram": "None", "facebook": "None", "youtube": "None", "website": "None", "summary": "None", "logo": "None", "latitude": 48.78243202695454, "longitude": -91.62784818644623}, "119094043RR0001": {"name": "PIONEER CLUB OF LAC DU BONNET INC.", "designationCode": "C", "categoryCode": "56", "address": "32 PARK AVENUE", "city": "LAC DU BONNET", "province": "MB", "country": "CA", "postalCode": "R0E1A0", "twitter": "None", "instagram": "None", "facebook": "None", "youtube": "None", "website": "None", "summary": "None", "logo": "None", "latitude": 50.25781018346123, "longitude": -96.05914932770531}, "119121143RR0001": {"name": "PIONEER COMMUNITY LIVING ASSOCIATION", "designationCode": "C", "categoryCode": "11", "address": "220 SHERBROOKE ST", "city": "NEW WESTMINSTER", "province": "BC", "country": "CA", "postalCode": "V3L3M2", "twitter": "None", "instagram": "None", "facebook": "None", "youtube": "None", "website": "None", "summary": "None", "logo": "None", "latitude": 49.22776020523525, "longitude": -122.88786546341599}, "119094068RR0001": {"name": "PIONEER DAMSITERS DROP-IN CENTRE", "designationCode": "C", "categoryCode": "56", "address": "BOX 268", "city": "BASSANO", "province": "AB", "country": "CA", "postalCode": "T0J0B0", "twitter": "None", "instagram": "None", "facebook": "None", "youtube": "None", "website": "None", "summary": "None", "logo": "None", "latitude": 50.783420000000035, "longitude": -112.46853999999996}, "119288918RR0700": {"name": "PIONEER GROVE CONGREGATION OF JEHOVAH'S WITNESSES, BRANTFORD, ONTARIO", "designationCode": "C", "categoryCode": "61", "address": "14 RUSSELL ST.", "city": "MT. PLEASANT", "province": "ON", "country": "CA", "postalCode": "N0E1K0", "twitter": "None", "instagram": "None", "facebook": "None", "youtube": "None", "website": "None", "summary": "None", "logo": "None", "latitude": 43.07312259173927, "longitude": -80.31512254909559}, "119094084RR0001": {"name": "PIONEER HOUSE CLUB 50", "designationCode": "C", "categoryCode": "56", "address": "10102 - 100 AVE", "city": "FORT SASKATCHEWAN", "province": "AB", "country": "CA", "postalCode": "T8L1Y6", "twitter": "None", "instagram": "None", "facebook": "None", "youtube": "None", "website": "None", "summary": "None", "logo": "None", "latitude": 53.71202099420027, "longitude": -113.21451942203801}, "887685139RR0001": {"name": "PIONEER LODGE AUXILIARY", "designationCode": "C", "categoryCode": "19", "address": "3403 51A AVE", "city": "LLOYDMINSTER", "province": "AB", "country": "CA", "postalCode": "T9V1E7", "twitter": "None", "instagram": "None", "facebook": "None", "youtube": "None", "website": "None", "summary": "None", "logo": "None", "latitude": 53.26843650874258, "longitude": -110.00907609934227}, "107846800RR0001": {"name": "PIONEER LODGE, INCORPORATED", "designationCode": "C", "categoryCode": "01", "address": "PO BOX 626", "city": "SOURIS", "province": "MB", "country": "CA", "postalCode": "R0K2C0", "twitter": "None", "instagram": "None", "facebook": "None", "youtube": "None", "website": "None", "summary": "None", "logo": "None", "latitude": 49.59915625917259, "longitude": -99.8622610573006}, "107846818RR0001": {"name": "PIONEER MEMORIAL UNITED CHURCH", "designationCode": "C", "categoryCode": "44", "address": "1974 KING ST E", "city": "HAMILTON", "province": "ON", "country": "CA", "postalCode": "L8K1W3", "twitter": "None", "instagram": "None", "facebook": "None", "youtube": "None", "website": "None", "summary": "None", "logo": "None", "latitude": 43.23142905871004, "longitude": -79.804371483912}, "119094126RR0001": {"name": "PIONEER PARK ASSOCIATION", "designationCode": "C", "categoryCode": "56", "address": "PO BOX 2115", "city": "BAYFIELD", "province": "ON", "country": "CA", "postalCode": "N0M1G0", "twitter": "None", "instagram": "None", "facebook": "None", "youtube": "None", "website": "None", "summary": "None", "logo": "None", "latitude": 43.567108618343774, "longitude": -81.70172238864089}, "107846842RR0001": {"name": "PIONEER PARK CHRISTIAN FELLOWSHIP", "designationCode": "C", "categoryCode": "34", "address": "68 BIEHN DRIVE", "city": "KITCHENER", "province": "ON", "country": "CA", "postalCode": "N2R1M3", "twitter": "None", "instagram": "None", "facebook": "None", "youtube": "None", "website": "None", "summary": "None", "logo": "None", "latitude": 43.39534533527612, "longitude": -80.45540268535434}, "118936657RR0001": {"name": "PIONEER PARK CHURCH OF GOD", "designationCode": "C", "categoryCode": "39", "address": "P.O. BOX 20027                PIONEER PARK P.O.", "city": "KITCHENER", "province": "ON", "country": "CA", "postalCode": "N2P2B4", "twitter": "None", "instagram": "None", "facebook": "None", "youtube": "None", "website": "None", "summary": "None", "logo": "None", "latitude": 43.39898000000005, "longitude": -80.43291999999997}, "119094159RR0001": {"name": "PIONEER PLACE SOCIETY", "designationCode": "C", "categoryCode": "01", "address": "BOX 472", "city": "ENDERBY", "province": "BC", "country": "CA", "postalCode": "V0E1V0", "twitter": "None", "instagram": "None", "facebook": "None", "youtube": "None", "website": "None", "summary": "None", "logo": "None", "latitude": 50.55260000000004, "longitude": -119.14013999999997}, "119094175RR0001": {"name": "PIOUS SOCIETY OF ST. CHARLES BORROMEO OF ONTARIO", "designationCode": "C", "categoryCode": "49", "address": "2340 HURONTARIO STREET", "city": "MISSISSAUGA", "province": "ON", "country": "CA", "postalCode": "L5B1N1", "twitter": "None", "instagram": "None", "facebook": "None", "youtube": "None", "website": "None", "summary": "None", "logo": "None", "latitude": 43.57499841433465, "longitude": -79.60903702420755}, "130016132RR0001": {"name": "PIPELINE CHURCH", "designationCode": "C", "categoryCode": "39", "address": "300-1006 FORT ST", "city": "VICTORIA", "province": "BC", "country": "CA", "postalCode": "V8V3K4", "twitter": "None", "instagram": "None", "facebook": "None", "youtube": "None", "website": "None", "summary": "None", "logo": "None", "latitude": 48.42370340940031, "longitude": -123.3565768293035}, "130636590RR0001": {"name": "PIPER CREEK FOUNDATION", "designationCode": "C", "categoryCode": "09", "address": "4719 48 AVE", "city": "RED DEER", "province": "AB", "country": "CA", "postalCode": "T4N3T1", "twitter": "None", "instagram": "None", "facebook": "None", "youtube": "None", "website": "None", "summary": "None", "logo": "None", "latitude": 52.26679841909515, "longitude": -113.80898913012896}, "119094183RR0001": {"name": "PIPES AND DRUMS OF LINDSAY", "designationCode": "C", "categoryCode": "22", "address": "29 WILMOT TRAIL", "city": "NEWCASTLE", "province": "ON", "country": "CA", "postalCode": "L1B1A1", "twitter": "None", "instagram": "None", "facebook": "None", "youtube": "None", "website": "None", "summary": "None", "logo": "None", "latitude": 43.89675603539475, "longitude": -78.63044213138001}, "107847006RR0001": {"name": "PIPESTONE KIN - ABILITY CENTRE INC.", "designationCode": "C", "categoryCode": "01", "address": "BOX 1444                      611 COOK ROAD", "city": "MOOSOMIN", "province": "SK", "country": "CA", "postalCode": "S0G3N0", "twitter": "None", "instagram": "None", "facebook": "None", "youtube": "None", "website": "None", "summary": "None", "logo": "None", "latitude": 50.13759823159172, "longitude": -101.67668568575674}, "892835240RR0001": {"name": "PIRIE FOUNDATION", "designationCode": "B", "categoryCode": "03", "address": "800 1122 4TH STREET S W.", "city": "CALGARY", "province": "AB", "country": "CA", "postalCode": "T2R1M1", "twitter": "None", "instagram": "None", "facebook": "None", "youtube": "None", "website": "None", "summary": "None", "logo": "None", "latitude": 51.041285873878884, "longitude": -114.071553}, "888918265RR0001": {"name": "PITBLADO FOUNDATION", "designationCode": "B", "categoryCode": "53", "address": "150 YORK STREET SUITE 812     PO BOX 12", "city": "TORONTO", "province": "ON", "country": "CA", "postalCode": "M5H3S5", "twitter": "None", "instagram": "None", "facebook": "None", "youtube": "None", "website": "None", "summary": "None", "logo": "None", "latitude": 43.6497124612788, "longitude": -79.38434705081065}, "122014939RR0001": {"name": "PITCH-IN BRITISH COLUMBIA WASTE MANAGEMENT SOCIETY", "designationCode": "C", "categoryCode": "23", "address": "PO BOX 25040                  TYEE PLAZA", "city": "CAMPBELL RIVER", "province": "BC", "country": "CA", "postalCode": "V9W0B7", "twitter": "None", "instagram": "None", "facebook": "None", "youtube": "None", "website": "None", "summary": "None", "logo": "None", "latitude": 50.024643000000054, "longitude": -125.24819299999993}, "890785546RR0001": {"name": "PITT MEADOWS COMMUNITY CHURCH SOCIETY", "designationCode": "C", "categoryCode": "39", "address": "7-19249 HAMMOND ROAD", "city": "PITT MEADOWS", "province": "BC", "country": "CA", "postalCode": "V3Y2B8", "twitter": "None", "instagram": "None", "facebook": "None", "youtube": "None", "website": "None", "summary": "None", "logo": "None", "latitude": 49.21718446826104, "longitude": -122.68876338634658}, "119094225RR0001": {"name": "PITT MEADOWS COMMUNITY FOUNDATION", "designationCode": "A", "categoryCode": "56", "address": "PO 31741", "city": "PITT MEADOWS", "province": "BC", "country": "CA", "postalCode": "V3Y2H1", "twitter": "None", "instagram": "None", "facebook": "None", "youtube": "None", "website": "None", "summary": "None", "logo": "None", "latitude": 49.22196900000006, "longitude": -122.68960999999993}, "119288918RR0597": {"name": "PITT MEADOWS CONGREGATION OF JEHOVAH'S WITNESSES", "designationCode": "C", "categoryCode": "61", "address": "19522 120 AVE", "city": "PITT MEADOWS", "province": "BC", "country": "CA", "postalCode": "V3Y1K7", "twitter": "None", "instagram": "None", "facebook": "None", "youtube": "None", "website": "None", "summary": "None", "logo": "None", "latitude": 49.22072550678069, "longitude": -122.680251}, "868048968RR0001": {"name": "PITT MEADOWS DISCOVERY CHURCH", "designationCode": "C", "categoryCode": "34", "address": "13283 236 ST", "city": "MAPLE RIDGE", "province": "BC", "country": "CA", "postalCode": "V4R0E4", "twitter": "None", "instagram": "None", "facebook": "None", "youtube": "None", "website": "None", "summary": "None", "logo": "None", "latitude": 49.24363315847401, "longitude": -122.56840928778261}, "892436841RR0001": {"name": "PITT MEADOWS HERITAGE AND MUSEUM SOCIETY", "designationCode": "C", "categoryCode": "50", "address": "12294 HARRIS ROAD", "city": "PITT MEADOWS", "province": "BC", "country": "CA", "postalCode": "V3Y2E9", "twitter": "None", "instagram": "None", "facebook": "None", "youtube": "None", "website": "None", "summary": "None", "logo": "None", "latitude": 49.22581399417163, "longitude": -122.68951944722745}}