{"119309672RR0001": {"name": "ZONTA CLUB OF MISSISSAUGA SERVICE TRUST FUND", "designationCode": "C", "categoryCode": "65", "address": "36 LINDEN CRES", "city": "BRAMPTON", "province": "ON", "country": "CA", "postalCode": "L6S4A2", "twitter": "None", "instagram": "None", "facebook": "None", "youtube": "None", "website": "None", "summary": "None", "logo": "None", "latitude": 43.71669459813019, "longitude": -79.74019536346574}, "889446175RR0001": {"name": "ZONTA CLUB OF MONTREAL CHARITABLE TRUST", "designationCode": "A", "categoryCode": "05", "address": "83 BEACONSFIELD COURT", "city": "BEACONSFIELD", "province": "QC", "country": "CA", "postalCode": "H9W5G5", "twitter": "None", "instagram": "None", "facebook": "None", "youtube": "None", "website": "None", "summary": "None", "logo": "None", "latitude": 45.42941554316461, "longitude": -73.86087821798735}, "874219710RR0001": {"name": "ZONTA CLUB OF OAKVILLE TRUST FUND", "designationCode": "A", "categoryCode": "05", "address": "P.O. BOX 69591", "city": "OAKVILLE", "province": "ON", "country": "CA", "postalCode": "L6J7R4", "twitter": "None", "instagram": "None", "facebook": "None", "youtube": "None", "website": "None", "summary": "None", "logo": "None", "latitude": 43.46642400000006, "longitude": -79.69001299999994}, "119309698RR0001": {"name": "ZONTA CLUB OF OTTAWA CHARITABLE TRUST", "designationCode": "C", "categoryCode": "65", "address": "618-1071 AMBLESIDE DRIVE", "city": "OTTAWA", "province": "ON", "country": "CA", "postalCode": "K2B6V4", "twitter": "None", "instagram": "None", "facebook": "None", "youtube": "None", "website": "None", "summary": "None", "logo": "None", "latitude": 45.37394423483733, "longitude": -75.77951294650538}, "888612595RR0001": {"name": "ZONTA CLUB OF TORONTO I SERVICE TRUST FUND", "designationCode": "C", "categoryCode": "05", "address": "311 KENNEDY AVE", "city": "TORONTO", "province": "ON", "country": "CA", "postalCode": "M6P3C4", "twitter": "None", "instagram": "None", "facebook": "None", "youtube": "None", "website": "None", "summary": "None", "logo": "None", "latitude": 43.65366114516125, "longitude": -79.47605062112659}, "131502072RR0001": {"name": "ZOOCHECK CANADA INCORPORATED", "designationCode": "C", "categoryCode": "54", "address": "788 1/2 O'CONNOR DRIVE", "city": "TORONTO", "province": "ON", "country": "CA", "postalCode": "M4B2S6", "twitter": "None", "instagram": "None", "facebook": "None", "youtube": "None", "website": "None", "summary": "None", "logo": "None", "latitude": 43.70467746395242, "longitude": -79.3135008411938}, "887563864RR0001": {"name": "ZOOLOGICAL EDUCATION TRUST", "designationCode": "C", "categoryCode": "25", "address": "UNIVERSITY OF ALBERTA         DEPT. OF BIOLOGICAL SCIENCE", "city": "EDMONTON", "province": "AB", "country": "CA", "postalCode": "T6G2E9", "twitter": "None", "instagram": "None", "facebook": "None", "youtube": "None", "website": "None", "summary": "None", "logo": "None", "latitude": 53.52917000000008, "longitude": -113.52625999999998}, "132072174RR0001": {"name": "ZOOTHERAPIE QUEBEC", "designationCode": "C", "categoryCode": "19", "address": "7779, AVENUE CASGRAIN", "city": "MONTREAL", "province": "QC", "country": "CA", "postalCode": "H2R1Z2", "twitter": "None", "instagram": "None", "facebook": "None", "youtube": "None", "website": "None", "summary": "None", "logo": "None", "latitude": 45.53872592812618, "longitude": -73.62574314265109}, "132021932RR0001": {"name": "ZOROASTRIAN SOCIETY OF BRITISH COLUMBIA", "designationCode": "C", "categoryCode": "09", "address": "6900 HALIFAX STREET", "city": "BURNABY", "province": "BC", "country": "CA", "postalCode": "V5B2R5", "twitter": "None", "instagram": "None", "facebook": "None", "youtube": "None", "website": "None", "summary": "None", "logo": "None", "latitude": 49.26793853231591, "longitude": -122.96081152553523}, "888970241RR0001": {"name": "ZOROASTRIAN SOCIETY OF ONTARIO", "designationCode": "C", "categoryCode": "39", "address": "3590 BAYVIEW AVENUE", "city": "TORONTO", "province": "ON", "country": "CA", "postalCode": "M2M3S6", "twitter": "None", "instagram": "None", "facebook": "None", "youtube": "None", "website": "None", "summary": "None", "logo": "None", "latitude": 43.80214224479199, "longitude": -79.39589806789176}, "825139769RR0001": {"name": "ZUBAIDAH TALLAB FOUNDATION CORP.", "designationCode": "C", "categoryCode": "60", "address": "881 DUDLEY AVE", "city": "WINNIPEG", "province": "MB", "country": "CA", "postalCode": "R3M1R1", "twitter": "None", "instagram": "None", "facebook": "None", "youtube": "None", "website": "None", "summary": "None", "logo": "None", "latitude": 49.863846822667064, "longitude": -97.15773978616758}, "119309821RR0001": {"name": "ZUKERMAN FAMILY FOUNDATION", "designationCode": "B", "categoryCode": "05", "address": "19 MADISON AVE", "city": "TORONTO", "province": "ON", "country": "CA", "postalCode": "M5R2S2", "twitter": "None", "instagram": "None", "facebook": "None", "youtube": "None", "website": "None", "summary": "None", "logo": "None", "latitude": 43.66804239078998, "longitude": -79.40311907435532}, "863521415RR0001": {"name": "ZUPPA CIRCUS THEATRE SOCIETY", "designationCode": "C", "categoryCode": "22", "address": "P.O. BOX 31127", "city": "HALIFAX", "province": "NS", "country": "CA", "postalCode": "B3K5Y1", "twitter": "None", "instagram": "None", "facebook": "None", "youtube": "None", "website": "None", "summary": "None", "logo": "None", "latitude": 44.645478000000054, "longitude": -63.576552499999934}, "119309854RR0001": {"name": "ZURICH MENNONITE CHURCH", "designationCode": "C", "categoryCode": "34", "address": "BOX 131", "city": "ZURICH", "province": "ON", "country": "CA", "postalCode": "N0M2T0", "twitter": "None", "instagram": "None", "facebook": "None", "youtube": "None", "website": "None", "summary": "None", "logo": "None", "latitude": 37.181580000000054, "longitude": -118.26139999999998}, "137933370RR0001": {"name": "ZURU LING SOCIETY", "designationCode": "C", "categoryCode": "39", "address": "#318-336 EAST 1ST AVENUE", "city": "VANCOUVER", "province": "BC", "country": "CA", "postalCode": "V5T4R6", "twitter": "None", "instagram": "None", "facebook": "None", "youtube": "None", "website": "None", "summary": "None", "logo": "None", "latitude": 49.267835582001375, "longitude": -123.09651320970615}, "889381463RR0001": {"name": "ZWIG FAMILY FOUNDATION", "designationCode": "B", "categoryCode": "03", "address": "300 - 60 ST CLAIR AVE E", "city": "TORONTO", "province": "ON", "country": "CA", "postalCode": "M4T1N5", "twitter": "None", "instagram": "None", "facebook": "None", "youtube": "None", "website": "None", "summary": "None", "logo": "None", "latitude": 43.6886955, "longitude": -79.39122524999999}, "119069714RR0001": {"name": "0RDRE EQUESTRE DU SAINT SEPULCRE DE JERUSALEM-LIEUTENANCE DU CANADA - MONTREAL", "designationCode": "C", "categoryCode": "47", "address": "500 DE LA MONTAGNE, APP#107", "city": "MONTR\u00c9AL", "province": "QC", "country": "CA", "postalCode": "H3C4T6", "twitter": "None", "instagram": "None", "facebook": "None", "youtube": "None", "website": "None", "summary": "None", "logo": "None", "latitude": 45.493221008309874, "longitude": -73.56539335763736}, "805830577RR0001": {"name": "1 Peter 2:4-5 Ministries", "designationCode": "C", "categoryCode": "39", "address": "1605 GREENWAY DRIVE", "city": "PARKHILL", "province": "ON", "country": "CA", "postalCode": "N0M2K0", "twitter": "None", "instagram": "None", "facebook": "None", "youtube": "None", "website": "None", "summary": "None", "logo": "None", "latitude": 43.24291439886116, "longitude": -81.71609111756334}, "731148292RR0001": {"name": "1-R32 Foundation", "designationCode": "B", "categoryCode": "03", "address": "121 BLOOR ST E", "city": "TORONTO", "province": "ON", "country": "CA", "postalCode": "M4W3M5", "twitter": "None", "instagram": "None", "facebook": "None", "youtube": "None", "website": "None", "summary": "None", "logo": "None", "latitude": 43.6708208892321, "longitude": -79.38395640714994}, "820618270RR0001": {"name": "1, 2, 3 GO! POINTE DE L'ILE", "designationCode": "C", "categoryCode": "09", "address": "15912, RUE NOTRE-DAME EST", "city": "MONTR\u00c9AL", "province": "QC", "country": "CA", "postalCode": "H1A3T5", "twitter": "None", "instagram": "None", "facebook": "None", "youtube": "None", "website": "None", "summary": "None", "logo": "None", "latitude": 45.69412580682672, "longitude": -73.48798749818232}, "846006708RR0001": {"name": "1, 2, 3, Action!", "designationCode": "C", "categoryCode": "09", "address": "1377, RUE DES CHARMES", "city": "LAVAL", "province": "QC", "country": "CA", "postalCode": "H7P3R7", "twitter": "None", "instagram": "None", "facebook": "None", "youtube": "None", "website": "None", "summary": "None", "logo": "None", "latitude": 45.59077149293086, "longitude": -73.82886884274929}, "874439607RR0001": {"name": "1,2,3 GO! ST-MICHEL/FEMMES-RELAIS", "designationCode": "C", "categoryCode": "20", "address": "7 8640 25E AVE", "city": "MONTREAL", "province": "QC", "country": "CA", "postalCode": "H1Z4B2", "twitter": "None", "instagram": "None", "facebook": "None", "youtube": "None", "website": "None", "summary": "None", "logo": "None", "latitude": 45.5775470053237, "longitude": -73.61085553100433}, "854303583RR0001": {"name": "1st Apostolic Church of Yellowknife", "designationCode": "C", "categoryCode": "39", "address": "5134 FORREST DR", "city": "YELLOWKNIFE", "province": "NT", "country": "CA", "postalCode": "X1A2W6", "twitter": "None", "instagram": "None", "facebook": "None", "youtube": "None", "website": "None", "summary": "None", "logo": "None", "latitude": 62.44412146378898, "longitude": -114.37266780238332}, "829312479RR0001": {"name": "1ATATIME RESCUE SOCIETY", "designationCode": "C", "categoryCode": "54", "address": "2919 GEORGIA ST E", "city": "VANCOUVER", "province": "BC", "country": "CA", "postalCode": "V5K2K5", "twitter": "None", "instagram": "None", "facebook": "None", "youtube": "None", "website": "None", "summary": "None", "logo": "None", "latitude": 49.27832047489746, "longitude": -123.04341319025909}, "826065971RR0001": {"name": "1Hope International Foundation", "designationCode": "C", "categoryCode": "09", "address": "13 ATKINSON CRT", "city": "AJAX", "province": "ON", "country": "CA", "postalCode": "L1S5E4", "twitter": "None", "instagram": "None", "facebook": "None", "youtube": "None", "website": "None", "summary": "None", "logo": "None", "latitude": 43.86020570774426, "longitude": -79.01547357536492}, "871244810RR0001": {"name": "1IN6 CANADA - 1SUR6 CANADA", "designationCode": "C", "categoryCode": "09", "address": "102 - 120 PRESTIGE CIR", "city": "ORLEANS", "province": "ON", "country": "CA", "postalCode": "K4A1B4", "twitter": "None", "instagram": "None", "facebook": "None", "youtube": "None", "website": "None", "summary": "None", "logo": "None", "latitude": 45.490280543424404, "longitude": -75.49523297056963}, "873342323RR0001": {"name": "1ST FOUR ARROWS YOUTH GROUP", "designationCode": "C", "categoryCode": "29", "address": "48 DOVE LANE", "city": "THORNHILL", "province": "ON", "country": "CA", "postalCode": "L3T1V9", "twitter": "None", "instagram": "None", "facebook": "None", "youtube": "None", "website": "None", "summary": "None", "logo": "None", "latitude": 43.81451158728147, "longitude": -79.40668045048741}, "869214486RR0001": {"name": "10 GATES DANCING INC", "designationCode": "C", "categoryCode": "22", "address": "128 SPRUCE STREET", "city": "OTTAWA", "province": "ON", "country": "CA", "postalCode": "K1R6P2", "twitter": "None", "instagram": "None", "facebook": "None", "youtube": "None", "website": "None", "summary": "None", "logo": "None", "latitude": 45.40875720286816, "longitude": -75.71550145377698}, "130387665RR0099": {"name": "10 Timmins Kiwanis Squadron R.C. Air Cadets Sponsoring Committee", "designationCode": "C", "categoryCode": "29", "address": "POST OFFICE BOX 1994", "city": "TIMMINS", "province": "ON", "country": "CA", "postalCode": "P4N7X2", "twitter": "None", "instagram": "None", "facebook": "None", "youtube": "None", "website": "None", "summary": "None", "logo": "None", "latitude": 48.47611200000006, "longitude": -81.32891299999993}, "764056891RR0001": {"name": "10,000 Trees For the Rouge", "designationCode": "C", "categoryCode": "52", "address": "1774 EASTBANK RD", "city": "PICKERING", "province": "ON", "country": "CA", "postalCode": "L1V3J9", "twitter": "None", "instagram": "None", "facebook": "None", "youtube": "None", "website": "None", "summary": "None", "logo": "None", "latitude": 43.828274158751256, "longitude": -79.11445494535153}, "864296629RR0001": {"name": "10,000 TREES PROJECT", "designationCode": "C", "categoryCode": "50", "address": "258 WILLOWDALE PL", "city": "WATERLOO", "province": "ON", "country": "CA", "postalCode": "N2J3M4", "twitter": "None", "instagram": "None", "facebook": "None", "youtube": "None", "website": "None", "summary": "None", "logo": "None", "latitude": 43.47878128533085, "longitude": -80.5146502963238}, "843718412RR0001": {"name": "100 % ACTIF : ACTIVIT\u00c9S PARASCOLAIRES", "designationCode": "C", "categoryCode": "21", "address": "421B CARTIER BLVD", "city": "HAWKESBURY", "province": "ON", "country": "CA", "postalCode": "K6A1V9", "twitter": "None", "instagram": "None", "facebook": "None", "youtube": "None", "website": "None", "summary": "None", "logo": "None", "latitude": 45.607119638917546, "longitude": -74.6049903179022}, "891577645RR0001": {"name": "100 Mile District Hospice Palliative Care Society", "designationCode": "C", "categoryCode": "11", "address": "BAG 399", "city": "100 MILE HOUSE", "province": "BC", "country": "CA", "postalCode": "V0K2E0", "twitter": "None", "instagram": "None", "facebook": "None", "youtube": "None", "website": "None", "summary": "None", "logo": "None", "latitude": 51.642130000000066, "longitude": -121.29735}, "839085149RR0001": {"name": "100 Mile House Mural Society", "designationCode": "C", "categoryCode": "22", "address": "6221 AALTON ROAD", "city": "100 MILE HOUSE", "province": "BC", "country": "CA", "postalCode": "V0K2E3", "twitter": "None", "instagram": "None", "facebook": "None", "youtube": "None", "website": "None", "summary": "None", "logo": "None", "latitude": 51.58001808909917, "longitude": -121.15224192509643}, "119288918RR1299": {"name": "100 Mile House, British Columbia, Congregation of Jehovah's Witnesses", "designationCode": "C", "categoryCode": "61", "address": "6649 PERREY RD", "city": "100 MILE HOUSE", "province": "BC", "country": "CA", "postalCode": "V0K2E3", "twitter": "None", "instagram": "None", "facebook": "None", "youtube": "None", "website": "None", "summary": "None", "logo": "None", "latitude": 51.573878360811364, "longitude": -121.18130579837353}, "893176768RR0001": {"name": "100 MILE AND DISTRICT COMMUNITY POLICING CONSULTATIVE COMMITTEE", "designationCode": "C", "categoryCode": "59", "address": "BOX 340", "city": "100 MILE HOUSE", "province": "BC", "country": "CA", "postalCode": "V0K2E0", "twitter": "None", "instagram": "None", "facebook": "None", "youtube": "None", "website": "None", "summary": "None", "logo": "None", "latitude": 51.642130000000066, "longitude": -121.29735}, "890551245RR0001": {"name": "100 MILE DISTRICT GENERAL HOSPITAL AUXILIARY", "designationCode": "A", "categoryCode": "13", "address": "PO BOX 851", "city": "100 MILE HOUSE", "province": "BC", "country": "CA", "postalCode": "V0K2E0", "twitter": "None", "instagram": "None", "facebook": "None", "youtube": "None", "website": "None", "summary": "None", "logo": "None", "latitude": 51.62931000000003, "longitude": -121.30063999999999}, "119309938RR0001": {"name": "100 MILE EVANGELICAL FREE CHURCH", "designationCode": "C", "categoryCode": "39", "address": "BOX 856", "city": "100 MILE HOUSE", "province": "BC", "country": "CA", "postalCode": "V0K2E0", "twitter": "None", "instagram": "None", "facebook": "None", "youtube": "None", "website": "None", "summary": "None", "logo": "None", "latitude": 51.62931000000003, "longitude": -121.30063999999999}, "879988160RR0001": {"name": "100 MILE FESTIVAL OF THE ARTS", "designationCode": "C", "categoryCode": "22", "address": "BOX 1903", "city": "100 MILE HOUSE", "province": "BC", "country": "CA", "postalCode": "V0K2E0", "twitter": "None", "instagram": "None", "facebook": "None", "youtube": "None", "website": "None", "summary": "None", "logo": "None", "latitude": 51.62931000000003, "longitude": -121.30063999999999}, "119309961RR0001": {"name": "100 MILE HOUSE & DISTRICT HISTORICAL SOCIETY", "designationCode": "C", "categoryCode": "50", "address": "BOX 225", "city": "108 MILE RANCH", "province": "BC", "country": "CA", "postalCode": "V0K2Z0", "twitter": "None", "instagram": "None", "facebook": "None", "youtube": "None", "website": "None", "summary": "None", "logo": "None", "latitude": 51.75124800000006, "longitude": -121.34758399999993}, "138518600RR0001": {"name": "100 MILE HOUSE AND DISTRICT WOMEN'S CENTRE SOCIETY", "designationCode": "C", "categoryCode": "09", "address": "PO BOX 1930", "city": "100 MILE HOUSE", "province": "BC", "country": "CA", "postalCode": "V0K2E0", "twitter": "None", "instagram": "None", "facebook": "None", "youtube": "None", "website": "None", "summary": "None", "logo": "None", "latitude": 51.62931000000003, "longitude": -121.30063999999999}, "119309946RR0001": {"name": "100 MILE HOUSE BAPTIST CHURCH", "designationCode": "C", "categoryCode": "31", "address": "5495 TATTON STN. RD", "city": "100 MILE HOUSE", "province": "BC", "country": "CA", "postalCode": "V0K2E1", "twitter": "None", "instagram": "None", "facebook": "None", "youtube": "None", "website": "None", "summary": "None", "logo": "None", "latitude": 51.63802800000006, "longitude": -121.29748999999993}, "118818491RR0005": {"name": "100 MILE HOUSE SEVENTH-DAY ADVENTIST CHURCH", "designationCode": "C", "categoryCode": "41", "address": "PO 1000", "city": "ABBOTSFORD", "province": "BC", "country": "CA", "postalCode": "V2S4P5", "twitter": "None", "instagram": "None", "facebook": "None", "youtube": "None", "website": "None", "summary": "None", "logo": "None", "latitude": 49.03851300000005, "longitude": -122.29441549999993}, "119309987RR0001": {"name": "100 MILE HOUSE SIKH SOCIETY", "designationCode": "C", "categoryCode": "62", "address": "BOX 160", "city": "100 MILE HOUSE", "province": "BC", "country": "CA", "postalCode": "V0K2E0", "twitter": "None", "instagram": "None", "facebook": "None", "youtube": "None", "website": "None", "summary": "None", "logo": "None", "latitude": 51.62931000000003, "longitude": -121.30063999999999}, "810171710RR0001": {"name": "1000 km pour l'Avenir", "designationCode": "A", "categoryCode": "03", "address": "307 CARR\u00c9 CHOPIN", "city": "SAINT-JEAN-SUR-RICHELIEU", "province": "QC", "country": "CA", "postalCode": "J3B8V5", "twitter": "None", "instagram": "None", "facebook": "None", "youtube": "None", "website": "None", "summary": "None", "logo": "None", "latitude": 45.276881543424395, "longitude": -73.27094302553522}, "119309995RR0001": {"name": "1000 ISLANDS MONTHLY MEETING, SOCIETY OF FRIENDS,", "designationCode": "C", "categoryCode": "39", "address": "PO BOX 1003 STN MAIN", "city": "KINGSTON", "province": "ON", "country": "CA", "postalCode": "K7L4X8", "twitter": "None", "instagram": "None", "facebook": "None", "youtube": "None", "website": "None", "summary": "None", "logo": "None", "latitude": 44.23153200000006, "longitude": -76.47933049999993}, "817849169RR0001": {"name": "1000X5 Children's Book Recycling Project Society", "designationCode": "C", "categoryCode": "21", "address": "3304 WOODRIDGE PL", "city": "VICTORIA", "province": "BC", "country": "CA", "postalCode": "V9E1C8", "twitter": "None", "instagram": "None", "facebook": "None", "youtube": "None", "website": "None", "summary": "None", "logo": "None", "latitude": 48.50734949541236, "longitude": -123.46409626542247}, "875440307RR0001": {"name": "101047757 SASKATCHEWAN INC.", "designationCode": "C", "categoryCode": "22", "address": "832 8TH AVENUE NORTH", "city": "SASKATOON", "province": "SK", "country": "CA", "postalCode": "S7K2X2", "twitter": "None", "instagram": "None", "facebook": "None", "youtube": "None", "website": "None", "summary": "None", "logo": "None", "latitude": 52.14058205245544, "longitude": -106.65053524669656}, "856849724RR0001": {"name": "101082903 SASKATCHEWAN INC.", "designationCode": "C", "categoryCode": "52", "address": "PO BOX 925", "city": "FORT QU'APPELLE", "province": "SK", "country": "CA", "postalCode": "S0G1S0", "twitter": "None", "instagram": "None", "facebook": "None", "youtube": "None", "website": "None", "summary": "None", "logo": "None", "latitude": 50.76964000000004, "longitude": -103.79339999999996}, "808798243RR0001": {"name": "101226544 Saskatchewan Inc.", "designationCode": "C", "categoryCode": "11", "address": "3314 MILLAR AVE", "city": "SASKATOON", "province": "SK", "country": "CA", "postalCode": "S7K7G9", "twitter": "None", "instagram": "None", "facebook": "None", "youtube": "None", "website": "None", "summary": "None", "logo": "None", "latitude": 52.18445703136362, "longitude": -106.64642822058443}, "785327727RR0001": {"name": "101297428 Saskatchewan Inc.", "designationCode": "C", "categoryCode": "59", "address": "PO BOX 85", "city": "KINISTINO", "province": "SK", "country": "CA", "postalCode": "S0J1H0", "twitter": "None", "instagram": "None", "facebook": "None", "youtube": "None", "website": "None", "summary": "None", "logo": "None", "latitude": 52.95167619052169, "longitude": -105.02926971926463}, "737363127RR0001": {"name": "10294268 CANADA FONDATION", "designationCode": "B", "categoryCode": "09", "address": "9 58E AV", "city": "LAVAL", "province": "QC", "country": "CA", "postalCode": "H7V2A2", "twitter": "None", "instagram": "None", "facebook": "None", "youtube": "None", "website": "None", "summary": "None", "logo": "None", "latitude": 45.54048144186042, "longitude": -73.71975035385778}, "130387665RR0088": {"name": "104 Starfighter Squadron Royal Canadian Air Cadets - Sponsoring Committee", "designationCode": "C", "categoryCode": "29", "address": "18 BRANT AVENUE", "city": "BRANTFORD", "province": "ON", "country": "CA", "postalCode": "N3T3G5", "twitter": "None", "instagram": "None", "facebook": "None", "youtube": "None", "website": "None", "summary": "None", "logo": "None", "latitude": 43.139012465584784, "longitude": -80.26947917167793}, "846043164RR0001": {"name": "108 GANGADHAR TIRTHA MAHAAYOG MISION", "designationCode": "C", "categoryCode": "48", "address": "23 MEADOWLAND DR", "city": "BRAMPTON", "province": "ON", "country": "CA", "postalCode": "L6W2R5", "twitter": "None", "instagram": "None", "facebook": "None", "youtube": "None", "website": "None", "summary": "None", "logo": "None", "latitude": 43.681857317790985, "longitude": -79.74805220425313}, "820238590RR0001": {"name": "110 Arts Cooperative", "designationCode": "C", "categoryCode": "22", "address": "110 - 750 HAMILTON ST", "city": "VANCOUVER", "province": "BC", "country": "CA", "postalCode": "V6B2R5", "twitter": "None", "instagram": "None", "facebook": "None", "youtube": "None", "website": "None", "summary": "None", "logo": "None", "latitude": 49.279332216453, "longitude": -123.11504688704757}, "119310035RR0001": {"name": "111 SQUADRON PARENTS' COMMITTEE AIR CADET LEAGUE OF CANADA", "designationCode": "C", "categoryCode": "29", "address": "BESSBOROUGH ARMOURY           2025 WEST 11TH AVENUE", "city": "VANCOUVER", "province": "BC", "country": "CA", "postalCode": "V6J2C7", "twitter": "None", "instagram": "None", "facebook": "None", "youtube": "None", "website": "None", "summary": "None", "logo": "None", "latitude": 49.261992525967926, "longitude": -123.15231038773155}, "890281793RR0001": {"name": "12 (VANCOUVER) FIELD AMBULANCE ASSOCIATION", "designationCode": "C", "categoryCode": "51", "address": "4050 WEST 4TH AVENUE", "city": "VANCOUVER", "province": "BC", "country": "CA", "postalCode": "V6R1P6", "twitter": "None", "instagram": "None", "facebook": "None", "youtube": "None", "website": "None", "summary": "None", "logo": "None", "latitude": 49.26860338332386, "longitude": -123.19495714501168}, "130387665RR0061": {"name": "121 RED ARROWS SQUADRON ROYAL CANADIAN AIR CADETS", "designationCode": "C", "categoryCode": "29", "address": "121 RED ARROWS AIR CADET SQ   P.O. BOX 1789,7 WYNDHAM ST S", "city": "GUELPH", "province": "ON", "country": "CA", "postalCode": "N1H7A1", "twitter": "None", "instagram": "None", "facebook": "None", "youtube": "None", "website": "None", "summary": "None", "logo": "None", "latitude": 43.543723500346715, "longitude": -80.24680345397853}, "130387665RR0087": {"name": "128 Thorold Squadron, Royal Canadian Air Cadets Sponsoring Committee", "designationCode": "C", "categoryCode": "29", "address": "A9-210 GLENDALE AVE BOX#245", "city": "ST-CATHARINES", "province": "ON", "country": "CA", "postalCode": "L2T3Y6", "twitter": "None", "instagram": "None", "facebook": "None", "youtube": "None", "website": "None", "summary": "None", "logo": "None", "latitude": 43.13250246759812, "longitude": -79.22612140391863}, "822867198RR0001": {"name": "13th Man Foundation", "designationCode": "A", "categoryCode": "23", "address": "1250-1500 GEORGIA W ST        BOX 62", "city": "VANCOUVER", "province": "BC", "country": "CA", "postalCode": "V6G2Z6", "twitter": "None", "instagram": "None", "facebook": "None", "youtube": "None", "website": "None", "summary": "None", "logo": "None", "latitude": 49.290187500000016, "longitude": -123.130035}, "865593834RR0001": {"name": "135 BELL IRVING SQUADRON SPONSORING COMMITTEE", "designationCode": "C", "categoryCode": "29", "address": "135 CHALLENGER SQN            PO BOX 46896  STATION D", "city": "VANCOUVER", "province": "BC", "country": "CA", "postalCode": "V6J5M4", "twitter": "None", "instagram": "None", "facebook": "None", "youtube": "None", "website": "None", "summary": "None", "logo": "None", "latitude": 49.26077700000006, "longitude": -123.14626099999992}, "889215570RR0001": {"name": "14 WING COMBINED CHARITIES", "designationCode": "A", "categoryCode": "05", "address": "14 WING, P.O.BOX 5000,STN MAIN", "city": "GREENWOOD", "province": "NS", "country": "CA", "postalCode": "B0P1N0", "twitter": "None", "instagram": "None", "facebook": "None", "youtube": "None", "website": "None", "summary": "None", "logo": "None", "latitude": 44.996401052198884, "longitude": -64.92800245359393}, "138512868RR0001": {"name": "14 WING GREENWOOD MILITARY FAMILY RESOURCE CENTRE", "designationCode": "C", "categoryCode": "09", "address": "PO BOX 582", "city": "GREENWOOD", "province": "NS", "country": "CA", "postalCode": "B0P1N0", "twitter": "None", "instagram": "None", "facebook": "None", "youtube": "None", "website": "None", "summary": "None", "logo": "None", "latitude": 44.96003355341664, "longitude": -64.89337773105629}, "130387665RR0064": {"name": "142 SQUADRON, ROYAL CANADIAN AIR CADETS", "designationCode": "C", "categoryCode": "29", "address": "FORT YORK ARMOURY             660 FLEET ST. ROOM 104", "city": "TORONTO", "province": "ON", "country": "CA", "postalCode": "M5V1A9", "twitter": "None", "instagram": "None", "facebook": "None", "youtube": "None", "website": "None", "summary": "None", "logo": "None"}, "866971724RR0001": {"name": "147 AIRWOLF AIR CADETS PARENT SOCIETY", "designationCode": "C", "categoryCode": "29", "address": "PO BOX 117 STN MAIN", "city": "CHILLIWACK", "province": "BC", "country": "CA", "postalCode": "V2P6H7", "twitter": "None", "instagram": "None", "facebook": "None", "youtube": "None", "website": "None", "summary": "None", "logo": "None", "latitude": 49.169860930294725, "longitude": -121.95627179555584}, "848370656RR0001": {"name": "149 Arts Society", "designationCode": "C", "categoryCode": "22", "address": "149 WEST HASTINGS STREET", "city": "VANCOUVER", "province": "BC", "country": "CA", "postalCode": "V6B1H7", "twitter": "None", "instagram": "None", "facebook": "None", "youtube": "None", "website": "None", "summary": "None", "logo": "None", "latitude": 49.28235942430033, "longitude": -123.10874817505966}, "876232117RR0001": {"name": "15 ROYAL CANADIAN AIR CADET SQUADRON SPONSORING ASSOCIATION", "designationCode": "C", "categoryCode": "29", "address": "PO BOX 101", "city": "MEDICINE HAT", "province": "AB", "country": "CA", "postalCode": "T1A7E8", "twitter": "None", "instagram": "None", "facebook": "None", "youtube": "None", "website": "None", "summary": "None", "logo": "None", "latitude": 50.04107700000006, "longitude": -110.67813349999993}, "832130694RR0001": {"name": "15th Field Artillery Regimental Society", "designationCode": "C", "categoryCode": "50", "address": "2025 11TH AVENUE WEST", "city": "VANCOUVER", "province": "BC", "country": "CA", "postalCode": "V6J2C7", "twitter": "None", "instagram": "None", "facebook": "None", "youtube": "None", "website": "None", "summary": "None", "logo": "None", "latitude": 49.261992525967926, "longitude": -123.15231038773155}, "108233750RR0001": {"name": "15TH FIELD ARTILLERY REGIMENT, ROYAL CANADIAN ARTILLERY MUSEUM AND ARCHIVES SOCIETY", "designationCode": "C", "categoryCode": "50", "address": "2025 11TH AVE W", "city": "VANCOUVER", "province": "BC", "country": "CA", "postalCode": "V6J2C7", "twitter": "None", "instagram": "None", "facebook": "None", "youtube": "None", "website": "None", "summary": "None", "logo": "None", "latitude": 49.261992525967926, "longitude": -123.15231038773155}, "130387665RR0080": {"name": "150 Hamilton Tiger Squadron Air Cadets Sponsoring Committee", "designationCode": "C", "categoryCode": "29", "address": "200 JAMES ST N", "city": "HAMILTON", "province": "ON", "country": "CA", "postalCode": "L8R2L1", "twitter": "None", "instagram": "None", "facebook": "None", "youtube": "None", "website": "None", "summary": "None", "logo": "None", "latitude": 43.26175898528483, "longitude": -79.86680936300439}, "130387665RR0079": {"name": "151 Chadburn Squadron Royal Canadian Air Cadets Sponsoring Committee", "designationCode": "C", "categoryCode": "29", "address": "1288 RITSON ROAD, NORTH       SUITE 420", "city": "OSHAWA", "province": "ON", "country": "CA", "postalCode": "L1G8B2", "twitter": "None", "instagram": "None", "facebook": "None", "youtube": "None", "website": "None", "summary": "None", "logo": "None", "latitude": 43.9337755850598, "longitude": -78.86860435391512}, "119310142RR0001": {"name": "152E SCOUTS ET GUIDES ST-NOEL CHABANEL (LAVAL EST) (DISTRICTDE MONTREAL)", "designationCode": "C", "categoryCode": "29", "address": "7100 BOULEVARD DES MILLES-ILES", "city": "LAVAL", "province": "QC", "country": "CA", "postalCode": "H7A4B3", "twitter": "None", "instagram": "None", "facebook": "None", "youtube": "None", "website": "None", "summary": "None", "logo": "None", "latitude": 45.69195555337905, "longitude": -73.61707042186512}, "125593657RR0031": {"name": "153 (Varnavair) Squadron Royal Canadian Air Cadets Sponsoring Committee", "designationCode": "C", "categoryCode": "29", "address": "20 DEVON CRT", "city": "TILLSONBURG", "province": "ON", "country": "CA", "postalCode": "N4G4K5", "twitter": "None", "instagram": "None", "facebook": "None", "youtube": "None", "website": "None", "summary": "None", "logo": "None", "latitude": 42.87392672023772, "longitude": -80.7396300113683}, "130387665RR0059": {"name": "155 SQUADRON ROYAL CANADIAN AIR CADETS CIVILIAN SPONSORING COMMITTEE", "designationCode": "C", "categoryCode": "29", "address": "62 MARK ST", "city": "SAULT STE. MARIE", "province": "ON", "country": "CA", "postalCode": "P6A3M2", "twitter": "None", "instagram": "None", "facebook": "None", "youtube": "None", "website": "None", "summary": "None", "logo": "None", "latitude": 46.50538341661367, "longitude": -84.29806038328816}, "853935658RR0001": {"name": "159 Rue Principale", "designationCode": "C", "categoryCode": "11", "address": "2-159, RUE PRINCIPALE EST", "city": "SAINTE-AGATHE-DES-MONTS", "province": "QC", "country": "CA", "postalCode": "J8C1K4", "twitter": "None", "instagram": "None", "facebook": "None", "youtube": "None", "website": "None", "summary": "None", "logo": "None", "latitude": 46.045869160438805, "longitude": -74.28094291887676}, "125593657RR0287": {"name": "161 C.K. Beveridge Squadron, Royal Canadian Air Cadets", "designationCode": "C", "categoryCode": "29", "address": "60 BROADVIEW AVENUE", "city": "SAINT JOHN", "province": "NB", "country": "CA", "postalCode": "E2L5C5", "twitter": "None", "instagram": "None", "facebook": "None", "youtube": "None", "website": "None", "summary": "None", "logo": "None", "latitude": 45.266162711062464, "longitude": -66.05296603926946}, "130387665RR0086": {"name": "166 Bulldog Sqn Royal Canadian Air Cadets Sponsoring Committee", "designationCode": "C", "categoryCode": "29", "address": "4865 LESLIE STREET            PO BOX 20012", "city": "TORONTO", "province": "ON", "country": "CA", "postalCode": "M2J2K8", "twitter": "None", "instagram": "None", "facebook": "None", "youtube": "None", "website": "None", "summary": "None", "logo": "None", "latitude": 43.77916502360199, "longitude": -79.36550805764956}, "130387665RR0044": {"name": "167 AIR MARSHALL BISHOP V.C. R.C. (AIR) S.S.C.", "designationCode": "C", "categoryCode": "29", "address": "PO BOX 10009 KEELING PLACE R.O1183 16TH STREET EAST", "city": "OWEN SOUND", "province": "ON", "country": "CA", "postalCode": "N4K0B3", "twitter": "None", "instagram": "None", "facebook": "None", "youtube": "None", "website": "None", "summary": "None", "logo": "None", "latitude": 44.57686537433588, "longitude": -80.95350388639127}, "812909307RR0001": {"name": "171 Melfort Royal Canadian Air Cadets Sponsoring Committee", "designationCode": "C", "categoryCode": "29", "address": "PO BOX 1373", "city": "MELFORT", "province": "SK", "country": "CA", "postalCode": "S0E1A0", "twitter": "None", "instagram": "None", "facebook": "None", "youtube": "None", "website": "None", "summary": "None", "logo": "None", "latitude": 52.85637, "longitude": -104.63436225000001}, "130387665RR0091": {"name": "172 Clarington Osprey Royal Canadian Air Cadets Squadron Sponsoring Committee", "designationCode": "C", "categoryCode": "29", "address": "53 MOLSON STREET", "city": "PORT HOPE", "province": "ON", "country": "CA", "postalCode": "L1A2J8", "twitter": "None", "instagram": "None", "facebook": "None", "youtube": "None", "website": "None", "summary": "None", "logo": "None", "latitude": 43.967756998586374, "longitude": -78.29330249235394}, "125593657RR0252": {"name": "176 (BOEING OF CANADA) ROYAL CANADIAN AIR CADET SQUADRON", "designationCode": "C", "categoryCode": "29", "address": "180-1596 REGENT AVE.", "city": "WINNIPEG", "province": "MB", "country": "CA", "postalCode": "R2C4H4", "twitter": "None", "instagram": "None", "facebook": "None", "youtube": "None", "website": "None", "summary": "None", "logo": "None", "latitude": 49.89795700519116, "longitude": -97.06790701503023}, "130387665RR0018": {"name": "180 MOSQUITO SQUADRON, ROYAL CANADIAN AIR CADETS", "designationCode": "C", "categoryCode": "29", "address": "89 COLLEGE VIEW AVENUE", "city": "TORONTO", "province": "ON", "country": "CA", "postalCode": "M5P1J9", "twitter": "None", "instagram": "None", "facebook": "None", "youtube": "None", "website": "None", "summary": "None", "logo": "None", "latitude": 43.70214677655964, "longitude": -79.41100556618966}, "130387665RR0039": {"name": "183 TYPHOON SQUADRON ROYAL CANADIAN AIR CADETS", "designationCode": "C", "categoryCode": "29", "address": "216 KINGSWAY ST.", "city": "KINCARDINE", "province": "ON", "country": "CA", "postalCode": "N2Z1C3", "twitter": "None", "instagram": "None", "facebook": "None", "youtube": "None", "website": "None", "summary": "None", "logo": "None", "latitude": 44.18567757089286, "longitude": -81.63240354345305}, "118950377RR0001": {"name": "187839 Canada Institute", "designationCode": "C", "categoryCode": "47", "address": "P.O. BOX 3055", "city": "WINNIPEG", "province": "MB", "country": "CA", "postalCode": "R3C4E5", "twitter": "None", "instagram": "None", "facebook": "None", "youtube": "None", "website": "None", "summary": "None", "logo": "None", "latitude": 49.899525000000054, "longitude": -97.14112999999993}, "119310258RR0001": {"name": "1956/86 HUNGARIAN MEMORIAL FOUNDATION B.C.", "designationCode": "C", "categoryCode": "59", "address": "1798 W. 14TH AVE.", "city": "VANCOUVER", "province": "BC", "country": "CA", "postalCode": "V6J2J7", "twitter": "None", "instagram": "None", "facebook": "None", "youtube": "None", "website": "None", "summary": "None", "logo": "None", "latitude": 49.25896258271607, "longitude": -123.14586597042408}, "130387665RR0021": {"name": "197 ACTON SQUADRON, ROYAL CANADIAN AIR CADETS", "designationCode": "C", "categoryCode": "29", "address": "PO BOX 197 STN MAIN", "city": "ACTON", "province": "ON", "country": "CA", "postalCode": "L7J2M3", "twitter": "None", "instagram": "None", "facebook": "None", "youtube": "None", "website": "None", "summary": "None", "logo": "None", "latitude": 43.63596821939379, "longitude": -80.04985348673739}, "866795255RR0005": {"name": "199 Royal Canadian Air Cadet Squadron", "designationCode": "C", "categoryCode": "29", "address": "426 OSBORNE ST", "city": "WINNIPEG", "province": "MB", "country": "CA", "postalCode": "R3L2A3", "twitter": "None", "instagram": "None", "facebook": "None", "youtube": "None", "website": "None", "summary": "None", "logo": "None", "latitude": 49.86871947988914, "longitude": -97.13729436271592}, "886752146RR0001": {"name": "2 - SPIRITED PEOPLE OF THE 1ST NATIONS", "designationCode": "B", "categoryCode": "11", "address": "105-145 FRONT STREET EAST", "city": "TORONTO", "province": "ON", "country": "CA", "postalCode": "M5A1E3", "twitter": "None", "instagram": "None", "facebook": "None", "youtube": "None", "website": "None", "summary": "None", "logo": "None", "latitude": 43.65001178766814, "longitude": -79.36928819816495}, "851441154RR0001": {"name": "2 Equal 1 Canada Inc.", "designationCode": "C", "categoryCode": "49", "address": "4907 - 50TH STREET            P.O. BOX 1399", "city": "ATHABASCA", "province": "AB", "country": "CA", "postalCode": "T9S2B2", "twitter": "None", "instagram": "None", "facebook": "None", "youtube": "None", "website": "None", "summary": "None", "logo": "None", "latitude": 54.719955, "longitude": -113.28590104097155}, "845530377RR0001": {"name": "2 Intelligence Company Senate", "designationCode": "C", "categoryCode": "09", "address": "204 - 2788 BATHURST ST", "city": "NORTH YORK", "province": "ON", "country": "CA", "postalCode": "M6B3A3", "twitter": "None", "instagram": "None", "facebook": "None", "youtube": "None", "website": "None", "summary": "None", "logo": "None", "latitude": 43.71180723313524, "longitude": -79.42801656927674}, "802101790RR0001": {"name": "2 Kids With Love Global Education Inc.", "designationCode": "C", "categoryCode": "09", "address": "10500 DUFFERIN ST", "city": "MAPLE", "province": "ON", "country": "CA", "postalCode": "L6A4R1", "twitter": "None", "instagram": "None", "facebook": "None", "youtube": "None", "website": "None", "summary": "None", "logo": "None", "latitude": 43.8788143030758, "longitude": -79.49169012675249}, "837111392RR0001": {"name": "2 Rooms Contemporary Art Projects Corp.", "designationCode": "C", "categoryCode": "22", "address": "PO BOX 4", "city": "DUNTARA", "province": "NL", "country": "CA", "postalCode": "A0C1M0", "twitter": "None", "instagram": "None", "facebook": "None", "youtube": "None", "website": "None", "summary": "None", "logo": "None", "latitude": 48.59990000000005, "longitude": -53.36475999999993}, "130387665RR0073": {"name": "2 WHITBY ROYAL CANADIAN AIR CADET SQUADRON SPONSORING COMMITTEE", "designationCode": "C", "categoryCode": "29", "address": "30 GEDDY ST", "city": "WHITBY", "province": "ON", "country": "CA", "postalCode": "L1P1P9", "twitter": "None", "instagram": "None", "facebook": "None", "youtube": "None", "website": "None", "summary": "None", "logo": "None", "latitude": 43.90714219594325, "longitude": -78.96645744688074}, "814422267RR0001": {"name": "2nd Chance, International", "designationCode": "C", "categoryCode": "20", "address": "PMB #254                      27-1300 KING STREET EAST", "city": "OSHAWA", "province": "ON", "country": "CA", "postalCode": "L1H8J4", "twitter": "None", "instagram": "None", "facebook": "None", "youtube": "None", "website": "None", "summary": "None", "logo": "None", "latitude": 43.90640604644146, "longitude": -78.81565125724738}, "868740929RR0001": {"name": "2B THEATRE ASSOCIATION", "designationCode": "C", "categoryCode": "22", "address": "6068 QUINPOOL ROAD", "city": "HALIFAX", "province": "NS", "country": "CA", "postalCode": "B3L1A1", "twitter": "None", "instagram": "None", "facebook": "None", "youtube": "None", "website": "None", "summary": "None", "logo": "None", "latitude": 44.64671299526814, "longitude": -63.59244392255761}, "817998701RR0001": {"name": "2C Beyond Ministries", "designationCode": "C", "categoryCode": "49", "address": "10, THISTLEDOWN DRIVE", "city": "BRANTFORD", "province": "ON", "country": "CA", "postalCode": "N3R6R9", "twitter": "None", "instagram": "None", "facebook": "None", "youtube": "None", "website": "None", "summary": "None", "logo": "None", "latitude": 43.17264878155128, "longitude": -80.29196172649878}, "826885055RR0001": {"name": "2FortyTwo Church", "designationCode": "C", "categoryCode": "39", "address": "333 MOUNTAINVIEW RD SOUTH     PO BOX 30021", "city": "GEORGETOWN", "province": "ON", "country": "CA", "postalCode": "L7G6J8", "twitter": "None", "instagram": "None", "facebook": "None", "youtube": "None", "website": "None", "summary": "None", "logo": "None", "latitude": 43.6324582104273, "longitude": -79.87926606820982}, "888642931RR0001": {"name": "2LEARN.CA EDUCATION SOCIETY", "designationCode": "C", "categoryCode": "21", "address": "11010 142 ST NW", "city": "EDMONTON", "province": "AB", "country": "CA", "postalCode": "T5N2R1", "twitter": "None", "instagram": "None", "facebook": "None", "youtube": "None", "website": "None", "summary": "None", "logo": "None", "latitude": 53.55767700000001, "longitude": -113.56596971991966}, "891096943RR0001": {"name": "2ND BATTALION NOVA SCOTIA HIGHLANDERS (CAPE BRETON) CAPITAL FUND", "designationCode": "C", "categoryCode": "51", "address": "147 LORNE STREET", "city": "SYDNEY", "province": "NS", "country": "CA", "postalCode": "B1P4H5", "twitter": "None", "instagram": "None", "facebook": "None", "youtube": "None", "website": "None", "summary": "None", "logo": "None", "latitude": 46.141828061342224, "longitude": -60.1670430564948}, "130387665RR0070": {"name": "201 DORCHESTER RCAC", "designationCode": "C", "categoryCode": "29", "address": "PO BOX 62", "city": "DORCHESTER", "province": "ON", "country": "CA", "postalCode": "N0L1G0", "twitter": "None", "instagram": "None", "facebook": "None", "youtube": "None", "website": "None", "summary": "None", "logo": "None", "latitude": 42.98611200000006, "longitude": -81.04994449999994}}