{"119264174RR0033": {"name": "ASSUMPTION OF BLESSED VIRGIN MARY CHURCH", "designationCode": "C", "categoryCode": "38", "address": "479 OLIVER ROAD", "city": "THUNDER BAY", "province": "ON", "country": "CA", "postalCode": "P7B2G8", "twitter": "None", "instagram": "None", "facebook": "None", "youtube": "None", "website": "None", "summary": "None", "logo": "None", "latitude": 48.428947583386346, "longitude": -89.24356110629584}, "118795293RR0001": {"name": "ASSUMPTION OF OUR LADY CHURCH", "designationCode": "C", "categoryCode": "38", "address": "PO BOX 107", "city": "AMARANTH", "province": "MB", "country": "CA", "postalCode": "R0H0B0", "twitter": "None", "instagram": "None", "facebook": "None", "youtube": "None", "website": "None", "summary": "None", "logo": "None", "latitude": 50.59495000000004, "longitude": -98.73795999999999}, "889012993RR0001": {"name": "ASSUMPTION OF THE Bless Virgin Mary Ukrainian Catholic Church", "designationCode": "C", "categoryCode": "38", "address": "RR 1 SITE 9 BOX 13", "city": "LEGAL", "province": "AB", "country": "CA", "postalCode": "T0G1L0", "twitter": "None", "instagram": "None", "facebook": "None", "youtube": "None", "website": "None", "summary": "None", "logo": "None", "latitude": 53.94912000000005, "longitude": -113.59333699999993}, "107362030RR0001": {"name": "ASSUMPTION OF THE BLESSED VIRGIN MARY CHURCH", "designationCode": "C", "categoryCode": "38", "address": "6175-10TH AVENUE", "city": "MONTREAL", "province": "QC", "country": "CA", "postalCode": "H1Y2H5", "twitter": "None", "instagram": "None", "facebook": "None", "youtube": "None", "website": "None", "summary": "None", "logo": "None", "latitude": 45.55289597198327, "longitude": -73.58199634303774}, "118795319RR0001": {"name": "ASSUMPTION OF THE BLESSED VIRGIN MARY CHURCH", "designationCode": "C", "categoryCode": "38", "address": "BOX 234", "city": "LESTOCK", "province": "SK", "country": "CA", "postalCode": "S0A2G0", "twitter": "None", "instagram": "None", "facebook": "None", "youtube": "None", "website": "None", "summary": "None", "logo": "None", "latitude": 51.31678000000005, "longitude": -103.98436999999996}, "118795350RR0001": {"name": "ASSUMPTION OF THE BLESSED VIRGIN MARY CHURCH", "designationCode": "C", "categoryCode": "38", "address": "276 BATHURST ST", "city": "TORONTO", "province": "ON", "country": "CA", "postalCode": "M5T2S3", "twitter": "None", "instagram": "None", "facebook": "None", "youtube": "None", "website": "None", "summary": "None", "logo": "None", "latitude": 43.65014560338166, "longitude": -79.40519615295153}, "118795343RR0001": {"name": "ASSUMPTION OF THE BLESSED VIRGIN MARY CHURH", "designationCode": "C", "categoryCode": "38", "address": "1406 BARTON STREET EAST", "city": "HAMILTON", "province": "ON", "country": "CA", "postalCode": "L8H2W5", "twitter": "None", "instagram": "None", "facebook": "None", "youtube": "None", "website": "None", "summary": "None", "logo": "None", "latitude": 43.24830728608514, "longitude": -79.8025755454825}, "886056993RR0001": {"name": "ASSUMPTION OF THE BLESSED VIRGIN MARY PARISH", "designationCode": "C", "categoryCode": "38", "address": "BOX 57", "city": "ALVENA", "province": "SK", "country": "CA", "postalCode": "S0K0E0", "twitter": "None", "instagram": "None", "facebook": "None", "youtube": "None", "website": "None", "summary": "None", "logo": "None", "latitude": 52.51840000000004, "longitude": -106.02072999999996}, "107585085RR0016": {"name": "ASSUMPTION OF THE BLESSED VIRGIN MARY PARISH, PORCUPINE PLAIN, SK", "designationCode": "C", "categoryCode": "38", "address": "PO BOX 280", "city": "PORCUPINE PLAIN", "province": "SK", "country": "CA", "postalCode": "S0E1H0", "twitter": "None", "instagram": "None", "facebook": "None", "youtube": "None", "website": "None", "summary": "None", "logo": "None", "latitude": 52.40432854035895, "longitude": -102.16241062311786}, "871776365RR0001": {"name": "ASSUMPTION OF THE BLESSED VIRGIN MARY PARISH, RADWAY", "designationCode": "C", "categoryCode": "39", "address": "BOX 231", "city": "RADWAY", "province": "AB", "country": "CA", "postalCode": "T0A2V0", "twitter": "None", "instagram": "None", "facebook": "None", "youtube": "None", "website": "None", "summary": "None", "logo": "None", "latitude": 54.064550000000054, "longitude": -112.94705999999996}, "107585085RR0042": {"name": "ASSUMPTION OF THE BLESSED VIRGIN MARY PARISH, ST. WALBURG", "designationCode": "C", "categoryCode": "38", "address": "PO BOX 279", "city": "ST WALBURG", "province": "SK", "country": "CA", "postalCode": "S0M2T0", "twitter": "None", "instagram": "None", "facebook": "None", "youtube": "None", "website": "None", "summary": "None", "logo": "None", "latitude": 53.63522000000006, "longitude": -109.20051999999998}, "128967353RR0045": {"name": "ASSUMPTION OF THE BLESSED VIRGIN MARY'S PARISH,", "designationCode": "C", "categoryCode": "38", "address": "320 OLMSTEAD ST", "city": "VANIER", "province": "ON", "country": "CA", "postalCode": "K1L7K3", "twitter": "None", "instagram": "None", "facebook": "None", "youtube": "None", "website": "None", "summary": "None", "logo": "None", "latitude": 45.433963195106536, "longitude": -75.66115207954853}, "886581594RR0001": {"name": "ASSUMPTION OF THE BVM UKRAINIAN CATHOLIC PARISH DAYSLAND", "designationCode": "C", "categoryCode": "38", "address": "PO BOX 366", "city": "DAYSLAND", "province": "AB", "country": "CA", "postalCode": "T0B1A0", "twitter": "None", "instagram": "None", "facebook": "None", "youtube": "None", "website": "None", "summary": "None", "logo": "None", "latitude": 52.86684000000008, "longitude": -112.25183999999996}, "107910192RR0018": {"name": "ASSUMPTION PARISH", "designationCode": "C", "categoryCode": "38", "address": "POST OFFICE BOX 160", "city": "STEPHENVILLE CROSSING", "province": "NL", "country": "CA", "postalCode": "A0N2C0", "twitter": "None", "instagram": "None", "facebook": "None", "youtube": "None", "website": "None", "summary": "None", "logo": "None", "latitude": 48.50488000000007, "longitude": -58.44321999999994}, "119109817RR0133": {"name": "ASSUMPTION PARISH", "designationCode": "C", "categoryCode": "38", "address": "350 HURON CHURCH RD", "city": "WINDSOR", "province": "ON", "country": "CA", "postalCode": "N9C2J9", "twitter": "None", "instagram": "None", "facebook": "None", "youtube": "None", "website": "None", "summary": "None", "logo": "None", "latitude": 42.30677389020426, "longitude": -83.07033387527801}, "129930228RR0015": {"name": "ASSUMPTION PARISH", "designationCode": "C", "categoryCode": "38", "address": "44 MARIAN DR", "city": "PERTH-ANDOVER", "province": "NB", "country": "CA", "postalCode": "E7H3A7", "twitter": "None", "instagram": "None", "facebook": "None", "youtube": "None", "website": "None", "summary": "None", "logo": "None", "latitude": 46.75970467884118, "longitude": -67.70267337910741}, "106880107RR0004": {"name": "ASSUMPTION PARISH, ARICHAT", "designationCode": "C", "categoryCode": "38", "address": "PO BOX 60", "city": "ARICHAT", "province": "NS", "country": "CA", "postalCode": "B0E1A0", "twitter": "None", "instagram": "None", "facebook": "None", "youtube": "None", "website": "None", "summary": "None", "logo": "None", "latitude": 45.51193000000006, "longitude": -61.01564999999994}, "118795418RR0001": {"name": "ASSUMPTION ROMAN CATHOLIC CHURCH", "designationCode": "C", "categoryCode": "38", "address": "P.O BOX 40", "city": "HOLDFAST", "province": "SK", "country": "CA", "postalCode": "S0G2H0", "twitter": "None", "instagram": "None", "facebook": "None", "youtube": "None", "website": "None", "summary": "None", "logo": "None", "latitude": 50.966770000000054, "longitude": -105.41784999999999}, "118795426RR0001": {"name": "ASSUMPTION UNIVERSITY", "designationCode": "C", "categoryCode": "20", "address": "400 HURON CHURCH ROAD", "city": "WINDSOR", "province": "ON", "country": "CA", "postalCode": "N9C2J9", "twitter": "None", "instagram": "None", "facebook": "None", "youtube": "None", "website": "None", "summary": "None", "logo": "None", "latitude": 42.30581785403067, "longitude": -83.0697532695774}, "863858494RR0001": {"name": "ASSUNNAH MUSLIMS ASSOCIATION", "designationCode": "C", "categoryCode": "60", "address": "2515 BANK ST                  P.O. BOX 40149", "city": "OTTAWA", "province": "ON", "country": "CA", "postalCode": "K1V0W8", "twitter": "None", "instagram": "None", "facebook": "None", "youtube": "None", "website": "None", "summary": "None", "logo": "None", "latitude": 45.35398346604166, "longitude": -75.6437969736156}, "888491396RR0001": {"name": "ASSYRIAN GOSPEL CHURCH", "designationCode": "C", "categoryCode": "39", "address": "355 HOWDEN BLVD", "city": "BRAMPTON", "province": "ON", "country": "CA", "postalCode": "L6S4L6", "twitter": "None", "instagram": "None", "facebook": "None", "youtube": "None", "website": "None", "summary": "None", "logo": "None", "latitude": 43.71757964588242, "longitude": -79.74011635293415}, "131892127RR0001": {"name": "ASTHME ET ALLERGIES QU\u00c9BEC INC.", "designationCode": "C", "categoryCode": "09", "address": "880 - 2600 BOUL LAURIER", "city": "QUEBEC", "province": "QC", "country": "CA", "postalCode": "G1V4W2", "twitter": "None", "instagram": "None", "facebook": "None", "youtube": "None", "website": "None", "summary": "None", "logo": "None", "latitude": 46.771007926769876, "longitude": -71.28123332116652}, "896543337RR0001": {"name": "ASTROLAB DU MONT-MEGANTIC", "designationCode": "C", "categoryCode": "50", "address": "189, ROUTE DU PARC", "city": "NOTRE DAME DES BOIS", "province": "QC", "country": "CA", "postalCode": "J0B2E0", "twitter": "None", "instagram": "None", "facebook": "None", "youtube": "None", "website": "None", "summary": "None", "logo": "None", "latitude": 45.434481792188535, "longitude": -71.13070600966653}, "132041021RR0001": {"name": "ASTTBC Foundation", "designationCode": "C", "categoryCode": "21", "address": "10767 - 148TH STREET", "city": "SURREY", "province": "BC", "country": "CA", "postalCode": "V3R0S4", "twitter": "None", "instagram": "None", "facebook": "None", "youtube": "None", "website": "None", "summary": "None", "logo": "None", "latitude": 49.198049580904836, "longitude": -122.81253204498226}, "130645203RR0001": {"name": "AT LOHSA NATIVE FAMILY HEALING SERVICES INC.", "designationCode": "C", "categoryCode": "09", "address": "RR 2", "city": "SOUTHWOLD", "province": "ON", "country": "CA", "postalCode": "N0L2G0", "twitter": "None", "instagram": "None", "facebook": "None", "youtube": "None", "website": "None", "summary": "None", "logo": "None", "latitude": 42.79294948631506, "longitude": -81.38619480219688}, "848128211RR0001": {"name": "AT THE CROSSROADS INC.", "designationCode": "C", "categoryCode": "39", "address": "24 DUNDAS STREET WEST", "city": "TRENTON", "province": "ON", "country": "CA", "postalCode": "K8V3P2", "twitter": "None", "instagram": "None", "facebook": "None", "youtube": "None", "website": "None", "summary": "None", "logo": "None", "latitude": 44.10153626423905, "longitude": -77.57583100724203}, "814870077RR0001": {"name": "AT THE KITCHEN TABLE FOUNDATION", "designationCode": "B", "categoryCode": "03", "address": "4732 WEST 7TH AVENUE", "city": "VANCOUVER", "province": "BC", "country": "CA", "postalCode": "V6T1C6", "twitter": "None", "instagram": "None", "facebook": "None", "youtube": "None", "website": "None", "summary": "None", "logo": "None", "latitude": 49.26645689039212, "longitude": -123.21664385829395}, "890155690RR0001": {"name": "AT THY WORD MINISTRIES, INC.", "designationCode": "C", "categoryCode": "39", "address": "P.O. BOX 1595", "city": "CORNWALL", "province": "ON", "country": "CA", "postalCode": "K6H5V6", "twitter": "None", "instagram": "None", "facebook": "None", "youtube": "None", "website": "None", "summary": "None", "logo": "None", "latitude": 45.028419000000056, "longitude": -74.73569299999993}, "866794183RR0001": {"name": "ATAXIA TELANGIECTASIA CHILDREN'S PROJECT (CANADA)", "designationCode": "C", "categoryCode": "11", "address": "1400-340 RUE ALBERT STREET", "city": "OTTAWA", "province": "ON", "country": "CA", "postalCode": "K1R0A5", "twitter": "None", "instagram": "None", "facebook": "None", "youtube": "None", "website": "None", "summary": "None", "logo": "None", "latitude": 45.41856366192525, "longitude": -75.70342211835663}, "812566370RR0001": {"name": "ATB Investor Services Foundation", "designationCode": "A", "categoryCode": "05", "address": "SUITE 403 322-11TH AVE SW", "city": "CALGARY", "province": "AB", "country": "CA", "postalCode": "T2R0C5", "twitter": "None", "instagram": "None", "facebook": "None", "youtube": "None", "website": "None", "summary": "None", "logo": "None", "latitude": 51.042551467684106, "longitude": -114.0685795269202}, "106735129RR0001": {"name": "ATCHELITZ THRESHERMENS ASSOCIATION", "designationCode": "C", "categoryCode": "50", "address": "44146 LUCKAKUCK WAY", "city": "CHILLIWACK", "province": "BC", "country": "CA", "postalCode": "V2R4A7", "twitter": "None", "instagram": "None", "facebook": "None", "youtube": "None", "website": "None", "summary": "None", "logo": "None", "latitude": 49.14377536287921, "longitude": -122.00389785869014}, "890178445RR0001": {"name": "ATCO ELECTRIC EPIC", "designationCode": "B", "categoryCode": "75", "address": "10035-105 STREET              10TH FLOOR ATCO CENTRE", "city": "EDMONTON", "province": "AB", "country": "CA", "postalCode": "T5J2V6", "twitter": "None", "instagram": "None", "facebook": "None", "youtube": "None", "website": "None", "summary": "None", "logo": "None", "latitude": 53.53998345045878, "longitude": -113.50108586563012}, "119062198RR0001": {"name": "ATCO GAS EMPLOYEES PARTICIPATING IN COMMUNITIES", "designationCode": "B", "categoryCode": "75", "address": "1300 - 909 11 AVE SW", "city": "CALGARY", "province": "AB", "country": "CA", "postalCode": "T2R1L8", "twitter": "None", "instagram": "None", "facebook": "None", "youtube": "None", "website": "None", "summary": "None", "logo": "None", "latitude": 51.042715820250855, "longitude": -114.07604159103731}, "118836766RR0001": {"name": "ATCO PIPELINES EMPLOYEES COMMUNITY SERVICE FUND", "designationCode": "B", "categoryCode": "75", "address": "CC : LORAINE SOPOCO           1300, 909-11TH AVE S.W", "city": "CALGARY", "province": "AB", "country": "CA", "postalCode": "T2R1L8", "twitter": "None", "instagram": "None", "facebook": "None", "youtube": "None", "website": "None", "summary": "None", "logo": "None", "latitude": 51.042848481245464, "longitude": -114.08204155689883}, "144934924RR0001": {"name": "ATELIER ACTION JEUNESSE T.R. INC.", "designationCode": "C", "categoryCode": "20", "address": "3275 RUE GIRARD", "city": "TROIS-RIVIERES", "province": "QC", "country": "CA", "postalCode": "G8Z2M5", "twitter": "None", "instagram": "None", "facebook": "None", "youtube": "None", "website": "None", "summary": "None", "logo": "None", "latitude": 46.34217013791925, "longitude": -72.57481109634116}, "118795483RR0001": {"name": "ATELIER ALAKAZOU", "designationCode": "C", "categoryCode": "20", "address": "1196 GIRARD", "city": "SAINT-HUBERT", "province": "QC", "country": "CA", "postalCode": "J4T1H4", "twitter": "None", "instagram": "None", "facebook": "None", "youtube": "None", "website": "None", "summary": "None", "logo": "None", "latitude": 45.49930136190787, "longitude": -73.45486764767142}, "118795491RR0001": {"name": "ATELIER ALTITUDE INC.", "designationCode": "C", "categoryCode": "09", "address": "10 RUE DE L'EGLISE", "city": "SAINTE-THERESE", "province": "QC", "country": "CA", "postalCode": "J7E3L1", "twitter": "None", "instagram": "None", "facebook": "None", "youtube": "None", "website": "None", "summary": "None", "logo": "None", "latitude": 45.6405903388773, "longitude": -73.8442895985609}, "897237939RR0001": {"name": "ATELIER D'EDUCATION POPULAIRE", "designationCode": "C", "categoryCode": "21", "address": "106 - A PRINCIPALE", "city": "SAINT-ANDR\u00c9-AVELLIN", "province": "QC", "country": "CA", "postalCode": "J0V1W0", "twitter": "None", "instagram": "None", "facebook": "None", "youtube": "None", "website": "None", "summary": "None", "logo": "None", "latitude": 45.72368020399333, "longitude": -75.05441026322943}, "122840499RR0001": {"name": "ATELIER DE FORMATION SOCIOPROFESSIONNELLE DE LA PETITE-NATION", "designationCode": "C", "categoryCode": "09", "address": "358 RUE ROSSY", "city": "SAINT-ANDRE-AVELLIN", "province": "QC", "country": "CA", "postalCode": "J0V1W0", "twitter": "None", "instagram": "None", "facebook": "None", "youtube": "None", "website": "None", "summary": "None", "logo": "None", "latitude": 45.72574864498837, "longitude": -75.04531469193253}, "106735384RR0001": {"name": "ATELIER DE MUSIQUE DE JONQUIERE INC.", "designationCode": "C", "categoryCode": "20", "address": "1910-101 RUE DU CENTRE", "city": "JONQUIERE", "province": "QC", "country": "CA", "postalCode": "G7S2X3", "twitter": "None", "instagram": "None", "facebook": "None", "youtube": "None", "website": "None", "summary": "None", "logo": "None", "latitude": 48.42684280454585, "longitude": -71.18486227729412}, "836368472RR0001": {"name": "ATELIER DE RECUPERATION ST JOSEPH INC", "designationCode": "C", "categoryCode": "59", "address": "20 BOUL DU SAGUENAY E", "city": "CHICOUTIMI", "province": "QC", "country": "CA", "postalCode": "G7H1K3", "twitter": "None", "instagram": "None", "facebook": "None", "youtube": "None", "website": "None", "summary": "None", "logo": "None", "latitude": 48.429425579491216, "longitude": -71.06760236234055}, "118795541RR0001": {"name": "ATELIER DE TRAVAIL JEUNESSE-01", "designationCode": "C", "categoryCode": "59", "address": "145 RUE LEPAGE", "city": "RIMOUSKI", "province": "QC", "country": "CA", "postalCode": "G5L8W2", "twitter": "None", "instagram": "None", "facebook": "None", "youtube": "None", "website": "None", "summary": "None", "logo": "None", "latitude": 48.451943872035436, "longitude": -68.52407091759461}, "894385582RR0001": {"name": "ATELIER DE TRI DES MATIERES PLASTIQUES RECYCLABLES DU QUEBEC INC.", "designationCode": "C", "categoryCode": "59", "address": "3405 BOUL. INDUSTRIEL", "city": "LAVAL", "province": "QC", "country": "CA", "postalCode": "H7L4S3", "twitter": "None", "instagram": "None", "facebook": "None", "youtube": "None", "website": "None", "summary": "None", "logo": "None", "latitude": 45.59303925119731, "longitude": -73.7451010296615}, "141391060RR0001": {"name": "ATELIER DES AINES DE LA M.R.C. RIVIERE DU NORD", "designationCode": "C", "categoryCode": "09", "address": "668 RUE LABELLE", "city": "ST-JEROME", "province": "QC", "country": "CA", "postalCode": "J7Z5L5", "twitter": "None", "instagram": "None", "facebook": "None", "youtube": "None", "website": "None", "summary": "None", "logo": "None", "latitude": 45.784684666108866, "longitude": -74.00286686069578}, "106735459RR0001": {"name": "ATELIER DES VIEILLES FORGES INC.", "designationCode": "C", "categoryCode": "01", "address": "1000 PLACE BOLAND", "city": "TROIS RIVIERES", "province": "QC", "country": "CA", "postalCode": "G8Z4H2", "twitter": "None", "instagram": "None", "facebook": "None", "youtube": "None", "website": "None", "summary": "None", "logo": "None", "latitude": 46.34092875766085, "longitude": -72.58055923731882}, "887092658RR0001": {"name": "ATELIER DU CONTE EN MUSIQUE ET EN IMAGES INC.", "designationCode": "C", "categoryCode": "22", "address": "4894 BLVD DES SOURCES         C P 43529", "city": "DOLLARD DES ORMEAUX", "province": "QC", "country": "CA", "postalCode": "H8Y3P4", "twitter": "None", "instagram": "None", "facebook": "None", "youtube": "None", "website": "None", "summary": "None", "logo": "None", "latitude": 45.5045907218825, "longitude": -73.81796400753048}, "125646059RR0001": {"name": "ATELIER DU MARTIN-PECHEUR INC.", "designationCode": "C", "categoryCode": "59", "address": "192 BOUL. NOTRE-DAME", "city": "CLERMONT", "province": "QC", "country": "CA", "postalCode": "G4A1E9", "twitter": "None", "instagram": "None", "facebook": "None", "youtube": "None", "website": "None", "summary": "None", "logo": "None", "latitude": 47.690791535634126, "longitude": -70.23578135942637}, "100318195RR0001": {"name": "ATELIER INDUSTRIEL ST-JEAN (1980) INC.", "designationCode": "C", "categoryCode": "59", "address": "277, RUE LANGLOIS", "city": "ST-JEAN-SUR-RICHELIEU", "province": "QC", "country": "CA", "postalCode": "J3B4S4", "twitter": "None", "instagram": "None", "facebook": "None", "youtube": "None", "website": "None", "summary": "None", "logo": "None", "latitude": 45.308987245628714, "longitude": -73.29063192806886}, "118847680RR0001": {"name": "ATELIER JEM INC./JEM WORKSHOP INC.", "designationCode": "C", "categoryCode": "09", "address": "8400 MOUNTAIN SIGHTS", "city": "MONTREAL", "province": "QC", "country": "CA", "postalCode": "H4P2B9", "twitter": "None", "instagram": "None", "facebook": "None", "youtube": "None", "website": "None", "summary": "None", "logo": "None", "latitude": 45.50188504218364, "longitude": -73.65863479796856}, "100318310RR0001": {"name": "ATELIER LA BOITE A SURPRISE INC.", "designationCode": "C", "categoryCode": "20", "address": "15 DU-BOISE-DES-FRANCISCAINES SUITE 102", "city": "RIGAUD", "province": "QC", "country": "CA", "postalCode": "J0P1P0", "twitter": "None", "instagram": "None", "facebook": "None", "youtube": "None", "website": "None", "summary": "None", "logo": "None", "latitude": 45.47594442050879, "longitude": -74.29715182901505}, "106735525RR0001": {"name": "ATELIER LE FIL D'ARIANE INC.", "designationCode": "C", "categoryCode": "22", "address": "4837, RUE BOYER               BUREAU 100", "city": "MONTR\u00c9AL", "province": "QC", "country": "CA", "postalCode": "H2J3E6", "twitter": "None", "instagram": "None", "facebook": "None", "youtube": "None", "website": "None", "summary": "None", "logo": "None", "latitude": 45.52928927589581, "longitude": -73.58399111114326}, "118795590RR0001": {"name": "ATELIER OCCUPATIONNEL RIVE-SUD INC.", "designationCode": "C", "categoryCode": "11", "address": "4275, BOUL. GUILLAUME-COUTURE", "city": "LEVIS", "province": "QC", "country": "CA", "postalCode": "G6W6M9", "twitter": "None", "instagram": "None", "facebook": "None", "youtube": "None", "website": "None", "summary": "None", "logo": "None", "latitude": 46.778429712476104, "longitude": -71.1944690150323}, "128590817RR0001": {"name": "ATELIER THEATRE SOCIETY", "designationCode": "C", "categoryCode": "22", "address": "157 KING ST EAST  4TH FLOOR   ST LAWRENCE HALL", "city": "TORONTO", "province": "ON", "country": "CA", "postalCode": "M5C1G9", "twitter": "None", "instagram": "None", "facebook": "None", "youtube": "None", "website": "None", "summary": "None", "logo": "None", "latitude": 43.6503699594612, "longitude": -79.37216995614286}, "863775110RR0001": {"name": "ATELIER 19", "designationCode": "C", "categoryCode": "22", "address": "SUITE 303                     279, RUE PRINCIPALE", "city": "GRANBY", "province": "QC", "country": "CA", "postalCode": "J2G2W1", "twitter": "None", "instagram": "None", "facebook": "None", "youtube": "None", "website": "None", "summary": "None", "logo": "None", "latitude": 45.40118229868971, "longitude": -72.72956860667121}, "867674889RR0001": {"name": "ATELIERS BEAUX-ARTS DU RIVAGE", "designationCode": "C", "categoryCode": "22", "address": "2084 RUE JOLIETTE", "city": "MONTREAL", "province": "QC", "country": "CA", "postalCode": "H1W3G6", "twitter": "None", "instagram": "None", "facebook": "None", "youtube": "None", "website": "None", "summary": "None", "logo": "None", "latitude": 45.545248111835754, "longitude": -73.54621049223837}, "118795632RR0001": {"name": "ATELIERS D'EDUCATION POPULAIRE DU PLATEAU", "designationCode": "C", "categoryCode": "29", "address": "4273, RUE DROLET", "city": "MONTREAL", "province": "QC", "country": "CA", "postalCode": "H2W2L7", "twitter": "None", "instagram": "None", "facebook": "None", "youtube": "None", "website": "None", "summary": "None", "logo": "None", "latitude": 45.52187823203872, "longitude": -73.5801182031566}, "120513809RR0001": {"name": "ATELIERS EDUCATIFS: \"LES PETITS MOUSSES\"", "designationCode": "C", "categoryCode": "09", "address": "994 RUE DE LANAUDIERE", "city": "JOLIETTE", "province": "QC", "country": "CA", "postalCode": "J6E3N6", "twitter": "None", "instagram": "None", "facebook": "None", "youtube": "None", "website": "None", "summary": "None", "logo": "None", "latitude": 46.01765451295483, "longitude": -73.44526049396913}, "878476522RR0001": {"name": "ATELIERS L'AQUARIUM ET LE GLOBE", "designationCode": "C", "categoryCode": "22", "address": "2915 RUE ONTARIO EST", "city": "MONTREAL", "province": "QC", "country": "CA", "postalCode": "H2K1X7", "twitter": "None", "instagram": "None", "facebook": "None", "youtube": "None", "website": "None", "summary": "None", "logo": "None", "latitude": 45.53734516708981, "longitude": -73.54969346491414}, "106735533RR0001": {"name": "ATELIERS LEOPOLD-DESROSIERS INC.", "designationCode": "C", "categoryCode": "59", "address": "60 RUE BRILLANT", "city": "MATANE", "province": "QC", "country": "CA", "postalCode": "G4W3M9", "twitter": "None", "instagram": "None", "facebook": "None", "youtube": "None", "website": "None", "summary": "None", "logo": "None", "latitude": 48.836562063044326, "longitude": -67.56572070295412}, "100319797RR0001": {"name": "ATELIERS T.A.Q. INC.", "designationCode": "C", "categoryCode": "59", "address": "515 RUE MICHEL-FRAGASSO", "city": "QU\u00c9BEC", "province": "QC", "country": "CA", "postalCode": "G2E5K6", "twitter": "None", "instagram": "None", "facebook": "None", "youtube": "None", "website": "None", "summary": "None", "logo": "None", "latitude": 46.79877357144111, "longitude": -71.33378951794649}, "131311086RR0001": {"name": "ATHABASCA & DISTRICT MUSIC FESTIVAL ASSOCIATION", "designationCode": "C", "categoryCode": "22", "address": "BOX 3080", "city": "ATHABASCA", "province": "AB", "country": "CA", "postalCode": "T9S2B9", "twitter": "None", "instagram": "None", "facebook": "None", "youtube": "None", "website": "None", "summary": "None", "logo": "None", "latitude": 54.721284000000054, "longitude": -113.28321049999994}, "888527496RR0001": {"name": "ATHABASCA CHARITABLE TRUST", "designationCode": "B", "categoryCode": "39", "address": "3425-2 AVENUE SOUTH", "city": "LETHBRIDGE", "province": "AB", "country": "CA", "postalCode": "T1J4V1", "twitter": "None", "instagram": "None", "facebook": "None", "youtube": "None", "website": "None", "summary": "None", "logo": "None", "latitude": 49.696839530439966, "longitude": -112.78914308381903}, "899805550RR0001": {"name": "ATHABASCA GOOD SAMARITAN MINISTRIES ASSOCIATION", "designationCode": "C", "categoryCode": "47", "address": "BOX 972", "city": "ATHABASCA", "province": "AB", "country": "CA", "postalCode": "T9S2A8", "twitter": "None", "instagram": "None", "facebook": "None", "youtube": "None", "website": "None", "summary": "None", "logo": "None", "latitude": 54.721284000000054, "longitude": -113.28321049999994}, "867336026RR0001": {"name": "ATHABASCA HEALTH-CARE AUXILIARY ASSOCIATION", "designationCode": "C", "categoryCode": "19", "address": "3100-48 AVENUE", "city": "ATHABASCA", "province": "AB", "country": "CA", "postalCode": "T9S1M9", "twitter": "None", "instagram": "None", "facebook": "None", "youtube": "None", "website": "None", "summary": "None", "logo": "None", "latitude": 54.717142871227374, "longitude": -113.25385665211482}, "868593039RR0001": {"name": "ATHABASCA HERITAGE SOCIETY", "designationCode": "C", "categoryCode": "50", "address": "4704 48 ST", "city": "ATHABASCA", "province": "AB", "country": "CA", "postalCode": "T9S1R2", "twitter": "None", "instagram": "None", "facebook": "None", "youtube": "None", "website": "None", "summary": "None", "logo": "None", "latitude": 54.716635111166795, "longitude": -113.28270084768856}, "121403323RR0001": {"name": "ATHABASCA MUNICIPAL LIBRARY BOARD", "designationCode": "C", "categoryCode": "50", "address": "4716 48 ST", "city": "ATHABASCA", "province": "AB", "country": "CA", "postalCode": "T9S1R2", "twitter": "None", "instagram": "None", "facebook": "None", "youtube": "None", "website": "None", "summary": "None", "logo": "None", "latitude": 54.717392225294, "longitude": -113.2827122666598}, "894254663RR0001": {"name": "ATHABASCA REFORMED CONGREGATION", "designationCode": "C", "categoryCode": "47", "address": "5210 47AVENUE", "city": "ATHABASCA", "province": "AB", "country": "CA", "postalCode": "T9S1K3", "twitter": "None", "instagram": "None", "facebook": "None", "youtube": "None", "website": "None", "summary": "None", "logo": "None", "latitude": 54.713859000000056, "longitude": -113.29497349999994}, "118795715RR0001": {"name": "ATHABASCA UNITED CHURCH", "designationCode": "C", "categoryCode": "44", "address": "4817-48 STREET", "city": "ATHABASCA", "province": "AB", "country": "CA", "postalCode": "T9S1R3", "twitter": "None", "instagram": "None", "facebook": "None", "youtube": "None", "website": "None", "summary": "None", "logo": "None", "latitude": 54.71907241326679, "longitude": -113.28282754097155}, "106735855RR0001": {"name": "ATHELSTAN PRESBYTERIAN CHURCH", "designationCode": "C", "categoryCode": "37", "address": "139 RIDGE ROAD", "city": "ATHELSTAN", "province": "QC", "country": "CA", "postalCode": "J0S1A0", "twitter": "None", "instagram": "None", "facebook": "None", "youtube": "None", "website": "None", "summary": "None", "logo": "None", "latitude": 45.03666949711446, "longitude": -74.16896352844941}, "860214774RR0001": {"name": "ATHENA SCHOLARSHIP FUND (WINDSOR)", "designationCode": "C", "categoryCode": "21", "address": "2021 AMIENS AVE", "city": "WINDSOR", "province": "ON", "country": "CA", "postalCode": "N8W1T3", "twitter": "None", "instagram": "None", "facebook": "None", "youtube": "None", "website": "None", "summary": "None", "logo": "None", "latitude": 42.29567642879004, "longitude": -82.99386106451621}, "106771579RR0001": {"name": "ATHENS BAPTIST CHURCH", "designationCode": "C", "categoryCode": "31", "address": "BOX 548", "city": "ATHENS", "province": "ON", "country": "CA", "postalCode": "K0E1B0", "twitter": "None", "instagram": "None", "facebook": "None", "youtube": "None", "website": "None", "summary": "None", "logo": "None", "latitude": 44.62545000000006, "longitude": -75.95340999999996}, "118795756RR0001": {"name": "ATHENS CHRISTIAN REFORMED CHURCH", "designationCode": "C", "categoryCode": "39", "address": "14-16 WELLINGTON STREET       BOX 639", "city": "ATHENS", "province": "ON", "country": "CA", "postalCode": "K0E1B0", "twitter": "None", "instagram": "None", "facebook": "None", "youtube": "None", "website": "None", "summary": "None", "logo": "None", "latitude": 44.62630649999999, "longitude": -75.95411849999999}, "118795772RR0001": {"name": "ATHENS DISTRICT HEALTH SERVICE CENTRE", "designationCode": "C", "categoryCode": "11", "address": "P.O. BOX 448", "city": "ATHENS", "province": "ON", "country": "CA", "postalCode": "K0E1B0", "twitter": "None", "instagram": "None", "facebook": "None", "youtube": "None", "website": "None", "summary": "None", "logo": "None", "latitude": 44.62545000000006, "longitude": -75.95340999999996}, "107405979RR0001": {"name": "ATHENS FREE METHODIST CHURCH", "designationCode": "C", "categoryCode": "39", "address": "PO BOX 57", "city": "ATHENS", "province": "ON", "country": "CA", "postalCode": "K0E1B0", "twitter": "None", "instagram": "None", "facebook": "None", "youtube": "None", "website": "None", "summary": "None", "logo": "None", "latitude": 44.62545000000006, "longitude": -75.95340999999996}, "893219964RR0001": {"name": "ATHENS PUBLIC LIBRARY", "designationCode": "C", "categoryCode": "50", "address": "BOX 309, 1 MAIN ST.", "city": "ATHENS", "province": "ON", "country": "CA", "postalCode": "K0E1B0", "twitter": "None", "instagram": "None", "facebook": "None", "youtube": "None", "website": "None", "summary": "None", "logo": "None", "latitude": 44.62579861864508, "longitude": -75.95249115070118}, "118795814RR0001": {"name": "ATHENS UNITED CHURCH", "designationCode": "C", "categoryCode": "44", "address": "PO BOX 308                    17 CHURCH ST", "city": "ATHENS", "province": "ON", "country": "CA", "postalCode": "K0E1B0", "twitter": "None", "instagram": "None", "facebook": "None", "youtube": "None", "website": "None", "summary": "None", "logo": "None", "latitude": 44.62472781673567, "longitude": -75.94879623277679}, "118795822RR0001": {"name": "ATHERLEY UNITED CHURCH", "designationCode": "C", "categoryCode": "44", "address": "322 OXFORD ST", "city": "ORILLIA", "province": "ON", "country": "CA", "postalCode": "L3V1H9", "twitter": "None", "instagram": "None", "facebook": "None", "youtube": "None", "website": "None", "summary": "None", "logo": "None", "latitude": 44.602823911074005, "longitude": -79.39236650094563}, "868498643RR0001": {"name": "ATHI ARULNERI MANDRAM", "designationCode": "C", "categoryCode": "48", "address": "2191 WARDEN AVENUE", "city": "TORONTO", "province": "ON", "country": "CA", "postalCode": "M1T3N9", "twitter": "None", "instagram": "None", "facebook": "None", "youtube": "None", "website": "None", "summary": "None", "logo": "None", "latitude": 43.77952298003335, "longitude": -79.3083827820709}, "859501975RR0001": {"name": "ATHLETES FOR AFRICA AID PROGRAM", "designationCode": "A", "categoryCode": "03", "address": "135 BROWNING AVE", "city": "TORONTO", "province": "ON", "country": "CA", "postalCode": "M4K1W4", "twitter": "None", "instagram": "None", "facebook": "None", "youtube": "None", "website": "None", "summary": "None", "logo": "None", "latitude": 43.68215980930823, "longitude": -79.35148470537831}, "890852544RR0001": {"name": "ATHLETICS CANADA FOUNDATION", "designationCode": "A", "categoryCode": "53", "address": "105 - 2141 THURSTON DR", "city": "OTTAWA", "province": "ON", "country": "CA", "postalCode": "K1G6C9", "twitter": "None", "instagram": "None", "facebook": "None", "youtube": "None", "website": "None", "summary": "None", "logo": "None", "latitude": 45.378620462432636, "longitude": -75.62400375162999}, "861088045RR0001": {"name": "ATHLETICS FOR KIDS FINANCIAL ASSISTANCE (B.C.) SOCIETY", "designationCode": "C", "categoryCode": "09", "address": "SUITE 220 - 901 3RD STREET", "city": "NORTH VANCOUVER", "province": "BC", "country": "CA", "postalCode": "V7P3P9", "twitter": "None", "instagram": "None", "facebook": "None", "youtube": "None", "website": "None", "summary": "None", "logo": "None", "latitude": 49.32005925402999, "longitude": -123.09807248618898}, "888465861RR0001": {"name": "ATHLONE SCHOOL PARENT COUNCIL TRUST", "designationCode": "C", "categoryCode": "21", "address": "110 ATHLONE DRIVE", "city": "WINNIPEG", "province": "MB", "country": "CA", "postalCode": "R3J3L4", "twitter": "None", "instagram": "None", "facebook": "None", "youtube": "None", "website": "None", "summary": "None", "logo": "None", "latitude": 49.8865119802645, "longitude": -97.27273171192783}, "891643645RR0001": {"name": "ATHOL CEMETERY SOCIETY", "designationCode": "C", "categoryCode": "59", "address": "RR#2", "city": "SOUTHAMPTON", "province": "NS", "country": "CA", "postalCode": "B0M1W0", "twitter": "None", "instagram": "None", "facebook": "None", "youtube": "None", "website": "None", "summary": "None", "logo": "None", "latitude": 45.60256000000004, "longitude": -64.24633999999998}, "106735962RR0001": {"name": "ATHOL MURRAY COLLEGE OF NOTRE DAME", "designationCode": "C", "categoryCode": "20", "address": "PO BOX 100", "city": "WILCOX", "province": "SK", "country": "CA", "postalCode": "S0G5E0", "twitter": "None", "instagram": "None", "facebook": "None", "youtube": "None", "website": "None", "summary": "None", "logo": "None", "latitude": 49.73183550000002, "longitude": -104.01373799999999}, "118795871RR0001": {"name": "ATIKOKAN CHRISTMAS CHEER COMMITTEE", "designationCode": "C", "categoryCode": "09", "address": "PO BOX 2007", "city": "ATIKOKAN", "province": "ON", "country": "CA", "postalCode": "P0T1C0", "twitter": "None", "instagram": "None", "facebook": "None", "youtube": "None", "website": "None", "summary": "None", "logo": "None", "latitude": 48.78243202695454, "longitude": -91.62784818644623}, "863020855RR0001": {"name": "ATIKOKAN COMMUNITY FELLOWSHIP", "designationCode": "C", "categoryCode": "49", "address": "410 FRONT ST                  PO BOX 2363", "city": "ATIKOKAN", "province": "ON", "country": "CA", "postalCode": "P0T1C0", "twitter": "None", "instagram": "None", "facebook": "None", "youtube": "None", "website": "None", "summary": "None", "logo": "None", "latitude": 48.754677478215704, "longitude": -91.6271825342778}, "106736077RR0001": {"name": "ATIKOKAN GENERAL HOSPITAL", "designationCode": "C", "categoryCode": "10", "address": "BOX 2490", "city": "ATIKOKAN", "province": "ON", "country": "CA", "postalCode": "P0T1C0", "twitter": "None", "instagram": "None", "facebook": "None", "youtube": "None", "website": "None", "summary": "None", "logo": "None", "latitude": 48.78243202695454, "longitude": -91.62784818644623}, "854955705RR0001": {"name": "ATIKOKAN GENERAL HOSPITAL FOUNDATION", "designationCode": "A", "categoryCode": "13", "address": "PO BOX 2490", "city": "ATIKOKAN", "province": "ON", "country": "CA", "postalCode": "P0T1C0", "twitter": "None", "instagram": "None", "facebook": "None", "youtube": "None", "website": "None", "summary": "None", "logo": "None", "latitude": 48.78243202695454, "longitude": -91.62784818644623}, "843089749RR0001": {"name": "ATIKOKAN HIGH SCHOOL ENDOWMENT FUND", "designationCode": "C", "categoryCode": "21", "address": "324 MERCURY AVENUE            ATIKOKAN HIGH SCHOOL", "city": "ATIKOKAN", "province": "ON", "country": "CA", "postalCode": "P0T1C0", "twitter": "None", "instagram": "None", "facebook": "None", "youtube": "None", "website": "None", "summary": "None", "logo": "None", "latitude": 48.75980645092242, "longitude": -91.60954378243217}, "871830550RR0001": {"name": "ATIKOKAN LITERACY INCORPORATED", "designationCode": "C", "categoryCode": "21", "address": "PO BOX 2116", "city": "ATIKOKAN", "province": "ON", "country": "CA", "postalCode": "P0T1C0", "twitter": "None", "instagram": "None", "facebook": "None", "youtube": "None", "website": "None", "summary": "None", "logo": "None", "latitude": 48.78243202695454, "longitude": -91.62784818644623}, "129303145RR0001": {"name": "ATIKOKAN NATIVE FRIENDSHIP CENTRE", "designationCode": "C", "categoryCode": "56", "address": "307 - 309 MAIN ST PO BOX 1510", "city": "ATIKOKAN", "province": "ON", "country": "CA", "postalCode": "P0T1C0", "twitter": "None", "instagram": "None", "facebook": "None", "youtube": "None", "website": "None", "summary": "None", "logo": "None", "latitude": 48.75750573384457, "longitude": -91.62562811666565}, "134654631RR0001": {"name": "ATIKOKAN NON-PROFIT DAYCARE CORPORATION", "designationCode": "C", "categoryCode": "20", "address": "25 RAWN RD                    BOX 748", "city": "ATIKOKAN", "province": "ON", "country": "CA", "postalCode": "P0T1C0", "twitter": "None", "instagram": "None", "facebook": "None", "youtube": "None", "website": "None", "summary": "None", "logo": "None", "latitude": 48.76126100284298, "longitude": -91.61811799357653}, "119288918RR0218": {"name": "ATIKOKAN ONTARIO CONGREGATION OF JEHOVAH'S WITNESSES", "designationCode": "C", "categoryCode": "61", "address": "PO BOX 1492", "city": "ATIKOKAN", "province": "ON", "country": "CA", "postalCode": "P0T1C0", "twitter": "None", "instagram": "None", "facebook": "None", "youtube": "None", "website": "None", "summary": "None", "logo": "None", "latitude": 48.78243202695454, "longitude": -91.62784818644623}, "898283791RR0001": {"name": "ATIRA DEVELOPMENT SOCIETY", "designationCode": "C", "categoryCode": "01", "address": "201 - 190 ALEXANDER ST", "city": "VANCOUVER", "province": "BC", "country": "CA", "postalCode": "V6A1B5", "twitter": "None", "instagram": "None", "facebook": "None", "youtube": "None", "website": "None", "summary": "None", "logo": "None", "latitude": 49.28407449567218, "longitude": -123.0999914701656}, "106736101RR0001": {"name": "ATIRA WOMEN'S RESOURCE SOCIETY", "designationCode": "C", "categoryCode": "01", "address": "201 - 190 ALEXANDER ST", "city": "VANCOUVER", "province": "BC", "country": "CA", "postalCode": "V6A1B5", "twitter": "None", "instagram": "None", "facebook": "None", "youtube": "None", "website": "None", "summary": "None", "logo": "None", "latitude": 49.28407449567218, "longitude": -123.0999914701656}, "891265670RR0001": {"name": "ATLANTIC AGRICULTURAL LEADERSHIP PROGRAM INC.", "designationCode": "C", "categoryCode": "21", "address": "415 BUFFALO RD", "city": "HUNTER RIVER", "province": "PE", "country": "CA", "postalCode": "C0A1N0", "twitter": "None", "instagram": "None", "facebook": "None", "youtube": "None", "website": "None", "summary": "None", "logo": "None", "latitude": 46.39914727061569, "longitude": -63.29828732445609}, "889363578RR0001": {"name": "ATLANTIC ASSOCIATION OF THE SPIRITUAL EXERCISES APOSTOLATE", "designationCode": "C", "categoryCode": "47", "address": "4533 MILLVALE ROAD, RR#2", "city": "BREADALBANE", "province": "PE", "country": "CA", "postalCode": "C0A1E0", "twitter": "None", "instagram": "None", "facebook": "None", "youtube": "None", "website": "None", "summary": "None", "logo": "None", "latitude": 46.40176925618896, "longitude": -63.435679040250406}, "876386913RR0001": {"name": "ATLANTIC BALLET THEATRE OF CANADA INC.", "designationCode": "C", "categoryCode": "22", "address": "P.O. BOX 1783", "city": "MONCTON", "province": "NB", "country": "CA", "postalCode": "E1C9X6", "twitter": "None", "instagram": "None", "facebook": "None", "youtube": "None", "website": "None", "summary": "None", "logo": "None", "latitude": 46.08834900000005, "longitude": -64.77824149999994}, "863182135RR0001": {"name": "ATLANTIC BAPTIST MISSION BOARD OF THE CONVENTION OF ATLANTIC BAPTIST CHURCHES", "designationCode": "C", "categoryCode": "39", "address": "1655 MANAWAGONISH ROAD", "city": "SAINT JOHN", "province": "NB", "country": "CA", "postalCode": "E2M3Y2", "twitter": "None", "instagram": "None", "facebook": "None", "youtube": "None", "website": "None", "summary": "None", "logo": "None", "latitude": 45.23534426949051, "longitude": -66.12394540423574}, "118795988RR0001": {"name": "ATLANTIC BAPTIST SENIOR CITIZENS HOME INC.", "designationCode": "C", "categoryCode": "01", "address": "35 ATLANTIC BAPTIST AVE", "city": "MONCTON", "province": "NB", "country": "CA", "postalCode": "E1E4N3", "twitter": "None", "instagram": "None", "facebook": "None", "youtube": "None", "website": "None", "summary": "None", "logo": "None", "latitude": 46.05999327145241, "longitude": -64.85879860263182}}