{"858477482RR0001": {"name": "Richmond Mental Health Consumer & Friends Society", "designationCode": "C", "categoryCode": "11", "address": "210 - 7671 ALDERBRIDGE WAY", "city": "RICHMOND", "province": "BC", "country": "CA", "postalCode": "V6X1Z9", "twitter": "None", "instagram": "None", "facebook": "None", "youtube": "None", "website": "None", "summary": "None", "logo": "None", "latitude": 49.174645284494154, "longitude": -123.14388542483663}, "107895377RR0001": {"name": "Richmond Multicultural Community Services Society", "designationCode": "C", "categoryCode": "59", "address": "210-7000 MINORU BLVD", "city": "RICHMOND", "province": "BC", "country": "CA", "postalCode": "V6Y3Z5", "twitter": "None", "instagram": "None", "facebook": "None", "youtube": "None", "website": "None", "summary": "None", "logo": "None", "latitude": 49.162613713471075, "longitude": -123.14016571347106}, "841281819RR0001": {"name": "Richmond Pacific Grace MB Church", "designationCode": "C", "categoryCode": "34", "address": "260-6391 WESTMINSTER HWY", "city": "RICHMOND", "province": "BC", "country": "CA", "postalCode": "V7C4V4", "twitter": "None", "instagram": "None", "facebook": "None", "youtube": "None", "website": "None", "summary": "None", "logo": "None", "latitude": 49.170224114088995, "longitude": -123.15555093541015}, "107895419RR0001": {"name": "Richmond Park Evangelical Missionary Church Fellowship", "designationCode": "C", "categoryCode": "39", "address": "9340 - 69 AVE NORTH", "city": "EDMONTON", "province": "AB", "country": "CA", "postalCode": "T6E0R9", "twitter": "None", "instagram": "None", "facebook": "None", "youtube": "None", "website": "None", "summary": "None", "logo": "None", "latitude": 53.50571346047074, "longitude": -113.47282341618097}, "842764904RR0001": {"name": "Richmond Stroke Recovery Centre", "designationCode": "C", "categoryCode": "11", "address": "8880 WILLIAMS RD", "city": "RICHMOND", "province": "BC", "country": "CA", "postalCode": "V7A1G6", "twitter": "None", "instagram": "None", "facebook": "None", "youtube": "None", "website": "None", "summary": "None", "logo": "None", "latitude": 49.1407243830772, "longitude": -123.12763376461243}, "119288918RR1476": {"name": "Richmond Tagalog Congregation of Jehovah's Witnesses, Vancouver, British Colombia", "designationCode": "C", "categoryCode": "61", "address": "4260 WILLIAMS ROAD", "city": "RICHMOND", "province": "BC", "country": "CA", "postalCode": "V7E1J9", "twitter": "None", "instagram": "None", "facebook": "None", "youtube": "None", "website": "None", "summary": "None", "logo": "None", "latitude": 49.14109251341713, "longitude": -123.17729352844941}, "119029544RR0001": {"name": "Richmond United Church", "designationCode": "C", "categoryCode": "44", "address": "53898 JOHN ST                 RR 1", "city": "AYLMER", "province": "ON", "country": "CA", "postalCode": "N5H2R1", "twitter": "None", "instagram": "None", "facebook": "None", "youtube": "None", "website": "None", "summary": "None", "logo": "None", "latitude": 42.76227982456745, "longitude": -80.84488618356612}, "837820083RR0001": {"name": "Rick & Dan McDonald Memorial Child & Family Foundation", "designationCode": "A", "categoryCode": "03", "address": "2 - 179 BALFOUR STREET", "city": "CHELMSFORD", "province": "ON", "country": "CA", "postalCode": "P0M1L0", "twitter": "None", "instagram": "None", "facebook": "None", "youtube": "None", "website": "None", "summary": "None", "logo": "None", "latitude": 46.5700294773503, "longitude": -81.20665358381903}, "800456287RR0001": {"name": "Rick and Sandy Young Foundation", "designationCode": "B", "categoryCode": "03", "address": "4490 PINE CRES", "city": "VANCOUVER", "province": "BC", "country": "CA", "postalCode": "V6J4L1", "twitter": "None", "instagram": "None", "facebook": "None", "youtube": "None", "website": "None", "summary": "None", "logo": "None", "latitude": 49.24571436663973, "longitude": -123.14694195833596}, "819755299RR0001": {"name": "Rick Hansen Institute", "designationCode": "C", "categoryCode": "11", "address": "6FL-818 10TH AVE W", "city": "VANCOUVER", "province": "BC", "country": "CA", "postalCode": "V5Z1M9", "twitter": "None", "instagram": "None", "facebook": "None", "youtube": "None", "website": "None", "summary": "None", "logo": "None", "latitude": 49.2624225, "longitude": -123.126048}, "823822887RR0001": {"name": "Rick's Heart Foundation", "designationCode": "A", "categoryCode": "03", "address": "13350 COMBER WAY", "city": "SURREY", "province": "BC", "country": "CA", "postalCode": "V3W5V9", "twitter": "None", "instagram": "None", "facebook": "None", "youtube": "None", "website": "None", "summary": "None", "logo": "None", "latitude": 49.13600988897232, "longitude": -122.85296075203401}, "811859917RR0001": {"name": "Ricky Wish Foundation", "designationCode": "C", "categoryCode": "09", "address": "972 LINE 3 RD", "city": "NIAGARA ON THE LAKE", "province": "ON", "country": "CA", "postalCode": "L0S1J0", "twitter": "None", "instagram": "None", "facebook": "None", "youtube": "None", "website": "None", "summary": "None", "logo": "None", "latitude": 43.2109625115412, "longitude": -79.09949194463039}, "809917081RR0001": {"name": "Ride 2 Reach", "designationCode": "A", "categoryCode": "03", "address": "9 - 427 SPEERS RD", "city": "OAKVILLE", "province": "ON", "country": "CA", "postalCode": "L6K3S8", "twitter": "None", "instagram": "None", "facebook": "None", "youtube": "None", "website": "None", "summary": "None", "logo": "None", "latitude": 43.43931652337179, "longitude": -79.69478358938667}, "755564291RR0001": {"name": "Rideau Chorale", "designationCode": "C", "categoryCode": "22", "address": "2010 RIDEAU RIVER DR", "city": "OTTAWA", "province": "ON", "country": "CA", "postalCode": "K1S1V1", "twitter": "None", "instagram": "None", "facebook": "None", "youtube": "None", "website": "None", "summary": "None", "logo": "None", "latitude": 45.39819299278664, "longitude": -75.67360036984238}, "131200800RR0001": {"name": "Rideau Environmental Action League", "designationCode": "C", "categoryCode": "59", "address": "P.O. BOX  1061", "city": "SMITHS FALLS", "province": "ON", "country": "CA", "postalCode": "K7A5A5", "twitter": "None", "instagram": "None", "facebook": "None", "youtube": "None", "website": "None", "summary": "None", "logo": "None", "latitude": 44.90257200000005, "longitude": -76.02153199999994}, "848037248RR0001": {"name": "Rideau Hall Foundation / Fondation Rideau Hall", "designationCode": "C", "categoryCode": "29", "address": "1 SUSSEX DRIVE", "city": "OTTAWA", "province": "ON", "country": "CA", "postalCode": "K1A0A1", "twitter": "None", "instagram": "None", "facebook": "None", "youtube": "None", "website": "None", "summary": "None", "logo": "None", "latitude": 45.44427728759364, "longitude": -75.69278182679909}, "804635902RR0001": {"name": "Rideau Lakes Athletic & Community Use Facility Foundation", "designationCode": "A", "categoryCode": "05", "address": "251 MAIN STREET               RR 2", "city": "ELGIN", "province": "ON", "country": "CA", "postalCode": "K0A1E0", "twitter": "None", "instagram": "None", "facebook": "None", "youtube": "None", "website": "None", "summary": "None", "logo": "None", "latitude": 45.17479007023491, "longitude": -75.29223192589296}, "801453523RR0001": {"name": "Rideau Lakes Public Library Board", "designationCode": "C", "categoryCode": "50", "address": "26 HALLADAY STREET            PO BOX 189", "city": "ELGIN", "province": "ON", "country": "CA", "postalCode": "K0G1E0", "twitter": "None", "instagram": "None", "facebook": "None", "youtube": "None", "website": "None", "summary": "None", "logo": "None", "latitude": 44.60848135851448, "longitude": -76.21897564435972}, "834248056RR0001": {"name": "Rideau Search and Rescue", "designationCode": "C", "categoryCode": "59", "address": "302 PUTNAM RD", "city": "MERRICKVILLE", "province": "ON", "country": "CA", "postalCode": "K0G1N0", "twitter": "None", "instagram": "None", "facebook": "None", "youtube": "None", "website": "None", "summary": "None", "logo": "None", "latitude": 44.86382318039134, "longitude": -75.86290038109512}, "119119527RR0001": {"name": "Rideau Waterway Coordinating Association", "designationCode": "C", "categoryCode": "50", "address": "POST OFFICE BOX 1232          STATION MAIN", "city": "SMITHS FALLS", "province": "ON", "country": "CA", "postalCode": "K7A5C7", "twitter": "None", "instagram": "None", "facebook": "None", "youtube": "None", "website": "None", "summary": "None", "logo": "None", "latitude": 44.90257200000005, "longitude": -76.02153199999994}, "119288918RR1455": {"name": "Ridgehill Punjabi Congregation of Jehovah's Witnesses, Brampton, Ontario", "designationCode": "C", "categoryCode": "61", "address": "90 MCLAUGHLIN ROAD SOUTH", "city": "BRAMPTON", "province": "ON", "country": "CA", "postalCode": "L6Y2C7", "twitter": "None", "instagram": "None", "facebook": "None", "youtube": "None", "website": "None", "summary": "None", "logo": "None"}, "880161914RR0001": {"name": "Ridgetown and Area Adult Activity Centre", "designationCode": "C", "categoryCode": "56", "address": "19-21 MAIN ST WEST            P.O BOX:952", "city": "RIDGETOWN", "province": "ON", "country": "CA", "postalCode": "N0P2C0", "twitter": "None", "instagram": "None", "facebook": "None", "youtube": "None", "website": "None", "summary": "None", "logo": "None", "latitude": 42.43588171646361, "longitude": -81.89186949875614}, "803262880RR0001": {"name": "Ridgetown and Area Campus Chaplaincy Program", "designationCode": "C", "categoryCode": "47", "address": "PO BOX 1699", "city": "RIDGETOWN", "province": "ON", "country": "CA", "postalCode": "N0P2C0", "twitter": "None", "instagram": "None", "facebook": "None", "youtube": "None", "website": "None", "summary": "None", "logo": "None", "latitude": 42.42687003390246, "longitude": -81.90498998889144}, "118943315RR0001": {"name": "Ridgetown Baptist Church", "designationCode": "C", "categoryCode": "39", "address": "PO BOX 788", "city": "RIDGETOWN", "province": "ON", "country": "CA", "postalCode": "N0P2C0", "twitter": "None", "instagram": "None", "facebook": "None", "youtube": "None", "website": "None", "summary": "None", "logo": "None", "latitude": 42.42687003390246, "longitude": -81.90498998889144}, "879416378RR0001": {"name": "Riding Mountain Biosphere Reserve Inc.", "designationCode": "C", "categoryCode": "59", "address": "BOX 232", "city": "ONANOLE", "province": "MB", "country": "CA", "postalCode": "R0J1N0", "twitter": "None", "instagram": "None", "facebook": "None", "youtube": "None", "website": "None", "summary": "None", "logo": "None", "latitude": 50.62285000000003, "longitude": -99.96866999999997}, "892176447RR0001": {"name": "Right Fit Ministries", "designationCode": "C", "categoryCode": "39", "address": "#406-1055 WEST BROADWAY", "city": "VANCOUVER", "province": "BC", "country": "CA", "postalCode": "V6H1E2", "twitter": "None", "instagram": "None", "facebook": "None", "youtube": "None", "website": "None", "summary": "None", "logo": "None", "latitude": 49.2634524532574, "longitude": -123.1278027485429}, "849346382RR0001": {"name": "Riley Foundation", "designationCode": "B", "categoryCode": "03", "address": "#410 550 WEST 6TH AVENUE", "city": "VANCOUVER", "province": "BC", "country": "CA", "postalCode": "V5Z1A1", "twitter": "None", "instagram": "None", "facebook": "None", "youtube": "None", "website": "None", "summary": "None", "logo": "None", "latitude": 49.26580582979448, "longitude": -123.11574114864246}, "107896706RR0001": {"name": "Riley Park Hillcrest Community Association", "designationCode": "C", "categoryCode": "56", "address": "4575 CLANCY LORANGER WAY", "city": "VANCOUVER", "province": "BC", "country": "CA", "postalCode": "V5Y2M4", "twitter": "None", "instagram": "None", "facebook": "None", "youtube": "None", "website": "None", "summary": "None", "logo": "None", "latitude": 49.243217060449126, "longitude": -123.10887049183195}, "888177649RR0001": {"name": "Rina M. Bidin Foundation", "designationCode": "B", "categoryCode": "03", "address": "PO BOX 75518                  RPO EDGEMONT VILLGE", "city": "NORTH VANCOUVER", "province": "BC", "country": "CA", "postalCode": "V7R4X1", "twitter": "None", "instagram": "None", "facebook": "None", "youtube": "None", "website": "None", "summary": "None", "logo": "None", "latitude": 49.338167129466235, "longitude": -123.10282531138661}, "837901404RR0001": {"name": "Ringette Scores on Cancer", "designationCode": "A", "categoryCode": "03", "address": "9807 - 102 STREET             POST OFFICE BOX 3148", "city": "FT. SASKATCHEWAN", "province": "AB", "country": "CA", "postalCode": "T8L2T1", "twitter": "None", "instagram": "None", "facebook": "None", "youtube": "None", "website": "None", "summary": "None", "logo": "None", "latitude": 53.70960640772685, "longitude": -113.21103923518403}, "833764483RR0001": {"name": "Rise of Hope International", "designationCode": "C", "categoryCode": "09", "address": "PO BOX 20002 RPO NELSON", "city": "OTTAWA", "province": "ON", "country": "CA", "postalCode": "K1N9N5", "twitter": "None", "instagram": "None", "facebook": "None", "youtube": "None", "website": "None", "summary": "None", "logo": "None"}, "801862822RR0001": {"name": "Rise Asset Development", "designationCode": "C", "categoryCode": "09", "address": "8028 - 105 ST. GEORGE ST", "city": "TORONTO", "province": "ON", "country": "CA", "postalCode": "M5S3E6", "twitter": "None", "instagram": "None", "facebook": "None", "youtube": "None", "website": "None", "summary": "None", "logo": "None", "latitude": 43.66551975021634, "longitude": -79.39898055796668}, "763368099RR0001": {"name": "Rise Women's Legal Centre", "designationCode": "C", "categoryCode": "59", "address": "201 - 456 BROADWAY W", "city": "VANCOUVER", "province": "BC", "country": "CA", "postalCode": "V5Y1R3", "twitter": "None", "instagram": "None", "facebook": "None", "youtube": "None", "website": "None", "summary": "None", "logo": "None", "latitude": 49.263168470136954, "longitude": -123.11398155107045}, "809800469RR0001": {"name": "Rising Above Ministry, Grande Prairie", "designationCode": "C", "categoryCode": "09", "address": "11007 106 ST", "city": "GRANDE PRAIRIE", "province": "AB", "country": "CA", "postalCode": "T8V2Z3", "twitter": "None", "instagram": "None", "facebook": "None", "youtube": "None", "website": "None", "summary": "None", "logo": "None", "latitude": 55.18002003748046, "longitude": -118.814422695309}, "817871395RR0001": {"name": "Rising Angels Awareness & Restorative Care", "designationCode": "C", "categoryCode": "59", "address": "11965 HURONTARIO STREET       POST OFFICE BOX 57014", "city": "BRAMPTON", "province": "ON", "country": "CA", "postalCode": "L6Z0E7", "twitter": "None", "instagram": "None", "facebook": "None", "youtube": "None", "website": "None", "summary": "None", "logo": "None", "latitude": 43.7331322104273, "longitude": -79.8241248495013}, "838455111RR0001": {"name": "Rising Oaks Ministries Inc.", "designationCode": "C", "categoryCode": "49", "address": "BOX 42003 RPO MILLBOURNE", "city": "EDMONTON", "province": "AB", "country": "CA", "postalCode": "T6K4C4", "twitter": "None", "instagram": "None", "facebook": "None", "youtube": "None", "website": "None", "summary": "None", "logo": "None", "latitude": 53.46036600000005, "longitude": -113.44548049999993}, "848399861RR0001": {"name": "Rising Trumpet Evangelistic Ministry", "designationCode": "C", "categoryCode": "39", "address": "266 JAMESTOWN CRESCENT", "city": "TORONTO", "province": "ON", "country": "CA", "postalCode": "M9V3M8", "twitter": "None", "instagram": "None", "facebook": "None", "youtube": "None", "website": "None", "summary": "None", "logo": "None", "latitude": 43.7328, "longitude": -79.58634204388574}, "845700202RR0001": {"name": "River of Death and Discovery Dinosaur Museum Society", "designationCode": "C", "categoryCode": "50", "address": "PO BOX 328", "city": "WEMBLEY", "province": "AB", "country": "CA", "postalCode": "T0H3S0", "twitter": "None", "instagram": "None", "facebook": "None", "youtube": "None", "website": "None", "summary": "None", "logo": "None", "latitude": 55.15416000000005, "longitude": -119.14110999999997}, "750190928RR0001": {"name": "River of Glory First Nations Church", "designationCode": "C", "categoryCode": "39", "address": "POST OFFICE BOX 1821", "city": "SIOUX LOOKOUT", "province": "ON", "country": "CA", "postalCode": "P8T1C5", "twitter": "None", "instagram": "None", "facebook": "None", "youtube": "None", "website": "None", "summary": "None", "logo": "None", "latitude": 50.09808300000006, "longitude": -91.91503249999994}, "763319696RR0001": {"name": "River of God Church", "designationCode": "C", "categoryCode": "39", "address": "446 FORESTLAWN ROAD,", "city": "WATERLOO", "province": "ON", "country": "CA", "postalCode": "N2K2J6", "twitter": "None", "instagram": "None", "facebook": "None", "youtube": "None", "website": "None", "summary": "None", "logo": "None", "latitude": 43.5027618953776, "longitude": -80.49633526585515}, "856373154RR0001": {"name": "River of God Slavic Church", "designationCode": "C", "categoryCode": "39", "address": "2104-55 WYNFORD HEIGHTS CRES", "city": "TORONTO", "province": "ON", "country": "CA", "postalCode": "M3C1L5", "twitter": "None", "instagram": "None", "facebook": "None", "youtube": "None", "website": "None", "summary": "None", "logo": "None", "latitude": 43.72731731334759, "longitude": -79.32564249841346}, "853047157RR0001": {"name": "River of Life", "designationCode": "C", "categoryCode": "36", "address": "364 WALTER DR", "city": "KESWICK", "province": "ON", "country": "CA", "postalCode": "L4P3A7", "twitter": "None", "instagram": "None", "facebook": "None", "youtube": "None", "website": "None", "summary": "None", "logo": "None", "latitude": 44.200423212908795, "longitude": -79.47602622191116}, "866388135RR0001": {"name": "River of Life", "designationCode": "C", "categoryCode": "36", "address": "PO BOX 403                    170 EIGHTH ST", "city": "MIDLAND", "province": "ON", "country": "CA", "postalCode": "L4R4L1", "twitter": "None", "instagram": "None", "facebook": "None", "youtube": "None", "website": "None", "summary": "None", "logo": "None", "latitude": 44.74809982745974, "longitude": -79.89944415408769}, "137218012RR0001": {"name": "River of Life Assembly Inc.", "designationCode": "C", "categoryCode": "39", "address": "345 BEAVERBROOK RD.", "city": "MIRAMICHI", "province": "NB", "country": "CA", "postalCode": "E1V4Z6", "twitter": "None", "instagram": "None", "facebook": "None", "youtube": "None", "website": "None", "summary": "None", "logo": "None", "latitude": 47.011895212898025, "longitude": -65.58715104911042}, "837186188RR0001": {"name": "River of Life Center Inc.", "designationCode": "C", "categoryCode": "39", "address": "1601-2240 WESTON ROAD", "city": "TORONTO", "province": "ON", "country": "CA", "postalCode": "M9N4A1", "twitter": "None", "instagram": "None", "facebook": "None", "youtube": "None", "website": "None", "summary": "None", "logo": "None", "latitude": 43.704293314155656, "longitude": -79.52784697380095}, "850035684RR0001": {"name": "River of Life Christian Church Calgary", "designationCode": "C", "categoryCode": "39", "address": "80 EVERGLADE CIR SW", "city": "CALGARY", "province": "AB", "country": "CA", "postalCode": "T2Y4N4", "twitter": "None", "instagram": "None", "facebook": "None", "youtube": "None", "website": "None", "summary": "None", "logo": "None", "latitude": 50.924269277829026, "longitude": -114.1275361172601}, "805425899RR0001": {"name": "River of Life Christian Fellowship", "designationCode": "C", "categoryCode": "39", "address": "7064 HWY 506", "city": "PLEVNA", "province": "ON", "country": "CA", "postalCode": "K0H2M0", "twitter": "None", "instagram": "None", "facebook": "None", "youtube": "None", "website": "None", "summary": "None", "logo": "None", "latitude": 44.94928076730873, "longitude": -76.97179698251452}, "889683025RR0001": {"name": "River of Life International Fellowship", "designationCode": "C", "categoryCode": "39", "address": "40 MARGARET STREET", "city": "GULEPH", "province": "ON", "country": "CA", "postalCode": "N1E3R7", "twitter": "None", "instagram": "None", "facebook": "None", "youtube": "None", "website": "None", "summary": "None", "logo": "None", "latitude": 43.5430066988861, "longitude": -80.24024257464377}, "107815623RR0001": {"name": "River of Life Pentecostal Assembly", "designationCode": "C", "categoryCode": "36", "address": "4200 49 AVE", "city": "INNISFAIL", "province": "AB", "country": "CA", "postalCode": "T4G1M6", "twitter": "None", "instagram": "None", "facebook": "None", "youtube": "None", "website": "None", "summary": "None", "logo": "None", "latitude": 52.020341748542904, "longitude": -113.94700947584975}, "890547664RR0001": {"name": "River Bend Integrated Community Ministries Inc.", "designationCode": "C", "categoryCode": "47", "address": "230 GATHERCOLE CRES", "city": "SASKATOON", "province": "SK", "country": "CA", "postalCode": "S7K7J2", "twitter": "None", "instagram": "None", "facebook": "None", "youtube": "None", "website": "None", "summary": "None", "logo": "None", "latitude": 52.1813664676841, "longitude": -106.62561}, "800129157RR0001": {"name": "River Bourgeois Mariner Society", "designationCode": "C", "categoryCode": "56", "address": "166 NORTHSIDE RIVER           BOURGEOIS ROAD", "city": "RIVER BOURGEOIS", "province": "NS", "country": "CA", "postalCode": "B0E2X0", "twitter": "None", "instagram": "None", "facebook": "None", "youtube": "None", "website": "None", "summary": "None", "logo": "None", "latitude": 45.63727258728149, "longitude": -60.96574642853022}, "813539426RR0001": {"name": "River Center Ministries Association", "designationCode": "C", "categoryCode": "39", "address": "BOX 302", "city": "WINDSOR", "province": "NS", "country": "CA", "postalCode": "B0N2T0", "twitter": "None", "instagram": "None", "facebook": "None", "youtube": "None", "website": "None", "summary": "None", "logo": "None", "latitude": 44.990170000000035, "longitude": -64.12904999999995}, "769387093RR0001": {"name": "River Church Fredericton", "designationCode": "C", "categoryCode": "31", "address": "2 - 778 MACLAREN AVE", "city": "FREDERICTON", "province": "NB", "country": "CA", "postalCode": "E3A3L7", "twitter": "None", "instagram": "None", "facebook": "None", "youtube": "None", "website": "None", "summary": "None", "logo": "None", "latitude": 45.96546291006413, "longitude": -66.61766606662235}, "891266140RR0001": {"name": "River City Church", "designationCode": "C", "categoryCode": "39", "address": "997 RYAN PLACE", "city": "KAMLOOPS", "province": "BC", "country": "CA", "postalCode": "V2B4T4", "twitter": "None", "instagram": "None", "facebook": "None", "youtube": "None", "website": "None", "summary": "None", "logo": "None", "latitude": 50.70795177298162, "longitude": -120.38621855410021}, "824010953RR0001": {"name": "River City Squash Organization", "designationCode": "C", "categoryCode": "59", "address": "214 MONASHEE PLACE", "city": "KAMLOOPS", "province": "BC", "country": "CA", "postalCode": "V2C6B5", "twitter": "None", "instagram": "None", "facebook": "None", "youtube": "None", "website": "None", "summary": "None", "logo": "None", "latitude": 50.666299500432686, "longitude": -120.34223024562871}, "812699163RR0001": {"name": "River Dali Foundation", "designationCode": "B", "categoryCode": "03", "address": "PO BOX 27058                  RPO DUNDAS MCLAREN", "city": "CAMBRIDGE", "province": "ON", "country": "CA", "postalCode": "N1R8H1", "twitter": "None", "instagram": "None", "facebook": "None", "youtube": "None", "website": "None", "summary": "None", "logo": "None", "latitude": 43.36032747117104, "longitude": -80.29288131122428}, "857491054RR0001": {"name": "River House of Prayer Inc.", "designationCode": "C", "categoryCode": "39", "address": "1215 KRAMER BLVD", "city": "REGINA", "province": "SK", "country": "CA", "postalCode": "S4S5W5", "twitter": "None", "instagram": "None", "facebook": "None", "youtube": "None", "website": "None", "summary": "None", "logo": "None", "latitude": 50.41545336341443, "longitude": -104.59805253482016}, "119120582RR0001": {"name": "River Parkway Children's Centre", "designationCode": "C", "categoryCode": "20", "address": "40 CLEARY AVENUE", "city": "OTTAWA", "province": "ON", "country": "CA", "postalCode": "K2A4A1", "twitter": "None", "instagram": "None", "facebook": "None", "youtube": "None", "website": "None", "summary": "None", "logo": "None", "latitude": 45.381881502654394, "longitude": -75.7718032598243}, "866597628RR0001": {"name": "River Stone Christian Fellowship Inc.", "designationCode": "C", "categoryCode": "39", "address": "59 MADAWASKA STREET", "city": "ARNPRIOR", "province": "ON", "country": "CA", "postalCode": "K7S1S1", "twitter": "None", "instagram": "None", "facebook": "None", "youtube": "None", "website": "None", "summary": "None", "logo": "None", "latitude": 45.43506529750808, "longitude": -76.35449636880621}, "848126371RR0001": {"name": "River Valley Cancer Support Group Inc.", "designationCode": "C", "categoryCode": "11", "address": "PO BOX 854", "city": "HARTLAND", "province": "NB", "country": "CA", "postalCode": "E7P3K4", "twitter": "None", "instagram": "None", "facebook": "None", "youtube": "None", "website": "None", "summary": "None", "logo": "None", "latitude": 46.297743000000054, "longitude": -67.52770099999994}, "813110749RR0001": {"name": "River Valley Community Church And Fellowship of Medicine Hat", "designationCode": "C", "categoryCode": "36", "address": "1101 QUEEN STREET S.E.", "city": "MEDICINE HAT", "province": "AB", "country": "CA", "postalCode": "T1A1B3", "twitter": "None", "instagram": "None", "facebook": "None", "youtube": "None", "website": "None", "summary": "None", "logo": "None"}, "119288918RR1654": {"name": "River Valley French Congregation of Jehovah's Witnesses, Edmonton, Alberta", "designationCode": "C", "categoryCode": "61", "address": "5003 162 AVE NW", "city": "EDMONTON", "province": "AB", "country": "CA", "postalCode": "T5Y3K2", "twitter": "None", "instagram": "None", "facebook": "None", "youtube": "None", "website": "None", "summary": "None", "logo": "None", "latitude": 53.62226947928356, "longitude": -113.41482220987903}, "795557123RR0001": {"name": "Riverbrink Art Museum Inc", "designationCode": "C", "categoryCode": "50", "address": "116 QUEENSTON STREET          BOX 256", "city": "NIAGARA ON THE LAKE", "province": "ON", "country": "CA", "postalCode": "L0S1L0", "twitter": "None", "instagram": "None", "facebook": "None", "youtube": "None", "website": "None", "summary": "None", "logo": "None", "latitude": 43.170157675832385, "longitude": -79.0572871219633}, "811274521RR0001": {"name": "Riverdale Christian Academy", "designationCode": "B", "categoryCode": "20", "address": "412 SUNNIDALE RD", "city": "BARRIE", "province": "ON", "country": "CA", "postalCode": "L4N7A8", "twitter": "None", "instagram": "None", "facebook": "None", "youtube": "None", "website": "None", "summary": "None", "logo": "None", "latitude": 44.40134151067581, "longitude": -79.72760308673323}, "816082440RR0001": {"name": "Riverdale Community Daycare Inc.", "designationCode": "C", "categoryCode": "01", "address": "BOX 722", "city": "RIVERS", "province": "MB", "country": "CA", "postalCode": "R0K1X0", "twitter": "None", "instagram": "None", "facebook": "None", "youtube": "None", "website": "None", "summary": "None", "logo": "None", "latitude": 49.55658299999999, "longitude": -99.0937665}, "119288918RR1560": {"name": "Riverfront Spanish Congregation of Jehovah's Witnesses, Amherstburg, Ontario", "designationCode": "C", "categoryCode": "61", "address": "593 HERITAGE RD", "city": "KINGSVILLE", "province": "ON", "country": "CA", "postalCode": "N9Y3B1", "twitter": "None", "instagram": "None", "facebook": "None", "youtube": "None", "website": "None", "summary": "None", "logo": "None", "latitude": 42.01772747627245, "longitude": -82.76583007073461}, "836349829RR0001": {"name": "Rivers and Area Community Foundation Inc.", "designationCode": "A", "categoryCode": "03", "address": "PO BOX 714", "city": "RIVERS", "province": "MB", "country": "CA", "postalCode": "R0K1X0", "twitter": "None", "instagram": "None", "facebook": "None", "youtube": "None", "website": "None", "summary": "None", "logo": "None"}, "118885466RR0001": {"name": "Rivers of Grace Pastoral Charge", "designationCode": "C", "categoryCode": "44", "address": "PO BOX 1360", "city": "DIGBY", "province": "NS", "country": "CA", "postalCode": "B0V1A0", "twitter": "None", "instagram": "None", "facebook": "None", "youtube": "None", "website": "None", "summary": "None", "logo": "None", "latitude": 44.39616000000005, "longitude": -66.20374249999993}, "813464054RR0001": {"name": "Rivers of Living Waters Ministries of Montreal", "designationCode": "C", "categoryCode": "39", "address": "2840 SAUVE #1", "city": "MONTREAL", "province": "QC", "country": "CA", "postalCode": "H2B1G7", "twitter": "None", "instagram": "None", "facebook": "None", "youtube": "None", "website": "None", "summary": "None", "logo": "None", "latitude": 45.57597201581171, "longitude": -73.6391760839346}, "869922138RR0001": {"name": "Rivers of Water Full Gospel Ministry", "designationCode": "C", "categoryCode": "39", "address": "2508-5TH AVENUE A NORTH", "city": "LETHBRIDGE", "province": "AB", "country": "CA", "postalCode": "T1H0R7", "twitter": "None", "instagram": "None", "facebook": "None", "youtube": "None", "website": "None", "summary": "None", "logo": "None", "latitude": 49.70557318029861, "longitude": -112.80524424428418}, "821129467RR0001": {"name": "Rivers Alive", "designationCode": "B", "categoryCode": "45", "address": "135 BAILEY DRIVE", "city": "CAMBRIDGE", "province": "ON", "country": "CA", "postalCode": "N1P0A2", "twitter": "None", "instagram": "None", "facebook": "None", "youtube": "None", "website": "None", "summary": "None", "logo": "None", "latitude": 43.33833255785113, "longitude": -80.28265247830167}, "823292495RR0001": {"name": "Rivers Living Water Christian Centre Inc.", "designationCode": "C", "categoryCode": "39", "address": "40 SAINT LUCIE DR", "city": "NORTH YORK", "province": "ON", "country": "CA", "postalCode": "M9M1S8", "twitter": "None", "instagram": "None", "facebook": "None", "youtube": "None", "website": "None", "summary": "None", "logo": "None", "latitude": 43.73957056702639, "longitude": -79.54082971039863}, "119288918RR0158": {"name": "Riversdale Congregation of Jehovah's Witnesses, Saskatoon, Saskatchewan", "designationCode": "C", "categoryCode": "61", "address": "119 WITNEY AVENUE SOUTH", "city": "SASKATOON", "province": "SK", "country": "CA", "postalCode": "S7M3K1", "twitter": "None", "instagram": "None", "facebook": "None", "youtube": "None", "website": "None", "summary": "None", "logo": "None", "latitude": 52.12843166472388, "longitude": -106.71040775662165}, "135530269RR0001": {"name": "Riverside Calvary Chapel", "designationCode": "C", "categoryCode": "39", "address": "8-20178 96 AVENUE", "city": "LANGLEY", "province": "BC", "country": "CA", "postalCode": "V1M0B2", "twitter": "None", "instagram": "None", "facebook": "None", "youtube": "None", "website": "None", "summary": "None", "logo": "None", "latitude": 49.17697151284019, "longitude": -122.66350102553523}, "107396905RR0076": {"name": "Riverside Community Church", "designationCode": "C", "categoryCode": "39", "address": "1477 LOUGHEED HIGHWAY", "city": "PORT COQUITLAM", "province": "BC", "country": "CA", "postalCode": "V3B7M6", "twitter": "None", "instagram": "None", "facebook": "None", "youtube": "None", "website": "None", "summary": "None", "logo": "None", "latitude": 49.258781338074755, "longitude": -122.75510205326347}, "818022105RR0001": {"name": "Riverside Community Wesleyan Church", "designationCode": "C", "categoryCode": "39", "address": "30 GRENFELL AVE", "city": "SWASTIKA", "province": "ON", "country": "CA", "postalCode": "P0K1T0", "twitter": "None", "instagram": "None", "facebook": "None", "youtube": "None", "website": "None", "summary": "None", "logo": "None", "latitude": 48.11095692360532, "longitude": -80.10280844771403}, "119288918RR0866": {"name": "Riverside Congregation of Jehovah's Witnesses, Red Deer, Alberta", "designationCode": "C", "categoryCode": "61", "address": "455-37543 ENGLAND WAY", "city": "RED DEER", "province": "AB", "country": "CA", "postalCode": "T4P3M9", "twitter": "None", "instagram": "None", "facebook": "None", "youtube": "None", "website": "None", "summary": "None", "logo": "None", "latitude": 52.30807800000005, "longitude": -113.82205399999994}, "809034028RR0001": {"name": "Riverside Mission Inc.", "designationCode": "C", "categoryCode": "09", "address": "40 MANITOBA ST E", "city": "MOOSE JAW", "province": "SK", "country": "CA", "postalCode": "S6H0A2", "twitter": "None", "instagram": "None", "facebook": "None", "youtube": "None", "website": "None", "summary": "None", "logo": "None", "latitude": 50.38980258788054, "longitude": -105.53355408788053}, "809372840RR0001": {"name": "Riverside Residents' Council", "designationCode": "C", "categoryCode": "01", "address": "PO BOX 10", "city": "TURTLEFORD", "province": "SK", "country": "CA", "postalCode": "S0M2Y0", "twitter": "None", "instagram": "None", "facebook": "None", "youtube": "None", "website": "None", "summary": "None", "logo": "None", "latitude": 53.38348000000008, "longitude": -108.95143999999999}, "856431564RR0001": {"name": "Riverview Arts Centre Inc.", "designationCode": "C", "categoryCode": "22", "address": "PO BOX 7004", "city": "RIVERVIEW", "province": "NB", "country": "CA", "postalCode": "E1B4T8", "twitter": "None", "instagram": "None", "facebook": "None", "youtube": "None", "website": "None", "summary": "None", "logo": "None", "latitude": 46.05759600000006, "longitude": -64.80031399999993}, "119288918RR1592": {"name": "Riverview Congregation of Jehovah's Witnesses, Vancouver, British Columbia", "designationCode": "C", "categoryCode": "61", "address": "495 EAST 49TH AVENUE", "city": "VANCOUVER", "province": "BC", "country": "CA", "postalCode": "V5W2G8", "twitter": "None", "instagram": "None", "facebook": "None", "youtube": "None", "website": "None", "summary": "None", "logo": "None", "latitude": 49.22556147879262, "longitude": -123.09443066472387}, "801239922RR0001": {"name": "Riverview Enhanced Living Society", "designationCode": "C", "categoryCode": "09", "address": "PO BOX 270", "city": "BRIDGEWATER", "province": "NS", "country": "CA", "postalCode": "B4V2W9", "twitter": "None", "instagram": "None", "facebook": "None", "youtube": "None", "website": "None", "summary": "None", "logo": "None", "latitude": 44.38048200000006, "longitude": -64.52305099999994}, "857510051RR0001": {"name": "Riverview Volunteer Association", "designationCode": "C", "categoryCode": "19", "address": "455 SALTSPRINGS ROAD", "city": "PICTOU COUNTY", "province": "NS", "country": "CA", "postalCode": "B0K1P0", "twitter": "None", "instagram": "None", "facebook": "None", "youtube": "None", "website": "None", "summary": "None", "logo": "None", "latitude": 45.54678463879855, "longitude": -62.86726937771427}, "107655037RR0001": {"name": "RiverCross Church", "designationCode": "C", "categoryCode": "31", "address": "61 FORBES DRIVE", "city": "SAINT JOHN", "province": "NB", "country": "CA", "postalCode": "E2K5A2", "twitter": "None", "instagram": "None", "facebook": "None", "youtube": "None", "website": "None", "summary": "None", "logo": "None", "latitude": 45.283394874389685, "longitude": -66.09089368664564}, "889731857RR0001": {"name": "RiverWatch Institute of Alberta", "designationCode": "C", "categoryCode": "21", "address": "433-17008 90 AVE", "city": "EDMONTON", "province": "AB", "country": "CA", "postalCode": "T5T1L6", "twitter": "None", "instagram": "None", "facebook": "None", "youtube": "None", "website": "None", "summary": "None", "logo": "None", "latitude": 53.524869504327846, "longitude": -113.61727341618096}, "814687620RR0001": {"name": "Road to Care", "designationCode": "C", "categoryCode": "11", "address": "15 AMELIA STREET", "city": "HAMILTON", "province": "ON", "country": "CA", "postalCode": "L8P2V3", "twitter": "None", "instagram": "None", "facebook": "None", "youtube": "None", "website": "None", "summary": "None", "logo": "None", "latitude": 43.24572685316531, "longitude": -79.88564965543304}, "851812081RR0001": {"name": "Road to Hope Community Support Foundation", "designationCode": "C", "categoryCode": "11", "address": "BOX 182", "city": "ATHABASCA", "province": "AB", "country": "CA", "postalCode": "T9S2A3", "twitter": "None", "instagram": "None", "facebook": "None", "youtube": "None", "website": "None", "summary": "None", "logo": "None", "latitude": 54.721284000000054, "longitude": -113.28321049999994}, "808289284RR0001": {"name": "Robbie Dean Family Counselling Centre", "designationCode": "C", "categoryCode": "09", "address": "315 PEMBROKE ST E", "city": "PEMBROKE", "province": "ON", "country": "CA", "postalCode": "K8A3K2", "twitter": "None", "instagram": "None", "facebook": "None", "youtube": "None", "website": "None", "summary": "None", "logo": "None", "latitude": 45.82739288028636, "longitude": -77.10571819128947}, "849539846RR0001": {"name": "Robbie's Rainbow", "designationCode": "C", "categoryCode": "11", "address": "478 DUNDAS ST WEST            PO BOX 30052", "city": "OAKVILLE", "province": "ON", "country": "CA", "postalCode": "L6H7H8", "twitter": "None", "instagram": "None", "facebook": "None", "youtube": "None", "website": "None", "summary": "None", "logo": "None", "latitude": 43.46587185642619, "longitude": -79.74376144587207}, "852489806RR0001": {"name": "Robbins Hebrew Academy Foundation", "designationCode": "A", "categoryCode": "03", "address": "1700 BATHURST ST", "city": "TORONTO", "province": "ON", "country": "CA", "postalCode": "M5P3K3", "twitter": "None", "instagram": "None", "facebook": "None", "youtube": "None", "website": "None", "summary": "None", "logo": "None", "latitude": 43.69565432970755, "longitude": -79.42344648704423}, "810331421RR0001": {"name": "Robert & Devi Jawl Foundation", "designationCode": "B", "categoryCode": "03", "address": "#100 - 3350 DOUGLAS STREET", "city": "VICTORIA", "province": "BC", "country": "CA", "postalCode": "V8Z3L1", "twitter": "None", "instagram": "None", "facebook": "None", "youtube": "None", "website": "None", "summary": "None", "logo": "None", "latitude": 48.450955952091256, "longitude": -123.37444665766796}, "803801802RR0001": {"name": "Robert & Katie Fenske Charitable Foundation Inc.", "designationCode": "B", "categoryCode": "03", "address": "PO BOX 8", "city": "MINITONAS", "province": "MB", "country": "CA", "postalCode": "R0L1G0", "twitter": "None", "instagram": "None", "facebook": "None", "youtube": "None", "website": "None", "summary": "None", "logo": "None", "latitude": 52.086580000000026, "longitude": -101.03713999999997}, "840518682RR0001": {"name": "Robert and Lillian Hartley Foundation Inc.", "designationCode": "B", "categoryCode": "03", "address": "800, 840 6TH AVENUE SW", "city": "CALGARY", "province": "AB", "country": "CA", "postalCode": "T2P3E5", "twitter": "None", "instagram": "None", "facebook": "None", "youtube": "None", "website": "None", "summary": "None", "logo": "None", "latitude": 51.0478195947294, "longitude": -114.07564953611224}, "800554388RR0001": {"name": "Robert Allan 2015 Memorial Scholarship Trust", "designationCode": "B", "categoryCode": "25", "address": "402 - 1409 PENDER ST W", "city": "VANCOUVER", "province": "BC", "country": "CA", "postalCode": "V6G2S3", "twitter": "None", "instagram": "None", "facebook": "None", "youtube": "None", "website": "None", "summary": "None", "logo": "None", "latitude": 49.289716965520995, "longitude": -123.12760664894714}, "893063560RR0001": {"name": "Robert Gannicott Foundation", "designationCode": "B", "categoryCode": "03", "address": "1090 DON MILLS RD             SUITE 506", "city": "TORONTO", "province": "ON", "country": "CA", "postalCode": "M3C3R6", "twitter": "None", "instagram": "None", "facebook": "None", "youtube": "None", "website": "None", "summary": "None", "logo": "None", "latitude": 43.73653624756195, "longitude": -79.34338908875245}, "789062692RR0001": {"name": "Robert H. Lee Foundation", "designationCode": "B", "categoryCode": "03", "address": "1800-510 GEORGIA W ST", "city": "VANCOUVER", "province": "BC", "country": "CA", "postalCode": "V6B0M3", "twitter": "None", "instagram": "None", "facebook": "None", "youtube": "None", "website": "None", "summary": "None", "logo": "None", "latitude": 49.28012307167682, "longitude": -123.11442679241839}, "815430806RR0001": {"name": "Robert Kerr Foundation", "designationCode": "B", "categoryCode": "03", "address": "1800-181 BAY ST", "city": "TORONTO", "province": "ON", "country": "CA", "postalCode": "M5J2T9", "twitter": "None", "instagram": "None", "facebook": "None", "youtube": "None", "website": "None", "summary": "None", "logo": "None", "latitude": 43.64715434416293, "longitude": -79.37959157588452}, "826123911RR0001": {"name": "Robert R. Wark Trust for Peaceful Valley Trust", "designationCode": "B", "categoryCode": "05", "address": "155 WELLINGTON ST W 20TH FLOOR", "city": "TORONTO", "province": "ON", "country": "CA", "postalCode": "M5V3K7", "twitter": "None", "instagram": "None", "facebook": "None", "youtube": "None", "website": "None", "summary": "None", "logo": "None", "latitude": 43.64596585316531, "longitude": -79.38574575644876}, "859458747RR0001": {"name": "Robertson Early Enrichment Program Inc.", "designationCode": "C", "categoryCode": "01", "address": "550 ROBERTSON STREET", "city": "WINNIPEG", "province": "MB", "country": "CA", "postalCode": "R2X2C4", "twitter": "None", "instagram": "None", "facebook": "None", "youtube": "None", "website": "None", "summary": "None", "logo": "None", "latitude": 49.9338460869061, "longitude": -97.15735748831364}, "852177310RR0001": {"name": "Robin Deverteuil Foundation", "designationCode": "A", "categoryCode": "03", "address": "327 ROSE PARK DRIVE", "city": "TORONTO", "province": "ON", "country": "CA", "postalCode": "M4T1R8", "twitter": "None", "instagram": "None", "facebook": "None", "youtube": "None", "website": "None", "summary": "None", "logo": "None", "latitude": 43.69238283484346, "longitude": -79.37830478919734}}