{"862983905RR0001": {"name": "FIRST BAPTIST CHURCH, MOOSE JAW INC.", "designationCode": "C", "categoryCode": "31", "address": "1010 MAIN STREET NORTH", "city": "MOOSE JAW", "province": "SK", "country": "CA", "postalCode": "S6H3K8", "twitter": "None", "instagram": "None", "facebook": "None", "youtube": "None", "website": "None", "summary": "None", "logo": "None", "latitude": 50.39909979886415, "longitude": -105.53482315998403}, "819192477RR0001": {"name": "FIRST BAPTIST CHURCH, ORILLIA", "designationCode": "C", "categoryCode": "31", "address": "265 COLDWATER RD W", "city": "ORILLIA", "province": "ON", "country": "CA", "postalCode": "L3V3M1", "twitter": "None", "instagram": "None", "facebook": "None", "youtube": "None", "website": "None", "summary": "None", "logo": "None", "latitude": 44.609392876521795, "longitude": -79.43601933049895}, "866448210RR0001": {"name": "FIRST BAPTIST CHURCH, WOODSTOCK, ONTARIO", "designationCode": "C", "categoryCode": "31", "address": "603 ADELAIDE STREET", "city": "WOODSTOCK", "province": "ON", "country": "CA", "postalCode": "N4S4B8", "twitter": "None", "instagram": "None", "facebook": "None", "youtube": "None", "website": "None", "summary": "None", "logo": "None", "latitude": 43.13166935832986, "longitude": -80.75191742506776}, "136780947RR0001": {"name": "FIRST BAPTIST FOUNDATION", "designationCode": "C", "categoryCode": "59", "address": "969 BURRARD ST", "city": "VANCOUVER", "province": "BC", "country": "CA", "postalCode": "V6Z1Y1", "twitter": "None", "instagram": "None", "facebook": "None", "youtube": "None", "website": "None", "summary": "None", "logo": "None", "latitude": 49.281352288966204, "longitude": -123.12570954682859}, "119233021RR0001": {"name": "FIRST BATTALION THE ROYAL NEW BRUNSWICK REGIMENT (CARLETON AND YORK) REGIMENTAL ASSOCIATION INC", "designationCode": "C", "categoryCode": "51", "address": "4 FRANKLIN ST", "city": "LINCOLN", "province": "NB", "country": "CA", "postalCode": "E3B7A7", "twitter": "None", "instagram": "None", "facebook": "None", "youtube": "None", "website": "None", "summary": "None", "logo": "None", "latitude": 45.892467241560134, "longitude": -66.56518713620294}, "118917343RR0001": {"name": "FIRST BIBLE BAPTIST CHURCH", "designationCode": "C", "categoryCode": "31", "address": "218 OLD HAMPTON RD", "city": "QUISPAMSIS", "province": "NB", "country": "CA", "postalCode": "E2E4M5", "twitter": "None", "instagram": "None", "facebook": "None", "youtube": "None", "website": "None", "summary": "None", "logo": "None", "latitude": 45.40762098138968, "longitude": -65.96572362917667}, "892264979RR0001": {"name": "FIRST BIBLE BAPTIST CHURCH OF INUVIK, NWT", "designationCode": "C", "categoryCode": "31", "address": "BOX 2688", "city": "INUVIK", "province": "NT", "country": "CA", "postalCode": "X0E0T0", "twitter": "None", "instagram": "None", "facebook": "None", "youtube": "None", "website": "None", "summary": "None", "logo": "None", "latitude": 68.36105000000003, "longitude": -133.73492999999996}, "888754603RR0001": {"name": "FIRST BOOK/LE PREMIER LIVRE", "designationCode": "A", "categoryCode": "03", "address": "1502 - 90 BURNHAMTHORPE RD W", "city": "MISSISSAUGA", "province": "ON", "country": "CA", "postalCode": "L5B3C3", "twitter": "None", "instagram": "None", "facebook": "None", "youtube": "None", "website": "None", "summary": "None", "logo": "None", "latitude": 43.591759924462195, "longitude": -79.6374157001851}, "134994136RR0001": {"name": "FIRST CALVARY PENTECOSTAL CHURCH", "designationCode": "C", "categoryCode": "31", "address": "5 PENN DRIVE", "city": "NORTH YORK", "province": "ON", "country": "CA", "postalCode": "M9L2A6", "twitter": "None", "instagram": "None", "facebook": "None", "youtube": "None", "website": "None", "summary": "None", "logo": "None", "latitude": 43.75123688533697, "longitude": -79.55367389174226}, "759796121RR0001": {"name": "FIRST CAMBODIAN ALLIANCE CHURCH", "designationCode": "C", "categoryCode": "39", "address": "1035 PARAMOUNT DR", "city": "STONEY CREEK", "province": "ON", "country": "CA", "postalCode": "L8J2L6", "twitter": "None", "instagram": "None", "facebook": "None", "youtube": "None", "website": "None", "summary": "None", "logo": "None", "latitude": 43.19716173050951, "longitude": -79.7954827974203}, "118917376RR0001": {"name": "FIRST CAMBRIDGE BAPTIST CHURCH", "designationCode": "C", "categoryCode": "31", "address": "2985 LOWER CAMBRIDGE ROAD", "city": "CAMBRIDGE-NARROWS", "province": "NB", "country": "CA", "postalCode": "E4C1R3", "twitter": "None", "instagram": "None", "facebook": "None", "youtube": "None", "website": "None", "summary": "None", "logo": "None", "latitude": 45.77949452192233, "longitude": -66.00655471169253}, "870475647RR0001": {"name": "FIRST CENTURY CHURCH", "designationCode": "C", "categoryCode": "39", "address": "7512 MARK CRES", "city": "BURNABY", "province": "BC", "country": "CA", "postalCode": "V5A1Z3", "twitter": "None", "instagram": "None", "facebook": "None", "youtube": "None", "website": "None", "summary": "None", "logo": "None", "latitude": 49.255113489584, "longitude": -122.94476860534353}, "107801771RR0001": {"name": "FIRST CENTURY FOUNDATIONS", "designationCode": "C", "categoryCode": "47", "address": "908 LANCASTER BLVD", "city": "MILTON", "province": "ON", "country": "CA", "postalCode": "L9T6A4", "twitter": "None", "instagram": "None", "facebook": "None", "youtube": "None", "website": "None", "summary": "None", "logo": "None", "latitude": 43.522736658607045, "longitude": -79.82709284208545}, "118853548RR0001": {"name": "FIRST CHIPMAN UNITED BAPTIST CHURCH", "designationCode": "C", "categoryCode": "31", "address": "10 ELM STREET", "city": "CHIPMAN", "province": "NB", "country": "CA", "postalCode": "E4A1X5", "twitter": "None", "instagram": "None", "facebook": "None", "youtube": "None", "website": "None", "summary": "None", "logo": "None", "latitude": 46.17683298138969, "longitude": -65.87825006399662}, "107385338RR0001": {"name": "FIRST CHRISTIAN CHURCH (DISCIPLES) EDMONTON", "designationCode": "C", "categoryCode": "39", "address": "13407 97 STREET", "city": "EDMONTON", "province": "AB", "country": "CA", "postalCode": "T5E4C7", "twitter": "None", "instagram": "None", "facebook": "None", "youtube": "None", "website": "None", "summary": "None", "logo": "None", "latitude": 53.594827072162275, "longitude": -113.49167478902444}, "118917392RR0001": {"name": "FIRST CHRISTIAN REFORMED CHURCH", "designationCode": "C", "categoryCode": "39", "address": "287 WATER STREET", "city": "GUELPH", "province": "ON", "country": "CA", "postalCode": "N1G1B6", "twitter": "None", "instagram": "None", "facebook": "None", "youtube": "None", "website": "None", "summary": "None", "logo": "None", "latitude": 43.52967436855062, "longitude": -80.25397087791491}, "118917400RR0001": {"name": "FIRST CHRISTIAN REFORMED CHURCH", "designationCode": "C", "categoryCode": "39", "address": "34 SYLVESTER DR", "city": "CHATHAM", "province": "ON", "country": "CA", "postalCode": "N7M5P1", "twitter": "None", "instagram": "None", "facebook": "None", "youtube": "None", "website": "None", "summary": "None", "logo": "None", "latitude": 42.38670999030513, "longitude": -82.17854501359001}, "131759482RR0001": {"name": "FIRST CHRISTIAN REFORMED CHURCH", "designationCode": "C", "categoryCode": "39", "address": "2670 VICTORIA DR", "city": "VANCOUVER", "province": "BC", "country": "CA", "postalCode": "V5N4L2", "twitter": "None", "instagram": "None", "facebook": "None", "youtube": "None", "website": "None", "summary": "None", "logo": "None", "latitude": 49.260657819036595, "longitude": -123.06589321445126}, "830242277RR0001": {"name": "FIRST CHRISTIAN REFORMED CHURCH MINISTRY FOUNDATION", "designationCode": "B", "categoryCode": "43", "address": "181 CHARLTON AVE. W", "city": "HAMILTON", "province": "ON", "country": "CA", "postalCode": "L8P2C9", "twitter": "None", "instagram": "None", "facebook": "None", "youtube": "None", "website": "None", "summary": "None", "logo": "None", "latitude": 43.25186891866248, "longitude": -79.88095895796057}, "129945002RR0001": {"name": "FIRST CHRISTIAN REFORMED CHURCH OF BARRIE, ONT", "designationCode": "C", "categoryCode": "39", "address": "PO BOX 875", "city": "BARRIE", "province": "ON", "country": "CA", "postalCode": "L4M4Y6", "twitter": "None", "instagram": "None", "facebook": "None", "youtube": "None", "website": "None", "summary": "None", "logo": "None", "latitude": 44.38929300000005, "longitude": -79.68626449999994}, "829954791RR0001": {"name": "FIRST CHRISTIAN REFORMED CHURCH OF BRANDON INC.", "designationCode": "C", "categoryCode": "39", "address": "1509 VICTORIA AVE", "city": "BRANDON", "province": "MB", "country": "CA", "postalCode": "R7A1B7", "twitter": "None", "instagram": "None", "facebook": "None", "youtube": "None", "website": "None", "summary": "None", "logo": "None", "latitude": 49.842305474897465, "longitude": -99.95864399999999}, "118917624RR0001": {"name": "FIRST CHRISTIAN REFORMED CHURCH OF EDMONTON", "designationCode": "C", "categoryCode": "39", "address": "10956 96 ST", "city": "EDMONTON", "province": "AB", "country": "CA", "postalCode": "T5H2K9", "twitter": "None", "instagram": "None", "facebook": "None", "youtube": "None", "website": "None", "summary": "None", "logo": "None", "latitude": 53.557468386894854, "longitude": -113.48870952931479}, "107385361RR0001": {"name": "FIRST CHRISTIAN REFORMED CHURCH OF KINGSTON", "designationCode": "C", "categoryCode": "39", "address": "310 KINGSCOURT AVE", "city": "KINGSTON", "province": "ON", "country": "CA", "postalCode": "K7K4R3", "twitter": "None", "instagram": "None", "facebook": "None", "youtube": "None", "website": "None", "summary": "None", "logo": "None", "latitude": 44.25203635053956, "longitude": -76.50204117213879}, "107385577RR0001": {"name": "FIRST CHRISTIAN REFORMED CHURCH OF LETHBRIDGE", "designationCode": "C", "categoryCode": "39", "address": "1402 8 AVE N", "city": "LETHBRIDGE", "province": "AB", "country": "CA", "postalCode": "T1H1A9", "twitter": "None", "instagram": "None", "facebook": "None", "youtube": "None", "website": "None", "summary": "None", "logo": "None", "latitude": 49.71097649509525, "longitude": -112.82226299999999}, "118917509RR0001": {"name": "FIRST CHRISTIAN REFORMED CHURCH OF ORILLIA", "designationCode": "C", "categoryCode": "39", "address": "PO BOX 291 STN MAIN", "city": "ORILLIA", "province": "ON", "country": "CA", "postalCode": "L3V6J6", "twitter": "None", "instagram": "None", "facebook": "None", "youtube": "None", "website": "None", "summary": "None", "logo": "None", "latitude": 44.58482747647954, "longitude": -79.42452845126093}, "118917558RR0001": {"name": "FIRST CHRISTIAN REFORMED CHURCH OF OWEN SOUND", "designationCode": "C", "categoryCode": "39", "address": "201- 4TH AVENUE WEST", "city": "OWEN SOUND", "province": "ON", "country": "CA", "postalCode": "N4K4V1", "twitter": "None", "instagram": "None", "facebook": "None", "youtube": "None", "website": "None", "summary": "None", "logo": "None", "latitude": 44.551842578971595, "longitude": -80.94599437988394}, "107385494RR0001": {"name": "FIRST CHRISTIAN REFORMED CHURCH OF RED DEER", "designationCode": "C", "categoryCode": "39", "address": "16 MCVICAR STREET", "city": "RED DEER", "province": "AB", "country": "CA", "postalCode": "T4N0M1", "twitter": "None", "instagram": "None", "facebook": "None", "youtube": "None", "website": "None", "summary": "None", "logo": "None", "latitude": 52.25698552596792, "longitude": -113.78762172300767}, "118917590RR0001": {"name": "FIRST CHRISTIAN REFORMED CHURCH OF ROCKY MOUNTAIN HOUSE", "designationCode": "C", "categoryCode": "39", "address": "BOX 6 SITE 4 RR3", "city": "ROCKY MOUNTAIN HOUSE", "province": "AB", "country": "CA", "postalCode": "T4T2A3", "twitter": "None", "instagram": "None", "facebook": "None", "youtube": "None", "website": "None", "summary": "None", "logo": "None", "latitude": 52.37758500000005, "longitude": -114.93030049999993}, "132897802RR0001": {"name": "FIRST CHRISTIAN REFORMED CHURCH OF ST THOMAS,", "designationCode": "C", "categoryCode": "39", "address": "320 ELM STREET", "city": "ST THOMAS", "province": "ON", "country": "CA", "postalCode": "N5R1J7", "twitter": "None", "instagram": "None", "facebook": "None", "youtube": "None", "website": "None", "summary": "None", "logo": "None", "latitude": 42.76415666890751, "longitude": -81.17477200218852}, "890905243RR0001": {"name": "FIRST CHRISTIAN REFORMED CHURCH OF TABER, ALBERTA,", "designationCode": "C", "categoryCode": "39", "address": "BOX 4809", "city": "TABER", "province": "AB", "country": "CA", "postalCode": "T1G2E1", "twitter": "None", "instagram": "None", "facebook": "None", "youtube": "None", "website": "None", "summary": "None", "logo": "None", "latitude": 49.787853000000055, "longitude": -112.12714249999993}, "803116854RR0001": {"name": "FIRST CHRISTIAN REFORMED CHURCH OF THUNDER BAY", "designationCode": "C", "categoryCode": "39", "address": "10822 JOHN STREET ROAD", "city": "MURILLO", "province": "ON", "country": "CA", "postalCode": "P0T2G0", "twitter": "None", "instagram": "None", "facebook": "None", "youtube": "None", "website": "None", "summary": "None", "logo": "None", "latitude": 48.442956479656125, "longitude": -89.53861118595992}, "136980000RR0001": {"name": "FIRST CHRISTIAN REFORMED CHURCH OF TORONTO", "designationCode": "C", "categoryCode": "39", "address": "63-67 TAUNTON ROAD", "city": "TORONTO", "province": "ON", "country": "CA", "postalCode": "M4S2P2", "twitter": "None", "instagram": "None", "facebook": "None", "youtube": "None", "website": "None", "summary": "None", "logo": "None", "latitude": 43.70778716322241, "longitude": -79.38845473561457}, "836223768RR0001": {"name": "FIRST CHRISTIAN REFORMED CHURCH, SARNIA", "designationCode": "C", "categoryCode": "39", "address": "1105 EXMOUTH ST", "city": "SARNIA", "province": "ON", "country": "CA", "postalCode": "N7S1W5", "twitter": "None", "instagram": "None", "facebook": "None", "youtube": "None", "website": "None", "summary": "None", "logo": "None", "latitude": 42.9846812296762, "longitude": -82.36763755520849}, "107385817RR0001": {"name": "FIRST CHURCH OF CHRIST SCIENTIST", "designationCode": "C", "categoryCode": "39", "address": "415 PELISSIER ST", "city": "WINDSOR", "province": "ON", "country": "CA", "postalCode": "N9A4L2", "twitter": "None", "instagram": "None", "facebook": "None", "youtube": "None", "website": "None", "summary": "None", "logo": "None", "latitude": 42.3159917746264, "longitude": -83.03922032849546}, "118917764RR0001": {"name": "FIRST CHURCH OF CHRIST SCIENTIST", "designationCode": "A", "categoryCode": "39", "address": "308 ERIE ST", "city": "STRATFORD", "province": "ON", "country": "CA", "postalCode": "N5A2N2", "twitter": "None", "instagram": "None", "facebook": "None", "youtube": "None", "website": "None", "summary": "None", "logo": "None", "latitude": 43.36460488594255, "longitude": -80.9885755817702}, "130918840RR0001": {"name": "FIRST CHURCH OF CHRIST SCIENTIST", "designationCode": "C", "categoryCode": "39", "address": "180 ROSSLAND RD E", "city": "OSHAWA", "province": "ON", "country": "CA", "postalCode": "L1G2W4", "twitter": "None", "instagram": "None", "facebook": "None", "youtube": "None", "website": "None", "summary": "None", "logo": "None", "latitude": 43.91657229672783, "longitude": -78.86475624883136}, "107385940RR0001": {"name": "FIRST CHURCH OF CHRIST SCIENTIST, ETOBICOKE", "designationCode": "C", "categoryCode": "39", "address": "4480 EGLINTON AVE W", "city": "ETOBICOKE", "province": "ON", "country": "CA", "postalCode": "M9A4M4", "twitter": "None", "instagram": "None", "facebook": "None", "youtube": "None", "website": "None", "summary": "None", "logo": "None", "latitude": 43.6800371552019, "longitude": -79.53815927687675}, "107385684RR0001": {"name": "FIRST CHURCH OF CHRIST, SCIENTIST", "designationCode": "C", "categoryCode": "39", "address": "1018 SOUTH PARK ST", "city": "HALIFAX", "province": "NS", "country": "CA", "postalCode": "B3H2W2", "twitter": "None", "instagram": "None", "facebook": "None", "youtube": "None", "website": "None", "summary": "None", "logo": "None", "latitude": 44.63466590285076, "longitude": -63.57612178007939}, "107385833RR0001": {"name": "FIRST CHURCH OF CHRIST, SCIENTIST", "designationCode": "C", "categoryCode": "39", "address": "2603-19TH ST.NW", "city": "CALGARY", "province": "AB", "country": "CA", "postalCode": "T2M3V5", "twitter": "None", "instagram": "None", "facebook": "None", "youtube": "None", "website": "None", "summary": "None", "logo": "None", "latitude": 51.07561116180969, "longitude": -114.10645470635924}, "107385866RR0001": {"name": "FIRST CHURCH OF CHRIST, SCIENTIST", "designationCode": "C", "categoryCode": "39", "address": "633 8TH STREET", "city": "NEW WESTMINSTER", "province": "BC", "country": "CA", "postalCode": "V3M3S4", "twitter": "None", "instagram": "None", "facebook": "None", "youtube": "None", "website": "None", "summary": "None", "logo": "None", "latitude": 49.21192769456542, "longitude": -122.92486340905502}, "107385890RR0001": {"name": "FIRST CHURCH OF CHRIST, SCIENTIST", "designationCode": "C", "categoryCode": "39", "address": "714-20TH STREET", "city": "WEST VANCOUVER", "province": "BC", "country": "CA", "postalCode": "V7V3Y7", "twitter": "None", "instagram": "None", "facebook": "None", "youtube": "None", "website": "None", "summary": "None", "logo": "None", "latitude": 49.330926000000005, "longitude": -123.1663608267647}, "130649445RR0001": {"name": "FIRST CHURCH OF CHRIST, SCIENTIST", "designationCode": "C", "categoryCode": "39", "address": "137 SCOTT STREET", "city": "WINNIPEG", "province": "MB", "country": "CA", "postalCode": "R3L0K9", "twitter": "None", "instagram": "None", "facebook": "None", "youtube": "None", "website": "None", "summary": "None", "logo": "None", "latitude": 49.87914801887013, "longitude": -97.14122382197458}, "133193292RR0001": {"name": "FIRST CHURCH OF CHRIST, SCIENTIST", "designationCode": "C", "categoryCode": "39", "address": "1205 PANDORA AVE", "city": "VICTORIA", "province": "BC", "country": "CA", "postalCode": "V8V3R3", "twitter": "None", "instagram": "None", "facebook": "None", "youtube": "None", "website": "None", "summary": "None", "logo": "None", "latitude": 48.42703155785112, "longitude": -123.35005943005943}, "876249764RR0001": {"name": "FIRST CHURCH OF CHRIST, SCIENTIST", "designationCode": "C", "categoryCode": "39", "address": "58 WATER ST NORTH", "city": "KITCHENER", "province": "ON", "country": "CA", "postalCode": "N2H5A8", "twitter": "None", "instagram": "None", "facebook": "None", "youtube": "None", "website": "None", "summary": "None", "logo": "None", "latitude": 43.453218739944575, "longitude": -80.49372640925607}, "107385841RR0001": {"name": "FIRST CHURCH OF CHRIST, SCIENTIST, EDMONTON", "designationCode": "C", "categoryCode": "39", "address": "10810 100 AVE", "city": "EDMONTON", "province": "AB", "country": "CA", "postalCode": "T5J0B9", "twitter": "None", "instagram": "None", "facebook": "None", "youtube": "None", "website": "None", "summary": "None", "logo": "None", "latitude": 53.53885747489746, "longitude": -113.5069605}, "118917897RR0001": {"name": "FIRST CHURCH OF CHRIST, SCIENTIST, IN OTTAWA", "designationCode": "C", "categoryCode": "39", "address": "280 GILMOUR STREET", "city": "OTTAWA", "province": "ON", "country": "CA", "postalCode": "K2P0P8", "twitter": "None", "instagram": "None", "facebook": "None", "youtube": "None", "website": "None", "summary": "None", "logo": "None", "latitude": 45.41554864028516, "longitude": -75.69156177878132}, "118917962RR0001": {"name": "FIRST CHURCH OF CHRIST, SCIENTIST, ST. CATHARINES", "designationCode": "C", "categoryCode": "39", "address": "178 1/2 GENEVA ST", "city": "ST CATHARINES", "province": "ON", "country": "CA", "postalCode": "L2R4P3", "twitter": "None", "instagram": "None", "facebook": "None", "youtube": "None", "website": "None", "summary": "None", "logo": "None", "latitude": 43.1712506532368, "longitude": -79.2405326532368}, "107385767RR0001": {"name": "FIRST CHURCH OF CHRIST, SCIENTIST, TORONTO", "designationCode": "C", "categoryCode": "39", "address": "196 ST GEORGE STREET", "city": "TORONTO", "province": "ON", "country": "CA", "postalCode": "M5R2N5", "twitter": "None", "instagram": "None", "facebook": "None", "youtube": "None", "website": "None", "summary": "None", "logo": "None", "latitude": 43.670060340816065, "longitude": -79.40090298257218}, "128434123RR0001": {"name": "FIRST CHURCH OF CHRIST, SCIENTIST, WHITE ROCK", "designationCode": "C", "categoryCode": "39", "address": "15242 RUSSELL AVENUE", "city": "WHITE ROCK", "province": "BC", "country": "CA", "postalCode": "V4B2P6", "twitter": "None", "instagram": "None", "facebook": "None", "youtube": "None", "website": "None", "summary": "None", "logo": "None", "latitude": 49.02923087978449, "longitude": -122.79949102787069}, "118918010RR0001": {"name": "FIRST CHURCH OF FAITH HOPE AND LOVE OF EDMONTON", "designationCode": "C", "categoryCode": "39", "address": "421 EVERGREEN PK NW", "city": "EDMONTON", "province": "AB", "country": "CA", "postalCode": "T5Y4M2", "twitter": "None", "instagram": "None", "facebook": "None", "youtube": "None", "website": "None", "summary": "None", "logo": "None", "latitude": 53.6310360478093, "longitude": -113.34817871293004}, "106924202RR0001": {"name": "FIRST CHURCH OF GOD", "designationCode": "C", "categoryCode": "39", "address": "5 LITTLEDEAN COURT", "city": "NORTH YORK", "province": "ON", "country": "CA", "postalCode": "M9L2E8", "twitter": "None", "instagram": "None", "facebook": "None", "youtube": "None", "website": "None", "summary": "None", "logo": "None", "latitude": 43.756008191788304, "longitude": -79.565649236165}, "108082116RR0001": {"name": "FIRST CHURCH OF GOD", "designationCode": "C", "categoryCode": "39", "address": "9224-82 STREET", "city": "EDMONTON", "province": "AB", "country": "CA", "postalCode": "T6C2X3", "twitter": "None", "instagram": "None", "facebook": "None", "youtube": "None", "website": "None", "summary": "None", "logo": "None", "latitude": 53.52746358090485, "longitude": -113.45341773651077}, "118918028RR0001": {"name": "FIRST CHURCH OF GOD", "designationCode": "C", "categoryCode": "39", "address": "7690, RUE RENEE", "city": "LASALLE", "province": "QC", "country": "CA", "postalCode": "H8N1W3", "twitter": "None", "instagram": "None", "facebook": "None", "youtube": "None", "website": "None", "summary": "None", "logo": "None", "latitude": 45.43927014625779, "longitude": -73.62541920647482}, "107385999RR0001": {"name": "FIRST CHURCH OF THE NAZARENE", "designationCode": "C", "categoryCode": "39", "address": "21 FIELDCREST DR", "city": "MONCTON", "province": "NB", "country": "CA", "postalCode": "E1G1T1", "twitter": "None", "instagram": "None", "facebook": "None", "youtube": "None", "website": "None", "summary": "None", "logo": "None", "latitude": 46.120417803796954, "longitude": -64.842272845375}, "132152760RR0001": {"name": "FIRST CHURCH OF THE NAZARENE", "designationCode": "C", "categoryCode": "39", "address": "998-E-19TH AVE", "city": "VANCOUVER", "province": "BC", "country": "CA", "postalCode": "V5V1K7", "twitter": "None", "instagram": "None", "facebook": "None", "youtube": "None", "website": "None", "summary": "None", "logo": "None", "latitude": 49.25364647013695, "longitude": -123.08438186081135}, "129996039RR0001": {"name": "FIRST CHURCH OF THE NAZARENE,", "designationCode": "C", "categoryCode": "39", "address": "65 RICHARD WAY S W", "city": "CALGARY", "province": "AB", "country": "CA", "postalCode": "T3E7M8", "twitter": "None", "instagram": "None", "facebook": "None", "youtube": "None", "website": "None", "summary": "None", "logo": "None", "latitude": 51.006582335276136, "longitude": -114.13138414475722}, "130361942RR0001": {"name": "FIRST CHURCH OF THE NAZARENE,", "designationCode": "C", "categoryCode": "39", "address": "14320-94 STREET", "city": "EDMONTON", "province": "AB", "country": "CA", "postalCode": "T5E3W2", "twitter": "None", "instagram": "None", "facebook": "None", "youtube": "None", "website": "None", "summary": "None", "logo": "None", "latitude": 53.60595234999131, "longitude": -113.48526994134082}, "107386070RR0001": {"name": "FIRST CHURCH OF THE TRUTH OF CANADA", "designationCode": "C", "categoryCode": "39", "address": "2 2727 QUADRA STREET", "city": "VICTORIA", "province": "BC", "country": "CA", "postalCode": "V8T4E5", "twitter": "None", "instagram": "None", "facebook": "None", "youtube": "None", "website": "None", "summary": "None", "logo": "None", "latitude": 48.4402111917883, "longitude": -123.35934614928755}, "118918135RR0001": {"name": "FIRST COMMUNITY CHURCH OF MILTON", "designationCode": "C", "categoryCode": "39", "address": "1204-2050 AMHERST HEIGHTS DR.", "city": "BURLINGTON", "province": "ON", "country": "CA", "postalCode": "L7P4M6", "twitter": "None", "instagram": "None", "facebook": "None", "youtube": "None", "website": "None", "summary": "None", "logo": "None", "latitude": 43.35137475405416, "longitude": -79.8336732615264}, "133892539RR0001": {"name": "FIRST COMMUNITY INTER-DENOMINATIONAL CHRISTIAN SCHOOL ASSCIATION OF METCALFE", "designationCode": "C", "categoryCode": "49", "address": "2681 GLEN ST.", "city": "METCALFE", "province": "ON", "country": "CA", "postalCode": "K0A2P0", "twitter": "None", "instagram": "None", "facebook": "None", "youtube": "None", "website": "None", "summary": "None", "logo": "None", "latitude": 45.2317583175312, "longitude": -75.47647466856169}, "132784687RR0001": {"name": "FIRST CONGREGATIONAL CHURCH OF HALIFAX", "designationCode": "C", "categoryCode": "39", "address": "1871 SELDON ST", "city": "HALIFAX", "province": "NS", "country": "CA", "postalCode": "B3H3X3", "twitter": "None", "instagram": "None", "facebook": "None", "youtube": "None", "website": "None", "summary": "None", "logo": "None", "latitude": 44.64353424369549, "longitude": -63.59834164345916}, "129056420RR0001": {"name": "FIRST CORNWALLIS BAPTIST CHURCH", "designationCode": "C", "categoryCode": "31", "address": "948 PENNY LANE", "city": "KEMTVILLE", "province": "NS", "country": "CA", "postalCode": "B4N4N6", "twitter": "None", "instagram": "None", "facebook": "None", "youtube": "None", "website": "None", "summary": "None", "logo": "None", "latitude": 45.09142139107845, "longitude": -64.48161431279932}, "118798032RR0001": {"name": "FIRST DISCOVERIES PRESCHOOL SOCIETY", "designationCode": "C", "categoryCode": "20", "address": "10345 144 STREET", "city": "EDMONTON", "province": "AB", "country": "CA", "postalCode": "T5N2V3", "twitter": "None", "instagram": "None", "facebook": "None", "youtube": "None", "website": "None", "summary": "None", "logo": "None"}, "131499832RR0001": {"name": "FIRST ESTONIAN EVANGELICAL LUTHERAN CONGREGATION IN HAMILTON", "designationCode": "C", "categoryCode": "32", "address": "10 LISAJANE COURT", "city": "HAMILTON", "province": "ON", "country": "CA", "postalCode": "L9B2N6", "twitter": "None", "instagram": "None", "facebook": "None", "youtube": "None", "website": "None", "summary": "None", "logo": "None", "latitude": 43.21830107412416, "longitude": -79.92227684886613}, "891635187RR0001": {"name": "FIRST EVANGELICAL FREE CHURCH OF CALGARY", "designationCode": "C", "categoryCode": "39", "address": "732 55 AVE SW", "city": "CALGARY", "province": "AB", "country": "CA", "postalCode": "T2V0G3", "twitter": "None", "instagram": "None", "facebook": "None", "youtube": "None", "website": "None", "summary": "None", "logo": "None", "latitude": 51.004255493219326, "longitude": -114.0808815}, "118918242RR0001": {"name": "FIRST EVANGELICAL LUTHERAN CHURCH OF CALGARY, ALBERTA", "designationCode": "C", "categoryCode": "32", "address": "7102 14 AVE SW", "city": "CALGARY", "province": "AB", "country": "CA", "postalCode": "T3H4G7", "twitter": "None", "instagram": "None", "facebook": "None", "youtube": "None", "website": "None", "summary": "None", "logo": "None", "latitude": 51.045327283156574, "longitude": -114.1877232252074}, "107386682RR0001": {"name": "FIRST FILIPINO BAPTIST CHURCH TORONTO", "designationCode": "C", "categoryCode": "31", "address": "382 LIPPINCOTT STREET", "city": "TORONTO", "province": "ON", "country": "CA", "postalCode": "M5S2P7", "twitter": "None", "instagram": "None", "facebook": "None", "youtube": "None", "website": "None", "summary": "None", "logo": "None", "latitude": 43.664843661665444, "longitude": -79.40983668959527}, "107406316RR0022": {"name": "FIRST FREE METHODIST CHURCH", "designationCode": "C", "categoryCode": "39", "address": "320-8TH ST", "city": "NEW WESTMINSTER", "province": "BC", "country": "CA", "postalCode": "V3M3R4", "twitter": "None", "instagram": "None", "facebook": "None", "youtube": "None", "website": "None", "summary": "None", "logo": "None", "latitude": 49.20742500097807, "longitude": -122.91938199184942}, "118918267RR0001": {"name": "FIRST FREE METHODIST CHURCH", "designationCode": "C", "categoryCode": "39", "address": "375 HOCHELAGA STREET WEST", "city": "MOOSE JAW", "province": "SK", "country": "CA", "postalCode": "S6H2G6", "twitter": "None", "instagram": "None", "facebook": "None", "youtube": "None", "website": "None", "summary": "None", "logo": "None", "latitude": 50.3961573998057, "longitude": -105.54402960194167}, "118918275RR0001": {"name": "FIRST FRUITS FOUNDATION", "designationCode": "B", "categoryCode": "03", "address": "25 ALEUTIAN ROAD", "city": "NEPEAN", "province": "ON", "country": "CA", "postalCode": "K2H7C7", "twitter": "None", "instagram": "None", "facebook": "None", "youtube": "None", "website": "None", "summary": "None", "logo": "None", "latitude": 45.33906084430717, "longitude": -75.80574306241009}, "890068869RR0001": {"name": "FIRST FRUITS FOUNDATION INC", "designationCode": "B", "categoryCode": "43", "address": "1225 SATURNA DRIVE", "city": "PARKSVILLE", "province": "BC", "country": "CA", "postalCode": "V9P2X5", "twitter": "None", "instagram": "None", "facebook": "None", "youtube": "None", "website": "None", "summary": "None", "logo": "None", "latitude": 49.3060294421489, "longitude": -124.2574212470137}, "871320404RR0001": {"name": "FIRST FUNDS SOCIETY", "designationCode": "C", "categoryCode": "09", "address": "2960 NANAIMO ST", "city": "VANCOUVER", "province": "BC", "country": "CA", "postalCode": "V5N5G3", "twitter": "None", "instagram": "None", "facebook": "None", "youtube": "None", "website": "None", "summary": "None", "logo": "None", "latitude": 49.25719800000002, "longitude": -123.056568396157}, "118946276RR0001": {"name": "FIRST GRANTHAM UNITED CHURCH", "designationCode": "C", "categoryCode": "44", "address": "415 LINWELL ROAD", "city": "ST CATHARINES", "province": "ON", "country": "CA", "postalCode": "L2M2P3", "twitter": "None", "instagram": "None", "facebook": "None", "youtube": "None", "website": "None", "summary": "None", "logo": "None", "latitude": 43.20040050239459, "longitude": -79.22372401889878}, "833368350RR0001": {"name": "FIRST HAMILTON CHRISTIAN REFORMED CHURCH", "designationCode": "C", "categoryCode": "39", "address": "181 CHARLTON AVE W", "city": "HAMILTON", "province": "ON", "country": "CA", "postalCode": "L8P2C9", "twitter": "None", "instagram": "None", "facebook": "None", "youtube": "None", "website": "None", "summary": "None", "logo": "None", "latitude": 43.25186891866248, "longitude": -79.88095895796057}, "107484891RR0001": {"name": "FIRST HMONG MENNONITE CHURCH", "designationCode": "C", "categoryCode": "34", "address": "93 DOON ROAD", "city": "KITCHENER", "province": "ON", "country": "CA", "postalCode": "N2G3E1", "twitter": "None", "instagram": "None", "facebook": "None", "youtube": "None", "website": "None", "summary": "None", "logo": "None", "latitude": 43.43533022952855, "longitude": -80.46289423602077}, "817374077RR0001": {"name": "FIRST HUNGARIAN BAPTIST CHURCH INC", "designationCode": "C", "categoryCode": "31", "address": "7379 ISLINGTON AVE", "city": "VAUGHAN", "province": "ON", "country": "CA", "postalCode": "L4L1W2", "twitter": "None", "instagram": "None", "facebook": "None", "youtube": "None", "website": "None", "summary": "None", "logo": "None", "latitude": 43.77358508523266, "longitude": -79.57977410704657}, "107386815RR0001": {"name": "FIRST HUNGARIAN PRESBYTERIAN CHURCH", "designationCode": "C", "categoryCode": "37", "address": "439 VAUGHAN RD", "city": "TORONTO", "province": "ON", "country": "CA", "postalCode": "M6C2P1", "twitter": "None", "instagram": "None", "facebook": "None", "youtube": "None", "website": "None", "summary": "None", "logo": "None", "latitude": 43.689004909804325, "longitude": -79.433133244792}, "118965300RR0001": {"name": "FIRST HUNGARIAN PRESBYTERIAN CHURCH", "designationCode": "C", "categoryCode": "37", "address": "1566 PARENT AVE", "city": "WINDSOR", "province": "ON", "country": "CA", "postalCode": "N8X4J7", "twitter": "None", "instagram": "None", "facebook": "None", "youtube": "None", "website": "None", "summary": "None", "logo": "None", "latitude": 42.30339615266308, "longitude": -83.01398557989523}, "106833478RR0001": {"name": "FIRST HUNGARIAN PRESBYTERIAN CHURCH (CALVIN, VANCOUVER 1955)", "designationCode": "C", "categoryCode": "37", "address": "2791 E 27TH AVE.", "city": "VANCOUVER", "province": "BC", "country": "CA", "postalCode": "V5R1N4", "twitter": "None", "instagram": "None", "facebook": "None", "youtube": "None", "website": "None", "summary": "None", "logo": "None", "latitude": 49.24630552596791, "longitude": -123.0474597485429}, "893273151RR0001": {"name": "FIRST KINGS CONGREGATIONAL CHRISTIAN CHURCH IN CANADA", "designationCode": "C", "categoryCode": "39", "address": "1070 SESAME ST", "city": "KENTVILLE", "province": "NS", "country": "CA", "postalCode": "B4N3Y4", "twitter": "None", "instagram": "None", "facebook": "None", "youtube": "None", "website": "None", "summary": "None", "logo": "None", "latitude": 45.09355130004606, "longitude": -64.48735850750182}, "806406153RR0001": {"name": "FIRST LIGHT FOUNDATION", "designationCode": "B", "categoryCode": "03", "address": "1500 WEST GEORGIA STREET      SUITE 1250 BOX 62", "city": "VANCOUVER", "province": "BC", "country": "CA", "postalCode": "V6G2Z6", "twitter": "None", "instagram": "None", "facebook": "None", "youtube": "None", "website": "None", "summary": "None", "logo": "None", "latitude": 49.2900638104334, "longitude": -123.12989899362336}, "118918325RR0001": {"name": "FIRST LOBO BAPTIST CHURCH", "designationCode": "C", "categoryCode": "31", "address": "5937 EGREMONT DRIVE", "city": "KOMOKA", "province": "ON", "country": "CA", "postalCode": "N0L1R0", "twitter": "None", "instagram": "None", "facebook": "None", "youtube": "None", "website": "None", "summary": "None", "logo": "None", "latitude": 43.00039167837842, "longitude": -81.42461616554117}, "893675520RR0001": {"name": "FIRST LOVE HUNGARIAN PENTECOSTAL CHURCH", "designationCode": "C", "categoryCode": "36", "address": "606 JANE STREET", "city": "TORONTO", "province": "ON", "country": "CA", "postalCode": "M6S4A6", "twitter": "None", "instagram": "None", "facebook": "None", "youtube": "None", "website": "None", "summary": "None", "logo": "None", "latitude": 43.66494215875126, "longitude": -79.49089539428107}, "896731635RR0001": {"name": "FIRST LUTHERAN CHRISTIAN ACADEMY", "designationCode": "C", "categoryCode": "20", "address": "3850 LOCKE ST", "city": "WINDSOR", "province": "ON", "country": "CA", "postalCode": "N9G1S1", "twitter": "None", "instagram": "None", "facebook": "None", "youtube": "None", "website": "None", "summary": "None", "logo": "None", "latitude": 42.25718816319466, "longitude": -82.98446345689365}, "107386922RR0001": {"name": "FIRST LUTHERAN CHURCH", "designationCode": "C", "categoryCode": "32", "address": "6653 LINE 42                  R.R.5", "city": "MITCHELL", "province": "ON", "country": "CA", "postalCode": "N0K1N0", "twitter": "None", "instagram": "None", "facebook": "None", "youtube": "None", "website": "None", "summary": "None", "logo": "None", "latitude": 43.537217773402304, "longitude": -81.20726031746294}, "107386930RR0001": {"name": "FIRST LUTHERAN CHURCH", "designationCode": "C", "categoryCode": "32", "address": "160 GILES BLVD W", "city": "WINDSOR", "province": "ON", "country": "CA", "postalCode": "N9A6G9", "twitter": "None", "instagram": "None", "facebook": "None", "youtube": "None", "website": "None", "summary": "None", "logo": "None", "latitude": 42.304922522128514, "longitude": -83.03270129207361}, "118918341RR0001": {"name": "FIRST LUTHERAN CHURCH", "designationCode": "C", "categoryCode": "39", "address": "116 BOND ST", "city": "TORONTO", "province": "ON", "country": "CA", "postalCode": "M5B1X8", "twitter": "None", "instagram": "None", "facebook": "None", "youtube": "None", "website": "None", "summary": "None", "logo": "None", "latitude": 43.65701210046747, "longitude": -79.37862481046204}, "118918374RR0001": {"name": "FIRST LUTHERAN CHURCH", "designationCode": "C", "categoryCode": "32", "address": "27 SPRUCE ST NORTH", "city": "KINGSVILLE", "province": "ON", "country": "CA", "postalCode": "N9Y1G2", "twitter": "None", "instagram": "None", "facebook": "None", "youtube": "None", "website": "None", "summary": "None", "logo": "None", "latitude": 42.03874914226789, "longitude": -82.73584273275706}, "118918390RR0001": {"name": "FIRST LUTHERAN CHURCH", "designationCode": "C", "categoryCode": "32", "address": "5745 WALES STREET", "city": "VANCOUVER", "province": "BC", "country": "CA", "postalCode": "V5R3N3", "twitter": "None", "instagram": "None", "facebook": "None", "youtube": "None", "website": "None", "summary": "None", "logo": "None", "latitude": 49.23203313044607, "longitude": -123.05170347342558}, "888210275RR0001": {"name": "FIRST LUTHERAN CHURCH", "designationCode": "C", "categoryCode": "32", "address": "RR1                           215 BURNT BRIDGE RD", "city": "PALMER RAPIDS", "province": "ON", "country": "CA", "postalCode": "K0J2E0", "twitter": "None", "instagram": "None", "facebook": "None", "youtube": "None", "website": "None", "summary": "None", "logo": "None", "latitude": 45.30910248658557, "longitude": -77.51706598206287}, "118918333RR0001": {"name": "FIRST LUTHERAN CHURCH OF KELOWNA, BRITISH COLUMBIA", "designationCode": "C", "categoryCode": "39", "address": "4091 LAKESHORE RD", "city": "KELOWNA", "province": "BC", "country": "CA", "postalCode": "V1W1V7", "twitter": "None", "instagram": "None", "facebook": "None", "youtube": "None", "website": "None", "summary": "None", "logo": "None", "latitude": 49.83706888954924, "longitude": -119.48751617672735}, "130170616RR0001": {"name": "FIRST LUTHERAN CHURCH,", "designationCode": "C", "categoryCode": "32", "address": "2925 57A AVENUE", "city": "LLOYDMINSTER", "province": "AB", "country": "CA", "postalCode": "T9V1W5", "twitter": "None", "instagram": "None", "facebook": "None", "youtube": "None", "website": "None", "summary": "None", "logo": "None", "latitude": 53.26543800000002, "longitude": -110.02561459544714}, "118918416RR0001": {"name": "FIRST MENNONITE CHURCH", "designationCode": "C", "categoryCode": "34", "address": "3557 RITTENHOUSE RD           SS 1", "city": "VINELAND", "province": "ON", "country": "CA", "postalCode": "L0R2C0", "twitter": "None", "instagram": "None", "facebook": "None", "youtube": "None", "website": "None", "summary": "None", "logo": "None", "latitude": 43.15470848242481, "longitude": -79.40105571199435}, "118918440RR0001": {"name": "FIRST MENNONITE CHURCH", "designationCode": "C", "categoryCode": "34", "address": "2600 RICHMOND RD SW", "city": "CALGARY", "province": "AB", "country": "CA", "postalCode": "T3E4M3", "twitter": "None", "instagram": "None", "facebook": "None", "youtube": "None", "website": "None", "summary": "None", "logo": "None", "latitude": 51.02871085152052, "longitude": -114.1211426430838}, "890460587RR0001": {"name": "FIRST MENNONITE CHURCH (KELOWNA)", "designationCode": "C", "categoryCode": "34", "address": "1305 GORDON DR", "city": "KELOWNA", "province": "BC", "country": "CA", "postalCode": "V1Y3E7", "twitter": "None", "instagram": "None", "facebook": "None", "youtube": "None", "website": "None", "summary": "None", "logo": "None", "latitude": 49.891444665544576, "longitude": -119.4769542207261}, "821521853RR0001": {"name": "FIRST MENNONITE CHURCH BURNS LAKE, B.C.", "designationCode": "C", "categoryCode": "34", "address": "530 KERR RD", "city": "BURNS LAKE", "province": "BC", "country": "CA", "postalCode": "V0J1E3", "twitter": "None", "instagram": "None", "facebook": "None", "youtube": "None", "website": "None", "summary": "None", "logo": "None", "latitude": 54.22787651338258, "longitude": -125.73366789480507}, "857503056RR0001": {"name": "FIRST MENNONITE CHURCH GREENDALE", "designationCode": "C", "categoryCode": "34", "address": "42369 SUMAS RD S", "city": "CHILLIWACK", "province": "BC", "country": "CA", "postalCode": "V2R4W3", "twitter": "None", "instagram": "None", "facebook": "None", "youtube": "None", "website": "None", "summary": "None", "logo": "None", "latitude": 49.11831051154118, "longitude": -122.05152}, "888725306RR0001": {"name": "FIRST MENNONITE CHURCH KITCHENER", "designationCode": "C", "categoryCode": "34", "address": "800 KING ST E", "city": "KITCHENER", "province": "ON", "country": "CA", "postalCode": "N2G2M6", "twitter": "None", "instagram": "None", "facebook": "None", "youtube": "None", "website": "None", "summary": "None", "logo": "None", "latitude": 43.44396217043669, "longitude": -80.47630045793191}, "118918473RR0001": {"name": "FIRST MENNONITE CHURCH OF WINNIPEG", "designationCode": "C", "categoryCode": "34", "address": "922 NOTRE DAME AVENUE", "city": "WINNIPEG", "province": "MB", "country": "CA", "postalCode": "R3E0M9", "twitter": "None", "instagram": "None", "facebook": "None", "youtube": "None", "website": "None", "summary": "None", "logo": "None", "latitude": 49.90434606076532, "longitude": -97.16873923218293}, "118919422RR0001": {"name": "FIRST METROPOLITAN UNITED CHURCH", "designationCode": "C", "categoryCode": "44", "address": "932 BALMORAL ROAD", "city": "VICTORIA", "province": "BC", "country": "CA", "postalCode": "V8T1A8", "twitter": "None", "instagram": "None", "facebook": "None", "youtube": "None", "website": "None", "summary": "None", "logo": "None", "latitude": 48.42893547879262, "longitude": -123.35801999847078}}