{"839310604RR0001": {"name": "FRIENDS OF MECCS EDUCATION FOUNDATION", "designationCode": "A", "categoryCode": "23", "address": "SITE 2, BOX 42                RR 1", "city": "WARBURG", "province": "AB", "country": "CA", "postalCode": "T0C2T0", "twitter": "None", "instagram": "None", "facebook": "None", "youtube": "None", "website": "None", "summary": "None", "logo": "None", "latitude": 53.18105000000003, "longitude": -114.31863999999996}, "120581467RR0001": {"name": "FRIENDS OF MEDALTA SOCIETY", "designationCode": "C", "categoryCode": "52", "address": "713 MEDALTA AVE SE", "city": "MEDICINE HAT", "province": "AB", "country": "CA", "postalCode": "T1A3K9", "twitter": "None", "instagram": "None", "facebook": "None", "youtube": "None", "website": "None", "summary": "None", "logo": "None", "latitude": 50.03227833527612, "longitude": -110.65098873007682}, "888918919RR0001": {"name": "FRIENDS OF MENGO HOSPITAL (CANADA)", "designationCode": "C", "categoryCode": "11", "address": "1030 RICHMOND AVE", "city": "VICTORIA", "province": "BC", "country": "CA", "postalCode": "V8S3Z5", "twitter": "None", "instagram": "None", "facebook": "None", "youtube": "None", "website": "None", "summary": "None", "logo": "None", "latitude": 48.42498521426512, "longitude": -123.33021278339761}, "886595198RR0001": {"name": "FRIENDS OF MISSION CREEK SOCIETY", "designationCode": "C", "categoryCode": "52", "address": "#106 3788 BIRD PLACE", "city": "KELOWNA", "province": "BC", "country": "CA", "postalCode": "V1W4T3", "twitter": "None", "instagram": "None", "facebook": "None", "youtube": "None", "website": "None", "summary": "None", "logo": "None", "latitude": 49.846463903812655, "longitude": -119.48076737039942}, "891263972RR0001": {"name": "FRIENDS OF MUNDY PARK HERITAGE SOCIETY", "designationCode": "C", "categoryCode": "53", "address": "600 NOOTKA WAY, APT #805", "city": "PORT MOODY", "province": "BC", "country": "CA", "postalCode": "V3H0B7", "twitter": "None", "instagram": "None", "facebook": "None", "youtube": "None", "website": "None", "summary": "None", "logo": "None", "latitude": 49.279231145828454, "longitude": -122.83390788623598}, "892830738RR0001": {"name": "FRIENDS OF MURPHYS POINT PARK", "designationCode": "C", "categoryCode": "52", "address": "2243 ELM GROVE RD             RR #5", "city": "PERTH", "province": "ON", "country": "CA", "postalCode": "K7H3C7", "twitter": "None", "instagram": "None", "facebook": "None", "youtube": "None", "website": "None", "summary": "None", "logo": "None", "latitude": 44.7819373923278, "longitude": -76.23817591068489}, "891231946RR0001": {"name": "FRIENDS OF NEIL M ROSS SCHOOL SOCIETY", "designationCode": "C", "categoryCode": "22", "address": "#60 WOODLANDS ROAD", "city": "ST. ALBERT", "province": "AB", "country": "CA", "postalCode": "T8N3X3", "twitter": "None", "instagram": "None", "facebook": "None", "youtube": "None", "website": "None", "summary": "None", "logo": "None", "latitude": 53.64641785708911, "longitude": -113.6037397456583}, "884797119RR0001": {"name": "FRIENDS OF NELSON ELDERS IN CARE", "designationCode": "C", "categoryCode": "09", "address": "P.O. BOX 1064", "city": "NELSON", "province": "BC", "country": "CA", "postalCode": "V1L6H3", "twitter": "None", "instagram": "None", "facebook": "None", "youtube": "None", "website": "None", "summary": "None", "logo": "None", "latitude": 49.49754900000005, "longitude": -117.28882249999992}, "889357018RR0001": {"name": "FRIENDS OF NIAGARA DISTRICT SECONDARY SCHOOL (F.O.N.D.)", "designationCode": "C", "categoryCode": "21", "address": "PO BOX 879", "city": "VIRGIL", "province": "ON", "country": "CA", "postalCode": "L0S1T0", "twitter": "None", "instagram": "None", "facebook": "None", "youtube": "None", "website": "None", "summary": "None", "logo": "None", "latitude": 43.21981000000005, "longitude": -79.12214999999998}, "867093056RR0001": {"name": "FRIENDS OF NRF CANADA, INC /LES AMIS DE NRF CANADA, INC", "designationCode": "C", "categoryCode": "21", "address": "4500 BANKERS HALL EAST        855 2ND STREET SW", "city": "CALGARY", "province": "AB", "country": "CA", "postalCode": "T2P4K7", "twitter": "None", "instagram": "None", "facebook": "None", "youtube": "None", "website": "None", "summary": "None", "logo": "None", "latitude": 51.04506846211552, "longitude": -114.06803639719527}, "831184478RR0001": {"name": "FRIENDS OF OLIVIA FOUNDATION", "designationCode": "B", "categoryCode": "13", "address": "371 MCKELLAR ST N", "city": "THUNDER BAY", "province": "ON", "country": "CA", "postalCode": "P7C3Z8", "twitter": "None", "instagram": "None", "facebook": "None", "youtube": "None", "website": "None", "summary": "None", "logo": "None", "latitude": 48.38995758090485, "longitude": -89.25007434889478}, "118932722RR0001": {"name": "FRIENDS OF OSTOMATES WORLDWIDE (CANADA)", "designationCode": "C", "categoryCode": "11", "address": "609-344 BLOOR ST. W", "city": "TORONTO", "province": "ON", "country": "CA", "postalCode": "M5S3A7", "twitter": "None", "instagram": "None", "facebook": "None", "youtube": "None", "website": "None", "summary": "None", "logo": "None", "latitude": 43.667372648743196, "longitude": -79.40049643191246}, "140645516RR0001": {"name": "FRIENDS OF PAMA (PEEL ART GALLERY, MUSEUM AND ARCHIVES)", "designationCode": "C", "categoryCode": "50", "address": "9 WELLINGTON ST E", "city": "BRAMPTON", "province": "ON", "country": "CA", "postalCode": "L6W1Y1", "twitter": "None", "instagram": "None", "facebook": "None", "youtube": "None", "website": "None", "summary": "None", "logo": "None", "latitude": 43.685554076865465, "longitude": -79.75733959184045}, "878754415RR0001": {"name": "FRIENDS OF PARROT SANCTUARY SOCIETY", "designationCode": "C", "categoryCode": "54", "address": "5090 MACKINNON RD", "city": "PEACHLAND", "province": "BC", "country": "CA", "postalCode": "V0H1X2", "twitter": "None", "instagram": "None", "facebook": "None", "youtube": "None", "website": "None", "summary": "None", "logo": "None", "latitude": 49.8001305431646, "longitude": -119.7184961285415}, "118932748RR0001": {"name": "FRIENDS OF POINT PELEE", "designationCode": "C", "categoryCode": "50", "address": "RR # 1                        POINT PELEE NATIONAL PARK", "city": "LEAMINGTON", "province": "ON", "country": "CA", "postalCode": "N8H3V4", "twitter": "None", "instagram": "None", "facebook": "None", "youtube": "None", "website": "None", "summary": "None", "logo": "None", "latitude": 41.98777000000007, "longitude": -82.54992999999996}, "118932755RR0001": {"name": "FRIENDS OF PRINCIPIA IN CANADA TRUST", "designationCode": "C", "categoryCode": "25", "address": "130 KING STREET WEST 20TH FLOOBOX 430 STN FIRST CANADIAN PLA", "city": "TORONTO", "province": "ON", "country": "CA", "postalCode": "M5X1K1", "twitter": "None", "instagram": "None", "facebook": "None", "youtube": "None", "website": "None", "summary": "None", "logo": "None", "latitude": 43.64868300000006, "longitude": -79.38544399999994}, "856620273RR0001": {"name": "FRIENDS OF PROGRESSIVE EDUCATION", "designationCode": "C", "categoryCode": "21", "address": "35 PRINCE ARTHUR AVENUE       STE 200", "city": "TORONTO", "province": "ON", "country": "CA", "postalCode": "M5R1B2", "twitter": "None", "instagram": "None", "facebook": "None", "youtube": "None", "website": "None", "summary": "None", "logo": "None", "latitude": 43.66936983484344, "longitude": -79.39710676366211}, "118932763RR0001": {"name": "FRIENDS OF QUETICO PARK", "designationCode": "C", "categoryCode": "52", "address": "PO BOX 29127", "city": "THUNDER BAY", "province": "ON", "country": "CA", "postalCode": "P7B6P9", "twitter": "None", "instagram": "None", "facebook": "None", "youtube": "None", "website": "None", "summary": "None", "logo": "None", "latitude": 48.38168400000005, "longitude": -89.24550199999993}, "888943669RR0001": {"name": "FRIENDS OF RADHA FOUNDATION", "designationCode": "C", "categoryCode": "39", "address": "PO BOX 9", "city": "KOOTENAY BAY", "province": "BC", "country": "CA", "postalCode": "V0B1X0", "twitter": "None", "instagram": "None", "facebook": "None", "youtube": "None", "website": "None", "summary": "None", "logo": "None", "latitude": 50.46515035341905, "longitude": -115.99013915021254}, "894763366RR0001": {"name": "FRIENDS OF ROSECREST SOCIETY", "designationCode": "C", "categoryCode": "11", "address": "10205-134 AVENUE", "city": "EDMONTON", "province": "AB", "country": "CA", "postalCode": "T5E1J2", "twitter": "None", "instagram": "None", "facebook": "None", "youtube": "None", "website": "None", "summary": "None", "logo": "None", "latitude": 53.59457854558877, "longitude": -113.49567997446478}, "893327304RR0001": {"name": "FRIENDS OF ROUND SQUARE CANADA", "designationCode": "C", "categoryCode": "21", "address": "3020 BROOK STREET NORTH", "city": "WHITBY", "province": "ON", "country": "CA", "postalCode": "L1R3J7", "twitter": "None", "instagram": "None", "facebook": "None", "youtube": "None", "website": "None", "summary": "None", "logo": "None", "latitude": 43.89795256270478, "longitude": -78.95013642676008}, "118933225RR0001": {"name": "FRIENDS OF ROYAL ALBERTA MUSEUM SOCIETY", "designationCode": "C", "categoryCode": "50", "address": "12845 102 AVE NW", "city": "EDMONTON", "province": "AB", "country": "CA", "postalCode": "T5N0M6", "twitter": "None", "instagram": "None", "facebook": "None", "youtube": "None", "website": "None", "summary": "None", "logo": "None", "latitude": 53.542935249066915, "longitude": -113.54342574314353}, "889145280RR0001": {"name": "FRIENDS OF RUSHING RIVER PROVINCIAL PARK", "designationCode": "B", "categoryCode": "52", "address": "1508 PINE PORTALE ROAD", "city": "KENORA", "province": "ON", "country": "CA", "postalCode": "P9N2K2", "twitter": "None", "instagram": "None", "facebook": "None", "youtube": "None", "website": "None", "summary": "None", "logo": "None", "latitude": 49.75755501001198, "longitude": -94.46573974199337}, "834287526RR0001": {"name": "FRIENDS OF RUSINGA ORPHANS FOUNDATION", "designationCode": "B", "categoryCode": "23", "address": "13 NORMAN COURT", "city": "ST. ALBERT", "province": "AB", "country": "CA", "postalCode": "T8N7L8", "twitter": "None", "instagram": "None", "facebook": "None", "youtube": "None", "website": "None", "summary": "None", "logo": "None", "latitude": 53.64544194142774, "longitude": -113.66933318070846}, "131440091RR0001": {"name": "FRIENDS OF RUTHERFORD HOUSE", "designationCode": "C", "categoryCode": "52", "address": "11153 SASKATCHEWAN DR", "city": "EDMONTON", "province": "AB", "country": "CA", "postalCode": "T6G2S1", "twitter": "None", "instagram": "None", "facebook": "None", "youtube": "None", "website": "None", "summary": "None", "logo": "None", "latitude": 53.52780593242089, "longitude": -113.52004426374182}, "884986910RR0001": {"name": "FRIENDS OF SAINT FRANCIS INC", "designationCode": "C", "categoryCode": "43", "address": "1300 LESLIE ST", "city": "NORTH YORK", "province": "ON", "country": "CA", "postalCode": "M3C2K9", "twitter": "None", "instagram": "None", "facebook": "None", "youtube": "None", "website": "None", "summary": "None", "logo": "None", "latitude": 43.73182985483875, "longitude": -79.35532342273049}, "888620127RR0001": {"name": "FRIENDS OF SAM WALLER MUSEUM INC.", "designationCode": "A", "categoryCode": "03", "address": "P.O. BOX 185", "city": "THE PAS", "province": "MB", "country": "CA", "postalCode": "R9A1K4", "twitter": "None", "instagram": "None", "facebook": "None", "youtube": "None", "website": "None", "summary": "None", "logo": "None", "latitude": 53.81342700000006, "longitude": -101.25038149999993}, "107407983RR0001": {"name": "FRIENDS OF SASKATCHEWAN CHILDREN INC.", "designationCode": "C", "categoryCode": "01", "address": "1011 UNIVERSITY DR", "city": "SASKATOON", "province": "SK", "country": "CA", "postalCode": "S7N0K4", "twitter": "None", "instagram": "None", "facebook": "None", "youtube": "None", "website": "None", "summary": "None", "logo": "None", "latitude": 52.12760422078794, "longitude": -106.64622323245666}, "897932091RR0001": {"name": "FRIENDS OF SECOND MARSH", "designationCode": "C", "categoryCode": "52", "address": "206 KING STREET EAST          PO BOX 26066, RPO KING STREET", "city": "OSHAWA", "province": "ON", "country": "CA", "postalCode": "L1H8R4", "twitter": "None", "instagram": "None", "facebook": "None", "youtube": "None", "website": "None", "summary": "None", "logo": "None", "latitude": 43.8994252128736, "longitude": -78.85595829793179}, "890521776RR0001": {"name": "FRIENDS OF SHERBROOK POOL INC", "designationCode": "C", "categoryCode": "56", "address": "823 ELLICE AVE", "city": "WINNIPEG", "province": "MB", "country": "CA", "postalCode": "R3G0C3", "twitter": "None", "instagram": "None", "facebook": "None", "youtube": "None", "website": "None", "summary": "None", "logo": "None", "latitude": 49.89331552596791, "longitude": -97.16947230391251}, "891215055RR0001": {"name": "FRIENDS OF SHORT HILLS PARK", "designationCode": "C", "categoryCode": "59", "address": "P.O.BOX 236", "city": "FONTHILL", "province": "ON", "country": "CA", "postalCode": "L0S1E0", "twitter": "None", "instagram": "None", "facebook": "None", "youtube": "None", "website": "None", "summary": "None", "logo": "None", "latitude": 43.04568000000006, "longitude": -79.28625999999997}, "890666761RR0001": {"name": "FRIENDS OF SIMON WIESENTHAL CENTER FOR HOLOCAUST STUDIES", "designationCode": "C", "categoryCode": "21", "address": "5075 YONGE STREET             #902", "city": "TORONTO", "province": "ON", "country": "CA", "postalCode": "M2N6C6", "twitter": "None", "instagram": "None", "facebook": "None", "youtube": "None", "website": "None", "summary": "None", "logo": "None", "latitude": 43.76754115072984, "longitude": -79.4120487320387}, "897306601RR0001": {"name": "FRIENDS OF SOUTH AFRICAN PERFORMING ARTS - AMIS DES ARTISTES SUD-AFRICAINS DE LA SCENE", "designationCode": "C", "categoryCode": "22", "address": "7071 BAYVIEW AVENUE           SUITE PL7", "city": "THORNHILL", "province": "ON", "country": "CA", "postalCode": "L3T7Y8", "twitter": "None", "instagram": "None", "facebook": "None", "youtube": "None", "website": "None", "summary": "None", "logo": "None", "latitude": 43.804960615067074, "longitude": -79.39771011524088}, "833200363RR0001": {"name": "FRIENDS OF SOUTH LUTHER SCHOOL", "designationCode": "C", "categoryCode": "52", "address": "6 EASTVIEW DRIVE              BOX 973", "city": "ARTHUR", "province": "ON", "country": "CA", "postalCode": "N0G1A0", "twitter": "None", "instagram": "None", "facebook": "None", "youtube": "None", "website": "None", "summary": "None", "logo": "None", "latitude": 43.83229552510253, "longitude": -80.53142016028046}, "894231778RR0001": {"name": "FRIENDS OF SPRUCE WOODS INC.", "designationCode": "C", "categoryCode": "52", "address": "PO BOX 238", "city": "GLENBORO", "province": "MB", "country": "CA", "postalCode": "R0K0X0", "twitter": "None", "instagram": "None", "facebook": "None", "youtube": "None", "website": "None", "summary": "None", "logo": "None", "latitude": 49.55755000000005, "longitude": -99.29090999999994}, "132650680RR0001": {"name": "FRIENDS OF ST ALBERT CHILDREN'S THEATRE SOCIETY", "designationCode": "A", "categoryCode": "22", "address": "BOX 77073 STN MAIN", "city": "ST ALBERT", "province": "AB", "country": "CA", "postalCode": "T8N6C1", "twitter": "None", "instagram": "None", "facebook": "None", "youtube": "None", "website": "None", "summary": "None", "logo": "None", "latitude": 53.633832000000055, "longitude": -113.62747399999994}, "887928448RR0001": {"name": "FRIENDS OF ST JOSEPH'S RESIDENCE INC CORPORATION", "designationCode": "A", "categoryCode": "03", "address": "1149 LEILA AVENUE", "city": "WINNIPEG", "province": "MB", "country": "CA", "postalCode": "R2P2A2", "twitter": "None", "instagram": "None", "facebook": "None", "youtube": "None", "website": "None", "summary": "None", "logo": "None", "latitude": 49.95585290763994, "longitude": -97.15483196373164}, "866035223RR0001": {"name": "FRIENDS OF ST MARY'S FOUNDATION", "designationCode": "C", "categoryCode": "21", "address": "5427-50 ST", "city": "TABER", "province": "AB", "country": "CA", "postalCode": "T1G1M2", "twitter": "None", "instagram": "None", "facebook": "None", "youtube": "None", "website": "None", "summary": "None", "logo": "None", "latitude": 49.79161758090484, "longitude": -112.14961094315942}, "138196530RR0001": {"name": "FRIENDS OF ST VICTOR PETROGLYPHS COOPERATIVE LTD", "designationCode": "C", "categoryCode": "52", "address": "BOX 1993", "city": "ASSINIBOAI", "province": "SK", "country": "CA", "postalCode": "S0H0B0", "twitter": "None", "instagram": "None", "facebook": "None", "youtube": "None", "website": "None", "summary": "None", "logo": "None", "latitude": 49.63287300000006, "longitude": -105.99348049999993}, "867418444RR0001": {"name": "FRIENDS OF ST. ALBAN'S CHURCH", "designationCode": "C", "categoryCode": "52", "address": "830 OLD HWY. 8", "city": "ROCKTON", "province": "ON", "country": "CA", "postalCode": "L0R1X0", "twitter": "None", "instagram": "None", "facebook": "None", "youtube": "None", "website": "None", "summary": "None", "logo": "None", "latitude": 43.30202449342869, "longitude": -80.13019687992848}, "893411769RR0001": {"name": "FRIENDS OF ST. ANDREW'S LTD.", "designationCode": "C", "categoryCode": "52", "address": "PO BOX 1864", "city": "CHARLOTTETOWN", "province": "PE", "country": "CA", "postalCode": "C1A7N5", "twitter": "None", "instagram": "None", "facebook": "None", "youtube": "None", "website": "None", "summary": "None", "logo": "None", "latitude": 46.23659700000006, "longitude": -63.12815449999994}, "863654026RR0001": {"name": "FRIENDS OF ST. ANDREW'S STONE CHURCH", "designationCode": "C", "categoryCode": "50", "address": "17812 ST. ANDREW'S ROAD", "city": "CALEDON", "province": "ON", "country": "CA", "postalCode": "L7K2C4", "twitter": "None", "instagram": "None", "facebook": "None", "youtube": "None", "website": "None", "summary": "None", "logo": "None", "latitude": 43.88881171614198, "longitude": -79.93866796698974}, "836380949RR0001": {"name": "FRIENDS OF ST. GEORGES SOCIETY", "designationCode": "A", "categoryCode": "30", "address": "1535 LILAC ST", "city": "HALIFAX", "province": "NS", "country": "CA", "postalCode": "B3H3W4", "twitter": "None", "instagram": "None", "facebook": "None", "youtube": "None", "website": "None", "summary": "None", "logo": "None", "latitude": 44.63885829892086, "longitude": -63.59498184955862}, "836414748RR0001": {"name": "FRIENDS OF ST. JAMES UNITED CHURCH HERITAGE SOCIETY OF SPRY BAY", "designationCode": "B", "categoryCode": "52", "address": "28 NORTH STREET", "city": "DARTMOUTH", "province": "NS", "country": "CA", "postalCode": "B2Y1B4", "twitter": "None", "instagram": "None", "facebook": "None", "youtube": "None", "website": "None", "summary": "None", "logo": "None", "latitude": 44.66698098389984, "longitude": -63.56931373896361}, "888296266RR0001": {"name": "FRIENDS OF ST. JEROME'S (2007)", "designationCode": "C", "categoryCode": "21", "address": "4820-46 ST", "city": "VERMILION", "province": "AB", "country": "CA", "postalCode": "T9X1G2", "twitter": "None", "instagram": "None", "facebook": "None", "youtube": "None", "website": "None", "summary": "None", "logo": "None", "latitude": 53.35256699999999, "longitude": -110.8403150087435}, "893326561RR0001": {"name": "FRIENDS OF ST. JOSEPH'S HIGH SCHOOL (ST. THOMAS)", "designationCode": "C", "categoryCode": "21", "address": "100 BILL MARTYN PARKWAY", "city": "ST THOMAS", "province": "ON", "country": "CA", "postalCode": "N5R6A7", "twitter": "None", "instagram": "None", "facebook": "None", "youtube": "None", "website": "None", "summary": "None", "logo": "None", "latitude": 42.75347082200232, "longitude": -81.1670593220023}, "860215037RR0001": {"name": "FRIENDS OF ST. MARK'S INC.", "designationCode": "C", "categoryCode": "52", "address": "139 OAK ST NORTH              BOX 124", "city": "BALDUR", "province": "MB", "country": "CA", "postalCode": "R0K0B0", "twitter": "None", "instagram": "None", "facebook": "None", "youtube": "None", "website": "None", "summary": "None", "logo": "None", "latitude": 49.392267010594914, "longitude": -99.24686686531085}, "897283289RR0001": {"name": "FRIENDS OF ST. MICHAEL'S SCHOOL (PINCHER CREEK) FOUNDATION", "designationCode": "C", "categoryCode": "21", "address": "P. O. BOX 1750", "city": "PINCHER CREEK", "province": "AB", "country": "CA", "postalCode": "T0K1W0", "twitter": "None", "instagram": "None", "facebook": "None", "youtube": "None", "website": "None", "summary": "None", "logo": "None", "latitude": 49.48739000000006, "longitude": -113.9366800732874}, "892956962RR0001": {"name": "FRIENDS OF ST. PAT'S", "designationCode": "C", "categoryCode": "21", "address": "2525 ALTA VISTA DRIVE", "city": "OTTAWA", "province": "ON", "country": "CA", "postalCode": "K1V7T3", "twitter": "None", "instagram": "None", "facebook": "None", "youtube": "None", "website": "None", "summary": "None", "logo": "None", "latitude": 45.378009858185635, "longitude": -75.66100497469685}, "860956317RR0001": {"name": "FRIENDS OF ST. PATRICK'S SCHOOL", "designationCode": "C", "categoryCode": "21", "address": "75 VAN HORNE AVE, SUITE B", "city": "DRYDEN", "province": "ON", "country": "CA", "postalCode": "P8N2B2", "twitter": "None", "instagram": "None", "facebook": "None", "youtube": "None", "website": "None", "summary": "None", "logo": "None", "latitude": 49.781258045382806, "longitude": -92.83627022296807}, "118932870RR0001": {"name": "FRIENDS OF ST. PETER'S", "designationCode": "C", "categoryCode": "45", "address": "11 VILLA AVE", "city": "CHARLOTTETOWN", "province": "PE", "country": "CA", "postalCode": "C1A2A7", "twitter": "None", "instagram": "None", "facebook": "None", "youtube": "None", "website": "None", "summary": "None", "logo": "None", "latitude": 46.23453442131685, "longitude": -63.139411691788304}, "888666468RR0001": {"name": "FRIENDS OF ST. THOMAS MORE SCHOOL FOUNDATION", "designationCode": "C", "categoryCode": "21", "address": "P.O. BOX 1784", "city": "FAIRVIEW", "province": "AB", "country": "CA", "postalCode": "T0H1L0", "twitter": "None", "instagram": "None", "facebook": "None", "youtube": "None", "website": "None", "summary": "None", "logo": "None", "latitude": 56.06862000000007, "longitude": -118.39200999999997}, "893632497RR0001": {"name": "FRIENDS OF ST. THOMAS PUBLIC LIBRARY", "designationCode": "A", "categoryCode": "53", "address": "153 CURTIS STREET", "city": "ST. THOMAS", "province": "ON", "country": "CA", "postalCode": "N5P3Z7", "twitter": "None", "instagram": "None", "facebook": "None", "youtube": "None", "website": "None", "summary": "None", "logo": "None", "latitude": 42.77981626930539, "longitude": -81.19272650875638}, "891311961RR0001": {"name": "FRIENDS OF STRATFORD NORMAL SCHOOL HERITAGE", "designationCode": "C", "categoryCode": "52", "address": "480 DOUGLAS STREET            UNIT 13", "city": "STRATFORD", "province": "ON", "country": "CA", "postalCode": "N5A8A8", "twitter": "None", "instagram": "None", "facebook": "None", "youtube": "None", "website": "None", "summary": "None", "logo": "None", "latitude": 43.37814406079926, "longitude": -81.00288925162381}, "892996570RR0001": {"name": "FRIENDS OF STRATHCONA COUNTY LIBRARY SOCIETY", "designationCode": "A", "categoryCode": "53", "address": "401 FESTIVAL LANE", "city": "SHERWOOD PARK", "province": "AB", "country": "CA", "postalCode": "T8A5P7", "twitter": "None", "instagram": "None", "facebook": "None", "youtube": "None", "website": "None", "summary": "None", "logo": "None", "latitude": 53.52673020286814, "longitude": -113.29816966414695}, "888317864RR0001": {"name": "FRIENDS OF SUNNYBROOK FARM SOCIETY", "designationCode": "C", "categoryCode": "50", "address": "4701-30TH STREET", "city": "RED DEER", "province": "AB", "country": "CA", "postalCode": "T4N5H7", "twitter": "None", "instagram": "None", "facebook": "None", "youtube": "None", "website": "None", "summary": "None", "logo": "None", "latitude": 52.24835149177704, "longitude": -113.80833066651289}, "854072360RR0001": {"name": "FRIENDS OF TABER LITERACY ASSOCIATION", "designationCode": "C", "categoryCode": "21", "address": "BOX 20, PROVINCIAL BLDG       5011 - 49 AVENUE", "city": "TABER", "province": "AB", "country": "CA", "postalCode": "T1G1V5", "twitter": "None", "instagram": "None", "facebook": "None", "youtube": "None", "website": "None", "summary": "None", "logo": "None", "latitude": 49.78504228345494, "longitude": -112.14800590553381}, "118933217RR0001": {"name": "FRIENDS OF THE (PETERBOROUGH PUBLIC) LIBRARY", "designationCode": "A", "categoryCode": "55", "address": "TREASURER                     345 AYLMER N", "city": "PETERBOROUGH", "province": "ON", "country": "CA", "postalCode": "K9H3V7", "twitter": "None", "instagram": "None", "facebook": "None", "youtube": "None", "website": "None", "summary": "None", "logo": "None", "latitude": 44.304002486814035, "longitude": -78.32329010995983}, "853885614RR0001": {"name": "FRIENDS OF THE ANNAPOLIS POOL SOCIETY", "designationCode": "C", "categoryCode": "56", "address": "PO BOX 703", "city": "ANNAPOLIS ROYAL", "province": "NS", "country": "CA", "postalCode": "B0S1A0", "twitter": "None", "instagram": "None", "facebook": "None", "youtube": "None", "website": "None", "summary": "None", "logo": "None", "latitude": 44.74294007660574, "longitude": -65.518980048906}, "873908115RR0001": {"name": "FRIENDS OF THE AYR LIBRARY INC.", "designationCode": "A", "categoryCode": "53", "address": "40 SCOTT ST.", "city": "AYR", "province": "ON", "country": "CA", "postalCode": "N0B1E0", "twitter": "None", "instagram": "None", "facebook": "None", "youtube": "None", "website": "None", "summary": "None", "logo": "None", "latitude": 43.28793449266779, "longitude": -80.4448704153687}, "131910077RR0001": {"name": "FRIENDS OF THE BEAVER VALLEY LIBRARY", "designationCode": "C", "categoryCode": "53", "address": "BOX 429 1847 1ST ST", "city": "FRUITVALE", "province": "BC", "country": "CA", "postalCode": "V0G1L0", "twitter": "None", "instagram": "None", "facebook": "None", "youtube": "None", "website": "None", "summary": "None", "logo": "None", "latitude": 49.11283013073455, "longitude": -117.55114372664302}, "118932888RR0001": {"name": "FRIENDS OF THE BEAVERLODGE PUBLIC LIBRARY SOCIETY", "designationCode": "A", "categoryCode": "50", "address": "BOX 119", "city": "BEAVERLODGE", "province": "AB", "country": "CA", "postalCode": "T0H0C0", "twitter": "None", "instagram": "None", "facebook": "None", "youtube": "None", "website": "None", "summary": "None", "logo": "None", "latitude": 55.209100000000035, "longitude": -119.42957999999999}, "890842347RR0001": {"name": "FRIENDS OF THE BELLEVILLE PUBLIC LIBRARY & THE JOHN M. PARROTT ART GALLERY", "designationCode": "A", "categoryCode": "55", "address": "254 PINNACLE STREET", "city": "BELLEVILLE", "province": "ON", "country": "CA", "postalCode": "K8N3B1", "twitter": "None", "instagram": "None", "facebook": "None", "youtube": "None", "website": "None", "summary": "None", "logo": "None", "latitude": 44.165503875930554, "longitude": -77.3833345488774}, "118932904RR0001": {"name": "FRIENDS OF THE BISHOP", "designationCode": "C", "categoryCode": "49", "address": "935 NESBITT BAY", "city": "WINNIPEG", "province": "MB", "country": "CA", "postalCode": "R3T1W6", "twitter": "None", "instagram": "None", "facebook": "None", "youtube": "None", "website": "None", "summary": "None", "logo": "None", "latitude": 49.834076979773556, "longitude": -97.14762844682343}, "891686776RR0001": {"name": "FRIENDS OF THE BORDEN MEMORIAL MUSEUM AND ARCHIVES - LES AMIS DU MUSEE COMMEMORATIF ET ARCHIVES BORDEN", "designationCode": "A", "categoryCode": "53", "address": "BASE BORDEN MILITARY MUSEUM   PO BOX 1000, STN. MAIN", "city": "BORDEN", "province": "ON", "country": "CA", "postalCode": "L0M1C0", "twitter": "None", "instagram": "None", "facebook": "None", "youtube": "None", "website": "None", "summary": "None", "logo": "None", "latitude": 44.28684000000004, "longitude": -79.88498999999996}, "891264210RR0001": {"name": "FRIENDS OF THE BRITISH COLUMBIA ARCHIVES", "designationCode": "A", "categoryCode": "23", "address": "675 BELLEVILLE ST.", "city": "VICTORIA", "province": "BC", "country": "CA", "postalCode": "V8W9W2", "twitter": "None", "instagram": "None", "facebook": "None", "youtube": "None", "website": "None", "summary": "None", "logo": "None", "latitude": 48.42036670990861, "longitude": -123.36729902250546}, "137770053RR0001": {"name": "FRIENDS OF THE BROADWAY THEATRE INC", "designationCode": "C", "categoryCode": "22", "address": "715 BROADWAY AVE", "city": "SASKATOON", "province": "SK", "country": "CA", "postalCode": "S7N1B3", "twitter": "None", "instagram": "None", "facebook": "None", "youtube": "None", "website": "None", "summary": "None", "logo": "None", "latitude": 52.11837, "longitude": -106.65664879776702}, "891605867RR0001": {"name": "FRIENDS OF THE BROCKVILLE MUSEUM", "designationCode": "A", "categoryCode": "53", "address": "5 HENRY STREET", "city": "BROCKVILLE", "province": "ON", "country": "CA", "postalCode": "K6V6M4", "twitter": "None", "instagram": "None", "facebook": "None", "youtube": "None", "website": "None", "summary": "None", "logo": "None", "latitude": 44.58636149502213, "longitude": -75.68682023379083}, "139419378RR0001": {"name": "FRIENDS OF THE CAMPBELLFORD/SEYMOUR CARNEGIE LIBRARY", "designationCode": "A", "categoryCode": "55", "address": "BOX 509                       98 BRIDGE ST E", "city": "CAMPBELLFORD", "province": "ON", "country": "CA", "postalCode": "K0L1L0", "twitter": "None", "instagram": "None", "facebook": "None", "youtube": "None", "website": "None", "summary": "None", "logo": "None", "latitude": 44.30798437001528, "longitude": -77.7952004203359}, "855114732RR0001": {"name": "FRIENDS OF THE CANADIAN MUSEUM FOR HUMAN RIGHTS INC.", "designationCode": "A", "categoryCode": "53", "address": "85 ISRAEL ASPER WAY", "city": "WINNIPEG", "province": "MB", "country": "CA", "postalCode": "R3C0L5", "twitter": "None", "instagram": "None", "facebook": "None", "youtube": "None", "website": "None", "summary": "None", "logo": "None", "latitude": 49.89035826591248, "longitude": -97.13188960592139}, "891971848RR0001": {"name": "FRIENDS OF THE CANADIAN WAR MUSEUM / AMIS DU MUSEE CANADIEN DE LA GUERRE", "designationCode": "C", "categoryCode": "21", "address": "1 VIMY PLACE", "city": "OTTAWA", "province": "ON", "country": "CA", "postalCode": "K1A0M8", "twitter": "None", "instagram": "None", "facebook": "None", "youtube": "None", "website": "None", "summary": "None", "logo": "None", "latitude": 45.41680713962133, "longitude": -75.71601007798971}, "884352402RR0001": {"name": "FRIENDS OF THE CASTLEGAR & DISTRICT PUBLIC LIBRARY", "designationCode": "A", "categoryCode": "50", "address": "1005-3RD ST", "city": "CASTLEGAR", "province": "BC", "country": "CA", "postalCode": "V1N2A2", "twitter": "None", "instagram": "None", "facebook": "None", "youtube": "None", "website": "None", "summary": "None", "logo": "None", "latitude": 49.32654310960206, "longitude": -117.66317648688947}, "888489044RR0001": {"name": "FRIENDS OF THE CATHOLIC UNIVERSITIES OF POLAND INC.", "designationCode": "C", "categoryCode": "21", "address": "2033 ROLLINGBROOK DR", "city": "GLOUCESTER", "province": "ON", "country": "CA", "postalCode": "K1W1C9", "twitter": "None", "instagram": "None", "facebook": "None", "youtube": "None", "website": "None", "summary": "None", "logo": "None", "latitude": 45.4403224205088, "longitude": -75.52490213139836}, "888999760RR0001": {"name": "FRIENDS OF THE CHATHAM PIPES AND DRUMS", "designationCode": "C", "categoryCode": "22", "address": "58 DALEVIEW CRESCENT", "city": "CHATHAM", "province": "ON", "country": "CA", "postalCode": "N7M5W1", "twitter": "None", "instagram": "None", "facebook": "None", "youtube": "None", "website": "None", "summary": "None", "logo": "None", "latitude": 42.38457391064105, "longitude": -82.17567163584177}, "899760813RR0001": {"name": "FRIENDS OF THE COVES SUBWATERSHED INC.", "designationCode": "C", "categoryCode": "52", "address": "111 ELMWOOD AVE E", "city": "LONDON", "province": "ON", "country": "CA", "postalCode": "N6C1J4", "twitter": "None", "instagram": "None", "facebook": "None", "youtube": "None", "website": "None", "summary": "None", "logo": "None", "latitude": 42.97064653895233, "longitude": -81.25538061642338}, "889682977RR0001": {"name": "FRIENDS OF THE COWICHAN THEATRE SOCIETY", "designationCode": "A", "categoryCode": "23", "address": "P.O. BOX 806", "city": "DUNCAN", "province": "BC", "country": "CA", "postalCode": "V9L3Y1", "twitter": "None", "instagram": "None", "facebook": "None", "youtube": "None", "website": "None", "summary": "None", "logo": "None", "latitude": 48.77908800000006, "longitude": -123.70739299999994}, "873008551RR0001": {"name": "FRIENDS OF THE CRESTON PUBLIC LIBRARY SOCIETY", "designationCode": "A", "categoryCode": "03", "address": "531-16 AVE S.", "city": "CRESTON", "province": "BC", "country": "CA", "postalCode": "V0B1G5", "twitter": "None", "instagram": "None", "facebook": "None", "youtube": "None", "website": "None", "summary": "None", "logo": "None", "latitude": 49.0894589862541, "longitude": -116.50553040226262}, "865121495RR0001": {"name": "FRIENDS OF THE CRYSLER'S FARM BATTLEFIELD", "designationCode": "C", "categoryCode": "50", "address": "10295 PLEASANT VALLEY RD", "city": "SOUTH MOUNTAIN", "province": "ON", "country": "CA", "postalCode": "K0E1W0", "twitter": "None", "instagram": "None", "facebook": "None", "youtube": "None", "website": "None", "summary": "None", "logo": "None", "latitude": 44.95732522675859, "longitude": -75.45841822370016}, "123646168RR0001": {"name": "FRIENDS OF THE DAWSON CREEK PUBLIC LIBRARY SOCIETY", "designationCode": "C", "categoryCode": "50", "address": "1001 MC KELLAR AVE", "city": "DAWSON CREEK", "province": "BC", "country": "CA", "postalCode": "V1G4W7", "twitter": "None", "instagram": "None", "facebook": "None", "youtube": "None", "website": "None", "summary": "None", "logo": "None", "latitude": 55.75370100000005, "longitude": -120.23422999999994}, "118932961RR0001": {"name": "FRIENDS OF THE DESBRISAY MUSEUM", "designationCode": "C", "categoryCode": "50", "address": "60 PLEASANT STREET", "city": "BRIDGEWATER", "province": "NS", "country": "CA", "postalCode": "B4V3X9", "twitter": "None", "instagram": "None", "facebook": "None", "youtube": "None", "website": "None", "summary": "None", "logo": "None", "latitude": 44.376942530122854, "longitude": -64.51943512724343}, "891675423RR0001": {"name": "FRIENDS OF THE DISABLED (PEMBROKE) INC", "designationCode": "C", "categoryCode": "09", "address": "170 ELLIS AVE", "city": "PEMBROKE", "province": "ON", "country": "CA", "postalCode": "K8A2H9", "twitter": "None", "instagram": "None", "facebook": "None", "youtube": "None", "website": "None", "summary": "None", "logo": "None", "latitude": 45.81215999917833, "longitude": -77.10944087913668}, "118932979RR0001": {"name": "FRIENDS OF THE DISABLED (RENFREW) INC.", "designationCode": "C", "categoryCode": "09", "address": "44 RAILWAY AVENUE", "city": "RENFREW", "province": "ON", "country": "CA", "postalCode": "K7V3B1", "twitter": "None", "instagram": "None", "facebook": "None", "youtube": "None", "website": "None", "summary": "None", "logo": "None", "latitude": 45.47317920067511, "longitude": -76.68396874744639}, "890652373RR0001": {"name": "FRIENDS OF THE DUNDALK LIBRARY", "designationCode": "C", "categoryCode": "59", "address": "PO BOX 190", "city": "DUNDALK", "province": "ON", "country": "CA", "postalCode": "N0C1B0", "twitter": "None", "instagram": "None", "facebook": "None", "youtube": "None", "website": "None", "summary": "None", "logo": "None", "latitude": 44.16787539880879, "longitude": -80.39404277157527}, "118933001RR0001": {"name": "FRIENDS OF THE EARTH / LES AMIS DE LA TERRE", "designationCode": "C", "categoryCode": "59", "address": "251 BANK ST, 2ND-FLOOR", "city": "OTTAWA", "province": "ON", "country": "CA", "postalCode": "K2P1X3", "twitter": "None", "instagram": "None", "facebook": "None", "youtube": "None", "website": "None", "summary": "None", "logo": "None", "latitude": 45.41620551263771, "longitude": -75.69703608976297}, "810270470RR0001": {"name": "FRIENDS OF THE EAST GWILLMBURY LIBRARY", "designationCode": "A", "categoryCode": "53", "address": "PO BOX 1701", "city": "HOLLAND LANDING", "province": "ON", "country": "CA", "postalCode": "L9N1P2", "twitter": "None", "instagram": "None", "facebook": "None", "youtube": "None", "website": "None", "summary": "None", "logo": "None", "latitude": 44.10536100000006, "longitude": -79.49254399999994}, "845521525RR0001": {"name": "FRIENDS OF THE EDSON PUBLIC LIBRARY SOCIETY", "designationCode": "C", "categoryCode": "50", "address": "4726 8TH AVE", "city": "EDSON", "province": "AB", "country": "CA", "postalCode": "T7E1S8", "twitter": "None", "instagram": "None", "facebook": "None", "youtube": "None", "website": "None", "summary": "None", "logo": "None", "latitude": 53.58845109965939, "longitude": -116.42972169360597}, "811496132RR0001": {"name": "FRIENDS OF THE EDUCATIONAL ARCHIVES SERVING BRANT, HALDIMAND AND NORFOLK COUNTIES", "designationCode": "C", "categoryCode": "50", "address": "133 ST. JAMES STREET S", "city": "WATERFORD", "province": "ON", "country": "CA", "postalCode": "N0E1Y0", "twitter": "None", "instagram": "None", "facebook": "None", "youtube": "None", "website": "None", "summary": "None", "logo": "None", "latitude": 42.93062092645274, "longitude": -80.29265790922742}, "893133819RR0001": {"name": "FRIENDS OF THE EDWARDSBURGH PUBLIC LIBRARY", "designationCode": "C", "categoryCode": "50", "address": "P.O.BOX 46", "city": "SPENCERVILLE", "province": "ON", "country": "CA", "postalCode": "K0E1X0", "twitter": "None", "instagram": "None", "facebook": "None", "youtube": "None", "website": "None", "summary": "None", "logo": "None", "latitude": 44.84255997388789, "longitude": -75.5491700455878}, "118933027RR0001": {"name": "FRIENDS OF THE EPTEK CENTRE", "designationCode": "A", "categoryCode": "25", "address": "130 HEATHER MOYSE DR", "city": "SUMMERSIDE", "province": "PE", "country": "CA", "postalCode": "C1N5Y8", "twitter": "None", "instagram": "None", "facebook": "None", "youtube": "None", "website": "None", "summary": "None", "logo": "None", "latitude": 46.39324200000006, "longitude": -63.76254199999994}, "864984950RR0001": {"name": "FRIENDS OF THE EXPERIMENTAL LAKES AREA INC.", "designationCode": "A", "categoryCode": "03", "address": "1504-201 PORTAGE AVENUE", "city": "WINNIPEG", "province": "MB", "country": "CA", "postalCode": "R3B3K6", "twitter": "None", "instagram": "None", "facebook": "None", "youtube": "None", "website": "None", "summary": "None", "logo": "None", "latitude": 49.895359615067065, "longitude": -97.13919299627776}, "858454366RR0001": {"name": "FRIENDS OF THE FAIRFIELD GARDENS SOCIETY", "designationCode": "C", "categoryCode": "50", "address": "PO BOX 3000", "city": "LETHBRIDGE", "province": "AB", "country": "CA", "postalCode": "T1J4B1", "twitter": "None", "instagram": "None", "facebook": "None", "youtube": "None", "website": "None", "summary": "None", "logo": "None", "latitude": 49.69383000000006, "longitude": -112.83373249999994}, "895054682RR0001": {"name": "FRIENDS OF THE FARMERS' BANK OF RUSTICO INC./LES AMIS DE LA BANQUE DES FERMIERS DE RUSTICO INC.", "designationCode": "C", "categoryCode": "52", "address": "BOX 5654                      RR 3", "city": "HUNTER RIVER", "province": "PE", "country": "CA", "postalCode": "C0A1N0", "twitter": "None", "instagram": "None", "facebook": "None", "youtube": "None", "website": "None", "summary": "None", "logo": "None", "latitude": 46.492926000000054, "longitude": -63.36548449999994}, "855899662RR0001": {"name": "FRIENDS OF THE FERNIE HERITAGE LIBRARY SOCIETY", "designationCode": "C", "categoryCode": "50", "address": "BOX 448", "city": "FERNIE", "province": "BC", "country": "CA", "postalCode": "V0B1M0", "twitter": "None", "instagram": "None", "facebook": "None", "youtube": "None", "website": "None", "summary": "None", "logo": "None", "latitude": 49.499960000000044, "longitude": -115.06870999999995}, "873694004RR0001": {"name": "FRIENDS OF THE FIREFIGHTERS OF SAULT STE. MARIE", "designationCode": "A", "categoryCode": "13", "address": "537 OLD GARDEN RIVER ROAD", "city": "SAULT STE. MARIE", "province": "ON", "country": "CA", "postalCode": "P6A6J8", "twitter": "None", "instagram": "None", "facebook": "None", "youtube": "None", "website": "None", "summary": "None", "logo": "None", "latitude": 46.54691864109323, "longitude": -84.30004742463508}, "118933043RR0001": {"name": "FRIENDS OF THE FOREST CENTRE FOUNDATION", "designationCode": "A", "categoryCode": "53", "address": "2216 COUNTY ROAD 28", "city": "PORT HOPE", "province": "ON", "country": "CA", "postalCode": "L1A3V8", "twitter": "None", "instagram": "None", "facebook": "None", "youtube": "None", "website": "None", "summary": "None", "logo": "None", "latitude": 43.97297156760332, "longitude": -78.2879266423617}, "891050775RR0001": {"name": "FRIENDS OF THE FORESTRY FARM HOUSE INCORPORATED", "designationCode": "C", "categoryCode": "52", "address": "1903 FORESTRY FARM PARK DRIVE", "city": "SASKATOON", "province": "SK", "country": "CA", "postalCode": "S7S1G9", "twitter": "None", "instagram": "None", "facebook": "None", "youtube": "None", "website": "None", "summary": "None", "logo": "None", "latitude": 52.15618500000005, "longitude": -106.58537449999993}, "871393443RR0001": {"name": "FRIENDS OF THE FORT FRANCES PUBLIC LIBRARY", "designationCode": "C", "categoryCode": "50", "address": "601 REID AVE", "city": "FORT FRANCES", "province": "ON", "country": "CA", "postalCode": "P9A0A2", "twitter": "None", "instagram": "None", "facebook": "None", "youtube": "None", "website": "None", "summary": "None", "logo": "None", "latitude": 48.6110897956508, "longitude": -93.37979277141885}, "890617772RR0001": {"name": "FRIENDS OF THE FORT ST. JOHN PUBLIC LIBRARY ASSOCIATION", "designationCode": "C", "categoryCode": "53", "address": "10015 100 AVE", "city": "FORT ST JOHN", "province": "BC", "country": "CA", "postalCode": "V1J1Y7", "twitter": "None", "instagram": "None", "facebook": "None", "youtube": "None", "website": "None", "summary": "None", "logo": "None", "latitude": 56.24636923382872, "longitude": -120.84782968812686}, "894121771RR0001": {"name": "FRIENDS OF THE FORTS - FORT GEORGE BUCKINGHAM HOUSE SOCIETY", "designationCode": "C", "categoryCode": "52", "address": "PO BOX 967", "city": "ELK POINT", "province": "AB", "country": "CA", "postalCode": "T0A1A0", "twitter": "None", "instagram": "None", "facebook": "None", "youtube": "None", "website": "None", "summary": "None", "logo": "None", "latitude": 54.815265, "longitude": -111.92067675}, "887867661RR0001": {"name": "FRIENDS OF THE FREDERICTON PUBLIC LIBRARY INC", "designationCode": "A", "categoryCode": "53", "address": "12 CARLETON ST", "city": "FREDERICTON", "province": "NB", "country": "CA", "postalCode": "E3B5P4", "twitter": "None", "instagram": "None", "facebook": "None", "youtube": "None", "website": "None", "summary": "None", "logo": "None", "latitude": 45.96258714155458, "longitude": -66.64043963653425}}