{"107801821RR0001": {"name": "OP\u00c9RATION SURVEILLANCE ANJOU (OSA)", "designationCode": "C", "categoryCode": "59", "address": "7701 BOUL. LOUIS-H LAFONTAINE", "city": "ANJOU", "province": "QC", "country": "CA", "postalCode": "H1K4B9", "twitter": "None", "instagram": "None", "facebook": "None", "youtube": "None", "website": "None", "summary": "None", "logo": "None", "latitude": 45.60148866513234, "longitude": -73.5578482049674}, "107801359RR0001": {"name": "OPAL III - FREDERICTON RESPITE SERVICES INC.", "designationCode": "C", "categoryCode": "09", "address": "420 - 500 BEAVERBROOK CRT", "city": "FREDERICTON", "province": "NB", "country": "CA", "postalCode": "E3B5X4", "twitter": "None", "instagram": "None", "facebook": "None", "youtube": "None", "website": "None", "summary": "None", "logo": "None", "latitude": 45.95462697224307, "longitude": -66.64753514282398}, "107801342RR0001": {"name": "OPAL INC.", "designationCode": "C", "categoryCode": "01", "address": "P O BOX 4494", "city": "SUSSEX", "province": "NB", "country": "CA", "postalCode": "E4E5L6", "twitter": "None", "instagram": "None", "facebook": "None", "youtube": "None", "website": "None", "summary": "None", "logo": "None", "latitude": 45.72363300000005, "longitude": -65.51253349999993}, "104004163RR0001": {"name": "OPASKWAYAK EDUCATIONAL AUTHORITY INC.", "designationCode": "C", "categoryCode": "20", "address": "BOX 10370", "city": "OPASKWAYAK", "province": "MB", "country": "CA", "postalCode": "R0B2J0", "twitter": "None", "instagram": "None", "facebook": "None", "youtube": "None", "website": "None", "summary": "None", "logo": "None", "latitude": 52.17673200000006, "longitude": -97.25705899999993}, "107801458RR0001": {"name": "OPEN AIR CAMPAIGNERS INCORPORATED", "designationCode": "C", "categoryCode": "47", "address": "BOX 915", "city": "WINGHAM", "province": "ON", "country": "CA", "postalCode": "N0G2W0", "twitter": "None", "instagram": "None", "facebook": "None", "youtube": "None", "website": "None", "summary": "None", "logo": "None", "latitude": 43.88924000000003, "longitude": -81.31057999999996}, "119264778RR0001": {"name": "OPEN ARMS", "designationCode": "C", "categoryCode": "39", "address": "44 TILLSON AVE", "city": "TILLSONBURG", "province": "ON", "country": "CA", "postalCode": "N4G3A1", "twitter": "None", "instagram": "None", "facebook": "None", "youtube": "None", "website": "None", "summary": "None", "logo": "None", "latitude": 42.86293984717128, "longitude": -80.72269964819611}, "852222173RR0001": {"name": "OPEN ARMS CHILDREN'S FOUNDATION", "designationCode": "C", "categoryCode": "09", "address": "14 ROXBOROUGH STREET WEST", "city": "TORONTO", "province": "ON", "country": "CA", "postalCode": "M5R1T8", "twitter": "None", "instagram": "None", "facebook": "None", "youtube": "None", "website": "None", "summary": "None", "logo": "None", "latitude": 43.6780591906918, "longitude": -79.39073834569214}, "875656217RR0001": {"name": "OPEN ARMS EARLY CHILDHOOD CENTRE, BARRIE", "designationCode": "C", "categoryCode": "01", "address": "460 MAPLEVIEW DR W", "city": "BARRIE", "province": "ON", "country": "CA", "postalCode": "L4N9G4", "twitter": "None", "instagram": "None", "facebook": "None", "youtube": "None", "website": "None", "summary": "None", "logo": "None", "latitude": 44.32719708855088, "longitude": -79.72162049070917}, "107801474RR0001": {"name": "OPEN ARMS MISSION OF WELLAND, INC.", "designationCode": "C", "categoryCode": "39", "address": "22 FIFTH STREET", "city": "WELLAND", "province": "ON", "country": "CA", "postalCode": "L3B4Z3", "twitter": "None", "instagram": "None", "facebook": "None", "youtube": "None", "website": "None", "summary": "None", "logo": "None", "latitude": 42.978626420745265, "longitude": -79.25238534492853}, "815158340RR0001": {"name": "OPEN ARMS RESOURCE CENTRE SOCIETY", "designationCode": "C", "categoryCode": "01", "address": "32 CORNWALLIS ST", "city": "KENTVILLE", "province": "NS", "country": "CA", "postalCode": "B4N2E1", "twitter": "None", "instagram": "None", "facebook": "None", "youtube": "None", "website": "None", "summary": "None", "logo": "None", "latitude": 45.077680990564936, "longitude": -64.49425847351249}, "889930269RR0001": {"name": "OPEN BIBLE BAPTIST CHURCH", "designationCode": "C", "categoryCode": "31", "address": "3342 RUTH FERTEL DRIVE", "city": "MISSISAUGA", "province": "ON", "country": "CA", "postalCode": "L5M0H5", "twitter": "None", "instagram": "None", "facebook": "None", "youtube": "None", "website": "None", "summary": "None", "logo": "None", "latitude": 43.553015340816046, "longitude": -79.73591463001338}, "107801508RR0001": {"name": "OPEN BIBLE BAPTIST CHURCH (AYLMER)", "designationCode": "C", "categoryCode": "31", "address": "BOX 123", "city": "AYLMER", "province": "ON", "country": "CA", "postalCode": "N5H2R8", "twitter": "None", "instagram": "None", "facebook": "None", "youtube": "None", "website": "None", "summary": "None", "logo": "None", "latitude": 42.773010000000056, "longitude": -80.98362349999994}, "869742361RR0001": {"name": "OPEN DOOR APOSTOLIC CHURCH INC", "designationCode": "C", "categoryCode": "39", "address": "91 - 6 SIRENTE DR", "city": "HAMILTON", "province": "ON", "country": "CA", "postalCode": "L9A0C3", "twitter": "None", "instagram": "None", "facebook": "None", "youtube": "None", "website": "None", "summary": "None", "logo": "None", "latitude": 43.213934893127245, "longitude": -79.87619948779498}, "832238935RR0001": {"name": "OPEN DOOR BAPTIST CHURCH CORP.", "designationCode": "C", "categoryCode": "31", "address": "BOX 684", "city": "WARMAN", "province": "SK", "country": "CA", "postalCode": "S0K4S0", "twitter": "None", "instagram": "None", "facebook": "None", "youtube": "None", "website": "None", "summary": "None", "logo": "None", "latitude": 52.31985000000006, "longitude": -106.58322349999993}, "132203985RR0001": {"name": "OPEN DOOR BIBLE FELLOWSHIP", "designationCode": "C", "categoryCode": "39", "address": "240 - 3271 WESTWOOD DR", "city": "PRINCE GEORGE", "province": "BC", "country": "CA", "postalCode": "V2N1S4", "twitter": "None", "instagram": "None", "facebook": "None", "youtube": "None", "website": "None", "summary": "None", "logo": "None", "latitude": 53.88731958090486, "longitude": -122.77956711737475}, "863914727RR0001": {"name": "OPEN DOOR CHRISTIAN FELLOWSHIP", "designationCode": "C", "categoryCode": "39", "address": "940 DUNDAS STREET", "city": "LONDON", "province": "ON", "country": "CA", "postalCode": "N5W3A1", "twitter": "None", "instagram": "None", "facebook": "None", "youtube": "None", "website": "None", "summary": "None", "logo": "None", "latitude": 42.99231194312983, "longitude": -81.21982800043268}, "889401378RR0001": {"name": "OPEN DOOR DROP-IN FOR SINGLE MOTHERS SOCIETY", "designationCode": "C", "categoryCode": "01", "address": "870 LYNN VALLEY ROAD", "city": "NORTH VANCOUVER", "province": "BC", "country": "CA", "postalCode": "V7J1Z7", "twitter": "None", "instagram": "None", "facebook": "None", "youtube": "None", "website": "None", "summary": "None", "logo": "None", "latitude": 49.33170999226703, "longitude": -123.04845372583496}, "122153398RR0001": {"name": "OPEN DOOR EVANGELISTIC CHURCH INC", "designationCode": "C", "categoryCode": "39", "address": "35 CHARLES ST E", "city": "KITCHENER", "province": "ON", "country": "CA", "postalCode": "N2G2P3", "twitter": "None", "instagram": "None", "facebook": "None", "youtube": "None", "website": "None", "summary": "None", "logo": "None", "latitude": 43.44776077127952, "longitude": -80.48690221400531}, "853586873RR0001": {"name": "OPEN DOOR FELLOWSHIP OF ELIZABETHTOWN-KITLEY", "designationCode": "C", "categoryCode": "47", "address": "4457 ROWSOME ROAD", "city": "BROCKVILLE", "province": "ON", "country": "CA", "postalCode": "K6V5T4", "twitter": "None", "instagram": "None", "facebook": "None", "youtube": "None", "website": "None", "summary": "None", "logo": "None", "latitude": 44.62253948955533, "longitude": -75.77077004933969}, "804924272RR0001": {"name": "OPEN DOOR HEALING ROOMS SOCIETY", "designationCode": "C", "categoryCode": "39", "address": "4685 MARINE AVE", "city": "POWELL RIVER", "province": "BC", "country": "CA", "postalCode": "V8A2L2", "twitter": "None", "instagram": "None", "facebook": "None", "youtube": "None", "website": "None", "summary": "None", "logo": "None", "latitude": 49.842805830140236, "longitude": -124.52843752290948}, "834393928RR0001": {"name": "OPEN DOOR MINISTRIES INC.", "designationCode": "C", "categoryCode": "39", "address": "BOX 238", "city": "MORRIS", "province": "MB", "country": "CA", "postalCode": "R0G1K0", "twitter": "None", "instagram": "None", "facebook": "None", "youtube": "None", "website": "None", "summary": "None", "logo": "None", "latitude": 49.35468000000003, "longitude": -97.36605999999995}, "857088579RR0001": {"name": "OPEN DOOR MINISTRIES INC.", "designationCode": "C", "categoryCode": "09", "address": "374 UNIVERSITY AVE", "city": "CHARLOTTETOWN", "province": "PE", "country": "CA", "postalCode": "C1A4N3", "twitter": "None", "instagram": "None", "facebook": "None", "youtube": "None", "website": "None", "summary": "None", "logo": "None", "latitude": 46.24407481932021, "longitude": -63.13384303468182}, "137518494RR0001": {"name": "OPEN DOOR SENIOR FELLOWSHIP OF CALGARY", "designationCode": "C", "categoryCode": "49", "address": "1311 - 4TH ST SW", "city": "CALGARY", "province": "AB", "country": "CA", "postalCode": "T2R0X9", "twitter": "None", "instagram": "None", "facebook": "None", "youtube": "None", "website": "None", "summary": "None", "logo": "None", "latitude": 51.040053, "longitude": -114.0715877102544}, "118818491RR0037": {"name": "OPEN DOOR SEVENTH-DAY ADVENTIST CHURCH", "designationCode": "C", "categoryCode": "41", "address": "PO 1000", "city": "ABBOTSFORD", "province": "BC", "country": "CA", "postalCode": "V2S4P5", "twitter": "None", "instagram": "None", "facebook": "None", "youtube": "None", "website": "None", "summary": "None", "logo": "None", "latitude": 49.03851300000005, "longitude": -122.29441549999993}, "106719917RR0001": {"name": "OPEN DOOR SOCIAL SERVICES SOCIETY", "designationCode": "C", "categoryCode": "59", "address": "SUITE 300                     30 EAST 6TH AVENUE", "city": "VANCOUVER", "province": "BC", "country": "CA", "postalCode": "V5T1J4", "twitter": "None", "instagram": "None", "facebook": "None", "youtube": "None", "website": "None", "summary": "None", "logo": "None", "latitude": 49.26554048845881, "longitude": -123.10403263780367}, "119068781RR0001": {"name": "OPEN DOOR SPIRITUALIST CHURCH/INNER QUEST FOUNDATION", "designationCode": "C", "categoryCode": "39", "address": "1600 COOK ST", "city": "VICTORIA", "province": "BC", "country": "CA", "postalCode": "V8T3P1", "twitter": "None", "instagram": "None", "facebook": "None", "youtube": "None", "website": "None", "summary": "None", "logo": "None", "latitude": 48.428247803220046, "longitude": -123.35320275884335}, "107461485RR0001": {"name": "OPEN DOOR WOMENS CARE CENTRE", "designationCode": "C", "categoryCode": "09", "address": "220 - 5991 SPRING GARDEN RD", "city": "HALIFAX", "province": "NS", "country": "CA", "postalCode": "B3H1Y6", "twitter": "None", "instagram": "None", "facebook": "None", "youtube": "None", "website": "None", "summary": "None", "logo": "None", "latitude": 44.6404545, "longitude": -63.58650075}, "119068799RR0001": {"name": "OPEN DOORS CANADA", "designationCode": "C", "categoryCode": "47", "address": "8-19 BROWNRIDGE RD.", "city": "HALTON HILLS", "province": "ON", "country": "CA", "postalCode": "L7G0C6", "twitter": "None", "instagram": "None", "facebook": "None", "youtube": "None", "website": "None", "summary": "None", "logo": "None", "latitude": 43.550251016489554, "longitude": -79.86114047340945}, "801990615RR0001": {"name": "OPEN DOORS CHURCH OF WESTLOCK", "designationCode": "C", "categoryCode": "36", "address": "10354 115 AVE", "city": "WESTLOCK", "province": "AB", "country": "CA", "postalCode": "T7P2B8", "twitter": "None", "instagram": "None", "facebook": "None", "youtube": "None", "website": "None", "summary": "None", "logo": "None", "latitude": 53.56586832726234, "longitude": -113.49832301689918}, "897725131RR0001": {"name": "OPEN DOORS FOR LANARK CHILDREN AND YOUTH", "designationCode": "C", "categoryCode": "19", "address": "88 CORNELIA STREET WEST       UNIT A-1", "city": "SMITHS FALLS", "province": "ON", "country": "CA", "postalCode": "K7A5K9", "twitter": "None", "instagram": "None", "facebook": "None", "youtube": "None", "website": "None", "summary": "None", "logo": "None", "latitude": 44.90629247986622, "longitude": -76.02883847570062}, "843719543RR0001": {"name": "OPEN DOORWAYS ORPHANAGE INC.", "designationCode": "C", "categoryCode": "01", "address": "BOX 405", "city": "BEAUSEJOUR", "province": "MB", "country": "CA", "postalCode": "R0E0C0", "twitter": "None", "instagram": "None", "facebook": "None", "youtube": "None", "website": "None", "summary": "None", "logo": "None", "latitude": 50.061750000000075, "longitude": -96.50519999999995}, "858081847RR0001": {"name": "OPEN FOR LIFE MINISTRIES CANADA", "designationCode": "C", "categoryCode": "39", "address": "P.O. BOX 27", "city": "PICKERING", "province": "ON", "country": "CA", "postalCode": "L1V2R2", "twitter": "None", "instagram": "None", "facebook": "None", "youtube": "None", "website": "None", "summary": "None", "logo": "None", "latitude": 43.837818000000055, "longitude": -79.08191449999994}, "832200695RR0001": {"name": "OPEN HEART MINISTRIES", "designationCode": "C", "categoryCode": "39", "address": "312905 DEREHAM LINE           RR 1", "city": "MOUNT ELGIN", "province": "ON", "country": "CA", "postalCode": "N0J1N0", "twitter": "None", "instagram": "None", "facebook": "None", "youtube": "None", "website": "None", "summary": "None", "logo": "None", "latitude": 42.925755047106335, "longitude": -80.81114491808404}, "887612422RR0001": {"name": "OPEN HEAVEN MINISTRIES INC", "designationCode": "C", "categoryCode": "39", "address": "1710 DANFORTH AVENUE", "city": "TORONTO", "province": "ON", "country": "CA", "postalCode": "M4C1H8", "twitter": "None", "instagram": "None", "facebook": "None", "youtube": "None", "website": "None", "summary": "None", "logo": "None", "latitude": 43.68408919069178, "longitude": -79.32029798058161}, "136016516RR0001": {"name": "OPEN ROAD CHAPELS", "designationCode": "C", "categoryCode": "39", "address": "3791 CAMPBELL RD", "city": "SEVERN", "province": "ON", "country": "CA", "postalCode": "L3V0V3", "twitter": "None", "instagram": "None", "facebook": "None", "youtube": "None", "website": "None", "summary": "None", "logo": "None", "latitude": 44.674376407149936, "longitude": -79.40878110237203}, "119068815RR0001": {"name": "OPEN SPACE ARTS SOCIETY", "designationCode": "C", "categoryCode": "22", "address": "510 FORT ST", "city": "VICTORIA", "province": "BC", "country": "CA", "postalCode": "V8W1E6", "twitter": "None", "instagram": "None", "facebook": "None", "youtube": "None", "website": "None", "summary": "None", "logo": "None", "latitude": 48.425094449362255, "longitude": -123.36916710629583}, "119068823RR0001": {"name": "OPEN STUDIO", "designationCode": "C", "categoryCode": "22", "address": "401 RICHMOND STREET WEST      SUITE 104", "city": "TORONTO", "province": "ON", "country": "CA", "postalCode": "M5V3A8", "twitter": "None", "instagram": "None", "facebook": "None", "youtube": "None", "website": "None", "summary": "None", "logo": "None", "latitude": 43.64802194030256, "longitude": -79.39487429779568}, "806516852RR0001": {"name": "OPEN TO GROW", "designationCode": "C", "categoryCode": "09", "address": "16 WINDSOR CRESCENT S.W.", "city": "CALGARY", "province": "AB", "country": "CA", "postalCode": "T2V1V3", "twitter": "None", "instagram": "None", "facebook": "None", "youtube": "None", "website": "None", "summary": "None", "logo": "None", "latitude": 51.00778929837262, "longitude": -114.08232424787907}, "881858617RR0001": {"name": "OPEN VALLEY COWBOY CHURCH", "designationCode": "C", "categoryCode": "39", "address": "2252 HIGHWAY 97", "city": "ARMSTRONG", "province": "BC", "country": "CA", "postalCode": "V0E1B5", "twitter": "None", "instagram": "None", "facebook": "None", "youtube": "None", "website": "None", "summary": "None", "logo": "None", "latitude": 50.37499510772922, "longitude": -119.30779256691525}, "865357313RR0001": {"name": "OPEN VOICES COMMUNITY CHOIR", "designationCode": "C", "categoryCode": "22", "address": "P.O. BOX 1010", "city": "KINGSTON", "province": "ON", "country": "CA", "postalCode": "K7L4X8", "twitter": "None", "instagram": "None", "facebook": "None", "youtube": "None", "website": "None", "summary": "None", "logo": "None", "latitude": 44.23153200000006, "longitude": -76.47933049999993}, "895890325RR0001": {"name": "OPEN WINDOWS & DOORS MINISTRIES INC.", "designationCode": "C", "categoryCode": "39", "address": "233 WILLOW DRIVE", "city": "WINKLER", "province": "MB", "country": "CA", "postalCode": "R6W1Y3", "twitter": "None", "instagram": "None", "facebook": "None", "youtube": "None", "website": "None", "summary": "None", "logo": "None", "latitude": 49.1721474970858, "longitude": -97.94795895833596}, "119068831RR0001": {"name": "OPEN WORD MINISTRIES", "designationCode": "C", "categoryCode": "39", "address": "PO BOX 625                    STN MAIN", "city": "NIAGARA FALLS", "province": "ON", "country": "CA", "postalCode": "L2E6V5", "twitter": "None", "instagram": "None", "facebook": "None", "youtube": "None", "website": "None", "summary": "None", "logo": "None", "latitude": 43.10663100000005, "longitude": -79.06433299999993}, "873508022RR0001": {"name": "OPENING GAITS THERAPEUTIC RIDING SOCIETY OF CALGARY", "designationCode": "C", "categoryCode": "56", "address": "PO BOX 76062 MILLRISE RPO", "city": "CALGARY", "province": "AB", "country": "CA", "postalCode": "T2Y2Z9", "twitter": "None", "instagram": "None", "facebook": "None", "youtube": "None", "website": "None", "summary": "None", "logo": "None", "latitude": 50.91454132111086, "longitude": -114.09693237631686}, "864117361RR0001": {"name": "OPENING NITE THEATRE SOCIETY", "designationCode": "C", "categoryCode": "22", "address": "PO BOX 3294", "city": "MISSION", "province": "BC", "country": "CA", "postalCode": "V2V4J4", "twitter": "None", "instagram": "None", "facebook": "None", "youtube": "None", "website": "None", "summary": "None", "logo": "None", "latitude": 49.13294100000006, "longitude": -122.32108249999993}, "125980318RR0001": {"name": "OPEONGO SENIORS CENTRE", "designationCode": "C", "categoryCode": "55", "address": "19 STAFFORD ST.               BOX 374", "city": "BARRY'S BAY", "province": "ON", "country": "CA", "postalCode": "K0J1B0", "twitter": "None", "instagram": "None", "facebook": "None", "youtube": "None", "website": "None", "summary": "None", "logo": "None", "latitude": 45.48718702997536, "longitude": -77.67645440389882}, "866475338RR0001": {"name": "OPEQ (ORDINATEURS POUR ECOLES DU QUEBEC)", "designationCode": "C", "categoryCode": "22", "address": "1, ALEXANDER G. BELL, 2 \u00c9TAGE", "city": "MONTR\u00c9AL", "province": "QC", "country": "CA", "postalCode": "H3E3B3", "twitter": "None", "instagram": "None", "facebook": "None", "youtube": "None", "website": "None", "summary": "None", "logo": "None", "latitude": 45.47204700000006, "longitude": -73.54135249999993}, "851624965RR0001": {"name": "OPERA BELCANTO OF SOUTH SIMCOE INC.", "designationCode": "C", "categoryCode": "22", "address": "P.O. BOX 365", "city": "BRADFORD", "province": "ON", "country": "CA", "postalCode": "L3Z2A9", "twitter": "None", "instagram": "None", "facebook": "None", "youtube": "None", "website": "None", "summary": "None", "logo": "None", "latitude": 44.11482000000005, "longitude": -79.56249199999993}, "118929108RR0001": {"name": "OPERA CANADA PUBLICATIONS", "designationCode": "C", "categoryCode": "22", "address": "244-366 ADELAIDE ST EAST", "city": "TORONTO", "province": "ON", "country": "CA", "postalCode": "M5A3X9", "twitter": "None", "instagram": "None", "facebook": "None", "youtube": "None", "website": "None", "summary": "None", "logo": "None", "latitude": 43.652393126320256, "longitude": -79.36739551201032}, "104004577RR0001": {"name": "OPERA DE QUEBEC INC.", "designationCode": "C", "categoryCode": "22", "address": "1220 AVENUE TACHE", "city": "QUEBEC", "province": "QC", "country": "CA", "postalCode": "G1R3B4", "twitter": "None", "instagram": "None", "facebook": "None", "youtube": "None", "website": "None", "summary": "None", "logo": "None", "latitude": 46.80406636635126, "longitude": -71.21949317112917}, "119068864RR0001": {"name": "OPERA IN CONCERT", "designationCode": "C", "categoryCode": "22", "address": "947 QUEEN STREET EAST         2ND FLOOR", "city": "TORONTO", "province": "ON", "country": "CA", "postalCode": "M4M1J9", "twitter": "None", "instagram": "None", "facebook": "None", "youtube": "None", "website": "None", "summary": "None", "logo": "None", "latitude": 43.66114180209485, "longitude": -79.33958678919734}, "867819526RR0001": {"name": "OPERA NOVA SCOTIA SOCIETY", "designationCode": "C", "categoryCode": "22", "address": "6199 CHEBUCTO ROAD", "city": "HALIFAX", "province": "NS", "country": "CA", "postalCode": "B3L1K7", "twitter": "None", "instagram": "None", "facebook": "None", "youtube": "None", "website": "None", "summary": "None", "logo": "None", "latitude": 44.64993414351647, "longitude": -63.59753741799863}, "885634568RR0001": {"name": "OPERA YORK", "designationCode": "C", "categoryCode": "22", "address": "PO BOX 937                    1 PROMENADE CIRCLE", "city": "THORNHILL", "province": "ON", "country": "CA", "postalCode": "L4J8G7", "twitter": "None", "instagram": "None", "facebook": "None", "youtube": "None", "website": "None", "summary": "None", "logo": "None", "latitude": 43.80919830898373, "longitude": -79.4530287868}, "863513909RR0001": {"name": "OPERA-THEATRE DE RIMOUSKI INC.", "designationCode": "C", "categoryCode": "22", "address": "CASIER POSTAL 1521            SUCCURSALE 1", "city": "RIMOUSKI", "province": "QC", "country": "CA", "postalCode": "G5L8M4", "twitter": "None", "instagram": "None", "facebook": "None", "youtube": "None", "website": "None", "summary": "None", "logo": "None", "latitude": 48.44933700000006, "longitude": -68.52474349999993}, "892470964RR0001": {"name": "OPERATION AMIGO BUILDING SOCIETY", "designationCode": "C", "categoryCode": "09", "address": "PO BOX 9063", "city": "SYLVAN LAKE", "province": "AB", "country": "CA", "postalCode": "T4S1S6", "twitter": "None", "instagram": "None", "facebook": "None", "youtube": "None", "website": "None", "summary": "None", "logo": "None", "latitude": 52.31122800000006, "longitude": -114.09405199999993}, "107801656RR0001": {"name": "OPERATION CATCH-UP", "designationCode": "C", "categoryCode": "20", "address": "1030 SHEPPARD AVENUE WEST     UNIT 3", "city": "NORTH YORK", "province": "ON", "country": "CA", "postalCode": "M3H6C1", "twitter": "None", "instagram": "None", "facebook": "None", "youtube": "None", "website": "None", "summary": "None", "logo": "None", "latitude": 43.750834165156576, "longitude": -79.46071712268444}, "889781670RR0001": {"name": "OPERATION CHRISTMAS TREE", "designationCode": "C", "categoryCode": "09", "address": "196 PADDOCK GREEN CIR         RR 1", "city": "CORUNNA", "province": "ON", "country": "CA", "postalCode": "N0N1G0", "twitter": "None", "instagram": "None", "facebook": "None", "youtube": "None", "website": "None", "summary": "None", "logo": "None", "latitude": 42.876583252371724, "longitude": -82.4514395335361}, "892630567RR0001": {"name": "OPERATION CHRISTMAS TREE INC.", "designationCode": "C", "categoryCode": "09", "address": "UNITS B.C.D.                  2041 MCCOWAN ROAD", "city": "SCARBOROUGH", "province": "ON", "country": "CA", "postalCode": "M1S3Y6", "twitter": "None", "instagram": "None", "facebook": "None", "youtube": "None", "website": "None", "summary": "None", "logo": "None", "latitude": 43.7954426081135, "longitude": -79.26114839754197}, "855472346RR0001": {"name": "OPERATION DAWN CANADA", "designationCode": "C", "categoryCode": "49", "address": "4630 HIGHWAY 7E               P.O. BOX 64597", "city": "MARKHAM", "province": "ON", "country": "CA", "postalCode": "L3R0M9", "twitter": "None", "instagram": "None", "facebook": "None", "youtube": "None", "website": "None", "summary": "None", "logo": "None", "latitude": 43.86237055808916, "longitude": -79.30546312385408}, "127186690RR0001": {"name": "OPERATION ENFANT SOLEIL", "designationCode": "A", "categoryCode": "13", "address": "200-2160 RUE CYRILLE DUQUET", "city": "SAINTE-FOY", "province": "QC", "country": "CA", "postalCode": "G1N2G3", "twitter": "None", "instagram": "None", "facebook": "None", "youtube": "None", "website": "None", "summary": "None", "logo": "None", "latitude": 46.79539543219423, "longitude": -71.27838496018228}, "848917720RR0001": {"name": "OPERATION EXODUS CANADA", "designationCode": "C", "categoryCode": "49", "address": "STE 456  7184 120TH STREET", "city": "SURREY", "province": "BC", "country": "CA", "postalCode": "V3W0M6", "twitter": "None", "instagram": "None", "facebook": "None", "youtube": "None", "website": "None", "summary": "None", "logo": "None", "latitude": 49.13348400000001, "longitude": -122.89025901604283}, "119068989RR0001": {"name": "OPERATION FRIENDSHIP SENIORS SOCIETY", "designationCode": "C", "categoryCode": "09", "address": "9526 106 AVE", "city": "EDMONTON", "province": "AB", "country": "CA", "postalCode": "T5H0N2", "twitter": "None", "instagram": "None", "facebook": "None", "youtube": "None", "website": "None", "summary": "None", "logo": "None", "latitude": 53.55115632558125, "longitude": -113.4833465841075}, "810617894RR0001": {"name": "OPERATION HARVEST SHARING", "designationCode": "C", "categoryCode": "01", "address": "PO BOX 522", "city": "BROCKVILLE", "province": "ON", "country": "CA", "postalCode": "K6V5V7", "twitter": "None", "instagram": "None", "facebook": "None", "youtube": "None", "website": "None", "summary": "None", "logo": "None", "latitude": 44.59037100000006, "longitude": -75.68301049999994}, "876519224RR0001": {"name": "OPERATION HOPE", "designationCode": "C", "categoryCode": "47", "address": "88 BOYNES RD.", "city": "KAMINISTIQUIA", "province": "ON", "country": "CA", "postalCode": "P0T1X0", "twitter": "None", "instagram": "None", "facebook": "None", "youtube": "None", "website": "None", "summary": "None", "logo": "None", "latitude": 48.55663594670785, "longitude": -89.44666959126634}, "898023148RR0001": {"name": "OPERATION KICKSTART SOCIETY OF ALBERTA", "designationCode": "B", "categoryCode": "59", "address": "#600 - 5920 MACLEOD TRAIL S.W.", "city": "CALGARY", "province": "AB", "country": "CA", "postalCode": "T2H0K2", "twitter": "None", "instagram": "None", "facebook": "None", "youtube": "None", "website": "None", "summary": "None", "logo": "None", "latitude": 51.000507, "longitude": -114.0714373168683}, "119069029RR0001": {"name": "OPERATION LIFT", "designationCode": "C", "categoryCode": "09", "address": "PO BOX 452", "city": "BRANTFORD", "province": "ON", "country": "CA", "postalCode": "N3T5N9", "twitter": "None", "instagram": "None", "facebook": "None", "youtube": "None", "website": "None", "summary": "None", "logo": "None", "latitude": 43.14136200000006, "longitude": -80.26173349999993}, "889846887RR0001": {"name": "OPERATION MIGRATION INC.", "designationCode": "C", "categoryCode": "54", "address": "6A HIGH ST.", "city": "PORT PERRY", "province": "ON", "country": "CA", "postalCode": "L9L1H8", "twitter": "None", "instagram": "None", "facebook": "None", "youtube": "None", "website": "None", "summary": "None", "logo": "None", "latitude": 44.10004524822486, "longitude": -78.94304073149831}, "107801755RR0001": {"name": "OPERATION MOBILIZATION CANADA", "designationCode": "C", "categoryCode": "47", "address": "84 WEST STREET", "city": "PORT COLBORNE", "province": "ON", "country": "CA", "postalCode": "L3K4C8", "twitter": "None", "instagram": "None", "facebook": "None", "youtube": "None", "website": "None", "summary": "None", "logo": "None", "latitude": 42.881749376074794, "longitude": -79.24965732558127}, "128847852RR0001": {"name": "OPERATION PLACEMENT JEUNESSE INC", "designationCode": "C", "categoryCode": "59", "address": "260 RUE SAINTE-CATHERINE E", "city": "MONTREAL", "province": "QC", "country": "CA", "postalCode": "H2X1L4", "twitter": "None", "instagram": "None", "facebook": "None", "youtube": "None", "website": "None", "summary": "None", "logo": "None", "latitude": 45.51232351289752, "longitude": -73.5616085570144}, "866060189RR0001": {"name": "OPERATION RAINBOW CANADA", "designationCode": "C", "categoryCode": "11", "address": "SUITE 400-601 WEST BROADWAY", "city": "VANCOUVER", "province": "BC", "country": "CA", "postalCode": "V5Z4C2", "twitter": "None", "instagram": "None", "facebook": "None", "youtube": "None", "website": "None", "summary": "None", "logo": "None", "latitude": 49.26336053134589, "longitude": -123.11772074999999}, "894412584RR0001": {"name": "OPERATION SHARING OF WOODSTOCK", "designationCode": "C", "categoryCode": "59", "address": "PO BOX 20081                  WOODSTOCK RPO", "city": "WOODSTOCK", "province": "ON", "country": "CA", "postalCode": "N4S8X8", "twitter": "None", "instagram": "None", "facebook": "None", "youtube": "None", "website": "None", "summary": "None", "logo": "None", "latitude": 43.13010300000006, "longitude": -80.75657149999994}, "119069094RR0001": {"name": "OPERATION SPRINGBOARD", "designationCode": "C", "categoryCode": "59", "address": "2 CARLTON ST                  STE#  800", "city": "TORONTO", "province": "ON", "country": "CA", "postalCode": "M5B1J3", "twitter": "None", "instagram": "None", "facebook": "None", "youtube": "None", "website": "None", "summary": "None", "logo": "None", "latitude": 43.66141244936224, "longitude": -79.38286545198797}, "876563966RR0001": {"name": "OPERATION STREET CAT", "designationCode": "C", "categoryCode": "54", "address": "10015 MOSSMAN ROAD", "city": "PRINCE GEORGE", "province": "BC", "country": "CA", "postalCode": "V2N5B3", "twitter": "None", "instagram": "None", "facebook": "None", "youtube": "None", "website": "None", "summary": "None", "logo": "None", "latitude": 53.836360574794206, "longitude": -122.9463887406821}, "882005317RR0001": {"name": "OPERATION TEMPORARY EMERGENCY SHELTER", "designationCode": "C", "categoryCode": "01", "address": "42 PINERIDGE DRIVE", "city": "MCDOUGALL", "province": "ON", "country": "CA", "postalCode": "P2A2W9", "twitter": "None", "instagram": "None", "facebook": "None", "youtube": "None", "website": "None", "summary": "None", "logo": "None", "latitude": 45.407144848202314, "longitude": -80.05682026201734}, "891460248RR0001": {"name": "OPERATION TRACKSHOES SOCIETY", "designationCode": "C", "categoryCode": "09", "address": "3100 FOUL BAY RD", "city": "VICTORIA", "province": "BC", "country": "CA", "postalCode": "V8P5J2", "twitter": "None", "instagram": "None", "facebook": "None", "youtube": "None", "website": "None", "summary": "None", "logo": "None", "latitude": 48.44651713266779, "longitude": -123.32185395865308}, "858639735RR0001": {"name": "OPERATION VICTORY MINISTRIES", "designationCode": "C", "categoryCode": "09", "address": "P.O. BOX 704                  DON MILLS STATION", "city": "DON MILLS", "province": "ON", "country": "CA", "postalCode": "M3C2T6", "twitter": "None", "instagram": "None", "facebook": "None", "youtube": "None", "website": "None", "summary": "None", "logo": "None", "latitude": 43.708179055694835, "longitude": -79.33384518793717}, "892592155RR0001": {"name": "OPPORTUNITIES FOR INDEPENDENCE, INC", "designationCode": "C", "categoryCode": "59", "address": "1070 PORTAGE AVE", "city": "WINNIPEG", "province": "MB", "country": "CA", "postalCode": "R3G0S3", "twitter": "None", "instagram": "None", "facebook": "None", "youtube": "None", "website": "None", "summary": "None", "logo": "None", "latitude": 49.88411163056165, "longitude": -97.17823891742171}, "891583874RR0001": {"name": "OPPORTUNITIES FOR LATIN AMERICAN CHILDREN", "designationCode": "C", "categoryCode": "09", "address": "SUITE 401 160 JOHN ST", "city": "TORONTO", "province": "ON", "country": "CA", "postalCode": "M5V2E5", "twitter": "None", "instagram": "None", "facebook": "None", "youtube": "None", "website": "None", "summary": "None", "logo": "None", "latitude": 43.64973071273591, "longitude": -79.39110621844871}, "869676569RR0001": {"name": "OPPORTUNITY ENTERPRISES", "designationCode": "C", "categoryCode": "59", "address": "4504 - 44 AVENUE", "city": "PONOKA", "province": "AB", "country": "CA", "postalCode": "T4J1C1", "twitter": "None", "instagram": "None", "facebook": "None", "youtube": "None", "website": "None", "summary": "None", "logo": "None", "latitude": 52.67194624176222, "longitude": -113.56909544281271}, "119069144RR0001": {"name": "OPPORTUNITY FOR ADVANCEMENT", "designationCode": "C", "categoryCode": "59", "address": "54, WOLSELEY ST., 2ND FLOOR", "city": "TORONTO", "province": "ON", "country": "CA", "postalCode": "M5T1A5", "twitter": "None", "instagram": "None", "facebook": "None", "youtube": "None", "website": "None", "summary": "None", "logo": "None", "latitude": 43.6483501906918, "longitude": -79.4027357334237}, "877516385RR0001": {"name": "OPPORTUNITY INTERNATIONAL CANADA", "designationCode": "C", "categoryCode": "09", "address": "145 LINCOLN RD", "city": "WATERLOO", "province": "ON", "country": "CA", "postalCode": "N2J2N8", "twitter": "None", "instagram": "None", "facebook": "None", "youtube": "None", "website": "None", "summary": "None", "logo": "None", "latitude": 43.472397700502235, "longitude": -80.51112907574029}, "844310151RR0001": {"name": "OPPORTUNITY INTERNATIONAL CANADA FOUNDATION/FONDATION OPPORTUNIT\u00c9 INTERNATIONALE CANADA", "designationCode": "A", "categoryCode": "03", "address": "145 LINCOLN RD", "city": "WATERLOO", "province": "ON", "country": "CA", "postalCode": "N2J2N8", "twitter": "None", "instagram": "None", "facebook": "None", "youtube": "None", "website": "None", "summary": "None", "logo": "None", "latitude": 43.472397700502235, "longitude": -80.51112907574029}, "893904912RR0001": {"name": "OPPORTUNITY WORKS CALGARY INCORPORATED", "designationCode": "C", "categoryCode": "59", "address": "#49-223-12 AVE SW", "city": "CALGARY", "province": "AB", "country": "CA", "postalCode": "T2R0G9", "twitter": "None", "instagram": "None", "facebook": "None", "youtube": "None", "website": "None", "summary": "None", "logo": "None", "latitude": 51.04175807151026, "longitude": -114.0760541969584}, "127201101RR0001": {"name": "OPTICA, centre d'art contemporain", "designationCode": "C", "categoryCode": "50", "address": "106 - 5445 AV DE GASPE", "city": "MONTREAL", "province": "QC", "country": "CA", "postalCode": "H2T3B2", "twitter": "None", "instagram": "None", "facebook": "None", "youtube": "None", "website": "None", "summary": "None", "logo": "None", "latitude": 45.52683526146908, "longitude": -73.59551934136431}, "892374844RR0001": {"name": "OPTIMIST CLUB OF KESWICK INC CHARITABLE TRUST,", "designationCode": "C", "categoryCode": "65", "address": "BOX 256", "city": "SUTTON", "province": "ON", "country": "CA", "postalCode": "L0E1R0", "twitter": "None", "instagram": "None", "facebook": "None", "youtube": "None", "website": "None", "summary": "None", "logo": "None", "latitude": 44.304850000000044, "longitude": -79.36126999999993}, "107572612RR0001": {"name": "OPTIMIST CLUB OF KITCHENER WATERLOO CHARITABLE TRUST", "designationCode": "C", "categoryCode": "56", "address": "550 KING ST. N.               P.O.BOX 42052", "city": "WATERLOO", "province": "ON", "country": "CA", "postalCode": "N2L6K2", "twitter": "None", "instagram": "None", "facebook": "None", "youtube": "None", "website": "None", "summary": "None", "logo": "None", "latitude": 43.49882157034358, "longitude": -80.53012173493501}, "138690474RR0001": {"name": "OPTIMIST CLUB OF THORNDALE-YOUTH", "designationCode": "C", "categoryCode": "59", "address": "145 WHARNCLIFFE RD S", "city": "LONDON", "province": "ON", "country": "CA", "postalCode": "N6J2K4", "twitter": "None", "instagram": "None", "facebook": "None", "youtube": "None", "website": "None", "summary": "None", "logo": "None", "latitude": 42.973000459893825, "longitude": -81.26207140608209}, "139658926RR0001": {"name": "OPTIMIST CLUBS FOUNDATION OF WINNIPEG INC", "designationCode": "C", "categoryCode": "63", "address": "32 SHAUNA WAY", "city": "WINNIPEG", "province": "MB", "country": "CA", "postalCode": "R3W1T1", "twitter": "None", "instagram": "None", "facebook": "None", "youtube": "None", "website": "None", "summary": "None", "logo": "None", "latitude": 49.924884532315886, "longitude": -97.04507450291419}, "107861445RR0001": {"name": "OPTION FEMMES EMPLOI", "designationCode": "C", "categoryCode": "09", "address": "365 GREBER SUITE 203", "city": "GATINEAU", "province": "QC", "country": "CA", "postalCode": "J8T5R3", "twitter": "None", "instagram": "None", "facebook": "None", "youtube": "None", "website": "None", "summary": "None", "logo": "None", "latitude": 45.479854078827366, "longitude": -75.70117229900777}, "855242368RR0001": {"name": "OPTION RIVE NORD", "designationCode": "C", "categoryCode": "09", "address": "560 RUE JUSTIN", "city": "LAVAL", "province": "QC", "country": "CA", "postalCode": "H7P5R2", "twitter": "None", "instagram": "None", "facebook": "None", "youtube": "None", "website": "None", "summary": "None", "logo": "None", "latitude": 45.570823263037205, "longitude": -73.8200666828207}, "128142585RR0001": {"name": "OPTIONS BYTOWN NON-PROFIT HOUSING CORPORATION", "designationCode": "C", "categoryCode": "01", "address": "380 CUMBERLAND ST", "city": "OTTAWA", "province": "ON", "country": "CA", "postalCode": "K1N9P3", "twitter": "None", "instagram": "None", "facebook": "None", "youtube": "None", "website": "None", "summary": "None", "logo": "None", "latitude": 45.429135098245766, "longitude": -75.68853002305372}, "811786227RR0001": {"name": "OPTIONS COMMUNITY SERVICES SOCIETY", "designationCode": "C", "categoryCode": "09", "address": "9815-140TH STREET", "city": "SURREY", "province": "BC", "country": "CA", "postalCode": "V3T4M4", "twitter": "None", "instagram": "None", "facebook": "None", "youtube": "None", "website": "None", "summary": "None", "logo": "None", "latitude": 49.18071779156327, "longitude": -122.83438281906038}, "107848269RR0001": {"name": "OPTIONS FOR SEXUAL HEALTH", "designationCode": "C", "categoryCode": "11", "address": "3550 EAST HASTINGS ST", "city": "VANCOUVER", "province": "BC", "country": "CA", "postalCode": "V5K2A7", "twitter": "None", "instagram": "None", "facebook": "None", "youtube": "None", "website": "None", "summary": "None", "logo": "None", "latitude": 49.28108251399405, "longitude": -123.02709300000001}, "138420567RR0001": {"name": "OPTIONS MISSISSAUGA PRINT AND OFFICE SERVICES", "designationCode": "C", "categoryCode": "59", "address": "113 LAKESHORE RD W", "city": "MISSISSAUGA", "province": "ON", "country": "CA", "postalCode": "L5H1E9", "twitter": "None", "instagram": "None", "facebook": "None", "youtube": "None", "website": "None", "summary": "None", "logo": "None", "latitude": 43.54974513514927, "longitude": -79.58771246416434}, "132891144RR0001": {"name": "OPTIONS NORTHWEST PERSONAL SUPPORT SERVICES", "designationCode": "C", "categoryCode": "11", "address": "95 CUMBERLAND STREET NORTH", "city": "THUNDER BAY", "province": "ON", "country": "CA", "postalCode": "P7A4M1", "twitter": "None", "instagram": "None", "facebook": "None", "youtube": "None", "website": "None", "summary": "None", "logo": "None", "latitude": 48.437854701627394, "longitude": -89.21616793669587}, "129777298RR0001": {"name": "OPTIONS PREGNANCY CENTER RESOURCES AND LIFESTYLE COACHING INC.", "designationCode": "C", "categoryCode": "09", "address": "715 VICTORIA AVE", "city": "REGINA", "province": "SK", "country": "CA", "postalCode": "S4N0R4", "twitter": "None", "instagram": "None", "facebook": "None", "youtube": "None", "website": "None", "summary": "None", "logo": "None", "latitude": 50.44709648845881, "longitude": -104.59125352553522}, "884458720RR0001": {"name": "OPUS 1 SINGERS", "designationCode": "C", "categoryCode": "22", "address": "3400 JOHNSTON ROAD", "city": "DUNCAN", "province": "BC", "country": "CA", "postalCode": "V9L5Z3", "twitter": "None", "instagram": "None", "facebook": "None", "youtube": "None", "website": "None", "summary": "None", "logo": "None", "latitude": 48.810405259534015, "longitude": -123.73915332515139}, "890511249RR0001": {"name": "OR CHADASH", "designationCode": "C", "categoryCode": "20", "address": "3500 DUFFERIN ST. SUITE 510", "city": "NORTH YORK", "province": "ON", "country": "CA", "postalCode": "M3K1N2", "twitter": "None", "instagram": "None", "facebook": "None", "youtube": "None", "website": "None", "summary": "None", "logo": "None", "latitude": 43.72938540605343, "longitude": -79.45893724144511}, "890316664RR0001": {"name": "OR CHAIM MINYAN", "designationCode": "C", "categoryCode": "20", "address": "159 ALMORE AVE", "city": "TORONTO", "province": "ON", "country": "CA", "postalCode": "M3H2H9", "twitter": "None", "instagram": "None", "facebook": "None", "youtube": "None", "website": "None", "summary": "None", "logo": "None", "latitude": 43.74582284537501, "longitude": -79.44847552663174}, "132281676RR0001": {"name": "OR SHALOM - JEWISH SPIRITUAL COMMUNITY ASSOCIATION", "designationCode": "C", "categoryCode": "39", "address": "710 EAST 10TH AVENUE", "city": "VANCOUVER", "province": "BC", "country": "CA", "postalCode": "V5T2A7", "twitter": "None", "instagram": "None", "facebook": "None", "youtube": "None", "website": "None", "summary": "None", "logo": "None", "latitude": 49.261489513994036, "longitude": -123.0889311931733}, "855809448RR0001": {"name": "ORA-ORGANIZATION FOR THE RESCUE OF ANIMALS", "designationCode": "C", "categoryCode": "54", "address": "18007 NINTH LINE", "city": "MOUNT ALBERT", "province": "ON", "country": "CA", "postalCode": "L0G1M0", "twitter": "None", "instagram": "None", "facebook": "None", "youtube": "None", "website": "None", "summary": "None", "logo": "None", "latitude": 44.11175760312184, "longitude": -79.28839813367831}}