{"890483399RR0001": {"name": "TRUST UNDER THE WILL OF MARGUERITE I. VERNON ESTATE", "designationCode": "B", "categoryCode": "25", "address": "1709 HOLLIS STREET, 5TH FLOOR P.O. BOX 457, HALIFAX CENTRAL", "city": "HALIFAX", "province": "NS", "country": "CA", "postalCode": "B3J2P8", "twitter": "None", "instagram": "None", "facebook": "None", "youtube": "None", "website": "None", "summary": "None", "logo": "None", "latitude": 44.647722827370295, "longitude": -63.57286089243476}, "119272318RR0001": {"name": "TRUST UNDER THE WILL OF MAY ETHELYN SHAW", "designationCode": "C", "categoryCode": "55", "address": "1402 - 1 KING ST W", "city": "HAMILTON", "province": "ON", "country": "CA", "postalCode": "L8P1A4", "twitter": "None", "instagram": "None", "facebook": "None", "youtube": "None", "website": "None", "summary": "None", "logo": "None", "latitude": 43.26019321073324, "longitude": -79.88135629363086}, "860502681RR0001": {"name": "TRUST UNDER THE WILL OF MILDRED BETHEL-TRUST COLCHESTER HOSPITAL AUXILIARY", "designationCode": "B", "categoryCode": "05", "address": "1709 HOLLIS STREET, 5TH FLOOR P.O. BOX 457, HALIFAX CENTRAL", "city": "HALIFAX", "province": "NS", "country": "CA", "postalCode": "B3J2P8", "twitter": "None", "instagram": "None", "facebook": "None", "youtube": "None", "website": "None", "summary": "None", "logo": "None", "latitude": 44.647722827370295, "longitude": -63.57286089243476}, "860505684RR0001": {"name": "TRUST UNDER THE WILL OF MILDRED BETHEL-TRUST FOR ROTARY CRIPPLED CHILDREN FUND", "designationCode": "B", "categoryCode": "05", "address": "1709 HOLLIS STREET 5TH FLOOR  PO BOX 457, HALIFAX CENTRAL", "city": "HALIFAX", "province": "NS", "country": "CA", "postalCode": "B3J2P8", "twitter": "None", "instagram": "None", "facebook": "None", "youtube": "None", "website": "None", "summary": "None", "logo": "None", "latitude": 44.647722827370295, "longitude": -63.57286089243476}, "860504083RR0001": {"name": "TRUST UNDER THE WILL OF MILDRED BETHEL-TRUST FOR ST. ANDREWS CHURCH", "designationCode": "B", "categoryCode": "05", "address": "1709 HOLLIS STREET, 5TH FLOOR P.O. BOX 457, HALIFAX CENTRAL", "city": "HALIFAX", "province": "NS", "country": "CA", "postalCode": "B3J2P8", "twitter": "None", "instagram": "None", "facebook": "None", "youtube": "None", "website": "None", "summary": "None", "logo": "None", "latitude": 44.647722827370295, "longitude": -63.57286089243476}, "887905305RR0001": {"name": "TRUST UNDER THE WILL OF NARCISSA FARRAND", "designationCode": "B", "categoryCode": "25", "address": "31 LYNCH DRIVE", "city": "KNOWLTON", "province": "QC", "country": "CA", "postalCode": "J0E1V0", "twitter": "None", "instagram": "None", "facebook": "None", "youtube": "None", "website": "None", "summary": "None", "logo": "None", "latitude": 45.2246444851406, "longitude": -72.51778361518264}, "132031097RR0001": {"name": "TRUST UNDER THE WILL OF NORMAN CHOATE FOR ST MARK'S ANGLICAN CHURCH, PORT HOPE", "designationCode": "B", "categoryCode": "45", "address": "130 KING STREET WEST 20TH FLOOBOX 430, STN FIRST CANADIAN PL", "city": "TORONTO", "province": "ON", "country": "CA", "postalCode": "M5X1K1", "twitter": "None", "instagram": "None", "facebook": "None", "youtube": "None", "website": "None", "summary": "None", "logo": "None", "latitude": 43.64826932503962, "longitude": -79.38190945606182}, "888781465RR0001": {"name": "TRUST UNDER THE WILL OF P REMSEN ONDERDONK", "designationCode": "B", "categoryCode": "25", "address": "1402 - 1 KING ST W", "city": "HAMILTON", "province": "ON", "country": "CA", "postalCode": "L8P1A4", "twitter": "None", "instagram": "None", "facebook": "None", "youtube": "None", "website": "None", "summary": "None", "logo": "None", "latitude": 43.26019321073324, "longitude": -79.88135629363086}, "892415043RR0001": {"name": "TRUST UNDER THE WILL OF RALPH WELLESLEY MCMURRAY WINTER", "designationCode": "B", "categoryCode": "45", "address": "101 - 109 PRINCESS ST", "city": "KINGSTON", "province": "ON", "country": "CA", "postalCode": "K7L1A8", "twitter": "None", "instagram": "None", "facebook": "None", "youtube": "None", "website": "None", "summary": "None", "logo": "None", "latitude": 44.23167532168612, "longitude": -76.48285601664843}, "876532904RR0001": {"name": "TRUST UNDER THE WILL OF REGINALD M. FRENCH", "designationCode": "B", "categoryCode": "45", "address": "155 WELLINGTON ST W 20TH FLOOR", "city": "TORONTO", "province": "ON", "country": "CA", "postalCode": "M5V3K7", "twitter": "None", "instagram": "None", "facebook": "None", "youtube": "None", "website": "None", "summary": "None", "logo": "None", "latitude": 43.64596585316531, "longitude": -79.38574575644876}, "856631734RR0001": {"name": "TRUST UNDER THE WILL OF ROBERT MALLEN", "designationCode": "B", "categoryCode": "05", "address": "418-650 WEST GEORGIA STREET   PO BOX 11602", "city": "VICTORIA", "province": "BC", "country": "CA", "postalCode": "V6B4N9", "twitter": "None", "instagram": "None", "facebook": "None", "youtube": "None", "website": "None", "summary": "None", "logo": "None", "latitude": 49.28012307167682, "longitude": -123.11442679241839}, "132148891RR0001": {"name": "TRUST UNDER THE WILL OF SABATINO CASTRILLI", "designationCode": "B", "categoryCode": "21", "address": "130 KING STREET WEST 20TH FL  BOX 430, STN FIRST CANADIAN PL", "city": "TORONTO", "province": "ON", "country": "CA", "postalCode": "M5X1K1", "twitter": "None", "instagram": "None", "facebook": "None", "youtube": "None", "website": "None", "summary": "None", "logo": "None", "latitude": 43.64826932503962, "longitude": -79.38190945606182}, "132031386RR0001": {"name": "TRUST UNDER THE WILL OF SIR JOSEPH FLAVELLE FOR ST LUKE'S UNITED CHURCH", "designationCode": "B", "categoryCode": "45", "address": "130 KING ST W 20TH FLR        BOX 430 STN FIRST CANADIAN PL", "city": "TORONTO", "province": "ON", "country": "CA", "postalCode": "M5X1K1", "twitter": "None", "instagram": "None", "facebook": "None", "youtube": "None", "website": "None", "summary": "None", "logo": "None", "latitude": 43.64826932503962, "longitude": -79.38190945606182}, "892855164RR0001": {"name": "TRUST UNDER THE WILL OF STEPHEN AYTON", "designationCode": "B", "categoryCode": "25", "address": "380 WELLINGTON ST,12TH FLOOR", "city": "LONDON", "province": "ON", "country": "CA", "postalCode": "N6A5B5", "twitter": "None", "instagram": "None", "facebook": "None", "youtube": "None", "website": "None", "summary": "None", "logo": "None", "latitude": 42.98403487844074, "longitude": -81.24475227780037}, "890178460RR0001": {"name": "TRUST UNDER THE WILL OF THE CHARLES AUCOIN ESTATE", "designationCode": "B", "categoryCode": "05", "address": "1709 HOLLIS STREET, 5TH FLOOR P.O. BOX 457, HALIFAX CENTRAL", "city": "HALIFAX", "province": "NS", "country": "CA", "postalCode": "B3J2P8", "twitter": "None", "instagram": "None", "facebook": "None", "youtube": "None", "website": "None", "summary": "None", "logo": "None", "latitude": 44.647722827370295, "longitude": -63.57286089243476}, "889237269RR0001": {"name": "TRUST UNDER THE WILL OF THE ESTATE OF VLADIMIR CHARLES PATTERSON", "designationCode": "B", "categoryCode": "45", "address": "1402 - 1 KING ST W", "city": "HAMILTON", "province": "ON", "country": "CA", "postalCode": "L8P1A4", "twitter": "None", "instagram": "None", "facebook": "None", "youtube": "None", "website": "None", "summary": "None", "logo": "None", "latitude": 43.26019321073324, "longitude": -79.88135629363086}, "891127342RR0001": {"name": "TRUST UNDER THE WILL OF THE ESTATE OF WILLIAM DOUGLAS", "designationCode": "B", "categoryCode": "15", "address": "(THE CANADA TRUST CO.)        PO BOX 10085", "city": "VANCOUVER", "province": "BC", "country": "CA", "postalCode": "V7Y1B6", "twitter": "None", "instagram": "None", "facebook": "None", "youtube": "None", "website": "None", "summary": "None", "logo": "None", "latitude": 49.28294993392596, "longitude": -123.11892994113924}, "132371568RR0001": {"name": "TRUST UNDER THE WILL OF THE GERALD MAURICE BRAWLEY ESTATE", "designationCode": "B", "categoryCode": "05", "address": "130 KING STREET WEST 20TH FL  BOX 430, STN FIRST CANADIAN PL", "city": "TORONTO", "province": "ON", "country": "CA", "postalCode": "M5X1K1", "twitter": "None", "instagram": "None", "facebook": "None", "youtube": "None", "website": "None", "summary": "None", "logo": "None", "latitude": 43.64826932503962, "longitude": -79.38190945606182}, "890678345RR0001": {"name": "TRUST UNDER THE WILL OF THE HARRY CECIL MAYNARD ESTATE", "designationCode": "B", "categoryCode": "25", "address": "PO BOX 10085                  LCD PACIFIC CENTRE", "city": "VANCOUVER", "province": "BC", "country": "CA", "postalCode": "V7Y1B6", "twitter": "None", "instagram": "None", "facebook": "None", "youtube": "None", "website": "None", "summary": "None", "logo": "None", "latitude": 49.28299000000004, "longitude": -123.11890999999997}, "890479199RR0001": {"name": "TRUST UNDER THE WILL OF THE HUGH MACLEOD ESTATE", "designationCode": "B", "categoryCode": "45", "address": "1709 HOLLIS STREET            PO BOX 457", "city": "HALIFAX", "province": "NS", "country": "CA", "postalCode": "B3J2P8", "twitter": "None", "instagram": "None", "facebook": "None", "youtube": "None", "website": "None", "summary": "None", "logo": "None", "latitude": 44.647722827370295, "longitude": -63.57286089243476}, "132031444RR0001": {"name": "TRUST UNDER THE WILL OF THE PHILIP AND BERTHE MORTON FOUNDATION", "designationCode": "B", "categoryCode": "15", "address": "130 KING STREET W 20TH FLOOR  BOX 430 STN FIRST CANADIAN PL", "city": "TORONTO", "province": "ON", "country": "CA", "postalCode": "M5X1K1", "twitter": "None", "instagram": "None", "facebook": "None", "youtube": "None", "website": "None", "summary": "None", "logo": "None", "latitude": 43.64826932503962, "longitude": -79.38190945606182}, "890215999RR0001": {"name": "TRUST UNDER THE WILL OF THE THOMAS FOSTER-PICNIC ESTATE", "designationCode": "B", "categoryCode": "01", "address": "THE CANADA TRUST CO           PO BOX 10085", "city": "VANCOUVER", "province": "BC", "country": "CA", "postalCode": "V7Y1B6", "twitter": "None", "instagram": "None", "facebook": "None", "youtube": "None", "website": "None", "summary": "None", "logo": "None", "latitude": 49.28294993392596, "longitude": -123.11892994113924}, "890231996RR0001": {"name": "TRUST UNDER THE WILL OF THE THOMAS FOSTER-TREES ESTATE", "designationCode": "B", "categoryCode": "03", "address": "THE CANADA TRUST CO.          PO BOX 10085", "city": "VANCOUVER", "province": "BC", "country": "CA", "postalCode": "V7Y1B6", "twitter": "None", "instagram": "None", "facebook": "None", "youtube": "None", "website": "None", "summary": "None", "logo": "None", "latitude": 49.28294993392596, "longitude": -123.11892994113924}, "893253567RR0001": {"name": "TRUST UNDER THE WILL OF THE WILLIAM C. MOORE ESTATE", "designationCode": "B", "categoryCode": "45", "address": "130 KING ST WEST 20TH FLOOR   BOX 430 STN 1ST CANADIAN PL", "city": "TORONTO", "province": "ON", "country": "CA", "postalCode": "M5X1K1", "twitter": "None", "instagram": "None", "facebook": "None", "youtube": "None", "website": "None", "summary": "None", "logo": "None", "latitude": 43.64868300000006, "longitude": -79.38544399999994}, "893279323RR0001": {"name": "TRUST UNDER THE WILL OF THOMAS KENT", "designationCode": "B", "categoryCode": "45", "address": "NEW ST. JAMES PRESBYTERIAN    CHURCH, 280 OXFORD ST. EAST", "city": "LONDON", "province": "ON", "country": "CA", "postalCode": "N6A1V4", "twitter": "None", "instagram": "None", "facebook": "None", "youtube": "None", "website": "None", "summary": "None", "logo": "None", "latitude": 42.99630588874117, "longitude": -81.25057065364402}, "892957366RR0001": {"name": "TRUST UNDER THE WILL OF THOMAS LYALL HAY", "designationCode": "B", "categoryCode": "03", "address": "130 KING STREET W, 20TH FLOOR", "city": "TORONTO", "province": "ON", "country": "CA", "postalCode": "M5X1K1", "twitter": "None", "instagram": "None", "facebook": "None", "youtube": "None", "website": "None", "summary": "None", "logo": "None", "latitude": 43.64798216515656, "longitude": -79.38336717805407}, "139270524RR0001": {"name": "TRUST UNDER THE WILL OF VICTORIA CLEGHORN", "designationCode": "B", "categoryCode": "05", "address": "275 DUNDAS STREET             11TH FLOOR", "city": "LONDON", "province": "ON", "country": "CA", "postalCode": "N6A4S4", "twitter": "None", "instagram": "None", "facebook": "None", "youtube": "None", "website": "None", "summary": "None", "logo": "None", "latitude": 42.984842766321094, "longitude": -81.24530763317185}, "868480625RR0001": {"name": "TRUST UNDER THE WILL OF VIOLA MARIE BISHOP", "designationCode": "B", "categoryCode": "45", "address": "380 WELLINGTON ST, 12TH FLOOR", "city": "LONDON", "province": "ON", "country": "CA", "postalCode": "N6A5B5", "twitter": "None", "instagram": "None", "facebook": "None", "youtube": "None", "website": "None", "summary": "None", "logo": "None", "latitude": 42.98403487844074, "longitude": -81.24475227780037}, "862212719RR0001": {"name": "TRUST UNDER THE WILL OF W. EVAN MCIVER", "designationCode": "B", "categoryCode": "05", "address": "1 PLACE VILLE MARIE           5TH FLOOR SOUTH WING", "city": "MONTREAL", "province": "QC", "country": "CA", "postalCode": "H3B1Z3", "twitter": "None", "instagram": "None", "facebook": "None", "youtube": "None", "website": "None", "summary": "None", "logo": "None", "latitude": 45.50188724476333, "longitude": -73.56787382018557}, "890584642RR0001": {"name": "TRUST UNDER THE WILL OF WILFRED G CROZIER ESTATE", "designationCode": "B", "categoryCode": "45", "address": "130 KING STREET WEST, 20TH FL BOX 430, STN FIRST CANADIAN PL", "city": "TORONTO", "province": "ON", "country": "CA", "postalCode": "M5X1K1", "twitter": "None", "instagram": "None", "facebook": "None", "youtube": "None", "website": "None", "summary": "None", "logo": "None", "latitude": 43.64826932503962, "longitude": -79.38190945606182}, "889028593RR0001": {"name": "TRUST UNDER THE WILL OF WILLIAM CHARLES MICHELL ESTATE", "designationCode": "B", "categoryCode": "25", "address": "130 KING STREET W  20TH FLOOR BOX 430 STN FIRST CANADIAN PL", "city": "TORONTO", "province": "ON", "country": "CA", "postalCode": "M5X1K1", "twitter": "None", "instagram": "None", "facebook": "None", "youtube": "None", "website": "None", "summary": "None", "logo": "None", "latitude": 43.64826932503962, "longitude": -79.38190945606182}, "867607434RR0001": {"name": "TRUST UNDER THE WILL OF WILLIAM ROPER HULL ESTATE - DIOCESE OF CALGARY \"B\" TRUST", "designationCode": "B", "categoryCode": "45", "address": "335 8TH AVENUE SW             SUITE 700", "city": "CALGARY", "province": "AB", "country": "CA", "postalCode": "T2P1C9", "twitter": "None", "instagram": "None", "facebook": "None", "youtube": "None", "website": "None", "summary": "None", "logo": "None", "latitude": 51.04571655785112, "longitude": -114.0700624730798}, "119272359RR0001": {"name": "TRUST UNDER THE WILL OF WILLIAM ROPER HULL ESTATE - THE WILLIAM ROPER HULL HOME TRUST", "designationCode": "B", "categoryCode": "05", "address": "335 8TH AVENUE SW             SUITE 700", "city": "CALGARY", "province": "AB", "country": "CA", "postalCode": "T2P1C9", "twitter": "None", "instagram": "None", "facebook": "None", "youtube": "None", "website": "None", "summary": "None", "logo": "None", "latitude": 51.04571655785112, "longitude": -114.0700624730798}, "132031592RR0001": {"name": "TRUST UNDER THE WILL OF WILLIAM S SCARF ESTATE", "designationCode": "B", "categoryCode": "25", "address": "130 KING STREET W  20TH FLOOR BOX 430 STN FIRST CANADIAN PL", "city": "TORONTO", "province": "ON", "country": "CA", "postalCode": "M5X1K1", "twitter": "None", "instagram": "None", "facebook": "None", "youtube": "None", "website": "None", "summary": "None", "logo": "None", "latitude": 43.64826932503962, "longitude": -79.38190945606182}, "891178378RR0001": {"name": "TRUST UNDER THE WILL RICHARD HOWEY ESTATE", "designationCode": "B", "categoryCode": "25", "address": "1402 - 1 KING ST W", "city": "HAMILTON", "province": "ON", "country": "CA", "postalCode": "L8P1A4", "twitter": "None", "instagram": "None", "facebook": "None", "youtube": "None", "website": "None", "summary": "None", "logo": "None", "latitude": 43.26019321073324, "longitude": -79.88135629363086}, "119272383RR0001": {"name": "TRUST UNDER WILL OF A ROSS FOR DALHOUSIE UNIVERSITY LIBRARY", "designationCode": "B", "categoryCode": "25", "address": "PO BOX 10085", "city": "VANCOUVER", "province": "BC", "country": "CA", "postalCode": "V7Y1B6", "twitter": "None", "instagram": "None", "facebook": "None", "youtube": "None", "website": "None", "summary": "None", "logo": "None", "latitude": 49.26037200000006, "longitude": -123.11336149999994}, "889026597RR0001": {"name": "TRUST UNDER WILL OF ANNE C M STARR FOR THE UNIVERSITY OF VICTORIA", "designationCode": "B", "categoryCode": "25", "address": "130 KING ST W., 20TH FLOOR    BOX 430 STN FIRST CANADIAN PL", "city": "TORONTO", "province": "ON", "country": "CA", "postalCode": "M5X1K1", "twitter": "None", "instagram": "None", "facebook": "None", "youtube": "None", "website": "None", "summary": "None", "logo": "None", "latitude": 43.64826932503962, "longitude": -79.38190945606182}, "134022458RR0001": {"name": "TRUST UNDER WILL OF BARBARA CODY", "designationCode": "B", "categoryCode": "45", "address": "130 KING STREET WEST, 20TH FL BOX 430, STN FIRST CANADIAN PL", "city": "TORONTO", "province": "ON", "country": "CA", "postalCode": "M5X1K1", "twitter": "None", "instagram": "None", "facebook": "None", "youtube": "None", "website": "None", "summary": "None", "logo": "None", "latitude": 43.64826932503962, "longitude": -79.38190945606182}, "132825043RR0001": {"name": "TRUST UNDER WILL OF DR HENRY J CODY", "designationCode": "B", "categoryCode": "45", "address": "130 KING STREET WEST 20TH FLOOBOX 430, STN FIRST CANADIAN PL", "city": "TORONTO", "province": "ON", "country": "CA", "postalCode": "M5X1K1", "twitter": "None", "instagram": "None", "facebook": "None", "youtube": "None", "website": "None", "summary": "None", "logo": "None", "latitude": 43.64826932503962, "longitude": -79.38190945606182}, "889293999RR0001": {"name": "TRUST UNDER WILL OF E R LYNN", "designationCode": "B", "categoryCode": "05", "address": "380 WELLINGTON STREET         12TH FLOOR", "city": "LONDON", "province": "ON", "country": "CA", "postalCode": "N6A5B5", "twitter": "None", "instagram": "None", "facebook": "None", "youtube": "None", "website": "None", "summary": "None", "logo": "None", "latitude": 42.98403487844074, "longitude": -81.24475227780037}, "119272433RR0001": {"name": "TRUST UNDER WILL OF F B MCCURDY EST DALHOUSIE UNIVERSITY & ST DAVIDS", "designationCode": "B", "categoryCode": "25", "address": "PO BOX 10085                  LCD PACIFIC CENTRE", "city": "VANCOUVER", "province": "BC", "country": "CA", "postalCode": "V7Y1B6", "twitter": "None", "instagram": "None", "facebook": "None", "youtube": "None", "website": "None", "summary": "None", "logo": "None", "latitude": 49.28299000000004, "longitude": -123.11890999999997}, "130973589RR0001": {"name": "TRUST UNDER WILL OF F C MANNING", "designationCode": "B", "categoryCode": "05", "address": "PO BOX 10085", "city": "VANCOUVER", "province": "BC", "country": "CA", "postalCode": "V7Y1B6", "twitter": "None", "instagram": "None", "facebook": "None", "youtube": "None", "website": "None", "summary": "None", "logo": "None", "latitude": 49.26037200000006, "longitude": -123.11336149999994}, "889306197RR0001": {"name": "TRUST UNDER WILL OF GEORGE E WILKINSON - THE WILKINSON STUDENT NURSES BURSARY FUND", "designationCode": "B", "categoryCode": "25", "address": "POST OFFICE BOX 3000", "city": "SUMMERSIDE", "province": "PE", "country": "CA", "postalCode": "C1N2A9", "twitter": "None", "instagram": "None", "facebook": "None", "youtube": "None", "website": "None", "summary": "None", "logo": "None", "latitude": 46.39407900000006, "longitude": -63.791980999999936}, "133245126RR0001": {"name": "TRUST UNDER WILL OF GEORGE J COMRIE", "designationCode": "B", "categoryCode": "05", "address": "110 YONGE STREET, 12TH FL", "city": "TORONTO", "province": "ON", "country": "CA", "postalCode": "M5C1T4", "twitter": "None", "instagram": "None", "facebook": "None", "youtube": "None", "website": "None", "summary": "None", "logo": "None", "latitude": 43.650145351924564, "longitude": -79.37834446367339}, "132891136RR0001": {"name": "TRUST UNDER WILL OF GEORGE WILKINSON - WILKINSON MEMORIAL HOSPITAL FUND TRUST", "designationCode": "B", "categoryCode": "25", "address": "POST OFFICE BOX 3000", "city": "SUMMERSIDE", "province": "PE", "country": "CA", "postalCode": "C1N2A9", "twitter": "None", "instagram": "None", "facebook": "None", "youtube": "None", "website": "None", "summary": "None", "logo": "None", "latitude": 46.39407900000006, "longitude": -63.791980999999936}, "132985631RR0001": {"name": "TRUST UNDER WILL OF GERTRUDE DAWE", "designationCode": "B", "categoryCode": "15", "address": "PO BOX 10085                  LCD PACIFIC CENTRE", "city": "VANCOUVER", "province": "BC", "country": "CA", "postalCode": "V7Y1B6", "twitter": "None", "instagram": "None", "facebook": "None", "youtube": "None", "website": "None", "summary": "None", "logo": "None", "latitude": 49.28299000000004, "longitude": -123.11890999999997}, "119272466RR0001": {"name": "TRUST UNDER WILL OF HARRIET S KANE", "designationCode": "B", "categoryCode": "25", "address": "1002 SHERBROOKE ST. WEST      5TH FLOOR", "city": "MONTREAL", "province": "QC", "country": "CA", "postalCode": "H3A3L6", "twitter": "None", "instagram": "None", "facebook": "None", "youtube": "None", "website": "None", "summary": "None", "logo": "None"}, "890635048RR0001": {"name": "TRUST UNDER WILL OF HELEN HUGEL", "designationCode": "B", "categoryCode": "15", "address": "ONE HOSPITAL DRIVE", "city": "PETERBOROUGH", "province": "ON", "country": "CA", "postalCode": "K9J7C6", "twitter": "None", "instagram": "None", "facebook": "None", "youtube": "None", "website": "None", "summary": "None", "logo": "None", "latitude": 44.301085724711385, "longitude": -78.34682142517353}, "892264441RR0001": {"name": "TRUST UNDER WILL OF JA MCPHAIL", "designationCode": "B", "categoryCode": "05", "address": "THE CANADA TRUST CO.          PO BOX 10085", "city": "VANCOUVER", "province": "BC", "country": "CA", "postalCode": "V7Y1B6", "twitter": "None", "instagram": "None", "facebook": "None", "youtube": "None", "website": "None", "summary": "None", "logo": "None", "latitude": 49.28294993392596, "longitude": -123.11892994113924}, "135731693RR0001": {"name": "TRUST UNDER WILL OF JACOB FREEDMAN CHARITABLE FOUNDATION", "designationCode": "B", "categoryCode": "15", "address": "380 WELLINGTON ST, 12TH FLOOR", "city": "LONDON", "province": "ON", "country": "CA", "postalCode": "N6A5B5", "twitter": "None", "instagram": "None", "facebook": "None", "youtube": "None", "website": "None", "summary": "None", "logo": "None", "latitude": 42.98403487844074, "longitude": -81.24475227780037}, "893192179RR0001": {"name": "TRUST UNDER WILL OF LAUREL CURRIE TURNBULL", "designationCode": "B", "categoryCode": "05", "address": "155 WELLINGTON ST WEST        20TH FLOOR", "city": "TORONTO", "province": "ON", "country": "CA", "postalCode": "M5V3K7", "twitter": "None", "instagram": "None", "facebook": "None", "youtube": "None", "website": "None", "summary": "None", "logo": "None", "latitude": 43.64596585316531, "longitude": -79.38574575644876}, "136957230RR0001": {"name": "TRUST UNDER WILL OF MARY C DALY R C EPISCOPAL CORPORATION OF HALIFAX", "designationCode": "B", "categoryCode": "45", "address": "(THE CANADA TRUST CO.)        PO BOX 10085", "city": "VANCOUVER", "province": "BC", "country": "CA", "postalCode": "V7Y1B6", "twitter": "None", "instagram": "None", "facebook": "None", "youtube": "None", "website": "None", "summary": "None", "logo": "None", "latitude": 49.28294993392596, "longitude": -123.11892994113924}, "890261373RR0001": {"name": "TRUST UNDER WILL OF MISS SARAH M ROBERT MONTREAL GENERAL HOSPITAL", "designationCode": "B", "categoryCode": "15", "address": "1002 SHERBROOKE ST. WEST      SUITE 540", "city": "MONTREAL", "province": "QC", "country": "CA", "postalCode": "H3A3L6", "twitter": "None", "instagram": "None", "facebook": "None", "youtube": "None", "website": "None", "summary": "None", "logo": "None", "latitude": 45.502789852876845, "longitude": -73.57558716772498}, "890026594RR0001": {"name": "TRUST UNDER WILL OF MISS SARAH M. ROBERT THE PRESBYTERIAN CHURCH IN CANADA", "designationCode": "B", "categoryCode": "45", "address": "1002 SHERBROOKE ST. WEST      SUITE 540", "city": "MONTREAL", "province": "QC", "country": "CA", "postalCode": "H3A3L6", "twitter": "None", "instagram": "None", "facebook": "None", "youtube": "None", "website": "None", "summary": "None", "logo": "None", "latitude": 45.502789852876845, "longitude": -73.57558716772498}, "890757792RR0001": {"name": "TRUST UNDER WILL OF REUBEN W LEONARD FOR QUEEN'S UNIVERSITY", "designationCode": "B", "categoryCode": "25", "address": "PO BOX 10085                  LCD PACIFIC CENTRE", "city": "VANCOUVER", "province": "BC", "country": "CA", "postalCode": "V7Y1B6", "twitter": "None", "instagram": "None", "facebook": "None", "youtube": "None", "website": "None", "summary": "None", "logo": "None", "latitude": 49.28299000000004, "longitude": -123.11890999999997}, "892334640RR0001": {"name": "TRUST UNDER WILL OF REUBEN W LEONARD FOR UNIVERSITY OF TORONTO", "designationCode": "B", "categoryCode": "25", "address": "PO BOX 10085                  LCD PACIFIC CENTRE", "city": "VANCOUVER", "province": "BC", "country": "CA", "postalCode": "V7Y1B6", "twitter": "None", "instagram": "None", "facebook": "None", "youtube": "None", "website": "None", "summary": "None", "logo": "None", "latitude": 49.28299000000004, "longitude": -123.11890999999997}, "888840246RR0001": {"name": "TRUST UNDER WILL OF ROBERT TEGLER", "designationCode": "B", "categoryCode": "25", "address": "200-9943 110 ST               TEGLER MANOR", "city": "EDMONTON", "province": "AB", "country": "CA", "postalCode": "T5K2N5", "twitter": "None", "instagram": "None", "facebook": "None", "youtube": "None", "website": "None", "summary": "None", "logo": "None", "latitude": 53.53848799417162, "longitude": -113.51021476738435}, "863510517RR0001": {"name": "TRUST UNDER WILL OF RUSSELL O. HUNTER ESTATE", "designationCode": "B", "categoryCode": "03", "address": "380 WELLINGTON STREET         12TH FLOOR", "city": "LONDON", "province": "ON", "country": "CA", "postalCode": "N6A5B5", "twitter": "None", "instagram": "None", "facebook": "None", "youtube": "None", "website": "None", "summary": "None", "logo": "None", "latitude": 42.98403487844074, "longitude": -81.24475227780037}, "139270722RR0001": {"name": "TRUST UNDER WILL OF SARAH BRINTON LEONARD", "designationCode": "B", "categoryCode": "45", "address": "PO BOX 10085                  LCD PACIFIC CENTRE", "city": "VANCOUVER", "province": "BC", "country": "CA", "postalCode": "V7Y1B6", "twitter": "None", "instagram": "None", "facebook": "None", "youtube": "None", "website": "None", "summary": "None", "logo": "None", "latitude": 49.28299000000004, "longitude": -123.11890999999997}, "705290294RR0001": {"name": "TRUST UNDER WILL OF SARAH M ROBERT INTER VIVOS DONATION PRESBYTERIAN CHURCH IN CANADA", "designationCode": "B", "categoryCode": "45", "address": "1002 SHERBROOKE OUEST         SUITE 540", "city": "MONTREAL", "province": "QC", "country": "CA", "postalCode": "H3A3L6", "twitter": "None", "instagram": "None", "facebook": "None", "youtube": "None", "website": "None", "summary": "None", "logo": "None", "latitude": 45.502789852876845, "longitude": -73.57558716772498}, "705292092RR0001": {"name": "TRUST UNDER WILL OF SARAH M ROBERT INTER VIVOS DONATION PRESBYTERIAN COLLEGE OF MONTREAL", "designationCode": "B", "categoryCode": "25", "address": "1002 SHERBROOKE OUEST         SUITE 540", "city": "MONTREAL", "province": "QC", "country": "CA", "postalCode": "H3A3L6", "twitter": "None", "instagram": "None", "facebook": "None", "youtube": "None", "website": "None", "summary": "None", "logo": "None", "latitude": 45.502789852876845, "longitude": -73.57558716772498}, "891687964RR0001": {"name": "TRUST UNDER WILL OF SARAH M. ROBERT INTER VIVOS DONATION MONTREAL GENERAL HOSPITAL", "designationCode": "B", "categoryCode": "15", "address": "1002 SHERBROOKE OUEST         SUITE 540", "city": "MONTREAL", "province": "QC", "country": "CA", "postalCode": "H3A3L6", "twitter": "None", "instagram": "None", "facebook": "None", "youtube": "None", "website": "None", "summary": "None", "logo": "None", "latitude": 45.502789852876845, "longitude": -73.57558716772498}, "131455362RR0001": {"name": "TRUST UNDER WILL OF THE LATE A MURRAY MACKAY FOR ST ANDREWS UNITED CHURCH OF HALIFAX AND Y M C A OF HALIFAX", "designationCode": "B", "categoryCode": "45", "address": "(THE CANADA TRUST CO.)        PO BOX 10085", "city": "VANCOUVER", "province": "BC", "country": "CA", "postalCode": "V7Y1B6", "twitter": "None", "instagram": "None", "facebook": "None", "youtube": "None", "website": "None", "summary": "None", "logo": "None", "latitude": 49.28294993392596, "longitude": -123.11892994113924}, "891819641RR0001": {"name": "TRUST UNDER WILL OF VERA DOLLY DENTY FOUNDATION", "designationCode": "B", "categoryCode": "03", "address": "PO BOX 10085                  LCD PACIFIC CENTRE", "city": "VANCOUVER", "province": "BC", "country": "CA", "postalCode": "V7Y1B6", "twitter": "None", "instagram": "None", "facebook": "None", "youtube": "None", "website": "None", "summary": "None", "logo": "None", "latitude": 49.28299000000004, "longitude": -123.11890999999997}, "119272573RR0001": {"name": "TRUST UNDER WILL OF WILLIAM H ROBERT", "designationCode": "B", "categoryCode": "15", "address": "1002 SHERBROOKE ST W          SUITE 540 , SCOTIA TRUST", "city": "MONTREAL", "province": "QC", "country": "CA", "postalCode": "H3A3L6", "twitter": "None", "instagram": "None", "facebook": "None", "youtube": "None", "website": "None", "summary": "None", "logo": "None", "latitude": 45.502789852876845, "longitude": -73.57558716772498}, "107020232RR0012": {"name": "TRUSTEE COMMITTEE, MINT BROOK CAMP AND CONFERENCE CENTRE", "designationCode": "C", "categoryCode": "56", "address": "34 FRASER ROAD", "city": "GANDER", "province": "NL", "country": "CA", "postalCode": "A1V2E8", "twitter": "None", "instagram": "None", "facebook": "None", "youtube": "None", "website": "None", "summary": "None", "logo": "None", "latitude": 48.957731558168234, "longitude": -54.61424627785769}, "898990445RR0001": {"name": "TRUSTEES ESTATE OF OWEN CONNOLLY", "designationCode": "C", "categoryCode": "21", "address": "18 JOHNSON AVE", "city": "CHARLOTTETOWN", "province": "PE", "country": "CA", "postalCode": "C1A3H9", "twitter": "None", "instagram": "None", "facebook": "None", "youtube": "None", "website": "None", "summary": "None", "logo": "None", "latitude": 46.23840529087078, "longitude": -63.1452333569162}, "889207577RR0001": {"name": "TRUSTEES LA SALLE MENNONITE CHRIST BURIAL SOCIETY A RELIGIOUS SOCIETY IN THE MUNICIPALITY OF MACDONALD IN THE PROVINCE OF MANITOBA", "designationCode": "C", "categoryCode": "59", "address": "640 ASH ST", "city": "WINNIPEG", "province": "MB", "country": "CA", "postalCode": "R3N0R4", "twitter": "None", "instagram": "None", "facebook": "None", "youtube": "None", "website": "None", "summary": "None", "logo": "None", "latitude": 49.86033984179699, "longitude": -97.1834919072655}, "106785546RR0001": {"name": "TRUSTEES OF BERGTHALER MENNONITE CHURCH, A RELIGIOUS SOCIETY, IN THE VILLAGE OF PLUM COULEE, IN THE PROVINCE OF MANITOBA", "designationCode": "C", "categoryCode": "34", "address": "BOX 14", "city": "PLUM COULEE", "province": "MB", "country": "CA", "postalCode": "R0G1R0", "twitter": "None", "instagram": "None", "facebook": "None", "youtube": "None", "website": "None", "summary": "None", "logo": "None", "latitude": 49.19050000000004, "longitude": -97.75855999999999}, "139645188RR0001": {"name": "TRUSTEES OF BROOKFIELD CEMETERY", "designationCode": "C", "categoryCode": "59", "address": "RR#2", "city": "NORTH WILTSHIRE", "province": "PE", "country": "CA", "postalCode": "C0A1Y0", "twitter": "None", "instagram": "None", "facebook": "None", "youtube": "None", "website": "None", "summary": "None", "logo": "None", "latitude": 46.30209000000008, "longitude": -63.33499999999998}, "106814692RR0001": {"name": "TRUSTEES OF BROWN'S FLAT UNITED BAPTIST CHURCH INC.", "designationCode": "C", "categoryCode": "31", "address": "1 BEULAH ROAD", "city": "BROWNS FLAT", "province": "NB", "country": "CA", "postalCode": "E5M2R3", "twitter": "None", "instagram": "None", "facebook": "None", "youtube": "None", "website": "None", "summary": "None", "logo": "None", "latitude": 45.47198569717558, "longitude": -66.13429971824442}, "119271989RR0001": {"name": "TRUSTEES OF BRUDENELL CEMETERY INCORPORATED", "designationCode": "C", "categoryCode": "59", "address": "PO BOX 1302, 12A BAILEY DR.", "city": "MONTAGUE", "province": "PE", "country": "CA", "postalCode": "C0A1R0", "twitter": "None", "instagram": "None", "facebook": "None", "youtube": "None", "website": "None", "summary": "None", "logo": "None", "latitude": 46.170124914830275, "longitude": -62.65964117436788}, "889290441RR0001": {"name": "TRUSTEES OF CHAVURAT TEFILA (FELLOWSHIP OF PRAYER SYNAGOGUE)", "designationCode": "C", "categoryCode": "42", "address": "459 HARTFORD AVE", "city": "WINNIPEG", "province": "MB", "country": "CA", "postalCode": "R2V0W9", "twitter": "None", "instagram": "None", "facebook": "None", "youtube": "None", "website": "None", "summary": "None", "logo": "None", "latitude": 49.94035158176402, "longitude": -97.13081547974255}, "890803778RR0001": {"name": "TRUSTEES OF COLLINGWOOD PUBLIC LIBRARY", "designationCode": "C", "categoryCode": "50", "address": "55 ST.MARIE STREET", "city": "COLLINGWOOD", "province": "ON", "country": "CA", "postalCode": "L9Y0W6", "twitter": "None", "instagram": "None", "facebook": "None", "youtube": "None", "website": "None", "summary": "None", "logo": "None", "latitude": 44.50192508270064, "longitude": -80.21556859562126}, "119272003RR0001": {"name": "TRUSTEES OF DIAMOND UNITED CEMETERY", "designationCode": "C", "categoryCode": "59", "address": "27 BUTTONWOOD TRAIL", "city": "STITTSVILLE", "province": "ON", "country": "CA", "postalCode": "K2S1C9", "twitter": "None", "instagram": "None", "facebook": "None", "youtube": "None", "website": "None", "summary": "None", "logo": "None", "latitude": 45.26575876824975, "longitude": -75.91493635273261}, "107434383RR0001": {"name": "TRUSTEES OF GLADSTONE CHRISTIAN FELLOWSHIP", "designationCode": "C", "categoryCode": "34", "address": "BOX 6", "city": "GLADSTONE", "province": "MB", "country": "CA", "postalCode": "R0J0T0", "twitter": "None", "instagram": "None", "facebook": "None", "youtube": "None", "website": "None", "summary": "None", "logo": "None", "latitude": 50.230188, "longitude": -98.95250474999999}, "107444184RR0001": {"name": "TRUSTEES OF GRACE LUTHERAN CHURCH", "designationCode": "C", "categoryCode": "32", "address": "3101 VICTORIA AVE.", "city": "BRANDON", "province": "MB", "country": "CA", "postalCode": "R7B3P3", "twitter": "None", "instagram": "None", "facebook": "None", "youtube": "None", "website": "None", "summary": "None", "logo": "None", "latitude": 49.84235151154118, "longitude": -99.980514}, "892953647RR0001": {"name": "TRUSTEES OF GREENWOOD CEMETERY", "designationCode": "C", "categoryCode": "56", "address": "313 ROCKIES RD                RR 2", "city": "MADOC", "province": "ON", "country": "CA", "postalCode": "K0K2K0", "twitter": "None", "instagram": "None", "facebook": "None", "youtube": "None", "website": "None", "summary": "None", "logo": "None", "latitude": 44.60855775328966, "longitude": -77.36996465549043}, "107457285RR0001": {"name": "TRUSTEES OF GUIDING LIGHT BAPTIST CHURCH OF THE MUNICIPALITY OF THE DISTRICT OF BARRINGTON", "designationCode": "C", "categoryCode": "31", "address": "P.O. BOX 119", "city": "SHAG HARBOUR-SHELBURNE", "province": "NS", "country": "CA", "postalCode": "B0W3B0", "twitter": "None", "instagram": "None", "facebook": "None", "youtube": "None", "website": "None", "summary": "None", "logo": "None", "latitude": 43.493161622185895, "longitude": -65.66970184462865}, "892976846RR0001": {"name": "TRUSTEES OF LITTLE SANDS CEMETERY", "designationCode": "C", "categoryCode": "59", "address": "R.R. #4,", "city": "LITTLE SANDS", "province": "PE", "country": "CA", "postalCode": "C0A1W0", "twitter": "None", "instagram": "None", "facebook": "None", "youtube": "None", "website": "None", "summary": "None", "logo": "None", "latitude": 45.965797699220445, "longitude": -62.6471138104849}, "892985367RR0001": {"name": "TRUSTEES OF MASSAWIPPI UNION CHURCH", "designationCode": "C", "categoryCode": "49", "address": "939 RUE SANBORN", "city": "AYER'S CLIFF", "province": "QC", "country": "CA", "postalCode": "J0B1C0", "twitter": "None", "instagram": "None", "facebook": "None", "youtube": "None", "website": "None", "summary": "None", "logo": "None", "latitude": 45.16828388620235, "longitude": -72.04365747749453}, "119272060RR0001": {"name": "TRUSTEES OF RIVERSIDE CEMETERY COMPANY", "designationCode": "C", "categoryCode": "59", "address": "134 CARLETON STREET", "city": "NEW GLASGOW", "province": "NS", "country": "CA", "postalCode": "B2H3K8", "twitter": "None", "instagram": "None", "facebook": "None", "youtube": "None", "website": "None", "summary": "None", "logo": "None", "latitude": 45.59118855259966, "longitude": -62.638308439090466}, "119272094RR0001": {"name": "TRUSTEES OF THE APPIN ROAD CEMETERY", "designationCode": "C", "categoryCode": "59", "address": "922 APPIN ROAD, RR #1", "city": "BONSHAW", "province": "PE", "country": "CA", "postalCode": "C0A1C0", "twitter": "None", "instagram": "None", "facebook": "None", "youtube": "None", "website": "None", "summary": "None", "logo": "None", "latitude": 46.23794109409081, "longitude": -63.39561603967348}, "119272102RR0001": {"name": "TRUSTEES OF THE CHRISTIAN CHURCH, MONTAGUE,", "designationCode": "C", "categoryCode": "39", "address": "PO BOX 701", "city": "MONTAGUE", "province": "PE", "country": "CA", "postalCode": "C0A1R0", "twitter": "None", "instagram": "None", "facebook": "None", "youtube": "None", "website": "None", "summary": "None", "logo": "None", "latitude": 46.14343222329997, "longitude": -62.75594020244682}, "886381391RR0001": {"name": "TRUSTEES OF THE HORNDEAN MENNONITE CHURCH", "designationCode": "C", "categoryCode": "39", "address": "BOX 1113", "city": "WINKLER", "province": "MB", "country": "CA", "postalCode": "R6W4B2", "twitter": "None", "instagram": "None", "facebook": "None", "youtube": "None", "website": "None", "summary": "None", "logo": "None", "latitude": 49.17773400000006, "longitude": -97.93841299999994}, "843926163RR0001": {"name": "TRUSTEES OF THE LIGHT OF THE NORTH COVENANT CHURCH", "designationCode": "C", "categoryCode": "39", "address": "PO BOX 851 32 NELSON ROAD", "city": "THOMPSON", "province": "MB", "country": "CA", "postalCode": "R8N1N6", "twitter": "None", "instagram": "None", "facebook": "None", "youtube": "None", "website": "None", "summary": "None", "logo": "None", "latitude": 55.740299123371855, "longitude": -97.84600126080852}, "892161043RR0001": {"name": "TRUSTEES OF THE MURRAY CEMETERY", "designationCode": "C", "categoryCode": "59", "address": "6444 IRISH DRIVE,             RR1", "city": "MELBOURNE", "province": "ON", "country": "CA", "postalCode": "N0L1T0", "twitter": "None", "instagram": "None", "facebook": "None", "youtube": "None", "website": "None", "summary": "None", "logo": "None", "latitude": 42.82110490756956, "longitude": -81.57018151267887}, "830750568RR0001": {"name": "TRUSTEES OF THE ROMAN CATHOLIC MISSION OF SAINTS PETER AND PAUL", "designationCode": "C", "categoryCode": "38", "address": "P.O. BOX 100                  OUR LADY OF SEVEN SORROWS CHUR", "city": "CAMPERVILLE", "province": "MB", "country": "CA", "postalCode": "R0L0J0", "twitter": "None", "instagram": "None", "facebook": "None", "youtube": "None", "website": "None", "summary": "None", "logo": "None", "latitude": 51.98593200000006, "longitude": -100.14517249999993}, "848023941RR0001": {"name": "TRUSTEES OF THE ROMAN CATHOLIC PARISH OF ST. GIANNA BERETTA MOLLA", "designationCode": "C", "categoryCode": "38", "address": "15 COLUMBIA DRIVE", "city": "WINNIPEG", "province": "MB", "country": "CA", "postalCode": "R3Y0R5", "twitter": "None", "instagram": "None", "facebook": "None", "youtube": "None", "website": "None", "summary": "None", "logo": "None", "latitude": 49.81866358892626, "longitude": -97.20579824057879}, "119192201RR0001": {"name": "TRUSTEES OF THE ROMAN CATHOLIC PARISH OF ST. NICHOLAS TAVELICH", "designationCode": "C", "categoryCode": "38", "address": "2688 MAIN STREET", "city": "WINNIPEG", "province": "MB", "country": "CA", "postalCode": "R2V4T2", "twitter": "None", "instagram": "None", "facebook": "None", "youtube": "None", "website": "None", "summary": "None", "logo": "None", "latitude": 49.96121476245004, "longitude": -97.08689899754715}, "132420951RR0001": {"name": "TRUSTEES OF THE SOCIETY OF CHRISTIAN BRETHREN CRESCENT HEIGHTS CHAPEL", "designationCode": "C", "categoryCode": "39", "address": "#102 SASK. AVE. EAST", "city": "PORTAGE LA PRAIRIE", "province": "MB", "country": "CA", "postalCode": "R1N0L1", "twitter": "None", "instagram": "None", "facebook": "None", "youtube": "None", "website": "None", "summary": "None", "logo": "None", "latitude": 49.97318506569862, "longitude": -98.28979380995014}, "132184797RR0002": {"name": "TRUSTEES OF THE UKRAINIAN ORTHODOX CATHEDRAL OF ST. MARY THE PROTECTRESS, A RELIGIOUS SOCIETY, IN THE CITY OF WINNIPEG, IN THE PROVINCE OF MANITOBA", "designationCode": "C", "categoryCode": "39", "address": "820 BURROWS AVE.", "city": "WINNIPEG", "province": "MB", "country": "CA", "postalCode": "R2X0R2", "twitter": "None", "instagram": "None", "facebook": "None", "youtube": "None", "website": "None", "summary": "None", "logo": "None", "latitude": 49.92273104965682, "longitude": -97.15647971775621}, "106785553RR0001": {"name": "TRUSTEES OF WESTEND COMMUNITY CHURCH, A RELIGIOUS SOCIETY, IN THE VILLAGE OF MACGREGOR, IN THE PROVINCE OF MANITOBA", "designationCode": "C", "categoryCode": "34", "address": "BOX 279", "city": "MACGREGOR", "province": "MB", "country": "CA", "postalCode": "R0H0R0", "twitter": "None", "instagram": "None", "facebook": "None", "youtube": "None", "website": "None", "summary": "None", "logo": "None", "latitude": 49.965220000000045, "longitude": -98.77929999999998}, "832697478RR0001": {"name": "TRUTH AND LIFE MINISTRIES", "designationCode": "C", "categoryCode": "47", "address": "128 ALBERT ST", "city": "ESSEX", "province": "ON", "country": "CA", "postalCode": "N8M2E3", "twitter": "None", "instagram": "None", "facebook": "None", "youtube": "None", "website": "None", "summary": "None", "logo": "None", "latitude": 42.17618595308451, "longitude": -82.82525323371215}, "837186162RR0001": {"name": "TRUTH BAPTIST CHURCH", "designationCode": "C", "categoryCode": "31", "address": "P.O. BOX 310                  8-60 BRISTOL RD. EAST", "city": "MISSISSAUGA", "province": "ON", "country": "CA", "postalCode": "L4Z3K8", "twitter": "None", "instagram": "None", "facebook": "None", "youtube": "None", "website": "None", "summary": "None", "logo": "None", "latitude": 43.616080753765694, "longitude": -79.66087707242207}, "108144171RR0001": {"name": "TRUTH CHURCH OF CALGARY", "designationCode": "C", "categoryCode": "39", "address": "615 NORTHMOUNT DR NW", "city": "CALGARY", "province": "AB", "country": "CA", "postalCode": "T2K3J6", "twitter": "None", "instagram": "None", "facebook": "None", "youtube": "None", "website": "None", "summary": "None", "logo": "None", "latitude": 51.08664231141434, "longitude": -114.08823037581499}, "839146180RR0001": {"name": "TRUTH COMMUNITY CHURCH", "designationCode": "C", "categoryCode": "39", "address": "214633 21ST LINE              RURAL ROUTE 3", "city": "INGERSOLL", "province": "ON", "country": "CA", "postalCode": "N5C3J6", "twitter": "None", "instagram": "None", "facebook": "None", "youtube": "None", "website": "None", "summary": "None", "logo": "None", "latitude": 43.04268600000006, "longitude": -80.91140749999994}, "831010871RR0001": {"name": "TRUTH FOR TEENS", "designationCode": "C", "categoryCode": "59", "address": "1 VALLEYWOOD DRIVE            SUITE 200", "city": "MARKHAM", "province": "ON", "country": "CA", "postalCode": "L3R5L9", "twitter": "None", "instagram": "None", "facebook": "None", "youtube": "None", "website": "None", "summary": "None", "logo": "None", "latitude": 43.85659696468394, "longitude": -79.3607673482892}, "865576060RR0001": {"name": "TRUTH MATTERS MINISTRIES SOCIETY OF ALBERTA", "designationCode": "C", "categoryCode": "49", "address": "PO BOX 89097 RPO WESTDALE", "city": "HAMILTON", "province": "ON", "country": "CA", "postalCode": "L8S4R5", "twitter": "None", "instagram": "None", "facebook": "None", "youtube": "None", "website": "None", "summary": "None", "logo": "None", "latitude": 43.258530000000064, "longitude": -79.90213999999997}, "106789894RR0001": {"name": "TRUTH NOW TABERNACLE UNITED PENTECOSTAL CHURCH OF KELOWNA", "designationCode": "C", "categoryCode": "39", "address": "PO BOX 22110                  RPO CAPRI CENTRE", "city": "KELOWNA", "province": "BC", "country": "CA", "postalCode": "V1Y9N9", "twitter": "None", "instagram": "None", "facebook": "None", "youtube": "None", "website": "None", "summary": "None", "logo": "None", "latitude": 49.88175774996267, "longitude": -119.473641}}