{"826770026RR0001": {"name": "The Village Community Church Inc.", "designationCode": "C", "categoryCode": "39", "address": "51075 - 75 NIPISSING RD", "city": "MILTON", "province": "ON", "country": "CA", "postalCode": "L9T1R3", "twitter": "None", "instagram": "None", "facebook": "None", "youtube": "None", "website": "None", "summary": "None", "logo": "None", "latitude": 43.51955399744314, "longitude": -79.87341870115058}, "831183058RR0001": {"name": "The Village-International Mennonite Church", "designationCode": "C", "categoryCode": "39", "address": "73 BIEHN DR", "city": "KITCHENER", "province": "ON", "country": "CA", "postalCode": "N2R1M4", "twitter": "None", "instagram": "None", "facebook": "None", "youtube": "None", "website": "None", "summary": "None", "logo": "None", "latitude": 43.395272664723876, "longitude": -80.45547983960397}, "865519326RR0001": {"name": "The Vine Church", "designationCode": "C", "categoryCode": "39", "address": "6487 MILLERS GROVE", "city": "MISSISSAUGA", "province": "ON", "country": "CA", "postalCode": "L5M3E5", "twitter": "None", "instagram": "None", "facebook": "None", "youtube": "None", "website": "None", "summary": "None", "logo": "None", "latitude": 43.57454142160532, "longitude": -79.76026765096098}, "804418309RR0001": {"name": "The Vine Church - Windsor", "designationCode": "C", "categoryCode": "39", "address": "2001 SPRING GARDEN RD", "city": "WINDSOR", "province": "ON", "country": "CA", "postalCode": "N9E3P8", "twitter": "None", "instagram": "None", "facebook": "None", "youtube": "None", "website": "None", "summary": "None", "logo": "None", "latitude": 42.267777480091624, "longitude": -83.05349085651217}, "843484999RR0001": {"name": "The Vivian MacKinnon Scholarship Association", "designationCode": "B", "categoryCode": "21", "address": "870 INTERVALE ROAD", "city": "ROCK ELM", "province": "NS", "country": "CA", "postalCode": "B1K1S9", "twitter": "None", "instagram": "None", "facebook": "None", "youtube": "None", "website": "None", "summary": "None", "logo": "None", "latitude": 45.918995881441816, "longitude": -60.32562772872049}, "108186099RR0001": {"name": "The Voice of China and Asia (Canada) Incorporated", "designationCode": "C", "categoryCode": "47", "address": "#203-9620 MANCHESTER DR.", "city": "BURNABY", "province": "BC", "country": "CA", "postalCode": "V3N4R2", "twitter": "None", "instagram": "None", "facebook": "None", "youtube": "None", "website": "None", "summary": "None", "logo": "None", "latitude": 49.246607299731345, "longitude": -122.89811860601228}, "806738191RR0001": {"name": "The Voice of Resurrection and Life Ministry", "designationCode": "C", "categoryCode": "39", "address": "4-75 DEERHIDE CRESCENT", "city": "TORONTO", "province": "ON", "country": "CA", "postalCode": "M9M2Z2", "twitter": "None", "instagram": "None", "facebook": "None", "youtube": "None", "website": "None", "summary": "None", "logo": "None", "latitude": 43.74728685980174, "longitude": -79.53192653384511}, "817461601RR0001": {"name": "The Voice of Truth Ministries", "designationCode": "C", "categoryCode": "49", "address": "1620 JOHNSTON ROAD            SITE 218 BOX 10 RR #2", "city": "DRYDEN", "province": "ON", "country": "CA", "postalCode": "P8N2Y5", "twitter": "None", "instagram": "None", "facebook": "None", "youtube": "None", "website": "None", "summary": "None", "logo": "None", "latitude": 49.782039000000054, "longitude": -92.83759099999993}, "791954522RR0001": {"name": "The Voil\u00e0 Foundation / La Fondation Voil\u00e0", "designationCode": "B", "categoryCode": "03", "address": "PO BOX 1005 STN MAIN", "city": "MONCTON", "province": "NB", "country": "CA", "postalCode": "E1C8P2", "twitter": "None", "instagram": "None", "facebook": "None", "youtube": "None", "website": "None", "summary": "None", "logo": "None", "latitude": 46.08872243840578, "longitude": -64.77642630797114}, "890993785RR0001": {"name": "The Volunteer Association of the Ontario Shores Centre for Mental Health Sciences", "designationCode": "C", "categoryCode": "19", "address": "1111 GREEN ST", "city": "WHITBY", "province": "ON", "country": "CA", "postalCode": "L1N4G8", "twitter": "None", "instagram": "None", "facebook": "None", "youtube": "None", "website": "None", "summary": "None", "logo": "None", "latitude": 43.869300285879135, "longitude": -78.93624939713794}, "834708216RR0001": {"name": "The Volunteer Committee, The National Ballet of Canada", "designationCode": "A", "categoryCode": "03", "address": "470 QUEENS QUAY W", "city": "TORONTO", "province": "ON", "country": "CA", "postalCode": "M5V3K4", "twitter": "None", "instagram": "None", "facebook": "None", "youtube": "None", "website": "None", "summary": "None", "logo": "None", "latitude": 43.637474438830665, "longitude": -79.3935549163252}, "717248322RR0001": {"name": "The VINE 153 Church", "designationCode": "C", "categoryCode": "39", "address": "10150 PINE VALLEY DR", "city": "WOODBRIDGE", "province": "ON", "country": "CA", "postalCode": "L4L1A6", "twitter": "None", "instagram": "None", "facebook": "None", "youtube": "None", "website": "None", "summary": "None", "logo": "None", "latitude": 43.84318968359401, "longitude": -79.58726877647273}, "852289107RR0001": {"name": "The Wadih M. Fares Family Foundation", "designationCode": "B", "categoryCode": "05", "address": "5TH FLOOR                     3480 JOSEPH HOWE DR", "city": "HALIFAX", "province": "NS", "country": "CA", "postalCode": "B3L4H7", "twitter": "None", "instagram": "None", "facebook": "None", "youtube": "None", "website": "None", "summary": "None", "logo": "None", "latitude": 44.655247194010016, "longitude": -63.629898811731465}, "837238179RR0001": {"name": "The Wakefield Community Emergency Fund - Fonds de secours de la communaut\u00e9 de Wakefield (WCEF and FSCW)", "designationCode": "C", "categoryCode": "09", "address": "12 MILL ROAD                  POST OFFICE BOX 284", "city": "WAKEFIELD", "province": "QC", "country": "CA", "postalCode": "J0X3G0", "twitter": "None", "instagram": "None", "facebook": "None", "youtube": "None", "website": "None", "summary": "None", "logo": "None", "latitude": 45.636173359714824, "longitude": -75.9313109136708}, "815983416RR0001": {"name": "The Walker Family Foundation", "designationCode": "B", "categoryCode": "05", "address": "1869 OLDE BASE LINE RD", "city": "INGLEWOOD", "province": "ON", "country": "CA", "postalCode": "L7C0J2", "twitter": "None", "instagram": "None", "facebook": "None", "youtube": "None", "website": "None", "summary": "None", "logo": "None"}, "810338723RR0001": {"name": "The Walking School Bus", "designationCode": "C", "categoryCode": "21", "address": "700 16TH AVE W", "city": "VANCOUVER", "province": "BC", "country": "CA", "postalCode": "V5Z1S7", "twitter": "None", "instagram": "None", "facebook": "None", "youtube": "None", "website": "None", "summary": "None", "logo": "None", "latitude": 49.25692265660877, "longitude": -123.12015166133463}, "847420353RR0001": {"name": "The Walmley Foundation", "designationCode": "B", "categoryCode": "05", "address": "115 GEORGE STREET             SUITE 502", "city": "OAKVILLE", "province": "ON", "country": "CA", "postalCode": "L6J0A2", "twitter": "None", "instagram": "None", "facebook": "None", "youtube": "None", "website": "None", "summary": "None", "logo": "None", "latitude": 43.44604425174555, "longitude": -79.66877844864109}, "823243654RR0001": {"name": "The Walnut Foundation", "designationCode": "C", "categoryCode": "11", "address": "93 SECLUSION CRESCENT", "city": "BRAMPTON", "province": "ON", "country": "CA", "postalCode": "L6R1L1", "twitter": "None", "instagram": "None", "facebook": "None", "youtube": "None", "website": "None", "summary": "None", "logo": "None", "latitude": 43.73791516622442, "longitude": -79.75623003179629}, "820611424RR0001": {"name": "The Walter and Friedl Stenger Foundation", "designationCode": "B", "categoryCode": "03", "address": "117 CENTREPOINTE DRIVE        SUITE 300", "city": "OTTAWA", "province": "ON", "country": "CA", "postalCode": "K2G5X3", "twitter": "None", "instagram": "None", "facebook": "None", "youtube": "None", "website": "None", "summary": "None", "logo": "None", "latitude": 45.34263880798054, "longitude": -75.7629653586479}, "830053583RR0001": {"name": "The Walter and Maria Schroeder Foundation", "designationCode": "B", "categoryCode": "03", "address": "17 PRINCE ARTHUR AVE", "city": "TORONTO", "province": "ON", "country": "CA", "postalCode": "M5R1B2", "twitter": "None", "instagram": "None", "facebook": "None", "youtube": "None", "website": "None", "summary": "None", "logo": "None", "latitude": 43.669596783773, "longitude": -79.39599526366212}, "850428525RR0001": {"name": "The Wanted Children Foundation", "designationCode": "C", "categoryCode": "01", "address": "43380 HONEYSUCKLE DRIVE", "city": "CHILLIWACK", "province": "BC", "country": "CA", "postalCode": "V2R4A4", "twitter": "None", "instagram": "None", "facebook": "None", "youtube": "None", "website": "None", "summary": "None", "logo": "None", "latitude": 49.1554476594151, "longitude": -122.02513473870383}, "818330714RR0001": {"name": "The Warriors of the Cross Pentecostal Church", "designationCode": "C", "categoryCode": "39", "address": "2515 KEELE STREET", "city": "TORONTO", "province": "ON", "country": "CA", "postalCode": "M6L2N7", "twitter": "None", "instagram": "None", "facebook": "None", "youtube": "None", "website": "None", "summary": "None", "logo": "None", "latitude": 43.714607039413686, "longitude": -79.47905509642807}, "818106726RR0001": {"name": "The Wasichana Fund Inc.", "designationCode": "C", "categoryCode": "11", "address": "199 BAY STREET, SUITE 4000    COMMERCE COURT WEST", "city": "TORONTO", "province": "ON", "country": "CA", "postalCode": "M5L1A9", "twitter": "None", "instagram": "None", "facebook": "None", "youtube": "None", "website": "None", "summary": "None", "logo": "None", "latitude": 43.64868300000006, "longitude": -79.38544399999994}, "835275249RR0001": {"name": "The Watchman of the Night Ministries Inc.", "designationCode": "C", "categoryCode": "39", "address": "PO BOX 72", "city": "ROSEAU RIVER", "province": "MB", "country": "CA", "postalCode": "R0A1P0", "twitter": "None", "instagram": "None", "facebook": "None", "youtube": "None", "website": "None", "summary": "None", "logo": "None", "latitude": 49.183032745594055, "longitude": -96.82724247967919}, "815928916RR0001": {"name": "The Water of Life Church", "designationCode": "C", "categoryCode": "39", "address": "8-20449 66 AVE", "city": "LANGLEY", "province": "BC", "country": "CA", "postalCode": "V2Y3C1", "twitter": "None", "instagram": "None", "facebook": "None", "youtube": "None", "website": "None", "summary": "None", "logo": "None", "latitude": 49.12258449379625, "longitude": -122.65569352553523}, "859672792RR0001": {"name": "The Water School", "designationCode": "C", "categoryCode": "09", "address": "475 WEST GEORGIA STREET       SUITE 1050", "city": "VANCOUVER", "province": "BC", "country": "CA", "postalCode": "V6B4M9", "twitter": "None", "instagram": "None", "facebook": "None", "youtube": "None", "website": "None", "summary": "None", "logo": "None", "latitude": 49.2811113244561, "longitude": -123.11589415139368}, "849820238RR0001": {"name": "The Waterbury Foundation", "designationCode": "B", "categoryCode": "03", "address": "PO BOX 1270", "city": "KENORA", "province": "ON", "country": "CA", "postalCode": "P9N3X7", "twitter": "None", "instagram": "None", "facebook": "None", "youtube": "None", "website": "None", "summary": "None", "logo": "None", "latitude": 49.77125700000006, "longitude": -94.48912249999994}, "826462319RR0001": {"name": "The Watershed Foundation", "designationCode": "B", "categoryCode": "03", "address": "4700-888 3RD STREET S.W.", "city": "CALGARY", "province": "AB", "country": "CA", "postalCode": "T2P5C5", "twitter": "None", "instagram": "None", "facebook": "None", "youtube": "None", "website": "None", "summary": "None", "logo": "None", "latitude": 51.04810324127135, "longitude": -114.07018760690465}, "805401155RR0001": {"name": "The Watoto Leadership Foundation", "designationCode": "A", "categoryCode": "53", "address": "P.O. BOX 455", "city": "VICTORIA", "province": "BC", "country": "CA", "postalCode": "V8W2N8", "twitter": "None", "instagram": "None", "facebook": "None", "youtube": "None", "website": "None", "summary": "None", "logo": "None", "latitude": 48.42854700000005, "longitude": -123.36445249999994}, "848673885RR0001": {"name": "The Waugh Family Foundation", "designationCode": "B", "categoryCode": "03", "address": "130 KING ST.W.20TH FL,BOX 430 STATION FIRST CANADIAN PLACE", "city": "TORONTO", "province": "ON", "country": "CA", "postalCode": "M5X1K1", "twitter": "None", "instagram": "None", "facebook": "None", "youtube": "None", "website": "None", "summary": "None", "logo": "None", "latitude": 43.64826932503962, "longitude": -79.38190945606182}, "816555536RR0001": {"name": "The Wave Ministries", "designationCode": "B", "categoryCode": "49", "address": "150 EGLINTON AVENUE EAST      SUITE 401", "city": "TORONTO", "province": "ON", "country": "CA", "postalCode": "M4P1E8", "twitter": "None", "instagram": "None", "facebook": "None", "youtube": "None", "website": "None", "summary": "None", "logo": "None", "latitude": 43.70768418347843, "longitude": -79.39385922912452}, "707560892RR0001": {"name": "The Waverley House Foundation", "designationCode": "B", "categoryCode": "03", "address": "450 MINTO PL", "city": "ROCKCLIFFE", "province": "ON", "country": "CA", "postalCode": "K1M0A8", "twitter": "None", "instagram": "None", "facebook": "None", "youtube": "None", "website": "None", "summary": "None", "logo": "None", "latitude": 45.45141538856827, "longitude": -75.6834218939353}, "812561595RR0001": {"name": "The Way", "designationCode": "C", "categoryCode": "09", "address": "2967 FOREST RD", "city": "HARROWSMITH", "province": "ON", "country": "CA", "postalCode": "K0H1V0", "twitter": "None", "instagram": "None", "facebook": "None", "youtube": "None", "website": "None", "summary": "None", "logo": "None", "latitude": 44.368736023274586, "longitude": -76.5986530565315}, "855864211RR0001": {"name": "The Way Christian Fellowship Inc.", "designationCode": "C", "categoryCode": "39", "address": "BOX 1320", "city": "KENORA", "province": "ON", "country": "CA", "postalCode": "P9N3X7", "twitter": "None", "instagram": "None", "facebook": "None", "youtube": "None", "website": "None", "summary": "None", "logo": "None", "latitude": 49.77125700000006, "longitude": -94.48912249999994}, "811174259RR0001": {"name": "The Way Truth Life Outreach Christian Ministries", "designationCode": "B", "categoryCode": "39", "address": "3553 REDMOND ROAD", "city": "MISSISSAUGA", "province": "ON", "country": "CA", "postalCode": "L5B3T9", "twitter": "None", "instagram": "None", "facebook": "None", "youtube": "None", "website": "None", "summary": "None", "logo": "None", "latitude": 43.5804446250504, "longitude": -79.64356561515397}, "827325150RR0001": {"name": "The Well of Silence No More Foundation", "designationCode": "C", "categoryCode": "09", "address": "BOX 62                        1250-1500 W. GEORGE STREET", "city": "VANCOUVER", "province": "BC", "country": "CA", "postalCode": "V6G2Z6", "twitter": "None", "instagram": "None", "facebook": "None", "youtube": "None", "website": "None", "summary": "None", "logo": "None", "latitude": 49.29029700000005, "longitude": -123.13028599999993}, "849379789RR0001": {"name": "The Well Christian Reformed Church", "designationCode": "C", "categoryCode": "39", "address": "1260 LOSETH DR", "city": "KELOWNA", "province": "BC", "country": "CA", "postalCode": "V1P1N2", "twitter": "None", "instagram": "None", "facebook": "None", "youtube": "None", "website": "None", "summary": "None", "logo": "None", "latitude": 49.872274911449104, "longitude": -119.36056537985436}, "802145128RR0001": {"name": "The Well Church Inc.", "designationCode": "B", "categoryCode": "39", "address": "PO BOX 456", "city": "CARNDUFF", "province": "SK", "country": "CA", "postalCode": "S0C0S0", "twitter": "None", "instagram": "None", "facebook": "None", "youtube": "None", "website": "None", "summary": "None", "logo": "None", "latitude": 49.17721000000006, "longitude": -101.79901999999998}, "891440174RR0001": {"name": "The Well Ministries", "designationCode": "C", "categoryCode": "39", "address": "PO BOX 1151 STN MAIN", "city": "BROOKS", "province": "AB", "country": "CA", "postalCode": "T1R1B9", "twitter": "None", "instagram": "None", "facebook": "None", "youtube": "None", "website": "None", "summary": "None", "logo": "None", "latitude": 50.56584900000006, "longitude": -111.89848399999994}, "833718992RR0001": {"name": "The Wesley and Patricia Armour Foundation Inc.", "designationCode": "B", "categoryCode": "03", "address": "47 GREENWICH DR", "city": "MONCTON", "province": "NB", "country": "CA", "postalCode": "E1A7A9", "twitter": "None", "instagram": "None", "facebook": "None", "youtube": "None", "website": "None", "summary": "None", "logo": "None", "latitude": 46.12094610049613, "longitude": -64.71531094639073}, "813522679RR0001": {"name": "The West Central Women's Resource Centre Inc.", "designationCode": "C", "categoryCode": "09", "address": "640 ELLICE AVE", "city": "WINNIPEG", "province": "MB", "country": "CA", "postalCode": "R3G0A7", "twitter": "None", "instagram": "None", "facebook": "None", "youtube": "None", "website": "None", "summary": "None", "logo": "None", "latitude": 49.89298050678067, "longitude": -97.16108394754457}, "802670554RR0001": {"name": "The Western Canada Presbytery of KPCA", "designationCode": "C", "categoryCode": "49", "address": "19 - 14448 108 AVE", "city": "SURREY", "province": "BC", "country": "CA", "postalCode": "V3R1V4", "twitter": "None", "instagram": "None", "facebook": "None", "youtube": "None", "website": "None", "summary": "None", "logo": "None", "latitude": 49.19876152510253, "longitude": -122.82158169317329}, "829969740RR0001": {"name": "The Western Shelburne County Health Care Charitable Society", "designationCode": "C", "categoryCode": "13", "address": "P.O. BOX 100", "city": "BARRINGTON", "province": "NS", "country": "CA", "postalCode": "B0W1E0", "twitter": "None", "instagram": "None", "facebook": "None", "youtube": "None", "website": "None", "summary": "None", "logo": "None", "latitude": 44.107428523541074, "longitude": -66.06027088088527}, "855538229RR0001": {"name": "The Wettstein Family Foundation", "designationCode": "B", "categoryCode": "03", "address": "SUITE 100                     505 THIRD ST. SW", "city": "CALGARY", "province": "AB", "country": "CA", "postalCode": "T2P3E6", "twitter": "None", "instagram": "None", "facebook": "None", "youtube": "None", "website": "None", "summary": "None", "logo": "None"}, "108206061RR0001": {"name": "The Whistle Stop Co-operative Pre-School Inc.", "designationCode": "C", "categoryCode": "20", "address": "23 BROCK ROAD SOUTH", "city": "GUELPH", "province": "ON", "country": "CA", "postalCode": "N1H6H9", "twitter": "None", "instagram": "None", "facebook": "None", "youtube": "None", "website": "None", "summary": "None", "logo": "None", "latitude": 43.47203552142889, "longitude": -80.15074653932318}, "830762472RR0001": {"name": "The Whistler Writing Society", "designationCode": "C", "categoryCode": "21", "address": "9327 EMERALD DR", "city": "WHISTLER", "province": "BC", "country": "CA", "postalCode": "V0N1B9", "twitter": "None", "instagram": "None", "facebook": "None", "youtube": "None", "website": "None", "summary": "None", "logo": "None", "latitude": 50.1649695337582, "longitude": -122.926473}, "846669695RR0001": {"name": "The White Rock Peninsula PHS Charitable Society", "designationCode": "A", "categoryCode": "59", "address": "16741 84A AVE", "city": "SURREY", "province": "BC", "country": "CA", "postalCode": "V4N4W2", "twitter": "None", "instagram": "None", "facebook": "None", "youtube": "None", "website": "None", "summary": "None", "logo": "None", "latitude": 49.15636052207277, "longitude": -122.75834319317329}, "828621789RR0001": {"name": "The White Rose Movement - Toronto", "designationCode": "C", "categoryCode": "09", "address": "780 EGLINTON AVE W            SUITE 410", "city": "TORONTO", "province": "ON", "country": "CA", "postalCode": "M5N1E9", "twitter": "None", "instagram": "None", "facebook": "None", "youtube": "None", "website": "None", "summary": "None", "logo": "None", "latitude": 43.70164418737356, "longitude": -79.42256613809212}, "820840965RR0001": {"name": "The Whitmer Trudel Charitable Foundation", "designationCode": "A", "categoryCode": "03", "address": "1 TORONTO STREET, SUITE 808", "city": "TORONTO", "province": "ON", "country": "CA", "postalCode": "M5C2V6", "twitter": "None", "instagram": "None", "facebook": "None", "youtube": "None", "website": "None", "summary": "None", "logo": "None", "latitude": 43.64988730558597, "longitude": -79.37604079929623}, "822211595RR0001": {"name": "The Wickerson Foundation", "designationCode": "B", "categoryCode": "03", "address": "2680 ROSEBERY AVE", "city": "WEST VANCOUVER", "province": "BC", "country": "CA", "postalCode": "V7V3A2", "twitter": "None", "instagram": "None", "facebook": "None", "youtube": "None", "website": "None", "summary": "None", "logo": "None", "latitude": 49.3444153447112, "longitude": -123.1873058523859}, "838611978RR0001": {"name": "The Wiebe Family Foundation", "designationCode": "B", "categoryCode": "03", "address": "15233 RUSSELL AVENUE", "city": "WHITE ROCK", "province": "BC", "country": "CA", "postalCode": "V4B5C3", "twitter": "None", "instagram": "None", "facebook": "None", "youtube": "None", "website": "None", "summary": "None", "logo": "None", "latitude": 49.029414665545616, "longitude": -122.80027526720983}, "852116318RR0001": {"name": "The Wilberforce Institute", "designationCode": "C", "categoryCode": "49", "address": "103-9821 LESLIE STREET", "city": "RICHMOND HILL", "province": "ON", "country": "CA", "postalCode": "L4B3Y4", "twitter": "None", "instagram": "None", "facebook": "None", "youtube": "None", "website": "None", "summary": "None", "logo": "None", "latitude": 43.87586799085341, "longitude": -79.39031800989734}, "845516558RR0001": {"name": "The William and Jean Teron Foundation", "designationCode": "B", "categoryCode": "03", "address": "52 PENTLAND CRES", "city": "KANATA", "province": "ON", "country": "CA", "postalCode": "K2K1V5", "twitter": "None", "instagram": "None", "facebook": "None", "youtube": "None", "website": "None", "summary": "None", "logo": "None", "latitude": 45.32486859059971, "longitude": -75.90714910338164}, "837030493RR0001": {"name": "The William Vince Foundation", "designationCode": "B", "categoryCode": "05", "address": "52A POWELL STREET             THIRD FLOOR, SUITE 300", "city": "VANCOUVER", "province": "BC", "country": "CA", "postalCode": "V6A2S9", "twitter": "None", "instagram": "None", "facebook": "None", "youtube": "None", "website": "None", "summary": "None", "logo": "None", "latitude": 49.28315643331078, "longitude": -123.10295819289747}, "850138447RR0001": {"name": "The Willowool Foundation", "designationCode": "B", "categoryCode": "03", "address": "3100 STEELES AVENUE WEST      SUITE #310", "city": "CONCORD", "province": "ON", "country": "CA", "postalCode": "L4K3R1", "twitter": "None", "instagram": "None", "facebook": "None", "youtube": "None", "website": "None", "summary": "None", "logo": "None", "latitude": 43.77490922459421, "longitude": -79.52403602971881}, "812960045RR0001": {"name": "The Wilton Community AssociationInc.", "designationCode": "C", "categoryCode": "56", "address": "251 SIMMONS RD. RR-2          POST OFFICE BOX 26", "city": "ODESSA", "province": "ON", "country": "CA", "postalCode": "K0H2H0", "twitter": "None", "instagram": "None", "facebook": "None", "youtube": "None", "website": "None", "summary": "None", "logo": "None", "latitude": 44.32789247766744, "longitude": -76.72109424303164}, "833291040RR0001": {"name": "The Win Butler and R\u00e9gine Chassagne Foundation / La Fondation Win Butler et R\u00e9gine Chassagne", "designationCode": "B", "categoryCode": "03", "address": "500 - 8000 BOUL DECARIE", "city": "MONTREAL", "province": "QC", "country": "CA", "postalCode": "H4P2S4", "twitter": "None", "instagram": "None", "facebook": "None", "youtube": "None", "website": "None", "summary": "None", "logo": "None", "latitude": 45.49759771161071, "longitude": -73.65889535778159}, "851180703RR0001": {"name": "The Winchester Benevolent Society", "designationCode": "B", "categoryCode": "05", "address": "BOX 757", "city": "WINCHESTER", "province": "ON", "country": "CA", "postalCode": "K0C2K0", "twitter": "None", "instagram": "None", "facebook": "None", "youtube": "None", "website": "None", "summary": "None", "logo": "None", "latitude": 45.0389951460454, "longitude": -75.27678656455626}, "892564048RR0001": {"name": "The Windsor Regiment Association", "designationCode": "C", "categoryCode": "51", "address": "4007 SANDWICH STREET", "city": "WINDSOR", "province": "ON", "country": "CA", "postalCode": "N9C1C3", "twitter": "None", "instagram": "None", "facebook": "None", "youtube": "None", "website": "None", "summary": "None", "logo": "None", "latitude": 42.287397776986, "longitude": -83.08452714687456}, "890886682RR0001": {"name": "The Windsor Symphony Orchestra Guild", "designationCode": "C", "categoryCode": "22", "address": "11968 COBBLESTONE CRES", "city": "WINDSOR", "province": "ON", "country": "CA", "postalCode": "N8P1T5", "twitter": "None", "instagram": "None", "facebook": "None", "youtube": "None", "website": "None", "summary": "None", "logo": "None", "latitude": 42.32119235832987, "longitude": -82.89540781571351}, "892823162RR0001": {"name": "The Windsor-Essex Down Syndrome Association", "designationCode": "C", "categoryCode": "09", "address": "206-5060 TECUMSEH ROAD EAST", "city": "WINDSOR", "province": "ON", "country": "CA", "postalCode": "N8T1C1", "twitter": "None", "instagram": "None", "facebook": "None", "youtube": "None", "website": "None", "summary": "None", "logo": "None", "latitude": 42.30811245131154, "longitude": -82.96448630087434}, "108104407RR0001": {"name": "The Winnipeg School Division No. 1", "designationCode": "C", "categoryCode": "20", "address": "1577 WALL STREET EAST", "city": "WINNIPEG", "province": "MB", "country": "CA", "postalCode": "R3E2S5", "twitter": "None", "instagram": "None", "facebook": "None", "youtube": "None", "website": "None", "summary": "None", "logo": "None", "latitude": 49.90716751399404, "longitude": -97.1792539730798}, "772509295RR0001": {"name": "The Wisehart Charity", "designationCode": "C", "categoryCode": "20", "address": "PO BOX 482", "city": "JASPER", "province": "AB", "country": "CA", "postalCode": "T0E1E0", "twitter": "None", "instagram": "None", "facebook": "None", "youtube": "None", "website": "None", "summary": "None", "logo": "None", "latitude": 52.877214088900075, "longitude": -118.08111710055249}, "724972690RR0001": {"name": "The Wolseley & District Health Foundation", "designationCode": "A", "categoryCode": "05", "address": "R.M. OF WOLSELEY              NO. 155", "city": "WOLSELEY", "province": "SK", "country": "CA", "postalCode": "S0G5H0", "twitter": "None", "instagram": "None", "facebook": "None", "youtube": "None", "website": "None", "summary": "None", "logo": "None", "latitude": 50.419635000000056, "longitude": -103.27891399999993}, "849668090RR0001": {"name": "The Wolverton Family Foundation", "designationCode": "B", "categoryCode": "03", "address": "PO BOX 48266                  STN BENTALL CENTRE", "city": "VANCOUVER", "province": "BC", "country": "CA", "postalCode": "V7X1A1", "twitter": "None", "instagram": "None", "facebook": "None", "youtube": "None", "website": "None", "summary": "None", "logo": "None", "latitude": 49.286055733749365, "longitude": -123.11861287615625}, "134949395RR0001": {"name": "The Women's Centre of Halton", "designationCode": "C", "categoryCode": "09", "address": "SUITE 229 1515 REBECCA ST", "city": "OAKVILLE", "province": "ON", "country": "CA", "postalCode": "L6L5G8", "twitter": "None", "instagram": "None", "facebook": "None", "youtube": "None", "website": "None", "summary": "None", "logo": "None", "latitude": 43.41156868279484, "longitude": -79.70521925601074}, "801454927RR0001": {"name": "The Wood Family Charitable Foundation", "designationCode": "B", "categoryCode": "05", "address": "41 ANGELINE ST S              APT 404", "city": "LINDSAY", "province": "ON", "country": "CA", "postalCode": "K9V3L1", "twitter": "None", "instagram": "None", "facebook": "None", "youtube": "None", "website": "None", "summary": "None", "logo": "None", "latitude": 44.34772782651912, "longitude": -78.74962022669139}, "891855264RR0001": {"name": "The Woodlawn Cemetery Company", "designationCode": "C", "categoryCode": "59", "address": "9659 HIGHWAY 8                RURAL ROUTE 2", "city": "ANNAPOLIC ROYAL", "province": "NS", "country": "CA", "postalCode": "B0S1A0", "twitter": "None", "instagram": "None", "facebook": "None", "youtube": "None", "website": "None", "summary": "None", "logo": "None", "latitude": 44.73340419854136, "longitude": -65.49532174512566}, "891038507RR0001": {"name": "The WoodGreen Foundation", "designationCode": "A", "categoryCode": "03", "address": "815 DANFORTH AVENUE, SUITE 402", "city": "TORONTO", "province": "ON", "country": "CA", "postalCode": "M4J1L2", "twitter": "None", "instagram": "None", "facebook": "None", "youtube": "None", "website": "None", "summary": "None", "logo": "None", "latitude": 43.67965075823778, "longitude": -79.34105624104107}, "890490543RR0001": {"name": "The Word Guild", "designationCode": "C", "categoryCode": "49", "address": "226 - 245 KING GEORGE RD", "city": "BRANTFORD", "province": "ON", "country": "CA", "postalCode": "N3R7N7", "twitter": "None", "instagram": "None", "facebook": "None", "youtube": "None", "website": "None", "summary": "None", "logo": "None", "latitude": 43.1767682912116, "longitude": -80.27933338354065}, "872920723RR0001": {"name": "The World Impact Ministries Inc.", "designationCode": "C", "categoryCode": "39", "address": "190 RAILSIDE ROAD", "city": "TORONTO", "province": "ON", "country": "CA", "postalCode": "M3A1A3", "twitter": "None", "instagram": "None", "facebook": "None", "youtube": "None", "website": "None", "summary": "None", "logo": "None", "latitude": 43.7396396458251, "longitude": -79.3247763823941}, "833483506RR0001": {"name": "The World Remembers: 1914-1918/Le Monde Se Souvient: 1914-1918", "designationCode": "C", "categoryCode": "59", "address": "33 PRINCE ARTHUR AVE.", "city": "TORONTO", "province": "ON", "country": "CA", "postalCode": "M5R1B2", "twitter": "None", "instagram": "None", "facebook": "None", "youtube": "None", "website": "None", "summary": "None", "logo": "None", "latitude": 43.669396834843454, "longitude": -79.39695826366211}, "844290304RR0001": {"name": "The World Zoroastrian Organization Canada Inc.", "designationCode": "A", "categoryCode": "03", "address": "SUITE 703                     16 DALLIMORE CIRCLE", "city": "TORONTO", "province": "ON", "country": "CA", "postalCode": "M3C4C4", "twitter": "None", "instagram": "None", "facebook": "None", "youtube": "None", "website": "None", "summary": "None", "logo": "None", "latitude": 43.73105349598929, "longitude": -79.3347383778638}, "824345607RR0001": {"name": "The Worship Center", "designationCode": "C", "categoryCode": "36", "address": "PO BOX 21193                  CO-OP PLAZE", "city": "GRANDE PRAIRIE", "province": "AB", "country": "CA", "postalCode": "T8V6W7", "twitter": "None", "instagram": "None", "facebook": "None", "youtube": "None", "website": "None", "summary": "None", "logo": "None", "latitude": 55.171122000000054, "longitude": -118.79491399999993}, "831010178RR0001": {"name": "The Worship Center Ministries", "designationCode": "C", "categoryCode": "39", "address": "74 ROYAL ORCHARD DRIVE", "city": "BRAMPTON", "province": "ON", "country": "CA", "postalCode": "L6X4M4", "twitter": "None", "instagram": "None", "facebook": "None", "youtube": "None", "website": "None", "summary": "None", "logo": "None", "latitude": 43.69379449319066, "longitude": -79.78700877396255}, "795045095RR0001": {"name": "The Writers' Exchange Society", "designationCode": "C", "categoryCode": "21", "address": "881 HASTINGS ST E", "city": "VANCOUVER", "province": "BC", "country": "CA", "postalCode": "V6A1R8", "twitter": "None", "instagram": "None", "facebook": "None", "youtube": "None", "website": "None", "summary": "None", "logo": "None", "latitude": 49.28115384767541, "longitude": -123.08523830505959}, "135974012RR0001": {"name": "The WILLOW POINT SUPPORTIVE LIVING Society", "designationCode": "C", "categoryCode": "09", "address": "100-142 LARWOOD", "city": "CAMPBELL RIVER", "province": "BC", "country": "CA", "postalCode": "V9W1S2", "twitter": "None", "instagram": "None", "facebook": "None", "youtube": "None", "website": "None", "summary": "None", "logo": "None", "latitude": 49.96767184629772, "longitude": -125.21385284456602}, "823521463RR0001": {"name": "The WRENCH The Winnipeg Repair Education and Cycling Hub Inc", "designationCode": "C", "categoryCode": "29", "address": "1057 LOGAN AVENUE", "city": "WINNIPEG", "province": "MB", "country": "CA", "postalCode": "R3E3N8", "twitter": "None", "instagram": "None", "facebook": "None", "youtube": "None", "website": "None", "summary": "None", "logo": "None", "latitude": 49.91322886710108, "longitude": -97.1689919647126}, "802347104RR0001": {"name": "The Yaer Charitable Foundation", "designationCode": "B", "categoryCode": "03", "address": "201 BRIDGELAND AVENUE", "city": "TORONTO", "province": "ON", "country": "CA", "postalCode": "M6A1Y7", "twitter": "None", "instagram": "None", "facebook": "None", "youtube": "None", "website": "None", "summary": "None", "logo": "None", "latitude": 43.724679896445465, "longitude": -79.46720435899367}, "817955925RR0001": {"name": "The Yellow Door Theatre Project", "designationCode": "C", "categoryCode": "22", "address": "PO BOX 330", "city": "NIAGARA ON THE LAKE", "province": "ON", "country": "CA", "postalCode": "L0S1J0", "twitter": "None", "instagram": "None", "facebook": "None", "youtube": "None", "website": "None", "summary": "None", "logo": "None", "latitude": 43.23448500000005, "longitude": -79.16177149999993}, "821941242RR0001": {"name": "The Yesod Foundation", "designationCode": "B", "categoryCode": "03", "address": "201 BRIDGELAND AVENUE,", "city": "TORONTO", "province": "ON", "country": "CA", "postalCode": "M6A1Y7", "twitter": "None", "instagram": "None", "facebook": "None", "youtube": "None", "website": "None", "summary": "None", "logo": "None", "latitude": 43.724679896445465, "longitude": -79.46720435899367}, "805689890RR0001": {"name": "The Young Citizens Foundation - La fondation des jeunes citoyens", "designationCode": "A", "categoryCode": "03", "address": "PO BOX 27007 RPO WILLOW PARK", "city": "KELOWNA", "province": "BC", "country": "CA", "postalCode": "V1X7L7", "twitter": "None", "instagram": "None", "facebook": "None", "youtube": "None", "website": "None", "summary": "None", "logo": "None", "latitude": 49.91264945866419, "longitude": -119.39945173174462}, "830724423RR0001": {"name": "The Young Sudbury Singers", "designationCode": "C", "categoryCode": "22", "address": "71 HARJU CRES", "city": "SUDBURY", "province": "ON", "country": "CA", "postalCode": "P3G1K2", "twitter": "None", "instagram": "None", "facebook": "None", "youtube": "None", "website": "None", "summary": "None", "logo": "None", "latitude": 46.409185605026444, "longitude": -80.99361502859364}, "108229816RR0001": {"name": "The Young Women's Christian Association of St.Catharines", "designationCode": "C", "categoryCode": "49", "address": "183 KING STREET", "city": "ST CATHARINES", "province": "ON", "country": "CA", "postalCode": "L2R3J5", "twitter": "None", "instagram": "None", "facebook": "None", "youtube": "None", "website": "None", "summary": "None", "logo": "None", "latitude": 43.16135360035188, "longitude": -79.24354736112846}, "850007998RR0001": {"name": "The Young-Nak Korean Presbyterian Church of Toronto", "designationCode": "C", "categoryCode": "37", "address": "650 MCNICOLL AVE", "city": "TORONTO", "province": "ON", "country": "CA", "postalCode": "M2H2E1", "twitter": "None", "instagram": "None", "facebook": "None", "youtube": "None", "website": "None", "summary": "None", "logo": "None", "latitude": 43.80388545383431, "longitude": -79.338231}, "836120998RR0001": {"name": "The Youth Connection Mexico", "designationCode": "C", "categoryCode": "21", "address": "38 AVENUE ROAD, 1200", "city": "TORONTO", "province": "ON", "country": "CA", "postalCode": "M5R2G2", "twitter": "None", "instagram": "None", "facebook": "None", "youtube": "None", "website": "None", "summary": "None", "logo": "None", "latitude": 43.670229810433405, "longitude": -79.3948121697442}, "824481402RR0001": {"name": "The Youth Education Arts and Health Foundation", "designationCode": "C", "categoryCode": "59", "address": "14B - 1822 WHITES RD", "city": "PICKERING", "province": "ON", "country": "CA", "postalCode": "L1V0B1", "twitter": "None", "instagram": "None", "facebook": "None", "youtube": "None", "website": "None", "summary": "None", "logo": "None", "latitude": 43.82965349852646, "longitude": -79.1203696061022}, "838269819RR0001": {"name": "The Yu Foundation", "designationCode": "B", "categoryCode": "21", "address": "306 RUSSELL HILL ROAD", "city": "TORONTO", "province": "ON", "country": "CA", "postalCode": "M4V2T6", "twitter": "None", "instagram": "None", "facebook": "None", "youtube": "None", "website": "None", "summary": "None", "logo": "None", "latitude": 43.686784938657766, "longitude": -79.40850645547908}, "891533648RR0001": {"name": "The Yukon Lung Association", "designationCode": "C", "categoryCode": "11", "address": "PO BOX 33122", "city": "WHITEHORSE", "province": "YT", "country": "CA", "postalCode": "Y1A5Y5", "twitter": "None", "instagram": "None", "facebook": "None", "youtube": "None", "website": "None", "summary": "None", "logo": "None", "latitude": 60.72084600000005, "longitude": -135.05323399999992}, "803976075RR0001": {"name": "The YMCA of Greater Vancouver", "designationCode": "C", "categoryCode": "49", "address": "300-5055 JOYCE ST", "city": "VANCOUVER", "province": "BC", "country": "CA", "postalCode": "V5R6B2", "twitter": "None", "instagram": "None", "facebook": "None", "youtube": "None", "website": "None", "summary": "None", "logo": "None", "latitude": 49.23880279545841, "longitude": -123.03138653208475}, "803976471RR0001": {"name": "The YMCA of Greater Vancouver Foundation", "designationCode": "A", "categoryCode": "43", "address": "300 - 5055 JOYCE ST", "city": "VANCOUVER", "province": "BC", "country": "CA", "postalCode": "V5R6B2", "twitter": "None", "instagram": "None", "facebook": "None", "youtube": "None", "website": "None", "summary": "None", "logo": "None", "latitude": 49.23880279545841, "longitude": -123.03138653208475}, "801043225RR0001": {"name": "The Zachary Karkheck Memorial Charitable Foundation", "designationCode": "B", "categoryCode": "05", "address": "53 CLARK STREET", "city": "COLLINGWOOD", "province": "ON", "country": "CA", "postalCode": "L9Y0H8", "twitter": "None", "instagram": "None", "facebook": "None", "youtube": "None", "website": "None", "summary": "None", "logo": "None", "latitude": 44.477988122329634, "longitude": -80.22597662081012}, "854973310RR0001": {"name": "The 5 and 2 Ministries Community Development and Support Services Society", "designationCode": "C", "categoryCode": "39", "address": "1-2220 MCKENZIE RD", "city": "ABBOTSFORD", "province": "BC", "country": "CA", "postalCode": "V2S0E2", "twitter": "None", "instagram": "None", "facebook": "None", "youtube": "None", "website": "None", "summary": "None", "logo": "None", "latitude": 49.04247329131297, "longitude": -122.28259566433636}, "812122695RR0001": {"name": "The 605 Collective Dance Society", "designationCode": "C", "categoryCode": "22", "address": "104 - 336 1ST AVE E", "city": "VANCOUVER", "province": "BC", "country": "CA", "postalCode": "V5T4R6", "twitter": "None", "instagram": "None", "facebook": "None", "youtube": "None", "website": "None", "summary": "None", "logo": "None"}, "830626016RR0001": {"name": "The 625 Powell Street Foundation", "designationCode": "B", "categoryCode": "03", "address": "2900-550 BURRARD ST", "city": "VANCOUVER", "province": "BC", "country": "CA", "postalCode": "V6C0A3", "twitter": "None", "instagram": "None", "facebook": "None", "youtube": "None", "website": "None", "summary": "None", "logo": "None", "latitude": 49.28596391921073, "longitude": -123.11870289255033}, "819140278RR0001": {"name": "Theatre by the River Inc.", "designationCode": "C", "categoryCode": "22", "address": "1173 WOLSELEY AVE", "city": "WINNIPEG", "province": "MB", "country": "CA", "postalCode": "R3G1H1", "twitter": "None", "instagram": "None", "facebook": "None", "youtube": "None", "website": "None", "summary": "None", "logo": "None", "latitude": 49.880647486005955, "longitude": -97.18161997293556}, "118819804RR0001": {"name": "Theatre du Lac Brome - Brome Lake Theatre", "designationCode": "C", "categoryCode": "22", "address": "9 MONT ECHO", "city": "KNOWLTON", "province": "QC", "country": "CA", "postalCode": "J0E1V0", "twitter": "None", "instagram": "None", "facebook": "None", "youtube": "None", "website": "None", "summary": "None", "logo": "None", "latitude": 45.21582285204012, "longitude": -72.51095596938713}, "106693039RR0001": {"name": "Theatre Alberta Society", "designationCode": "C", "categoryCode": "22", "address": "11759 GROAT ROAD              PERCY PAGE CENTRE 3 FLOOR", "city": "EDMONTON", "province": "AB", "country": "CA", "postalCode": "T5M3K6", "twitter": "None", "instagram": "None", "facebook": "None", "youtube": "None", "website": "None", "summary": "None", "logo": "None", "latitude": 53.56974075240938, "longitude": -113.54923837596016}, "858245624RR0001": {"name": "Theatre Norfolk", "designationCode": "C", "categoryCode": "22", "address": "345 COLLEGE AVE", "city": "SIMCOE", "province": "ON", "country": "CA", "postalCode": "N3Y4G7", "twitter": "None", "instagram": "None", "facebook": "None", "youtube": "None", "website": "None", "summary": "None", "logo": "None", "latitude": 42.84456437246811, "longitude": -80.3053565523112}, "897354114RR0001": {"name": "Theatre Prospero Association", "designationCode": "C", "categoryCode": "22", "address": "9210-118 AVENUE", "city": "EDMONTON", "province": "AB", "country": "CA", "postalCode": "T5G0N2", "twitter": "None", "instagram": "None", "facebook": "None", "youtube": "None", "website": "None", "summary": "None", "logo": "None", "latitude": 53.57041248715982, "longitude": -113.48352352553522}}