{"891200941RR0001": {"name": "WORD & DEED MINISTRIES CANADA INC.", "designationCode": "C", "categoryCode": "09", "address": "39993 TALBOT LINE", "city": "TALBOTVILLE", "province": "ON", "country": "CA", "postalCode": "N0L2K0", "twitter": "None", "instagram": "None", "facebook": "None", "youtube": "None", "website": "None", "summary": "None", "logo": "None", "latitude": 42.80213169077871, "longitude": -81.25470920119471}, "845694363RR0001": {"name": "WORD & LIFE CHRISTIAN ASSEMBLY", "designationCode": "C", "categoryCode": "36", "address": "#601 COLDSTREAM AVENUE", "city": "TORONTO", "province": "ON", "country": "CA", "postalCode": "M6B2L1", "twitter": "None", "instagram": "None", "facebook": "None", "youtube": "None", "website": "None", "summary": "None", "logo": "None", "latitude": 43.713138867592036, "longitude": -79.43754801220501}, "135954667RR0001": {"name": "WORD ABLAZE MINISTRIES", "designationCode": "C", "categoryCode": "39", "address": "P.O. BOX 202", "city": "PICKERING", "province": "ON", "country": "CA", "postalCode": "L1V2R4", "twitter": "None", "instagram": "None", "facebook": "None", "youtube": "None", "website": "None", "summary": "None", "logo": "None", "latitude": 43.837818000000055, "longitude": -79.08191449999994}, "119304046RR0001": {"name": "WORD AND WORLD ERAMOSA CENTRE OF REFLECTION AND RESPONSE", "designationCode": "C", "categoryCode": "49", "address": "8178 INDIAN TRAIL, RR 5", "city": "ROCKWOOD", "province": "ON", "country": "CA", "postalCode": "N0B2K0", "twitter": "None", "instagram": "None", "facebook": "None", "youtube": "None", "website": "None", "summary": "None", "logo": "None", "latitude": 43.589283014978655, "longitude": -80.14959807979282}, "877996561RR0001": {"name": "WORD BECAME FLESH MINISTRIES", "designationCode": "C", "categoryCode": "39", "address": "2 SIR MICHAEL PLACE", "city": "BRAMPTON", "province": "ON", "country": "CA", "postalCode": "L7A2E2", "twitter": "None", "instagram": "None", "facebook": "None", "youtube": "None", "website": "None", "summary": "None", "logo": "None", "latitude": 43.70249254786781, "longitude": -79.81459799737426}, "871653747RR0001": {"name": "WORD CHRISTIAN COMMUNITY CHURCH", "designationCode": "C", "categoryCode": "39", "address": "214-1515 BROADWAY STREET", "city": "PORT COQUITLAM", "province": "BC", "country": "CA", "postalCode": "V3C6M2", "twitter": "None", "instagram": "None", "facebook": "None", "youtube": "None", "website": "None", "summary": "None", "logo": "None", "latitude": 49.24110791574452, "longitude": -122.76232296453773}, "119304061RR0001": {"name": "WORD COWBOY MINISTRIES INC", "designationCode": "C", "categoryCode": "47", "address": "PO BOX 512", "city": "CASTOR", "province": "AB", "country": "CA", "postalCode": "T0C0X0", "twitter": "None", "instagram": "None", "facebook": "None", "youtube": "None", "website": "None", "summary": "None", "logo": "None", "latitude": 52.21684000000005, "longitude": -111.88508999999999}, "895526903RR0001": {"name": "WORD FOR THE WORLD INTERNATIONAL MINISTRIES", "designationCode": "C", "categoryCode": "39", "address": "48 MASSEYGROVE CRES.", "city": "ETOBICOKE", "province": "ON", "country": "CA", "postalCode": "M9V3C9", "twitter": "None", "instagram": "None", "facebook": "None", "youtube": "None", "website": "None", "summary": "None", "logo": "None", "latitude": 43.737163941716204, "longitude": -79.58254511278804}, "887891463RR0001": {"name": "WORD FOR WORD MINISTRIES INTERNATIONAL", "designationCode": "C", "categoryCode": "39", "address": "P.O. BOX 22577                SOUTHBROOK P.O.", "city": "EDMONTON", "province": "AB", "country": "CA", "postalCode": "T6W0C3", "twitter": "None", "instagram": "None", "facebook": "None", "youtube": "None", "website": "None", "summary": "None", "logo": "None", "latitude": 53.427426000000054, "longitude": -113.57704249999993}, "852276237RR0001": {"name": "WORD FOUNDATION CENTRE INTERNATIONAL MINISTRY", "designationCode": "C", "categoryCode": "39", "address": "83057-34A AVONDALE BOULEVARD", "city": "BRAMPTON", "province": "ON", "country": "CA", "postalCode": "L6T5N3", "twitter": "None", "instagram": "None", "facebook": "None", "youtube": "None", "website": "None", "summary": "None", "logo": "None", "latitude": 43.70705208464059, "longitude": -79.69894856814507}, "888543865RR0001": {"name": "WORD IN ACTION CHURCH", "designationCode": "C", "categoryCode": "39", "address": "151 EDELWEISS PLACE NW", "city": "CALGARY", "province": "AB", "country": "CA", "postalCode": "T3A3R5", "twitter": "None", "instagram": "None", "facebook": "None", "youtube": "None", "website": "None", "summary": "None", "logo": "None", "latitude": 51.119274532315885, "longitude": -114.13877291035259}, "879431328RR0001": {"name": "WORD INTERNATIONAL MINISTRIES (ONTARIO)", "designationCode": "C", "categoryCode": "39", "address": "3-951 WILSON AVE", "city": "NORTH YORK", "province": "ON", "country": "CA", "postalCode": "M2H3A9", "twitter": "None", "instagram": "None", "facebook": "None", "youtube": "None", "website": "None", "summary": "None", "logo": "None", "latitude": 43.73599292507428, "longitude": -79.44059808386656}, "895352722RR0001": {"name": "WORD INTERNATIONAL MINISTRIES, ALBERTA", "designationCode": "C", "categoryCode": "39", "address": "P.O. BOX 44036 RPO SOUTH CTR.", "city": "CALGARY", "province": "AB", "country": "CA", "postalCode": "T2J7C5", "twitter": "None", "instagram": "None", "facebook": "None", "youtube": "None", "website": "None", "summary": "None", "logo": "None", "latitude": 51.04531500000006, "longitude": -114.06301099999993}, "863504825RR0001": {"name": "WORD OF FAITH INTERNATIONAL CHRISTIAN CENTRE", "designationCode": "C", "categoryCode": "39", "address": "65 SUNRISE AVENUE", "city": "TORONTO", "province": "ON", "country": "CA", "postalCode": "M4A1A9", "twitter": "None", "instagram": "None", "facebook": "None", "youtube": "None", "website": "None", "summary": "None", "logo": "None", "latitude": 43.71856279819971, "longitude": -79.30585427087549}, "865884902RR0001": {"name": "WORD OF GOD ASSEMBLIES INTERNATIONAL INC.", "designationCode": "C", "categoryCode": "39", "address": "20B-35 VAN KIRK DRIVE", "city": "BRAMPTON", "province": "ON", "country": "CA", "postalCode": "L7A1A5", "twitter": "None", "instagram": "None", "facebook": "None", "youtube": "None", "website": "None", "summary": "None", "logo": "None", "latitude": 43.701276770211656, "longitude": -79.79902247134903}, "887210276RR0001": {"name": "WORD OF HIS POWER FAITH CHRISTIAN CENTRE", "designationCode": "C", "categoryCode": "39", "address": "P.O. BOX 8085", "city": "LONDON", "province": "ON", "country": "CA", "postalCode": "N6G4X1", "twitter": "None", "instagram": "None", "facebook": "None", "youtube": "None", "website": "None", "summary": "None", "logo": "None", "latitude": 42.98689500000006, "longitude": -81.24624349999993}, "871652103RR0001": {"name": "WORD OF LIFE BIBLE CHURCH", "designationCode": "C", "categoryCode": "39", "address": "50 VICTOR ST", "city": "STITTSVILLE", "province": "ON", "country": "CA", "postalCode": "K2S1H9", "twitter": "None", "instagram": "None", "facebook": "None", "youtube": "None", "website": "None", "summary": "None", "logo": "None", "latitude": 45.27458008935895, "longitude": -75.91909930448944}, "131835159RR0001": {"name": "WORD OF LIFE CENTRE CHURCH & MINISTRIES", "designationCode": "C", "categoryCode": "39", "address": "3-8428 VENTURE WAY", "city": "SURREY", "province": "BC", "country": "CA", "postalCode": "V3S8K9", "twitter": "None", "instagram": "None", "facebook": "None", "youtube": "None", "website": "None", "summary": "None", "logo": "None", "latitude": 49.15705564791151, "longitude": -122.78359875184277}, "135814754RR0001": {"name": "WORD OF LIFE CHRISTIAN MINISTRIES", "designationCode": "C", "categoryCode": "39", "address": "81 ROYAL OAK DRIVE", "city": "BRANTFORD", "province": "ON", "country": "CA", "postalCode": "N3R7P7", "twitter": "None", "instagram": "None", "facebook": "None", "youtube": "None", "website": "None", "summary": "None", "logo": "None", "latitude": 43.186015507097785, "longitude": -80.27315804942566}, "869871590RR0001": {"name": "WORD OF LIFE CHURCH", "designationCode": "C", "categoryCode": "39", "address": "191 QUEENSWAY W", "city": "SIMCOE", "province": "ON", "country": "CA", "postalCode": "N3Y2M8", "twitter": "None", "instagram": "None", "facebook": "None", "youtube": "None", "website": "None", "summary": "None", "logo": "None", "latitude": 42.84496724508047, "longitude": -80.31372668235323}, "881755763RR0001": {"name": "WORD OF LIFE CHURCH (OTTAWA/HULL)", "designationCode": "C", "categoryCode": "39", "address": "PO BOX 59", "city": "OTTAWA", "province": "ON", "country": "CA", "postalCode": "K4C1E5", "twitter": "None", "instagram": "None", "facebook": "None", "youtube": "None", "website": "None", "summary": "None", "logo": "None", "latitude": 45.51628200000006, "longitude": -75.40533349999993}, "119304194RR0001": {"name": "WORD OF LIFE FELLOWSHIP CANADA INC", "designationCode": "C", "categoryCode": "43", "address": "R.R.#8, 617796 GREY ROAD 18", "city": "OWEN SOUND", "province": "ON", "country": "CA", "postalCode": "N4K5W4", "twitter": "None", "instagram": "None", "facebook": "None", "youtube": "None", "website": "None", "summary": "None", "logo": "None", "latitude": 44.56352400000006, "longitude": -81.02295349999993}, "830734059RR0001": {"name": "WORD OF LIFE MISSION CHURCH INC.", "designationCode": "C", "categoryCode": "39", "address": "233 - 3RD STREET SOUTH        BOX 310", "city": "NIVERVILLE", "province": "MB", "country": "CA", "postalCode": "R0A1E0", "twitter": "None", "instagram": "None", "facebook": "None", "youtube": "None", "website": "None", "summary": "None", "logo": "None", "latitude": 49.6002938974521, "longitude": -97.04273728216464}, "108221839RR0001": {"name": "WORD OF LIFE TABERNACLE SOCIETY", "designationCode": "C", "categoryCode": "47", "address": "BOX 3090", "city": "SHERWOOD PARK", "province": "AB", "country": "CA", "postalCode": "T8H2T1", "twitter": "None", "instagram": "None", "facebook": "None", "youtube": "None", "website": "None", "summary": "None", "logo": "None", "latitude": 53.52731700000005, "longitude": -113.29574299999993}, "890272594RR0001": {"name": "WORD OF LIFE WORLD OUTREACH MINISTRIES (SCARBOROUGH)", "designationCode": "C", "categoryCode": "39", "address": "2900 EGLINTON AVENUE EAST     SUITE 205-207", "city": "SCARBOROUGH", "province": "ON", "country": "CA", "postalCode": "M1J2E4", "twitter": "None", "instagram": "None", "facebook": "None", "youtube": "None", "website": "None", "summary": "None", "logo": "None", "latitude": 43.73895418405534, "longitude": -79.23802599500833}, "866312994RR0001": {"name": "WORD OF LOVE EVANGELISTIC MINISTRY", "designationCode": "C", "categoryCode": "47", "address": "368 MAIN ST", "city": "EAST YORK", "province": "ON", "country": "CA", "postalCode": "M4C4X8", "twitter": "None", "instagram": "None", "facebook": "None", "youtube": "None", "website": "None", "summary": "None", "logo": "None", "latitude": 43.69043776519133, "longitude": -79.30288296407743}, "119304251RR0001": {"name": "WORD OUTREACH CENTRE OF LOON LAKE", "designationCode": "C", "categoryCode": "39", "address": "PO BOX 136", "city": "LOON LAKE", "province": "SK", "country": "CA", "postalCode": "S0M1L0", "twitter": "None", "instagram": "None", "facebook": "None", "youtube": "None", "website": "None", "summary": "None", "logo": "None", "latitude": 53.8842735, "longitude": -109.57983525}, "867012924RR0001": {"name": "WORDS WORK LITERACY SOCIETY (ATHABASCA & AREA)", "designationCode": "C", "categoryCode": "21", "address": "4705 49 AVE", "city": "ATHABASCA", "province": "AB", "country": "CA", "postalCode": "T9S1B7", "twitter": "None", "instagram": "None", "facebook": "None", "youtube": "None", "website": "None", "summary": "None", "logo": "None", "latitude": 54.719451511541195, "longitude": -113.28168124854291}, "867173718RR0001": {"name": "WORDWISE WORD SCHOOL INC.", "designationCode": "C", "categoryCode": "39", "address": "339 BOYER ST", "city": "STOUFFVILLE", "province": "ON", "country": "CA", "postalCode": "L4A7V9", "twitter": "None", "instagram": "None", "facebook": "None", "youtube": "None", "website": "None", "summary": "None", "logo": "None", "latitude": 43.976305864013995, "longitude": -79.23408634652885}, "138444633RR0001": {"name": "WORKERS ARTS AND HERITAGE CENTRE INC", "designationCode": "C", "categoryCode": "50", "address": "51 STUART ST", "city": "HAMILTON", "province": "ON", "country": "CA", "postalCode": "L8L1B5", "twitter": "None", "instagram": "None", "facebook": "None", "youtube": "None", "website": "None", "summary": "None", "logo": "None", "latitude": 43.266479900340606, "longitude": -79.86729670650348}, "888174042RR0001": {"name": "WORKERS COMPENSATION BOARD OF MANITOBA EMPLOYEES' CHARITY TRUST THE", "designationCode": "B", "categoryCode": "75", "address": "333 BROADWAY", "city": "WINNIPEG", "province": "MB", "country": "CA", "postalCode": "R3C4W3", "twitter": "None", "instagram": "None", "facebook": "None", "youtube": "None", "website": "None", "summary": "None", "logo": "None", "latitude": 49.88728419458692, "longitude": -97.14222713379296}, "879316610RR0001": {"name": "WORKERS OF OUR LADY", "designationCode": "C", "categoryCode": "49", "address": "331 WHITBY SHORES GREENWAY", "city": "WHITBY", "province": "ON", "country": "CA", "postalCode": "L1N9N6", "twitter": "None", "instagram": "None", "facebook": "None", "youtube": "None", "website": "None", "summary": "None", "logo": "None", "latitude": 43.84972046436588, "longitude": -78.95157400014422}, "864019914RR0001": {"name": "WORKERS OF TOMORROW SAFETY CENTER INC.", "designationCode": "C", "categoryCode": "59", "address": "884 PORTAGE AVENUE", "city": "WINNIPEG", "province": "MB", "country": "CA", "postalCode": "R3G0P1", "twitter": "None", "instagram": "None", "facebook": "None", "youtube": "None", "website": "None", "summary": "None", "logo": "None", "latitude": 49.88556492587585, "longitude": -97.16916368552724}, "740798327RR0001": {"name": "WORKING IN SUPPORT OF EQUALITY (MANITOBA) INC.", "designationCode": "C", "categoryCode": "29", "address": "301 - 960 PORTAGE AVE", "city": "WINNIPEG", "province": "MB", "country": "CA", "postalCode": "R3G0R4", "twitter": "None", "instagram": "None", "facebook": "None", "youtube": "None", "website": "None", "summary": "None", "logo": "None", "latitude": 49.88464157227784, "longitude": -97.17407013613023}, "108221946RR0001": {"name": "WORKING SKILLS CENTRE", "designationCode": "C", "categoryCode": "20", "address": "55 EGLINTON AVENUE EAST,      SUITE #703", "city": "TORONTO", "province": "ON", "country": "CA", "postalCode": "M4P1G8", "twitter": "None", "instagram": "None", "facebook": "None", "youtube": "None", "website": "None", "summary": "None", "logo": "None", "latitude": 43.70715979819971, "longitude": -79.3961471061516}, "119304368RR0001": {"name": "WORKING WOMEN'S COMMUNITY CENTRE", "designationCode": "C", "categoryCode": "09", "address": "533A GLADSTONE AVE", "city": "TORONTO", "province": "ON", "country": "CA", "postalCode": "M6H3J1", "twitter": "None", "instagram": "None", "facebook": "None", "youtube": "None", "website": "None", "summary": "None", "logo": "None", "latitude": 43.6601453830246, "longitude": -79.43375678433817}, "130734403RR0001": {"name": "WORKMAN ARTS PROJECT OF ONTARIO", "designationCode": "C", "categoryCode": "22", "address": "651 DUFFERIN STREET", "city": "TORONTO", "province": "ON", "country": "CA", "postalCode": "M6K2B2", "twitter": "None", "instagram": "None", "facebook": "None", "youtube": "None", "website": "None", "summary": "None", "logo": "None", "latitude": 43.650156970309844, "longitude": -79.43158651509054}, "119304400RR0001": {"name": "WORKS OF FAITH ASSEMBLY", "designationCode": "C", "categoryCode": "47", "address": "962 ROUTE 655 HWY", "city": "WAASIS", "province": "NB", "country": "CA", "postalCode": "E3B8V8", "twitter": "None", "instagram": "None", "facebook": "None", "youtube": "None", "website": "None", "summary": "None", "logo": "None", "latitude": 45.82903789590899, "longitude": -66.57871732286267}, "119304392RR0001": {"name": "WORKSHOP WEST PLAYWRIGHTS' THEATRE SOCIETY", "designationCode": "C", "categoryCode": "22", "address": "11516 103 ST NW", "city": "EDMONTON", "province": "AB", "country": "CA", "postalCode": "T5G2H9", "twitter": "None", "instagram": "None", "facebook": "None", "youtube": "None", "website": "None", "summary": "None", "logo": "None", "latitude": 53.56641572854761, "longitude": -113.49828167363933}, "118836030RR0001": {"name": "WORLD ACCORD - INTERNATIONAL DEVELOPMENT AGENCY", "designationCode": "C", "categoryCode": "09", "address": "1C-185 FROBISHER DR", "city": "WATERLOO", "province": "ON", "country": "CA", "postalCode": "N2V2E6", "twitter": "None", "instagram": "None", "facebook": "None", "youtube": "None", "website": "None", "summary": "None", "logo": "None", "latitude": 43.50820112597403, "longitude": -80.52598745524887}, "887775666RR0001": {"name": "WORLD AMBASSADORS FOR PEACE INC", "designationCode": "C", "categoryCode": "99", "address": "#200 - 20033 - 64TH AVENUE", "city": "LANGLEY", "province": "BC", "country": "CA", "postalCode": "V2Y1M9", "twitter": "None", "instagram": "None", "facebook": "None", "youtube": "None", "website": "None", "summary": "None", "logo": "None", "latitude": 49.11900548211082, "longitude": -122.66791127699233}, "839709524RR0001": {"name": "WORLD ASSOCIATION FOR CHRISTIAN COMMUNICATION", "designationCode": "C", "categoryCode": "48", "address": "308 MAIN ST", "city": "TORONTO", "province": "ON", "country": "CA", "postalCode": "M4C4X7", "twitter": "None", "instagram": "None", "facebook": "None", "youtube": "None", "website": "None", "summary": "None", "logo": "None", "latitude": 43.68847495836463, "longitude": -79.30198321553452}, "851793539RR0001": {"name": "WORLD BRAILLE FOUNDATION / LA FONDATION MONDIALE DU BRAILLE", "designationCode": "C", "categoryCode": "20", "address": "244-2255B QUEEN ST E", "city": "TORONTO", "province": "ON", "country": "CA", "postalCode": "M4E1G3", "twitter": "None", "instagram": "None", "facebook": "None", "youtube": "None", "website": "None", "summary": "None", "logo": "None", "latitude": 43.67120920641906, "longitude": -79.29414842514011}, "862102704RR0001": {"name": "WORLD CENTRE FOR MISSION MOBILIZATION", "designationCode": "C", "categoryCode": "39", "address": "157 HABITANT DRIVE", "city": "TORONTO", "province": "ON", "country": "CA", "postalCode": "M9M2P4", "twitter": "None", "instagram": "None", "facebook": "None", "youtube": "None", "website": "None", "summary": "None", "logo": "None", "latitude": 43.74600659339833, "longitude": -79.53816587673862}, "130401722RR0001": {"name": "WORLD CHRISTIAN REVIVAL MINISTRIES OF SCARBOROUGH", "designationCode": "C", "categoryCode": "31", "address": "P.O. BOX 41511 1711 MCGOWAND R", "city": "SCARBOROUGH", "province": "ON", "country": "CA", "postalCode": "M1S5G8", "twitter": "None", "instagram": "None", "facebook": "None", "youtube": "None", "website": "None", "summary": "None", "logo": "None", "latitude": 43.77222600000006, "longitude": -79.25666299999993}, "890013394RR0001": {"name": "WORLD COMPASSION SOCIETY", "designationCode": "C", "categoryCode": "11", "address": "BOX 62,SUITE 1250             1500 W. GEORGIA ST", "city": "VANCOUVER", "province": "BC", "country": "CA", "postalCode": "V6G2Z6", "twitter": "None", "instagram": "None", "facebook": "None", "youtube": "None", "website": "None", "summary": "None", "logo": "None", "latitude": 49.29013479542975, "longitude": -123.1300069287031}, "862843695RR0001": {"name": "WORLD COMPUTER EXCHANGE - CANADA", "designationCode": "C", "categoryCode": "21", "address": "920 RICE ROAD", "city": "EDMONTON", "province": "AB", "country": "CA", "postalCode": "T6R1A1", "twitter": "None", "instagram": "None", "facebook": "None", "youtube": "None", "website": "None", "summary": "None", "logo": "None", "latitude": 53.47813624865847, "longitude": -113.58753500946372}, "845991629RR0001": {"name": "WORLD EMBRACE", "designationCode": "C", "categoryCode": "47", "address": "509 COMMISSIONERS RD W, #242", "city": "LONDON", "province": "ON", "country": "CA", "postalCode": "N6J1Y5", "twitter": "None", "instagram": "None", "facebook": "None", "youtube": "None", "website": "None", "summary": "None", "logo": "None", "latitude": 42.954467834722585, "longitude": -81.2893615541627}, "123998957RR0001": {"name": "WORLD FEDERALIST FOUNDATION", "designationCode": "C", "categoryCode": "21", "address": "323 CHAPEL ST.                UNIT 110", "city": "OTTAWA", "province": "ON", "country": "CA", "postalCode": "K1N7Z2", "twitter": "None", "instagram": "None", "facebook": "None", "youtube": "None", "website": "None", "summary": "None", "logo": "None", "latitude": 45.42663275105306, "longitude": -75.67740771922811}, "108222050RR0001": {"name": "WORLD FEDERATION OF HEMOPHILIA / FEDERATION MONDIALE DE L'HEMOPHILIE", "designationCode": "C", "categoryCode": "11", "address": "1010-1425 RENE-LEVESQUE O", "city": "MONTREAL", "province": "QC", "country": "CA", "postalCode": "H3G1T7", "twitter": "None", "instagram": "None", "facebook": "None", "youtube": "None", "website": "None", "summary": "None", "logo": "None", "latitude": 45.495059310866075, "longitude": -73.57396546367339}, "119304525RR0001": {"name": "WORLD FEDERATION OF UKRAINIAN WOMEN'S ORGANIZATIONS (CANADA)", "designationCode": "C", "categoryCode": "21", "address": "206 - 145 EVANS AVE", "city": "ETOBICOKE", "province": "ON", "country": "CA", "postalCode": "M8Z5X8", "twitter": "None", "instagram": "None", "facebook": "None", "youtube": "None", "website": "None", "summary": "None", "logo": "None", "latitude": 43.61887343542647, "longitude": -79.50980318870123}, "889139770RR0001": {"name": "WORLD FESTIVAL OF PHOTOGRAPHY SOCIETY", "designationCode": "C", "categoryCode": "22", "address": "2849 42ND AVE W", "city": "VANCOUVER", "province": "BC", "country": "CA", "postalCode": "V6N3G7", "twitter": "None", "instagram": "None", "facebook": "None", "youtube": "None", "website": "None", "summary": "None", "logo": "None", "latitude": 49.23377045325739, "longitude": -123.1688239417162}, "892252131RR0001": {"name": "WORLD FISHERIES TRUST", "designationCode": "C", "categoryCode": "59", "address": "434 RUSSELL ST", "city": "VICTORIA", "province": "BC", "country": "CA", "postalCode": "V9A3X3", "twitter": "None", "instagram": "None", "facebook": "None", "youtube": "None", "website": "None", "summary": "None", "logo": "None", "latitude": 48.43175341655633, "longitude": -123.38717137832515}, "882797400RR0001": {"name": "WORLD FIT FOR CHILDREN", "designationCode": "C", "categoryCode": "01", "address": "308 - 2177 SHEROBEE RD", "city": "MISSISSAUGA", "province": "ON", "country": "CA", "postalCode": "L5A3G9", "twitter": "None", "instagram": "None", "facebook": "None", "youtube": "None", "website": "None", "summary": "None", "logo": "None", "latitude": 43.57301343161729, "longitude": -79.60265055522538}, "135463263RR0001": {"name": "WORLD HARVEST CHURCH", "designationCode": "C", "categoryCode": "39", "address": "125-5751 CEDARBRIDGE WAY", "city": "RICHMOND", "province": "BC", "country": "CA", "postalCode": "V6X2A8", "twitter": "None", "instagram": "None", "facebook": "None", "youtube": "None", "website": "None", "summary": "None", "logo": "None", "latitude": 49.17345367055225, "longitude": -123.14231300891547}, "850414129RR0001": {"name": "WORLD HERITAGE FOUNDATION", "designationCode": "A", "categoryCode": "03", "address": "35 KINGSWAY CRESCENT", "city": "TORONTO", "province": "ON", "country": "CA", "postalCode": "M8X2P9", "twitter": "None", "instagram": "None", "facebook": "None", "youtube": "None", "website": "None", "summary": "None", "logo": "None", "latitude": 43.65606516180969, "longitude": -79.504815032143}, "869500173RR0001": {"name": "WORLD HOPE INTERNATIONAL (CANADA), INC", "designationCode": "C", "categoryCode": "02", "address": "210 PRESCOTT ST               BOX 982", "city": "KEMPTVILLE", "province": "ON", "country": "CA", "postalCode": "K0G1J0", "twitter": "None", "instagram": "None", "facebook": "None", "youtube": "None", "website": "None", "summary": "None", "logo": "None", "latitude": 45.01501891120805, "longitude": -75.64411009582}, "823813399RR0001": {"name": "WORLD HOUSING FOUNDATION", "designationCode": "B", "categoryCode": "03", "address": "1250-1500 GEORGIA W ST        BOX 62", "city": "VANCOUVER", "province": "BC", "country": "CA", "postalCode": "V6G2Z6", "twitter": "None", "instagram": "None", "facebook": "None", "youtube": "None", "website": "None", "summary": "None", "logo": "None", "latitude": 49.290187500000016, "longitude": -123.130035}, "870203544RR0001": {"name": "WORLD IMPACT NETWORK", "designationCode": "C", "categoryCode": "47", "address": "220 ADELAIDE ST N", "city": "LONDON", "province": "ON", "country": "CA", "postalCode": "N6B3H4", "twitter": "None", "instagram": "None", "facebook": "None", "youtube": "None", "website": "None", "summary": "None", "logo": "None", "latitude": 42.98308332973622, "longitude": -81.22902889226187}, "119304608RR0001": {"name": "WORLD IMPACT OF CANADA INC", "designationCode": "C", "categoryCode": "47", "address": "PO BOX 12085 RPO MURRAYVILLE", "city": "LANGLEY", "province": "BC", "country": "CA", "postalCode": "V2Y0M6", "twitter": "None", "instagram": "None", "facebook": "None", "youtube": "None", "website": "None", "summary": "None", "logo": "None", "latitude": 49.08941000000004, "longitude": -122.62216999999998}, "892042573RR0001": {"name": "WORLD INTER-FAITH EDUCATION ASSOCIATION (BC)", "designationCode": "C", "categoryCode": "20", "address": "17 DOCK ST", "city": "VICTORIA", "province": "BC", "country": "CA", "postalCode": "V8V1Z9", "twitter": "None", "instagram": "None", "facebook": "None", "youtube": "None", "website": "None", "summary": "None", "logo": "None", "latitude": 48.41565094725612, "longitude": -123.38332241560406}, "886679950RR0001": {"name": "WORLD ISLAMIC MISSION CANADA INC.", "designationCode": "C", "categoryCode": "60", "address": "2478 NINTH LINE", "city": "OAKVILLE", "province": "ON", "country": "CA", "postalCode": "L6H7G9", "twitter": "None", "instagram": "None", "facebook": "None", "youtube": "None", "website": "None", "summary": "None", "logo": "None", "latitude": 43.50638812210752, "longitude": -79.69489024329144}, "825371149RR0001": {"name": "WORLD LEBANESE CULTURAL UNION - BRITISH COLUMBIA COUNCIL", "designationCode": "C", "categoryCode": "22", "address": "#8 - 2929 ST. JOHN STREET     P.O. BOX 31075", "city": "PORT MOODY", "province": "BC", "country": "CA", "postalCode": "V3H2C0", "twitter": "None", "instagram": "None", "facebook": "None", "youtube": "None", "website": "None", "summary": "None", "logo": "None", "latitude": 49.32140500000014, "longitude": -122.86571734551603}, "134961408RR0001": {"name": "WORLD LIFE INSTITUTE", "designationCode": "C", "categoryCode": "20", "address": "31 CHLOE CRES", "city": "MARKHAM", "province": "ON", "country": "CA", "postalCode": "L3S2H4", "twitter": "None", "instagram": "None", "facebook": "None", "youtube": "None", "website": "None", "summary": "None", "logo": "None", "latitude": 43.84004566720539, "longitude": -79.26690736678395}, "119304640RR0001": {"name": "WORLD LITERACY OF CANADA", "designationCode": "C", "categoryCode": "21", "address": "62 LYNWOOD AVE", "city": "TORONTO", "province": "ON", "country": "CA", "postalCode": "M4V1K4", "twitter": "None", "instagram": "None", "facebook": "None", "youtube": "None", "website": "None", "summary": "None", "logo": "None", "latitude": 43.68508317236992, "longitude": -79.40396579462168}, "871378048RR0001": {"name": "WORLD MAHA HINDU ORGANIZATION OF CANADA", "designationCode": "C", "categoryCode": "48", "address": "599 GALLOWAY CRESCENT", "city": "MISSISSAUGA", "province": "ON", "country": "CA", "postalCode": "L5C3R7", "twitter": "None", "instagram": "None", "facebook": "None", "youtube": "None", "website": "None", "summary": "None", "logo": "None", "latitude": 43.58028534081606, "longitude": -79.655974246581}, "809921992RR0001": {"name": "WORLD MISSION CONTINUUM SOCIETY", "designationCode": "C", "categoryCode": "47", "address": "PO BOX 32056 RPO MILLWOODS", "city": "EDMONTON", "province": "AB", "country": "CA", "postalCode": "T6K4C2", "twitter": "None", "instagram": "None", "facebook": "None", "youtube": "None", "website": "None", "summary": "None", "logo": "None", "latitude": 53.47319689456373, "longitude": -113.45567051511836}, "108222126RR0001": {"name": "WORLD MISSION PRAYER LEAGUE/CANADA", "designationCode": "C", "categoryCode": "47", "address": "5408-49 AVE", "city": "CAMROSE", "province": "AB", "country": "CA", "postalCode": "T4V0N7", "twitter": "None", "instagram": "None", "facebook": "None", "youtube": "None", "website": "None", "summary": "None", "logo": "None", "latitude": 53.021263452680465, "longitude": -112.83423202553523}, "108222142RR0001": {"name": "WORLD MISSION TO THE DEAF - LAMISSION MONDIAL AUX SOURDS", "designationCode": "C", "categoryCode": "47", "address": "39 MEADOW CRESCENT", "city": "WHITBY", "province": "ON", "country": "CA", "postalCode": "L1N3J5", "twitter": "None", "instagram": "None", "facebook": "None", "youtube": "None", "website": "None", "summary": "None", "logo": "None", "latitude": 43.900444856483524, "longitude": -78.90410604827183}, "119304681RR0001": {"name": "WORLD MISSIONARY ASSISTANCE PLAN", "designationCode": "C", "categoryCode": "47", "address": "43835 VEDDER MOUNTAIN RD", "city": "CHILLIWACK", "province": "BC", "country": "CA", "postalCode": "V2R4C5", "twitter": "None", "instagram": "None", "facebook": "None", "youtube": "None", "website": "None", "summary": "None", "logo": "None", "latitude": 49.08973345715253, "longitude": -122.0127519657222}, "886232594RR0001": {"name": "WORLD MISSIONARY PRESS OF CANADA", "designationCode": "C", "categoryCode": "47", "address": "BOX 221", "city": "ELMIRA", "province": "ON", "country": "CA", "postalCode": "N3B2Z1", "twitter": "None", "instagram": "None", "facebook": "None", "youtube": "None", "website": "None", "summary": "None", "logo": "None", "latitude": 43.66625100000006, "longitude": -80.56097899999993}, "119304723RR0001": {"name": "WORLD MISSIONS FELLOWSHIP", "designationCode": "C", "categoryCode": "47", "address": "319 QUEENSLAND RD SE", "city": "CALGARY", "province": "AB", "country": "CA", "postalCode": "T2J3S4", "twitter": "None", "instagram": "None", "facebook": "None", "youtube": "None", "website": "None", "summary": "None", "logo": "None", "latitude": 50.93281858673322, "longitude": -114.02437557536491}, "892128646RR0001": {"name": "WORLD NEIGHBOURS CANADA SOCIETY", "designationCode": "C", "categoryCode": "05", "address": "BOX 1478", "city": "OLIVER", "province": "BC", "country": "CA", "postalCode": "V0H1T0", "twitter": "None", "instagram": "None", "facebook": "None", "youtube": "None", "website": "None", "summary": "None", "logo": "None", "latitude": 49.182600000000036, "longitude": -119.55045999999999}, "888015047RR0001": {"name": "WORLD OF HINDUISM SABHA (TORONTO)", "designationCode": "C", "categoryCode": "48", "address": "1365 MORNINGSIDE AVE, UNIT 7", "city": "SCARBOROUGH", "province": "ON", "country": "CA", "postalCode": "M1B4Y5", "twitter": "None", "instagram": "None", "facebook": "None", "youtube": "None", "website": "None", "summary": "None", "logo": "None", "latitude": 43.80790673746307, "longitude": -79.20217388753001}, "119304764RR0001": {"name": "WORLD OF SCIENCE", "designationCode": "C", "categoryCode": "49", "address": "P.O. BOX 157", "city": "KING CITY", "province": "ON", "country": "CA", "postalCode": "L7B1A5", "twitter": "None", "instagram": "None", "facebook": "None", "youtube": "None", "website": "None", "summary": "None", "logo": "None", "latitude": 43.92781800000006, "longitude": -79.52797249999993}, "806289948RR0001": {"name": "WORLD OF THREADS FESTIVAL", "designationCode": "C", "categoryCode": "22", "address": "2302 BRIDGE RD", "city": "OAKVILLE", "province": "ON", "country": "CA", "postalCode": "L6L2G6", "twitter": "None", "instagram": "None", "facebook": "None", "youtube": "None", "website": "None", "summary": "None", "logo": "None", "latitude": 43.40679660107398, "longitude": -79.72078009810247}, "892089046RR0001": {"name": "WORLD ORGANIZATION OF THE OVULATION METHOD BILLINGS, BRITISH COLUMBIA", "designationCode": "C", "categoryCode": "09", "address": "1506 DANSEY AVENUE", "city": "COQUITLAM", "province": "BC", "country": "CA", "postalCode": "V3K3J1", "twitter": "None", "instagram": "None", "facebook": "None", "youtube": "None", "website": "None", "summary": "None", "logo": "None", "latitude": 49.24722548845881, "longitude": -122.85191211226845}, "131061889RR0001": {"name": "WORLD OUTREACH COMMUNICATIONS SOCIETY", "designationCode": "C", "categoryCode": "47", "address": "10702 SANTA MONICA PLACE", "city": "N. DELTA", "province": "BC", "country": "CA", "postalCode": "V4C1R2", "twitter": "None", "instagram": "None", "facebook": "None", "youtube": "None", "website": "None", "summary": "None", "logo": "None", "latitude": 49.14682146681873, "longitude": -122.92609149884618}, "821277142RR0001": {"name": "WORLD OUTREACH HOUSE OF PRAYER", "designationCode": "C", "categoryCode": "39", "address": "115 AVENUE RD                 STE #12", "city": "RICHMOND HILL", "province": "ON", "country": "CA", "postalCode": "L4C9N2", "twitter": "None", "instagram": "None", "facebook": "None", "youtube": "None", "website": "None", "summary": "None", "logo": "None", "latitude": 43.851809945034404, "longitude": -79.44581343447416}, "883010001RR0001": {"name": "WORLD OUTREACH MINISTRIES", "designationCode": "C", "categoryCode": "39", "address": "215 THORNBIRD PLACE", "city": "WATERLOO", "province": "ON", "country": "CA", "postalCode": "N2T2P1", "twitter": "None", "instagram": "None", "facebook": "None", "youtube": "None", "website": "None", "summary": "None", "logo": "None", "latitude": 43.44036165834724, "longitude": -80.55848948265908}, "836900746RR0001": {"name": "WORLD PRAYER CENTRE", "designationCode": "C", "categoryCode": "39", "address": "5892 PRINCE WILLIAM DR", "city": "BURLINGTON", "province": "ON", "country": "CA", "postalCode": "L7L6E6", "twitter": "None", "instagram": "None", "facebook": "None", "youtube": "None", "website": "None", "summary": "None", "logo": "None", "latitude": 43.387864921720904, "longitude": -79.74716580347983}, "129113502RR0001": {"name": "WORLD RADIO MISSIONARY FELLOWSHIP IN CANADA", "designationCode": "C", "categoryCode": "47", "address": "3-44 SALTSMAN DRIVE", "city": "CAMBRIDGE", "province": "ON", "country": "CA", "postalCode": "N3H4R7", "twitter": "None", "instagram": "None", "facebook": "None", "youtube": "None", "website": "None", "summary": "None", "logo": "None", "latitude": 43.41672341603673, "longitude": -80.37936519972281}, "108222191RR0001": {"name": "WORLD RELIEF CANADA", "designationCode": "C", "categoryCode": "09", "address": "600 ALDEN RD SUITE 310", "city": "MARKHAM", "province": "ON", "country": "CA", "postalCode": "L3R0E7", "twitter": "None", "instagram": "None", "facebook": "None", "youtube": "None", "website": "None", "summary": "None", "logo": "None", "latitude": 43.83755712577153, "longitude": -79.3299180528881}, "741596928RR0001": {"name": "WORLD SAVIOUR EVANGELICAL MINISTRY INTERNATIONAL", "designationCode": "C", "categoryCode": "39", "address": "304 - 1282 WESTON ROAD", "city": "TORONTO", "province": "ON", "country": "CA", "postalCode": "M6M4R3", "twitter": "None", "instagram": "None", "facebook": "None", "youtube": "None", "website": "None", "summary": "None", "logo": "None", "latitude": 43.68898635607948, "longitude": -79.49529988441333}, "890296114RR0001": {"name": "WORLD SPECTRA HERITAGE CORPORATION", "designationCode": "C", "categoryCode": "50", "address": "585 AURORA WAY", "city": "VICTORIA", "province": "BC", "country": "CA", "postalCode": "V8Z3J8", "twitter": "None", "instagram": "None", "facebook": "None", "youtube": "None", "website": "None", "summary": "None", "logo": "None", "latitude": 48.514560067978685, "longitude": -123.40534098072584}, "119304830RR0001": {"name": "WORLD TEAM", "designationCode": "C", "categoryCode": "47", "address": "7575 DANBRO CRESCENT", "city": "MISSISSAUGA", "province": "ON", "country": "CA", "postalCode": "L5N6P9", "twitter": "None", "instagram": "None", "facebook": "None", "youtube": "None", "website": "None", "summary": "None", "logo": "None", "latitude": 43.60510862193465, "longitude": -79.7797800310169}, "119304848RR0001": {"name": "WORLD UNIVERSITY SERVICE OF CANADA/L'ENTRAIDE UNIVERSITAIRE MONDIALE DU CANADA", "designationCode": "C", "categoryCode": "21", "address": "P.O. BOX 3000 STATION C", "city": "OTTAWA", "province": "ON", "country": "CA", "postalCode": "K1Y4M8", "twitter": "None", "instagram": "None", "facebook": "None", "youtube": "None", "website": "None", "summary": "None", "logo": "None", "latitude": 45.42177300000006, "longitude": -75.69115999999994}, "131621625RR0001": {"name": "WORLD VIETNAMESE BUDDHIST ORDER CHAN-QUANG TEMPLE", "designationCode": "C", "categoryCode": "35", "address": "1795 E 1ST AVENUE", "city": "VANCOUVER", "province": "BC", "country": "CA", "postalCode": "V5N1A9", "twitter": "None", "instagram": "None", "facebook": "None", "youtube": "None", "website": "None", "summary": "None", "logo": "None", "latitude": 49.269612478215684, "longitude": -123.06796158090484}, "119304855RR0001": {"name": "WORLD VISION CANADA-VISION MONDIALE CANADA", "designationCode": "C", "categoryCode": "09", "address": "1 WORLD DRIVE", "city": "MISSISSAUGA", "province": "ON", "country": "CA", "postalCode": "L5T2Y4", "twitter": "None", "instagram": "None", "facebook": "None", "youtube": "None", "website": "None", "summary": "None", "logo": "None", "latitude": 43.63385991649808, "longitude": -79.68857199313241}, "119304913RR0001": {"name": "WORLD WIDE MARRIAGE ENCOUNTER SOCIETY", "designationCode": "C", "categoryCode": "09", "address": "1069 FALCONER ROAD", "city": "EDMONTON", "province": "AB", "country": "CA", "postalCode": "T6R2C9", "twitter": "None", "instagram": "None", "facebook": "None", "youtube": "None", "website": "None", "summary": "None", "logo": "None", "latitude": 53.46527152596791, "longitude": -113.5885905}, "890074172RR0001": {"name": "WORLD WIDE NEW TESTAMENT BAPTIST MISSIONS OF CANADA, INC.", "designationCode": "C", "categoryCode": "47", "address": "BOX 56", "city": "KAPUSKASING", "province": "ON", "country": "CA", "postalCode": "P5N2Y1", "twitter": "None", "instagram": "None", "facebook": "None", "youtube": "None", "website": "None", "summary": "None", "logo": "None", "latitude": 49.41780000000006, "longitude": -82.42522099999994}, "878346964RR0002": {"name": "WORLD WIDE OPPORTUNITIES FOR WOMEN INC.", "designationCode": "C", "categoryCode": "29", "address": "23-500 FAIRWAY RD. SUITE #149", "city": "KITCHENER", "province": "ON", "country": "CA", "postalCode": "N2C1X3", "twitter": "None", "instagram": "None", "facebook": "None", "youtube": "None", "website": "None", "summary": "None", "logo": "None", "latitude": 43.42041527566467, "longitude": -80.44684530379695}, "872998471RR0001": {"name": "WORLD WILDLIFE FUND CANADA FOUNDATION-FONDATION DU FONDS MONDIAL POUR LA NATURE CANADA", "designationCode": "A", "categoryCode": "53", "address": "400 - 410 ADELAIDE ST W", "city": "TORONTO", "province": "ON", "country": "CA", "postalCode": "M5V1S8", "twitter": "None", "instagram": "None", "facebook": "None", "youtube": "None", "website": "None", "summary": "None", "logo": "None", "latitude": 43.64655222344037, "longitude": -79.39662867805407}, "119304954RR0001": {"name": "WORLD WILDLIFE FUND CANADA/FONDS MONDIAL POUR LA NATURE CANADA", "designationCode": "C", "categoryCode": "54", "address": "400 - 410 ADELAIDE ST W", "city": "TORONTO", "province": "ON", "country": "CA", "postalCode": "M5V1S8", "twitter": "None", "instagram": "None", "facebook": "None", "youtube": "None", "website": "None", "summary": "None", "logo": "None", "latitude": 43.64655222344037, "longitude": -79.39662867805407}, "856376587RR0001": {"name": "WORLD WORSHIP REVIVAL CENTRE", "designationCode": "C", "categoryCode": "39", "address": "36 WASAGA SANDS DR", "city": "WASAGA BEACH", "province": "ON", "country": "CA", "postalCode": "L9Z1J6", "twitter": "None", "instagram": "None", "facebook": "None", "youtube": "None", "website": "None", "summary": "None", "logo": "None", "latitude": 44.46522604703464, "longitude": -80.06613056390856}, "863808465RR0001": {"name": "WORLD YOUTH ALLIANCE CANADA", "designationCode": "C", "categoryCode": "29", "address": "110 CUMBERLAND STREET         SUITE 178", "city": "TORONTO", "province": "ON", "country": "CA", "postalCode": "M5R3V5", "twitter": "None", "instagram": "None", "facebook": "None", "youtube": "None", "website": "None", "summary": "None", "logo": "None", "latitude": 43.670245179583276, "longitude": -79.39148737844071}, "119304863RR0001": {"name": "WORLD-WIDE BIBLE STUDY ASSOCIATION", "designationCode": "C", "categoryCode": "47", "address": "65 EILEEN AVE", "city": "TORONTO", "province": "ON", "country": "CA", "postalCode": "M6N1V8", "twitter": "None", "instagram": "None", "facebook": "None", "youtube": "None", "website": "None", "summary": "None", "logo": "None", "latitude": 43.66852124672523, "longitude": -79.49874197209884}, "119304921RR0001": {"name": "WORLD-WIDE MINISTRIES INC", "designationCode": "C", "categoryCode": "47", "address": "PO BOX 459", "city": "PINE FALLS", "province": "MB", "country": "CA", "postalCode": "R0E1M0", "twitter": "None", "instagram": "None", "facebook": "None", "youtube": "None", "website": "None", "summary": "None", "logo": "None", "latitude": 50.56733000000003, "longitude": -96.21714999999995}, "133098368RR0001": {"name": "WORLD-WIDE MISSIONS SOCIETY OF BRITISH COLUMBIA", "designationCode": "C", "categoryCode": "47", "address": "PO BOX 11", "city": "CALGARY", "province": "AB", "country": "CA", "postalCode": "T2P2G9", "twitter": "None", "instagram": "None", "facebook": "None", "youtube": "None", "website": "None", "summary": "None", "logo": "None", "latitude": 51.04531500000006, "longitude": -114.06301099999993}, "838893477RR0001": {"name": "WORLDCIT EDUCATION & DEVELOPMENT ORGANIZATION", "designationCode": "B", "categoryCode": "03", "address": "45 WATERLOO ST S", "city": "STRATFORD", "province": "ON", "country": "CA", "postalCode": "N5A4A8", "twitter": "None", "instagram": "None", "facebook": "None", "youtube": "None", "website": "None", "summary": "None", "logo": "None", "latitude": 43.37196665557727, "longitude": -80.97973223310657}}