{"100096585RR0001": {"name": "SAINT JOHN ARTS CENTRE INC./CENTRE DES ARTS DE SAINT JOHN INC.", "designationCode": "C", "categoryCode": "50", "address": "20 PEEL PLAZA", "city": "SAINT JOHN", "province": "NB", "country": "CA", "postalCode": "E2L3G6", "twitter": "None", "instagram": "None", "facebook": "None", "youtube": "None", "website": "None", "summary": "None", "logo": "None", "latitude": 45.27475782302415, "longitude": -66.06292051465138}, "108000753RR0001": {"name": "SAINT JOHN ASSOCIATION FOR COMMUNITY LIVING", "designationCode": "C", "categoryCode": "11", "address": "30 ROBERTS LANE", "city": "QUISPAMSIS", "province": "NB", "country": "CA", "postalCode": "E2E1B6", "twitter": "None", "instagram": "None", "facebook": "None", "youtube": "None", "website": "None", "summary": "None", "logo": "None", "latitude": 45.417295698568985, "longitude": -65.99598174675388}, "107566275RR0001": {"name": "SAINT JOHN CENTRE FOR SERVICES TO HANDICAPPED INCORPORATED", "designationCode": "C", "categoryCode": "01", "address": "239 CHARLOTTE STREET", "city": "SAINT JOHN", "province": "NB", "country": "CA", "postalCode": "E2L2K1", "twitter": "None", "instagram": "None", "facebook": "None", "youtube": "None", "website": "None", "summary": "None", "logo": "None"}, "887844462RR0001": {"name": "SAINT JOHN CHORALE", "designationCode": "C", "categoryCode": "22", "address": "3117 ROUTE 845", "city": "LONG REACH", "province": "NB", "country": "CA", "postalCode": "E5S2L2", "twitter": "None", "instagram": "None", "facebook": "None", "youtube": "None", "website": "None", "summary": "None", "logo": "None", "latitude": 45.44113038260752, "longitude": -66.12235230402109}, "119132298RR0001": {"name": "SAINT JOHN COMMUNITY CHRISTMAS EXCHANGE", "designationCode": "C", "categoryCode": "09", "address": "18 ALPINE ST", "city": "SAINT JOHN", "province": "NB", "country": "CA", "postalCode": "E2J2X2", "twitter": "None", "instagram": "None", "facebook": "None", "youtube": "None", "website": "None", "summary": "None", "logo": "None", "latitude": 45.31009851067582, "longitude": -66.00828035789716}, "854913241RR0001": {"name": "SAINT JOHN COMMUNITY LOAN FUND", "designationCode": "C", "categoryCode": "09", "address": "133 PRINCE EDWARD STREET", "city": "SAINT JOHN", "province": "NB", "country": "CA", "postalCode": "E2L3S3", "twitter": "None", "instagram": "None", "facebook": "None", "youtube": "None", "website": "None", "summary": "None", "logo": "None", "latitude": 45.27762925451553, "longitude": -66.05415291147776}, "135065613RR0001": {"name": "SAINT JOHN DEAF AND HARD OF HEARING SERVICES INC.", "designationCode": "C", "categoryCode": "11", "address": "324 DUKE ST. WEST", "city": "SAINT JOHN", "province": "NB", "country": "CA", "postalCode": "E2M1V2", "twitter": "None", "instagram": "None", "facebook": "None", "youtube": "None", "website": "None", "summary": "None", "logo": "None", "latitude": 45.25617098112988, "longitude": -66.07835099376759}, "119132306RR0001": {"name": "SAINT JOHN EAST FOOD BANK INC.", "designationCode": "C", "categoryCode": "09", "address": "105 WILTON STREET", "city": "ST JOHN", "province": "NB", "country": "CA", "postalCode": "E2J1H6", "twitter": "None", "instagram": "None", "facebook": "None", "youtube": "None", "website": "None", "summary": "None", "logo": "None", "latitude": 45.28291104968547, "longitude": -66.03337477378967}, "894843077RR0001": {"name": "SAINT JOHN FIREFIGHTERS HISTORICAL SOCIETY INC.", "designationCode": "C", "categoryCode": "50", "address": "P.O. BOX 54 STN MAIN", "city": "SAINT JOHN", "province": "NB", "country": "CA", "postalCode": "E2L3X1", "twitter": "None", "instagram": "None", "facebook": "None", "youtube": "None", "website": "None", "summary": "None", "logo": "None", "latitude": 45.274774384642015, "longitude": -66.0653109102771}, "127692317RR0001": {"name": "SAINT JOHN HORTICULTURAL ASSOCIATION", "designationCode": "C", "categoryCode": "56", "address": "PO BOX 535 STN MAIN", "city": "SAINT JOHN", "province": "NB", "country": "CA", "postalCode": "E2L3Z8", "twitter": "None", "instagram": "None", "facebook": "None", "youtube": "None", "website": "None", "summary": "None", "logo": "None", "latitude": 45.274774384642015, "longitude": -66.0653109102771}, "104692017RR0001": {"name": "SAINT JOHN HUMAN DEVELOPMENT COUNCIL INC.", "designationCode": "C", "categoryCode": "09", "address": "THIRD FLOOR, SOCIAL ENTERPRISEHUB,139 PRINCE EDWARD STREET", "city": "SAINT JOHN", "province": "NB", "country": "CA", "postalCode": "E2L3S3", "twitter": "None", "instagram": "None", "facebook": "None", "youtube": "None", "website": "None", "summary": "None", "logo": "None", "latitude": 45.277704498325065, "longitude": -66.05411941034717}, "119132322RR0001": {"name": "SAINT JOHN JEWISH HISTORICAL SOCIETY", "designationCode": "C", "categoryCode": "50", "address": "91 LEINSTER ST", "city": "SAINT JOHN", "province": "NB", "country": "CA", "postalCode": "E2L1J2", "twitter": "None", "instagram": "None", "facebook": "None", "youtube": "None", "website": "None", "summary": "None", "logo": "None", "latitude": 45.27354532889949, "longitude": -66.05360473480867}, "131505687RR0001": {"name": "SAINT JOHN LABOUR COMMUNITY SERVICES INC", "designationCode": "C", "categoryCode": "09", "address": "30-1216 SAND COVE RD", "city": "SAINT JOHN", "province": "NB", "country": "CA", "postalCode": "E2M5V8", "twitter": "None", "instagram": "None", "facebook": "None", "youtube": "None", "website": "None", "summary": "None", "logo": "None", "latitude": 45.24069419706842, "longitude": -66.10263990746705}, "119132348RR0001": {"name": "SAINT JOHN NORTH END FOOD ASSISTANCE GROUP INC.", "designationCode": "C", "categoryCode": "09", "address": "P.O. BOX 22008", "city": "SAINT JOHN", "province": "NB", "country": "CA", "postalCode": "E2K4T7", "twitter": "None", "instagram": "None", "facebook": "None", "youtube": "None", "website": "None", "summary": "None", "logo": "None", "latitude": 45.27342600000006, "longitude": -66.06407149999993}, "845480953RR0001": {"name": "SAINT JOHN OF SHANGHAI ORTHODOX CHURCH SOCIETY", "designationCode": "C", "categoryCode": "39", "address": "11339 DARTFORD ST", "city": "MAPLE RIDGE", "province": "BC", "country": "CA", "postalCode": "V2X1V5", "twitter": "None", "instagram": "None", "facebook": "None", "youtube": "None", "website": "None", "summary": "None", "logo": "None", "latitude": 49.20849100582839, "longitude": -122.64962354166403}, "119132363RR0001": {"name": "SAINT JOHN REGIONAL HOSPITAL FOUNDATION INC.", "designationCode": "A", "categoryCode": "13", "address": "P.O. BOX 2100 STN MAIN", "city": "SAINT JOHN", "province": "NB", "country": "CA", "postalCode": "E2L4L2", "twitter": "None", "instagram": "None", "facebook": "None", "youtube": "None", "website": "None", "summary": "None", "logo": "None", "latitude": 45.274774384642015, "longitude": -66.0653109102771}, "119132397RR0001": {"name": "SAINT JOHN ROTARY BOYS CHOIR INC.", "designationCode": "C", "categoryCode": "22", "address": "239 ST. JAMES ST W", "city": "SAINT JOHN", "province": "NB", "country": "CA", "postalCode": "E2M2E7", "twitter": "None", "instagram": "None", "facebook": "None", "youtube": "None", "website": "None", "summary": "None", "logo": "None", "latitude": 45.254914176038326, "longitude": -66.06865652204463}, "119179109RR0001": {"name": "SAINT JOHN ROTARY CLUB CHARITABLE TRUST", "designationCode": "A", "categoryCode": "65", "address": "399 MAIN STREET", "city": "SAINT JOHN", "province": "NB", "country": "CA", "postalCode": "E2K1J3", "twitter": "None", "instagram": "None", "facebook": "None", "youtube": "None", "website": "None", "summary": "None", "logo": "None", "latitude": 45.2752473655432, "longitude": -66.07649717790984}, "119132413RR0001": {"name": "SAINT JOHN SEAFARERS' MISSION INC.", "designationCode": "C", "categoryCode": "01", "address": "46 MILFORD ROAD", "city": "SAINT JOHN", "province": "NB", "country": "CA", "postalCode": "E2M4R4", "twitter": "None", "instagram": "None", "facebook": "None", "youtube": "None", "website": "None", "summary": "None", "logo": "None", "latitude": 45.273885044693806, "longitude": -66.0980857477062}, "889898334RR0001": {"name": "SAINT JOHN SPIRITUAL TEMPLE", "designationCode": "C", "categoryCode": "39", "address": "1102 - 45 LA ROSE AVE", "city": "ETOBICOKE", "province": "ON", "country": "CA", "postalCode": "M9P1A8", "twitter": "None", "instagram": "None", "facebook": "None", "youtube": "None", "website": "None", "summary": "None", "logo": "None", "latitude": 43.68647255006085, "longitude": -79.51588052830519}, "846961928RR0001": {"name": "SAINT JOHN SYRIAC ORTHODOX CHURCH", "designationCode": "C", "categoryCode": "39", "address": "3023 NEW ST                   P.O BOX 91547", "city": "BURLINGTON", "province": "ON", "country": "CA", "postalCode": "L7R4L6", "twitter": "None", "instagram": "None", "facebook": "None", "youtube": "None", "website": "None", "summary": "None", "logo": "None", "latitude": 43.3391675817989, "longitude": -79.78440552994904}, "108084658RR0010": {"name": "SAINT JOHN THE BAPTIST ANGLICAN CHURCH, PARISH OF KARS - OSGOODE", "designationCode": "C", "categoryCode": "30", "address": "6699 RIDEAU VALLEY DRIVE S    P O BOX 72", "city": "KARS", "province": "ON", "country": "CA", "postalCode": "K0A2E0", "twitter": "None", "instagram": "None", "facebook": "None", "youtube": "None", "website": "None", "summary": "None", "logo": "None", "latitude": 45.15174736525474, "longitude": -75.6478392034164}, "813351145RR0001": {"name": "SAINT JOHN THE BAPTIST UKRAINIAN CATHOLIC PARISH, FORK RIVER", "designationCode": "C", "categoryCode": "39", "address": "P.O. BOX 1", "city": "FORK RIVER", "province": "MB", "country": "CA", "postalCode": "R0L0V0", "twitter": "None", "instagram": "None", "facebook": "None", "youtube": "None", "website": "None", "summary": "None", "logo": "None", "latitude": 51.512050000000045, "longitude": -100.01814999999999}, "890001662RR0001": {"name": "SAINT JOHN THE DIVINE ABBEYFIELD HOUSE SOCIETY", "designationCode": "C", "categoryCode": "01", "address": "994 EIGHTH ST.", "city": "COURTENAY", "province": "BC", "country": "CA", "postalCode": "V9N9G1", "twitter": "None", "instagram": "None", "facebook": "None", "youtube": "None", "website": "None", "summary": "None", "logo": "None", "latitude": 49.68496076173511, "longitude": -125.00657825969492}, "886263995RR0001": {"name": "SAINT JOHN VINEYARD CHRISTIAN FELLOWSHIP INC.", "designationCode": "C", "categoryCode": "31", "address": "204 CARMARTHEN ST", "city": "SAINT JOHN", "province": "NB", "country": "CA", "postalCode": "E2L2P7", "twitter": "None", "instagram": "None", "facebook": "None", "youtube": "None", "website": "None", "summary": "None", "logo": "None", "latitude": 45.269110288649074, "longitude": -66.05373655078199}, "879409415RR0001": {"name": "SAINT JOHN VOCATIONAL/HARBOUR VIEW HIGH ALUMNI SCHOLARSHIP FUND", "designationCode": "C", "categoryCode": "25", "address": "516 CHAMPLAIN STREET", "city": "SAINT JOHN", "province": "NB", "country": "CA", "postalCode": "E2M1S3", "twitter": "None", "instagram": "None", "facebook": "None", "youtube": "None", "website": "None", "summary": "None", "logo": "None", "latitude": 45.25543292977098, "longitude": -66.0774003259853}, "107949547RR0001": {"name": "SAINT JOHN VOLUNTEER CENTRE INC.", "designationCode": "C", "categoryCode": "59", "address": "P.O. BOX 7091                 STATION A", "city": "SAINT JOHN", "province": "NB", "country": "CA", "postalCode": "E2L4S5", "twitter": "None", "instagram": "None", "facebook": "None", "youtube": "None", "website": "None", "summary": "None", "logo": "None", "latitude": 45.275982999946635, "longitude": -66.06366741188242}, "119109833RR0025": {"name": "SAINT JOHN XXIII PARISH", "designationCode": "C", "categoryCode": "38", "address": "35 COLBY DRIVE", "city": "DARTMOUTH", "province": "NS", "country": "CA", "postalCode": "B2V1N7", "twitter": "None", "instagram": "None", "facebook": "None", "youtube": "None", "website": "None", "summary": "None", "logo": "None", "latitude": 44.66766804576167, "longitude": -63.489440795746866}, "107949471RR0001": {"name": "SAINT JOHN'S EVANGELICAL LUTHERAN CHURCH OF WARMAN INC.", "designationCode": "C", "categoryCode": "32", "address": "BOX 177", "city": "WARMAN", "province": "SK", "country": "CA", "postalCode": "S0K4S0", "twitter": "None", "instagram": "None", "facebook": "None", "youtube": "None", "website": "None", "summary": "None", "logo": "None", "latitude": 52.31985000000006, "longitude": -106.58322349999993}, "884739319RR0001": {"name": "SAINT JOHN'S LISCOMB CEMETERY SOCIETY", "designationCode": "C", "categoryCode": "59", "address": "3452 HIGHWAY 7, R.R. #1", "city": "LISCOMB", "province": "NS", "country": "CA", "postalCode": "B0J2A0", "twitter": "None", "instagram": "None", "facebook": "None", "youtube": "None", "website": "None", "summary": "None", "logo": "None", "latitude": 45.005775538831614, "longitude": -62.06517857915544}, "898183819RR0001": {"name": "SAINT JOHN'S SCHOOL OF ALBERTA LEGACY FOUNDATION", "designationCode": "A", "categoryCode": "21", "address": "51165 RGE RD. 30              SITE 1, COMP. 1, R.R. 1", "city": "WARBURG", "province": "AB", "country": "CA", "postalCode": "T0C2T0", "twitter": "None", "instagram": "None", "facebook": "None", "youtube": "None", "website": "None", "summary": "None", "logo": "None", "latitude": 53.15965655840934, "longitude": -114.29428292593336}, "119132462RR0001": {"name": "SAINT JOSEPH PARISH", "designationCode": "C", "categoryCode": "38", "address": "P. O. BOX 1000 STN MAIN", "city": "BORDEN", "province": "ON", "country": "CA", "postalCode": "L0M1C0", "twitter": "None", "instagram": "None", "facebook": "None", "youtube": "None", "website": "None", "summary": "None", "logo": "None", "latitude": 44.28204900000006, "longitude": -79.88016049999993}, "880122627RR0001": {"name": "SAINT JOSEPH SYRIAC CATHOLIC CHURCH", "designationCode": "C", "categoryCode": "39", "address": "999 LAKESHORE RD .E.", "city": "MISSISSAUGA", "province": "ON", "country": "CA", "postalCode": "L5E1E5", "twitter": "None", "instagram": "None", "facebook": "None", "youtube": "None", "website": "None", "summary": "None", "logo": "None", "latitude": 43.57619929643938, "longitude": -79.55953477869441}, "119132488RR0001": {"name": "SAINT JOSEPH'S POLISH NATIONAL CATHOLIC CHURCH", "designationCode": "C", "categoryCode": "39", "address": "1078 TOSHACK RD", "city": "WEST ST PAUL", "province": "MB", "country": "CA", "postalCode": "R4A7A6", "twitter": "None", "instagram": "None", "facebook": "None", "youtube": "None", "website": "None", "summary": "None", "logo": "None", "latitude": 50.00486344093839, "longitude": -97.14754778407243}, "119184737RR0001": {"name": "SAINT JUTTA FOUNDATION (CANADA)", "designationCode": "C", "categoryCode": "49", "address": "432 SHEPPARD AVE EAST", "city": "TORONTO", "province": "ON", "country": "CA", "postalCode": "M2N3B7", "twitter": "None", "instagram": "None", "facebook": "None", "youtube": "None", "website": "None", "summary": "None", "logo": "None", "latitude": 43.76594012245332, "longitude": -79.390978447429}, "888670395RR0002": {"name": "SAINT LAWRENCE CHURCH (ANGLICAN CONGREGATION)", "designationCode": "C", "categoryCode": "30", "address": "520-75TH AVENUE", "city": "LASALLE", "province": "QC", "country": "CA", "postalCode": "H8R2P5", "twitter": "None", "instagram": "None", "facebook": "None", "youtube": "None", "website": "None", "summary": "None", "logo": "None", "latitude": 45.419284256737214, "longitude": -73.63084945617157}, "130091135RR0023": {"name": "SAINT LAWRENCE O'TOOLE PARISH/PAROISSE SAINT LAURENT", "designationCode": "C", "categoryCode": "38", "address": "340 DOMINION ST", "city": "MONCTON", "province": "NB", "country": "CA", "postalCode": "E1C6H8", "twitter": "None", "instagram": "None", "facebook": "None", "youtube": "None", "website": "None", "summary": "None", "logo": "None", "latitude": 46.096802402995, "longitude": -64.79512648294754}, "108027590RR0001": {"name": "SAINT LEONARD'S SOCIETY OF NOVA SCOTIA", "designationCode": "C", "categoryCode": "59", "address": "101-5506 CUNARD STREET", "city": "HALIFAX", "province": "NS", "country": "CA", "postalCode": "B3K1C2", "twitter": "None", "instagram": "None", "facebook": "None", "youtube": "None", "website": "None", "summary": "None", "logo": "None", "latitude": 44.65315851373422, "longitude": -63.58559636857297}, "889916680RR0001": {"name": "SAINT LUKE PLACE FOUNDATION", "designationCode": "A", "categoryCode": "03", "address": "1624 FRANKLIN BLVD.", "city": "CAMBRIDGE", "province": "ON", "country": "CA", "postalCode": "N3C3P4", "twitter": "None", "instagram": "None", "facebook": "None", "youtube": "None", "website": "None", "summary": "None", "logo": "None", "latitude": 43.42445402452476, "longitude": -80.31019454127365}, "119132496RR0001": {"name": "SAINT LUKE'S DIXIE SENIOR RESIDENCE CORP.", "designationCode": "C", "categoryCode": "09", "address": "4150 WESTMINSTER PLACE", "city": "MISSISSAUGA", "province": "ON", "country": "CA", "postalCode": "L4W3Z7", "twitter": "None", "instagram": "None", "facebook": "None", "youtube": "None", "website": "None", "summary": "None", "logo": "None", "latitude": 43.61528599471988, "longitude": -79.61847747157924}, "119132504RR0001": {"name": "SAINT LUKE'S PLACE", "designationCode": "C", "categoryCode": "01", "address": "1624 FRANKLIN BLVD", "city": "CAMBRIDGE (HESPELER)", "province": "ON", "country": "CA", "postalCode": "N3C3P4", "twitter": "None", "instagram": "None", "facebook": "None", "youtube": "None", "website": "None", "summary": "None", "logo": "None", "latitude": 43.42445402452476, "longitude": -80.31019454127365}, "108028267RR0001": {"name": "SAINT LUKE'S UNITED CHURCH", "designationCode": "C", "categoryCode": "44", "address": "1620 FRANKLIN BLVD", "city": "CAMBRIDGE", "province": "ON", "country": "CA", "postalCode": "N3C1P2", "twitter": "None", "instagram": "None", "facebook": "None", "youtube": "None", "website": "None", "summary": "None", "logo": "None", "latitude": 43.424711559813026, "longitude": -80.31016030021893}, "119132538RR0001": {"name": "SAINT MARK'S COPTIC ORTHODOX CHURCH", "designationCode": "C", "categoryCode": "39", "address": "41 GLENDINNING AVE", "city": "SCARBOROUGH", "province": "ON", "country": "CA", "postalCode": "M1W3E2", "twitter": "None", "instagram": "None", "facebook": "None", "youtube": "None", "website": "None", "summary": "None", "logo": "None", "latitude": 43.81209177266451, "longitude": -79.3326152993249}, "108029034RR0001": {"name": "SAINT MARK'S EVANGELICAL LUTHERAN CHURCH, REGINA, SASKATCHEWAN", "designationCode": "C", "categoryCode": "32", "address": "3510 QUEEN STREET", "city": "REGINA", "province": "SK", "country": "CA", "postalCode": "S4S2G2", "twitter": "None", "instagram": "None", "facebook": "None", "youtube": "None", "website": "None", "summary": "None", "logo": "None", "latitude": 50.42331067055227, "longitude": -104.63692510750698}, "854710373RR0001": {"name": "SAINT MARK'S ORTHODOX FELLOWSHIP (CANADA) INC.", "designationCode": "C", "categoryCode": "49", "address": "243 PRINCESS AVENUE", "city": "TORONTO", "province": "ON", "country": "CA", "postalCode": "M2N3S2", "twitter": "None", "instagram": "None", "facebook": "None", "youtube": "None", "website": "None", "summary": "None", "logo": "None", "latitude": 43.77090086759203, "longitude": -79.40109817984307}, "890245996RR0001": {"name": "SAINT MARTINS CEMETERY COMPANY", "designationCode": "C", "categoryCode": "59", "address": "12 MOSHER HILL", "city": "ST MARTINS", "province": "NB", "country": "CA", "postalCode": "E5R1G9", "twitter": "None", "instagram": "None", "facebook": "None", "youtube": "None", "website": "None", "summary": "None", "logo": "None", "latitude": 45.34313618737356, "longitude": -65.55729608491555}, "873238539RR0001": {"name": "SAINT MARY & SAINT ABRAAM COPTIC ORTHODOX CHURCH", "designationCode": "C", "categoryCode": "39", "address": "415 MCKENZIE AVENUE", "city": "AJAX", "province": "ON", "country": "CA", "postalCode": "L1S2G2", "twitter": "None", "instagram": "None", "facebook": "None", "youtube": "None", "website": "None", "summary": "None", "logo": "None", "latitude": 43.83891228256091, "longitude": -79.02680893594606}, "129365920RR0001": {"name": "SAINT MARY ARMENIAN APOSTOLIC CHURCH OF TORONTO", "designationCode": "C", "categoryCode": "39", "address": "45 HALLCROWN PLACE", "city": "WILLOWDALE", "province": "ON", "country": "CA", "postalCode": "M2J4Y4", "twitter": "None", "instagram": "None", "facebook": "None", "youtube": "None", "website": "None", "summary": "None", "logo": "None", "latitude": 43.770191218420045, "longitude": -79.32306468985601}, "860326669RR0001": {"name": "SAINT MARY ERITREAN ORTHODOX AGAZIAN CHURCH", "designationCode": "C", "categoryCode": "39", "address": "155 AHRENS STREET WEST", "city": "KITCHENER", "province": "ON", "country": "CA", "postalCode": "N2H4C6", "twitter": "None", "instagram": "None", "facebook": "None", "youtube": "None", "website": "None", "summary": "None", "logo": "None", "latitude": 43.45835230307581, "longitude": -80.49361102749712}, "118787142RR0031": {"name": "SAINT MARY MAGDALENE CHURCH", "designationCode": "C", "categoryCode": "30", "address": "360 GEORGINA POINT ROAD", "city": "MAYNE ISLAND", "province": "BC", "country": "CA", "postalCode": "V0N2J1", "twitter": "None", "instagram": "None", "facebook": "None", "youtube": "None", "website": "None", "summary": "None", "logo": "None", "latitude": 48.85678930200868, "longitude": -123.29711952609675}, "811917673RR0001": {"name": "SAINT MARY'S CATHOLIC CEMETERY ASSOCIATION", "designationCode": "C", "categoryCode": "59", "address": "96 SLIPP DRIVE", "city": "MAZEROLLE SETTLEMENT", "province": "NB", "country": "CA", "postalCode": "E3E2A8", "twitter": "None", "instagram": "None", "facebook": "None", "youtube": "None", "website": "None", "summary": "None", "logo": "None", "latitude": 45.88903462559865, "longitude": -66.82340082416762}, "118841055RR0009": {"name": "SAINT MARY'S CHURCH", "designationCode": "C", "categoryCode": "38", "address": "5119-5TH AVENUE", "city": "WHITEHORSE", "province": "YT", "country": "CA", "postalCode": "Y1A1L5", "twitter": "None", "instagram": "None", "facebook": "None", "youtube": "None", "website": "None", "summary": "None", "logo": "None", "latitude": 60.7190449431637, "longitude": -135.0584880610393}, "888985991RR0001": {"name": "SAINT MARY'S HEALTH FOUNDATION OF NEW WESTMINSTER", "designationCode": "A", "categoryCode": "13", "address": "203 - 1120 WESTWOOD ST", "city": "COQUITLAM", "province": "BC", "country": "CA", "postalCode": "V3B4S4", "twitter": "None", "instagram": "None", "facebook": "None", "youtube": "None", "website": "None", "summary": "None", "logo": "None", "latitude": 49.27853837246812, "longitude": -122.79051493230979}, "856794169RR0001": {"name": "SAINT MATTHEW COPTIC ORTHODOX CHRISTIAN CHARITY", "designationCode": "C", "categoryCode": "47", "address": "27 BELLINGER DRIVE", "city": "AJAX", "province": "ON", "country": "CA", "postalCode": "L1T0K2", "twitter": "None", "instagram": "None", "facebook": "None", "youtube": "None", "website": "None", "summary": "None", "logo": "None", "latitude": 43.88093403613474, "longitude": -79.04926185749058}, "891995441RR0001": {"name": "SAINT MATTHEW ROMANIAN ORTHODOX CHURCH OF OTTAWA", "designationCode": "C", "categoryCode": "39", "address": "19 CORDOVA ST.", "city": "OTTAWA", "province": "ON", "country": "CA", "postalCode": "K2G1M9", "twitter": "None", "instagram": "None", "facebook": "None", "youtube": "None", "website": "None", "summary": "None", "logo": "None", "latitude": 45.35448775714126, "longitude": -75.74743734375889}, "108099771RR0004": {"name": "SAINT MATTHIAS ANGLICAN CHURCH", "designationCode": "C", "categoryCode": "30", "address": "86 GLASGOW ST N", "city": "GUELPH", "province": "ON", "country": "CA", "postalCode": "N1H4W2", "twitter": "None", "instagram": "None", "facebook": "None", "youtube": "None", "website": "None", "summary": "None", "logo": "None", "latitude": 43.54336124311857, "longitude": -80.2561961712734}, "888764065RR0001": {"name": "SAINT MICHAEL THE ARCH-ANGEL UKRAINIAN GREEK ORTHODOX CHURCH", "designationCode": "C", "categoryCode": "39", "address": "213 - 20 KLEISINGER CRES", "city": "REGINA", "province": "SK", "country": "CA", "postalCode": "S4R7M3", "twitter": "None", "instagram": "None", "facebook": "None", "youtube": "None", "website": "None", "summary": "None", "logo": "None", "latitude": 50.48537215488479, "longitude": -104.6080022922271}, "119132629RR0001": {"name": "SAINT MICHAEL THE ARCHANGEL UKRAINIAN CATHOLIC PARISH", "designationCode": "C", "categoryCode": "38", "address": "472 BAGOT STREET", "city": "KINGSTON", "province": "ON", "country": "CA", "postalCode": "K7K3C4", "twitter": "None", "instagram": "None", "facebook": "None", "youtube": "None", "website": "None", "summary": "None", "logo": "None", "latitude": 44.23693035858966, "longitude": -76.48397858425172}, "119132611RR0001": {"name": "SAINT MICHAEL'S HUNGARIAN GREEK CATHOLIC CHURCH", "designationCode": "C", "categoryCode": "39", "address": "525 WEST 5TH STREET", "city": "HAMILTON", "province": "ON", "country": "CA", "postalCode": "L9C3P7", "twitter": "None", "instagram": "None", "facebook": "None", "youtube": "None", "website": "None", "summary": "None", "logo": "None", "latitude": 43.22841014042941, "longitude": -79.88702090766954}, "132349044RR0001": {"name": "SAINT MONICA HOUSE", "designationCode": "C", "categoryCode": "01", "address": "231 HERBERT STREET", "city": "WATERLOO", "province": "ON", "country": "CA", "postalCode": "N2J1V1", "twitter": "None", "instagram": "None", "facebook": "None", "youtube": "None", "website": "None", "summary": "None", "logo": "None", "latitude": 43.460689234231765, "longitude": -80.51501730226775}, "132690280RR0001": {"name": "SAINT NICHOLAS ORTHODOX CHURCH", "designationCode": "C", "categoryCode": "39", "address": "BOX 9", "city": "SANDY LAKE", "province": "MB", "country": "CA", "postalCode": "R0J1X0", "twitter": "None", "instagram": "None", "facebook": "None", "youtube": "None", "website": "None", "summary": "None", "logo": "None", "latitude": 50.52604802382196, "longitude": -100.17807618143935}, "128967353RR0005": {"name": "SAINT PATRICK'S BASILICA", "designationCode": "C", "categoryCode": "38", "address": "281 NEPEAN ST", "city": "OTTAWA", "province": "ON", "country": "CA", "postalCode": "K1R5G2", "twitter": "None", "instagram": "None", "facebook": "None", "youtube": "None", "website": "None", "summary": "None", "logo": "None", "latitude": 45.41615948407273, "longitude": -75.70086246352916}, "817137516RR0001": {"name": "SAINT PAUL ROMAN CATHOLIC PARISH (STURGEON) INC.", "designationCode": "C", "categoryCode": "38", "address": "PO BOX 209", "city": "MONTAGUE", "province": "PE", "country": "CA", "postalCode": "C0A1R0", "twitter": "None", "instagram": "None", "facebook": "None", "youtube": "None", "website": "None", "summary": "None", "logo": "None", "latitude": 46.14343222329997, "longitude": -62.75594020244682}, "108039447RR0001": {"name": "SAINT PHILIP ANTIOCHIAN ORTHODOX CHURCH OF EDMONTON, ALBERTA", "designationCode": "C", "categoryCode": "39", "address": "15804 98 AVE", "city": "EDMONTON", "province": "AB", "country": "CA", "postalCode": "T5P4R9", "twitter": "None", "instagram": "None", "facebook": "None", "youtube": "None", "website": "None", "summary": "None", "logo": "None", "latitude": 53.536203533181286, "longitude": -113.59425052553523}, "131550741RR0001": {"name": "SAINT RENE GOUPIL OTTAWA CATHOLIC DEAF COMMUNITY", "designationCode": "C", "categoryCode": "49", "address": "19 HIGHBURN CRESCENT", "city": "GLOUCESTER", "province": "ON", "country": "CA", "postalCode": "K1B3H7", "twitter": "None", "instagram": "None", "facebook": "None", "youtube": "None", "website": "None", "summary": "None", "logo": "None", "latitude": 45.43846582431186, "longitude": -75.56561178463838}, "140854902RR0001": {"name": "SAINT SAMUEL CHURCH OF GOD IN CHRIST", "designationCode": "C", "categoryCode": "39", "address": "12701 LITTLE RIVER BLVD", "city": "TECUMSEH", "province": "ON", "country": "CA", "postalCode": "N8N3P9", "twitter": "None", "instagram": "None", "facebook": "None", "youtube": "None", "website": "None", "summary": "None", "logo": "None", "latitude": 42.32649561138226, "longitude": -82.88132465128464}, "718045495RR0001": {"name": "SAINT SIMEON STYLITES MELKITE CATHOLIC CHURCH", "designationCode": "C", "categoryCode": "39", "address": "3514 DEERBROOK DR", "city": "WINDSOR", "province": "ON", "country": "CA", "postalCode": "N8R2E4", "twitter": "None", "instagram": "None", "facebook": "None", "youtube": "None", "website": "None", "summary": "None", "logo": "None", "latitude": 42.29847237665172, "longitude": -82.90670029655493}, "898953211RR0001": {"name": "SAINT STEPHEN'S ANGLICAN CHURCH", "designationCode": "C", "categoryCode": "30", "address": "BOX 551", "city": "APSLEY", "province": "ON", "country": "CA", "postalCode": "K0L1A0", "twitter": "None", "instagram": "None", "facebook": "None", "youtube": "None", "website": "None", "summary": "None", "logo": "None", "latitude": 44.74924000000004, "longitude": -78.09319999999997}, "129884680RR0001": {"name": "SAINT THOMAS BAPTIST CHURCH", "designationCode": "C", "categoryCode": "31", "address": "35 SIMMONDS ROAD", "city": "NORTH PRESTON", "province": "NS", "country": "CA", "postalCode": "B2Z1A3", "twitter": "None", "instagram": "None", "facebook": "None", "youtube": "None", "website": "None", "summary": "None", "logo": "None", "latitude": 44.74592540940029, "longitude": -63.466970715650085}, "135561991RR0001": {"name": "SAINT VARTAN ARMENIAN CHURCH OF MISSISSAUGA", "designationCode": "C", "categoryCode": "39", "address": "1436 ALBION AVENUE", "city": "OAKVILLE", "province": "ON", "country": "CA", "postalCode": "L6J5T2", "twitter": "None", "instagram": "None", "facebook": "None", "youtube": "None", "website": "None", "summary": "None", "logo": "None", "latitude": 43.46993384678866, "longitude": -79.65199464319936}, "119109833RR0052": {"name": "SAINT VINCENT DE PAUL PARISH", "designationCode": "C", "categoryCode": "38", "address": "320 FLYING CLOUD DRIVE", "city": "DARTMOUTH", "province": "NS", "country": "CA", "postalCode": "B2W4T6", "twitter": "None", "instagram": "None", "facebook": "None", "youtube": "None", "website": "None", "summary": "None", "logo": "None", "latitude": 44.689972471030984, "longitude": -63.495696009059685}, "107909939RR0011": {"name": "SAINT VINCENT LIEM PARISH", "designationCode": "C", "categoryCode": "38", "address": "2412 48 ST SE", "city": "CALGARY", "province": "AB", "country": "CA", "postalCode": "T2B1M4", "twitter": "None", "instagram": "None", "facebook": "None", "youtube": "None", "website": "None", "summary": "None", "logo": "None", "latitude": 51.03263632944774, "longitude": -113.96425786635128}, "805030673RR0001": {"name": "SAINT VIRGIN MARY ETHIOPIAN ORTHODOX TEWAHEDO CHURCH-EDMONT ON", "designationCode": "C", "categoryCode": "39", "address": "16302 106 AVE NW", "city": "EDMONTON", "province": "AB", "country": "CA", "postalCode": "T5P0W9", "twitter": "None", "instagram": "None", "facebook": "None", "youtube": "None", "website": "None", "summary": "None", "logo": "None", "latitude": 53.54990475096197, "longitude": -113.60280657090476}, "866995699RR0001": {"name": "SAINT-CHARLES - NATIVITY CEMETERY COMMITTEE", "designationCode": "C", "categoryCode": "59", "address": "PO BOX 1075", "city": "AMHERST", "province": "NS", "country": "CA", "postalCode": "B4H4E2", "twitter": "None", "instagram": "None", "facebook": "None", "youtube": "None", "website": "None", "summary": "None", "logo": "None", "latitude": 45.83198400000006, "longitude": -64.20979249999993}, "131771990RR0006": {"name": "SAINT-JOSEPH'S PARISH", "designationCode": "C", "categoryCode": "38", "address": "151 LAURIER AVENUE EAST", "city": "OTTAWA", "province": "ON", "country": "CA", "postalCode": "K1N6N8", "twitter": "None", "instagram": "None", "facebook": "None", "youtube": "None", "website": "None", "summary": "None", "logo": "None", "latitude": 45.42486646575087, "longitude": -75.68407172219962}, "128967353RR0117": {"name": "SAINT-MICHAEL'S PARISH", "designationCode": "C", "categoryCode": "38", "address": "1560 CORKERY ROAD", "city": "CARP", "province": "ON", "country": "CA", "postalCode": "K0A1L0", "twitter": "None", "instagram": "None", "facebook": "None", "youtube": "None", "website": "None", "summary": "None", "logo": "None", "latitude": 45.28110264394918, "longitude": -76.09789527540579}, "882493984RR0001": {"name": "SAINT-VINCENT-DE-PAUL CONFERENCE DE STE-JULIENNE", "designationCode": "C", "categoryCode": "09", "address": "1484 RUE ALBERT", "city": "SAINTE-JULIENNE", "province": "QC", "country": "CA", "postalCode": "J0K2T0", "twitter": "None", "instagram": "None", "facebook": "None", "youtube": "None", "website": "None", "summary": "None", "logo": "None", "latitude": 45.96224679739166, "longitude": -73.71596912574289}, "119132686RR0001": {"name": "SAINTS ALIVE IN JESUS OF CANADA SOCIETY", "designationCode": "C", "categoryCode": "47", "address": "804 - 750 PENDER ST W", "city": "VANCOUVER", "province": "BC", "country": "CA", "postalCode": "V6C2T7", "twitter": "None", "instagram": "None", "facebook": "None", "youtube": "None", "website": "None", "summary": "None", "logo": "None", "latitude": 49.28504724089025, "longitude": -123.11557041748901}, "140976184RR0001": {"name": "SAINTS PANTELEIMON, ANNA, AND PARASKEVI GREEK ORTHODOX CHURCH OF MARKHAM", "designationCode": "C", "categoryCode": "39", "address": "11359 WARDEN AVE", "city": "MARKHAM", "province": "ON", "country": "CA", "postalCode": "L6C1M9", "twitter": "None", "instagram": "None", "facebook": "None", "youtube": "None", "website": "None", "summary": "None", "logo": "None", "latitude": 43.92484539021169, "longitude": -79.35145980782995}, "892183187RR0001": {"name": "SAINTS PETER AND PAUL ANTIOCHIAN CHRISTIAN ORTHODOX CHURCH INC.", "designationCode": "C", "categoryCode": "39", "address": "26 LOWER MALPEQUE ROAD", "city": "CHARLOTTETOWN", "province": "PE", "country": "CA", "postalCode": "C1E1R3", "twitter": "None", "instagram": "None", "facebook": "None", "youtube": "None", "website": "None", "summary": "None", "logo": "None", "latitude": 46.266114897310835, "longitude": -63.15920325907448}, "873217095RR0001": {"name": "SAINTS PETER AND PAUL UKRAINIAN CATHOLIC CHURCH", "designationCode": "C", "categoryCode": "39", "address": "BOX 115", "city": "GRINDROD", "province": "BC", "country": "CA", "postalCode": "V0E1Y0", "twitter": "None", "instagram": "None", "facebook": "None", "youtube": "None", "website": "None", "summary": "None", "logo": "None", "latitude": 50.62721000000005, "longitude": -119.12051999999994}, "119042604RR0001": {"name": "SAINTS-MARTYRS-COREENS", "designationCode": "C", "categoryCode": "38", "address": "2461 RUE ST JACQUES", "city": "MONTREAL", "province": "QC", "country": "CA", "postalCode": "H3J1H8", "twitter": "None", "instagram": "None", "facebook": "None", "youtube": "None", "website": "None", "summary": "None", "logo": "None", "latitude": 45.485128255640696, "longitude": -73.57743695992248}, "896650223RR0001": {"name": "SAIRAH SERVICE D'AUTONOMISATION, D'INT\u00c9GRATION ET DE R\u00c9ADAPTATION AUX ADULTES AYANT UN HANDICAP INC.", "designationCode": "C", "categoryCode": "09", "address": "7575 BOUL. HENRI BOURASSA     C.P. 34018", "city": "QU\u00c9BEC", "province": "QC", "country": "CA", "postalCode": "G1G6P2", "twitter": "None", "instagram": "None", "facebook": "None", "youtube": "None", "website": "None", "summary": "None", "logo": "None", "latitude": 46.85947216928286, "longitude": -71.26437112493481}, "131653636RR0001": {"name": "SAIVA MISSION OF QUEBEC - LA MISSION SAIVA DU QUEBEC", "designationCode": "C", "categoryCode": "39", "address": "1611 ST-REGIS BLVD.", "city": "DOLLARD-DES-ORMEAUX", "province": "QC", "country": "CA", "postalCode": "H9B3H7", "twitter": "None", "instagram": "None", "facebook": "None", "youtube": "None", "website": "None", "summary": "None", "logo": "None", "latitude": 45.489109042760575, "longitude": -73.77950416446407}, "831110473RR0001": {"name": "SAJJADIYYA TRUST", "designationCode": "C", "categoryCode": "59", "address": "14 LEACOCK CRT", "city": "THORNHILL", "province": "ON", "country": "CA", "postalCode": "L3T6X9", "twitter": "None", "instagram": "None", "facebook": "None", "youtube": "None", "website": "None", "summary": "None", "logo": "None", "latitude": 43.83048449235395, "longitude": -79.37072400447207}, "896673290RR0001": {"name": "SAKEWEWAK FIRST NATIONS ARTISTS' COLLECTIVE", "designationCode": "C", "categoryCode": "50", "address": "2C - 1440 BROADWAY AVE", "city": "REGINA", "province": "SK", "country": "CA", "postalCode": "S4P1E2", "twitter": "None", "instagram": "None", "facebook": "None", "youtube": "None", "website": "None", "summary": "None", "logo": "None", "latitude": 50.437723533758195, "longitude": -104.60102310935426}, "119132769RR0001": {"name": "SAKINA TEMPLE NO. 145 DAUGHTERS OF THE NILE CONVALESCENT RELIEF AND CONVALESCENT END FUND", "designationCode": "C", "categoryCode": "19", "address": "2244 RUSSELL ROAD", "city": "OTTAWA", "province": "ON", "country": "CA", "postalCode": "K1G1B3", "twitter": "None", "instagram": "None", "facebook": "None", "youtube": "None", "website": "None", "summary": "None", "logo": "None", "latitude": 45.395724470685224, "longitude": -75.61382497631111}, "888114865RR0001": {"name": "SAKYA TSECHEN THUBTEN LING ASSOCIATION", "designationCode": "C", "categoryCode": "35", "address": "5231 MAPLE ROAD", "city": "RICHMOND", "province": "BC", "country": "CA", "postalCode": "V7E1G2", "twitter": "None", "instagram": "None", "facebook": "None", "youtube": "None", "website": "None", "summary": "None", "logo": "None", "latitude": 49.146892500432685, "longitude": -123.1665705}, "107408536RR0001": {"name": "SALAAM MINISTRIES", "designationCode": "C", "categoryCode": "47", "address": "#2020 SUNLIFE PLACE           10123 - 99 ST", "city": "EDMONTON", "province": "AB", "country": "CA", "postalCode": "T5J3H1", "twitter": "None", "instagram": "None", "facebook": "None", "youtube": "None", "website": "None", "summary": "None", "logo": "None", "latitude": 53.54197556203473, "longitude": -113.48865557807756}, "891127375RR0001": {"name": "SALAHEDDIN ISLAMIC CENTRE INC", "designationCode": "C", "categoryCode": "60", "address": "741 KENNEDY RD", "city": "SCARBOROUGH", "province": "ON", "country": "CA", "postalCode": "M1K2C6", "twitter": "None", "instagram": "None", "facebook": "None", "youtube": "None", "website": "None", "summary": "None", "logo": "None", "latitude": 43.730577144353205, "longitude": -79.2672583509732}, "898470513RR0001": {"name": "SALAL FOUNDATION", "designationCode": "C", "categoryCode": "03", "address": "PO BOX 8542 STN CENTRAL", "city": "VICTORIA", "province": "BC", "country": "CA", "postalCode": "V8W3S2", "twitter": "None", "instagram": "None", "facebook": "None", "youtube": "None", "website": "None", "summary": "None", "logo": "None", "latitude": 48.42854700000005, "longitude": -123.36445249999994}, "890627672RR0001": {"name": "SALAMA SHIELD FOUNDATION", "designationCode": "C", "categoryCode": "21", "address": "335 LANCASTER ST W", "city": "KITCHENER", "province": "ON", "country": "CA", "postalCode": "N2H4V4", "twitter": "None", "instagram": "None", "facebook": "None", "youtube": "None", "website": "None", "summary": "None", "logo": "None", "latitude": 43.46971124562873, "longitude": -80.48434785792581}, "141039289RR0001": {"name": "SALAMANDER THEATRE FOR YOUNG AUDIENCES", "designationCode": "C", "categoryCode": "22", "address": "15 ROSLYN AVE", "city": "OTTAWA", "province": "ON", "country": "CA", "postalCode": "K1S4V9", "twitter": "None", "instagram": "None", "facebook": "None", "youtube": "None", "website": "None", "summary": "None", "logo": "None", "latitude": 45.39330390758262, "longitude": -75.69042808782973}, "119132793RR0001": {"name": "SALEM ACRES BIBLE CAMP ASSOCIATION", "designationCode": "C", "categoryCode": "59", "address": "PO BOX 84129 RPO MARKET MALL", "city": "CALGARY", "province": "AB", "country": "CA", "postalCode": "T3A5C4", "twitter": "None", "instagram": "None", "facebook": "None", "youtube": "None", "website": "None", "summary": "None", "logo": "None", "latitude": 51.08194000000003, "longitude": -114.15466999999995}, "834201337RR0001": {"name": "SALEM BAPTIST CHURCH ALBERT COUNTY INC.", "designationCode": "C", "categoryCode": "31", "address": "4404 ROUTE 910", "city": "SALEM", "province": "NB", "country": "CA", "postalCode": "E4H4G1", "twitter": "None", "instagram": "None", "facebook": "None", "youtube": "None", "website": "None", "summary": "None", "logo": "None", "latitude": 45.910987529939135, "longitude": -64.7089291580329}, "119132801RR0001": {"name": "SALEM BAPTIST CHURCH INC.", "designationCode": "C", "categoryCode": "31", "address": "234 MAIN ST", "city": "SACKVILLE", "province": "NB", "country": "CA", "postalCode": "E4L3A9", "twitter": "None", "instagram": "None", "facebook": "None", "youtube": "None", "website": "None", "summary": "None", "logo": "None", "latitude": 45.91169052625638, "longitude": -64.37297983060158}, "700949928RR0001": {"name": "SALEM CEMETERY", "designationCode": "C", "categoryCode": "59", "address": "65 PARLIAMENT STREET", "city": "COLBORNE", "province": "ON", "country": "CA", "postalCode": "K0K1S0", "twitter": "None", "instagram": "None", "facebook": "None", "youtube": "None", "website": "None", "summary": "None", "logo": "None", "latitude": 44.016780006665094, "longitude": -77.87069707900025}, "107950479RR0001": {"name": "SALEM CHURCH OF WALDHEIM, SASKATCHEWAN INC.", "designationCode": "C", "categoryCode": "34", "address": "BOX 303", "city": "WALDHEIM", "province": "SK", "country": "CA", "postalCode": "S0K4R0", "twitter": "None", "instagram": "None", "facebook": "None", "youtube": "None", "website": "None", "summary": "None", "logo": "None", "latitude": 52.620700000000056, "longitude": -106.65605}, "890004377RR0001": {"name": "SALEM EVANGELICAL CHURCH AUGSBURG", "designationCode": "C", "categoryCode": "39", "address": "RR5 449 AUGSBURG RD", "city": "EGANVILLE", "province": "ON", "country": "CA", "postalCode": "K0J1T0", "twitter": "None", "instagram": "None", "facebook": "None", "youtube": "None", "website": "None", "summary": "None", "logo": "None", "latitude": 45.539471703849095, "longitude": -77.11888507299898}, "889247607RR0001": {"name": "SALEM EVANGELICAL LUTHERAN CHURCH", "designationCode": "C", "categoryCode": "39", "address": "BOX 198", "city": "SPRAGUE", "province": "MB", "country": "CA", "postalCode": "R0A1Z0", "twitter": "None", "instagram": "None", "facebook": "None", "youtube": "None", "website": "None", "summary": "None", "logo": "None", "latitude": 49.03615000000008, "longitude": -95.64291999999995}}