{"808297543RR0001": {"name": "Troupe de th\u00e9\u00e2tre Les Pas pour Rire", "designationCode": "C", "categoryCode": "22", "address": "321 - 30 RUE SAINT-THOMAS", "city": "SALABERRY-DE-VALLEYFIELD", "province": "QC", "country": "CA", "postalCode": "J6T4J2", "twitter": "None", "instagram": "None", "facebook": "None", "youtube": "None", "website": "None", "summary": "None", "logo": "None", "latitude": 45.25532801053158, "longitude": -74.13361876496019}, "119271690RR0001": {"name": "Trout Unlimited Canada - Truite Illimit\u00e9e Canada", "designationCode": "C", "categoryCode": "54", "address": "SUITE 160, 6712 FISHER ST SE", "city": "CALGARY", "province": "AB", "country": "CA", "postalCode": "T2H2A7", "twitter": "None", "instagram": "None", "facebook": "None", "youtube": "None", "website": "None", "summary": "None", "logo": "None"}, "823805080RR0001": {"name": "Troy's Run Foundation Benefiting Brain Injury Awareness", "designationCode": "C", "categoryCode": "11", "address": "31 PARK LANE", "city": "FOREST", "province": "ON", "country": "CA", "postalCode": "N0N1J0", "twitter": "None", "instagram": "None", "facebook": "None", "youtube": "None", "website": "None", "summary": "None", "logo": "None", "latitude": 43.09101301448754, "longitude": -82.00540314420358}, "873301956RR0001": {"name": "Troyanda Ukrainian Dance Club, Lethbridge Alberta", "designationCode": "C", "categoryCode": "22", "address": "P.O. BOX 27015", "city": "LETHBRIDGE", "province": "AB", "country": "CA", "postalCode": "T1K6Z8", "twitter": "None", "instagram": "None", "facebook": "None", "youtube": "None", "website": "None", "summary": "None", "logo": "None", "latitude": 49.69383000000006, "longitude": -112.83373249999994}, "847252301RR0001": {"name": "Tru North CRC Churches International Society", "designationCode": "C", "categoryCode": "39", "address": "29-20875 88 AVENUE", "city": "LANGLEY", "province": "BC", "country": "CA", "postalCode": "V1M3K1", "twitter": "None", "instagram": "None", "facebook": "None", "youtube": "None", "website": "None", "summary": "None", "logo": "None", "latitude": 49.1627934676841, "longitude": -122.64554246863639}, "806196036RR0001": {"name": "True to The End Quinlan Family Foundation/ Fondation familiale Quinlan Fid\u00e9lit\u00e9 jusqu'\u00e0 la fin", "designationCode": "B", "categoryCode": "03", "address": "515 BEAUREPAIRE DRIVE", "city": "BEACONSFIELD", "province": "QC", "country": "CA", "postalCode": "H9W3C7", "twitter": "None", "instagram": "None", "facebook": "None", "youtube": "None", "website": "None", "summary": "None", "logo": "None", "latitude": 45.425874288937536, "longitude": -73.8874885700848}, "853829596RR0001": {"name": "True Buddha Jing Yin Temple", "designationCode": "C", "categoryCode": "35", "address": "722 BRIMLEY ROAD", "city": "TORONTO", "province": "ON", "country": "CA", "postalCode": "M1J1C2", "twitter": "None", "instagram": "None", "facebook": "None", "youtube": "None", "website": "None", "summary": "None", "logo": "None", "latitude": 43.748131107680805, "longitude": -79.25317582157055}, "832578512RR0001": {"name": "True Holiness Apostolic Church of Jesus Christ", "designationCode": "C", "categoryCode": "39", "address": "15 CROWN VICTORIA DRIVE,", "city": "BRAMPTON", "province": "ON", "country": "CA", "postalCode": "L7A3A2", "twitter": "None", "instagram": "None", "facebook": "None", "youtube": "None", "website": "None", "summary": "None", "logo": "None", "latitude": 43.69182765058561, "longitude": -79.83388357519203}, "765348495RR0001": {"name": "True Jesus Church in Kitchener-Waterloo", "designationCode": "C", "categoryCode": "39", "address": "72 DOON CREEK ST", "city": "KITCHENER", "province": "ON", "country": "CA", "postalCode": "N2R0B6", "twitter": "None", "instagram": "None", "facebook": "None", "youtube": "None", "website": "None", "summary": "None", "logo": "None", "latitude": 43.381224963096486, "longitude": -80.44356167955462}, "845854843RR0001": {"name": "True Jesus Church in Surrey", "designationCode": "C", "categoryCode": "39", "address": "4580 GOTHARD ST", "city": "VANCOUVER", "province": "BC", "country": "CA", "postalCode": "V5R3K7", "twitter": "None", "instagram": "None", "facebook": "None", "youtube": "None", "website": "None", "summary": "None", "logo": "None", "latitude": 49.24366243046347, "longitude": -123.05195896500105}, "836168377RR0001": {"name": "True Life Church Inc.", "designationCode": "C", "categoryCode": "39", "address": "PO BOX 8612", "city": "ST JOHN'S", "province": "NL", "country": "CA", "postalCode": "A1B3P2", "twitter": "None", "instagram": "None", "facebook": "None", "youtube": "None", "website": "None", "summary": "None", "logo": "None", "latitude": 47.56938900000006, "longitude": -52.78609699999993}, "844808246RR0001": {"name": "True Life Fellowship", "designationCode": "C", "categoryCode": "45", "address": "22 DEWFALL CRES.", "city": "AJAX", "province": "ON", "country": "CA", "postalCode": "L1Z2C7", "twitter": "None", "instagram": "None", "facebook": "None", "youtube": "None", "website": "None", "summary": "None", "logo": "None", "latitude": 43.83601650678067, "longitude": -78.99160396335627}, "866504343RR0001": {"name": "True Light Apostolic Church of Jesus Christ", "designationCode": "C", "categoryCode": "39", "address": "16 GAME CREEK CRESCENT", "city": "BRAMPTON", "province": "ON", "country": "CA", "postalCode": "L7A0J2", "twitter": "None", "instagram": "None", "facebook": "None", "youtube": "None", "website": "None", "summary": "None", "logo": "None", "latitude": 43.722331953084506, "longitude": -79.82539977058703}, "829875996RR0001": {"name": "True Light Presbyterian Church Society", "designationCode": "C", "categoryCode": "37", "address": "5630 SPRUCE ST", "city": "BURNABY", "province": "BC", "country": "CA", "postalCode": "V5G1Y8", "twitter": "None", "instagram": "None", "facebook": "None", "youtube": "None", "website": "None", "summary": "None", "logo": "None", "latitude": 49.24688747013696, "longitude": -122.98128147016561}, "837571710RR0001": {"name": "True Missionary Church of God Ministries", "designationCode": "B", "categoryCode": "39", "address": "35 MAGILL DRIVE", "city": "AJAX", "province": "ON", "country": "CA", "postalCode": "L1T3H7", "twitter": "None", "instagram": "None", "facebook": "None", "youtube": "None", "website": "None", "summary": "None", "logo": "None", "latitude": 43.86872682373493, "longitude": -79.03224501941838}, "756275921RR0001": {"name": "True North Aborigional Partnership Inc.", "designationCode": "C", "categoryCode": "09", "address": "8 MULOCK DRIVE                POST OFFICE BOX 144", "city": "BOND HEAD", "province": "ON", "country": "CA", "postalCode": "L0G1B0", "twitter": "None", "instagram": "None", "facebook": "None", "youtube": "None", "website": "None", "summary": "None", "logo": "None", "latitude": 44.09039397114657, "longitude": -79.66726480910667}, "813183696RR0001": {"name": "True North Aid", "designationCode": "C", "categoryCode": "09", "address": "PO BOX 37023 RPO STANLEY PARK", "city": "KITCHENER", "province": "ON", "country": "CA", "postalCode": "N2A4A7", "twitter": "None", "instagram": "None", "facebook": "None", "youtube": "None", "website": "None", "summary": "None", "logo": "None", "latitude": 43.44494000000003, "longitude": -80.44366999999994}, "784583726RR0001": {"name": "True North Baptist Church Inc.", "designationCode": "C", "categoryCode": "31", "address": "167 BURNHAM ROAD", "city": "FLORENCEVILLE", "province": "NB", "country": "CA", "postalCode": "E7L1Z1", "twitter": "None", "instagram": "None", "facebook": "None", "youtube": "None", "website": "None", "summary": "None", "logo": "None", "latitude": 46.43169522791243, "longitude": -67.60744873010547}, "857659155RR0001": {"name": "True North Church Inc.", "designationCode": "C", "categoryCode": "39", "address": "PO BOX # 548", "city": "MILTON", "province": "ON", "country": "CA", "postalCode": "L9T4Z1", "twitter": "None", "instagram": "None", "facebook": "None", "youtube": "None", "website": "None", "summary": "None", "logo": "None", "latitude": 43.51104600000005, "longitude": -79.88386399999993}, "863760401RR0001": {"name": "True North Insight Meditation / M\u00e9ditation Voie bor\u00e9ale", "designationCode": "C", "categoryCode": "35", "address": "4137 OXFORD AVENUE", "city": "MONTREAL", "province": "QC", "country": "CA", "postalCode": "H4A2Y5", "twitter": "None", "instagram": "None", "facebook": "None", "youtube": "None", "website": "None", "summary": "None", "logo": "None", "latitude": 45.474109217612, "longitude": -73.62116158269386}, "897978912RR0001": {"name": "True North Ministries", "designationCode": "C", "categoryCode": "47", "address": "PO BOX 433", "city": "BLOOMFIELD", "province": "ON", "country": "CA", "postalCode": "K0K1G0", "twitter": "None", "instagram": "None", "facebook": "None", "youtube": "None", "website": "None", "summary": "None", "logo": "None", "latitude": 44.066016000000005, "longitude": -77.86520099999998}, "836569855RR0001": {"name": "True North Missions Society", "designationCode": "C", "categoryCode": "11", "address": "127 EDGEVIEW DR NW", "city": "CALGARY", "province": "AB", "country": "CA", "postalCode": "T3A4W9", "twitter": "None", "instagram": "None", "facebook": "None", "youtube": "None", "website": "None", "summary": "None", "logo": "None", "latitude": 51.13001826810553, "longitude": -114.15274616876323}, "888769478RR0001": {"name": "True North Youth Foundation Inc.", "designationCode": "A", "categoryCode": "03", "address": "345 GRAHAM AVENUE", "city": "WINNIPEG", "province": "MB", "country": "CA", "postalCode": "R3C5S6", "twitter": "None", "instagram": "None", "facebook": "None", "youtube": "None", "website": "None", "summary": "None", "logo": "None", "latitude": 49.89172024176222, "longitude": -97.14465758993587}, "814646493RR0001": {"name": "True Patriot Love Foundation", "designationCode": "A", "categoryCode": "03", "address": "130 BLOOR ST WEST             SUITE 905", "city": "TORONTO", "province": "ON", "country": "CA", "postalCode": "M5S1N5", "twitter": "None", "instagram": "None", "facebook": "None", "youtube": "None", "website": "None", "summary": "None", "logo": "None", "latitude": 43.669014147411616, "longitude": -79.39280797336825}, "826770497RR0001": {"name": "True Peace Sangha of Toronto", "designationCode": "C", "categoryCode": "35", "address": "637 STEWART LINE", "city": "CAVAN", "province": "ON", "country": "CA", "postalCode": "L0A1C0", "twitter": "None", "instagram": "None", "facebook": "None", "youtube": "None", "website": "None", "summary": "None", "logo": "None", "latitude": 44.229605799527846, "longitude": -78.5117580861129}, "763381498RR0001": {"name": "Trulife Ministries Corp.", "designationCode": "B", "categoryCode": "39", "address": "148 CASSIN CRES", "city": "WINNIPEG", "province": "MB", "country": "CA", "postalCode": "R3X1R3", "twitter": "None", "instagram": "None", "facebook": "None", "youtube": "None", "website": "None", "summary": "None", "logo": "None", "latitude": 49.83568035388645, "longitude": -97.05345055678326}, "801433483RR0001": {"name": "Trumpet of Truth Christian Ministries", "designationCode": "C", "categoryCode": "39", "address": "425 DUNDAS ST", "city": "WOODSTOCK", "province": "ON", "country": "CA", "postalCode": "N4S1B8", "twitter": "None", "instagram": "None", "facebook": "None", "youtube": "None", "website": "None", "summary": "None", "logo": "None", "latitude": 43.12978935443471, "longitude": -80.75892508257829}, "816940738RR0001": {"name": "Truro Branch Society, Nova Scotia Mainland Division Navy League of Canada", "designationCode": "C", "categoryCode": "39", "address": "5 COUPAR TERR", "city": "TRURO", "province": "NS", "country": "CA", "postalCode": "B2N4Z3", "twitter": "None", "instagram": "None", "facebook": "None", "youtube": "None", "website": "None", "summary": "None", "logo": "None", "latitude": 45.3822404984708, "longitude": -63.239516018206295}, "803742436RR0001": {"name": "Truro Homeless Outreach Society", "designationCode": "C", "categoryCode": "01", "address": "14 COURT ST.                  SUITE 200-180", "city": "TRURO", "province": "NS", "country": "CA", "postalCode": "B2N3H7", "twitter": "None", "instagram": "None", "facebook": "None", "youtube": "None", "website": "None", "summary": "None", "logo": "None", "latitude": 45.36648428449414, "longitude": -63.287221370361046}, "824442735RR0001": {"name": "Trust under the will of Anthony Caldwell Watson - Alberni Students Trust", "designationCode": "B", "categoryCode": "25", "address": "ROYAL TRUST CORPORATION-04043 20TH FL-155 WELLINGTON ST W", "city": "TORONTO", "province": "ON", "country": "CA", "postalCode": "M5V3K7", "twitter": "None", "instagram": "None", "facebook": "None", "youtube": "None", "website": "None", "summary": "None", "logo": "None", "latitude": 43.64596500000006, "longitude": -79.38562849999994}, "820605640RR0001": {"name": "Trust under the will of Anthony Caldwell Watson - Echo Village of Port Alberni, British Columbia", "designationCode": "B", "categoryCode": "05", "address": "4411 WALLACE ST", "city": "PORT ALBERNI", "province": "BC", "country": "CA", "postalCode": "V9Y7Y5", "twitter": "None", "instagram": "None", "facebook": "None", "youtube": "None", "website": "None", "summary": "None", "logo": "None", "latitude": 49.25065948773674, "longitude": -124.79982265500036}, "824426134RR0001": {"name": "Trust under the will of Anthony Caldwell Watson - Fir Park Village of Port Alberni, British Columbia", "designationCode": "B", "categoryCode": "05", "address": "4411 WALLACE ST", "city": "PORT ALBERNI", "province": "BC", "country": "CA", "postalCode": "V9Y7Y5", "twitter": "None", "instagram": "None", "facebook": "None", "youtube": "None", "website": "None", "summary": "None", "logo": "None", "latitude": 49.25065948773674, "longitude": -124.79982265500036}, "824430136RR0001": {"name": "Trust under the will of Anthony Caldwell Watson - Rainbow Gardens, of Port Alberni, British Columbia", "designationCode": "B", "categoryCode": "05", "address": "155 WELLINGTON STREET WEST    20TH FLOOR", "city": "TORONTO", "province": "ON", "country": "CA", "postalCode": "M5V3K7", "twitter": "None", "instagram": "None", "facebook": "None", "youtube": "None", "website": "None", "summary": "None", "logo": "None", "latitude": 43.64596585316531, "longitude": -79.38574575644876}, "842939316RR0001": {"name": "Trust under the will of Eliza A. Passmore", "designationCode": "B", "categoryCode": "45", "address": "155 WELLINGTON ST W           20TH FLOOR", "city": "TORONTO", "province": "ON", "country": "CA", "postalCode": "M5V3K7", "twitter": "None", "instagram": "None", "facebook": "None", "youtube": "None", "website": "None", "summary": "None", "logo": "None", "latitude": 43.64596585316531, "longitude": -79.38574575644876}, "891166332RR0001": {"name": "Trust under the Will of Alice Buscombe Estate - Trinity College Trust", "designationCode": "B", "categoryCode": "25", "address": "ROYAL TRUST CORP. #04043      155 WELLINGTON ST. W. 20TH FL", "city": "TORONTO", "province": "ON", "country": "CA", "postalCode": "M5V3K7", "twitter": "None", "instagram": "None", "facebook": "None", "youtube": "None", "website": "None", "summary": "None", "logo": "None", "latitude": 43.64596585316531, "longitude": -79.38574575644876}, "800923583RR0001": {"name": "Trust under the Will of Florence Ethel Simmons", "designationCode": "B", "categoryCode": "05", "address": "TD PRIVATE CLIENT SERVICES    PO BOX 10085", "city": "VANCOUVER", "province": "BC", "country": "CA", "postalCode": "V7Y1B6", "twitter": "None", "instagram": "None", "facebook": "None", "youtube": "None", "website": "None", "summary": "None", "logo": "None", "latitude": 49.26037200000006, "longitude": -123.11336149999994}, "816339733RR0001": {"name": "Trust under the Will of Walter Kenneth Morrison", "designationCode": "B", "categoryCode": "05", "address": "PO BOX 10085                  LCD PACIFIC CENTRE", "city": "VANCOUVER", "province": "BC", "country": "CA", "postalCode": "V7Y1B6", "twitter": "None", "instagram": "None", "facebook": "None", "youtube": "None", "website": "None", "summary": "None", "logo": "None", "latitude": 49.28299000000004, "longitude": -123.11890999999997}, "859871220RR0001": {"name": "Trust Me Foundation", "designationCode": "B", "categoryCode": "03", "address": "PO BOX 8                      9124 GLOVER ROAD, UNIT 2", "city": "FORT LANGLEY", "province": "BC", "country": "CA", "postalCode": "V1M2R4", "twitter": "None", "instagram": "None", "facebook": "None", "youtube": "None", "website": "None", "summary": "None", "logo": "None", "latitude": 49.16835444295696, "longitude": -122.5799598996481}, "827438177RR0001": {"name": "Trust Under the Will of Alfred Fred Muth", "designationCode": "B", "categoryCode": "05", "address": "1002 SHERBROOKE STREET WEST   SUITE 540", "city": "MONTREAL", "province": "QC", "country": "CA", "postalCode": "H3A3L6", "twitter": "None", "instagram": "None", "facebook": "None", "youtube": "None", "website": "None", "summary": "None", "logo": "None"}, "834535114RR0001": {"name": "Trust Under the Will of Alta May Gillespie", "designationCode": "B", "categoryCode": "05", "address": "155 WELLINGTON ST. WEST       20TH FLOOR", "city": "TORONTO", "province": "ON", "country": "CA", "postalCode": "M5V3K7", "twitter": "None", "instagram": "None", "facebook": "None", "youtube": "None", "website": "None", "summary": "None", "logo": "None", "latitude": 43.64596585316531, "longitude": -79.38574575644876}, "835160821RR0001": {"name": "Trust Under the Will of Colonel E Ibbotson Leonard Estate", "designationCode": "B", "categoryCode": "25", "address": "380 WELLINGTON ST 12TH FLOOR", "city": "LONDON", "province": "ON", "country": "CA", "postalCode": "N6A5B5", "twitter": "None", "instagram": "None", "facebook": "None", "youtube": "None", "website": "None", "summary": "None", "logo": "None", "latitude": 42.98403487844074, "longitude": -81.24475227780037}, "812211670RR0001": {"name": "Trust Under the Will of Doris Isobel Lavinia Bennett", "designationCode": "B", "categoryCode": "45", "address": "155 WELLINGTON ST. WEST       20TH FLOOR #04043", "city": "TORONTO", "province": "ON", "country": "CA", "postalCode": "M5V3K7", "twitter": "None", "instagram": "None", "facebook": "None", "youtube": "None", "website": "None", "summary": "None", "logo": "None", "latitude": 43.64596585316531, "longitude": -79.38574575644876}, "836895904RR0001": {"name": "Trust Under the Will of Evelyn P. Matheson", "designationCode": "B", "categoryCode": "25", "address": "(THE CANADA TRUST CO.)        PO BOX 10085", "city": "VANCOUVER", "province": "BC", "country": "CA", "postalCode": "V7Y1B6", "twitter": "None", "instagram": "None", "facebook": "None", "youtube": "None", "website": "None", "summary": "None", "logo": "None"}, "814680245RR0001": {"name": "Trust Under the Will of J. Murray Beck - Donald A. Beck Trust Fund", "designationCode": "B", "categoryCode": "05", "address": "PO BOX 10085", "city": "VANCOUVER", "province": "BC", "country": "CA", "postalCode": "V7Y1B6", "twitter": "None", "instagram": "None", "facebook": "None", "youtube": "None", "website": "None", "summary": "None", "logo": "None", "latitude": 49.26037200000006, "longitude": -123.11336149999994}, "824119135RR0001": {"name": "Trust Under the Will of J. Murray Beck - Florence L. Beck Trust Fund", "designationCode": "B", "categoryCode": "05", "address": "(THE CANADA TRUST CO.)        PO BOX 10085", "city": "VANCOUVER", "province": "BC", "country": "CA", "postalCode": "V7Y1B6", "twitter": "None", "instagram": "None", "facebook": "None", "youtube": "None", "website": "None", "summary": "None", "logo": "None", "latitude": 49.28294993392596, "longitude": -123.11892994113924}, "801220500RR0001": {"name": "Trust Under the Will of Jessie Orr White", "designationCode": "B", "categoryCode": "25", "address": "PO BOX 10085                  LCD PACIFIC CENTRE", "city": "VANCOUVER", "province": "BC", "country": "CA", "postalCode": "V7Y1B6", "twitter": "None", "instagram": "None", "facebook": "None", "youtube": "None", "website": "None", "summary": "None", "logo": "None", "latitude": 49.28299000000004, "longitude": -123.11890999999997}, "739148690RR0001": {"name": "Trust Under the Will of Lloyd Whitfield Rodwell", "designationCode": "B", "categoryCode": "25", "address": "PO BOX 10085                  LCD PACIFIC CENTRE", "city": "VANCOUVER", "province": "BC", "country": "CA", "postalCode": "V7Y1B6", "twitter": "None", "instagram": "None", "facebook": "None", "youtube": "None", "website": "None", "summary": "None", "logo": "None", "latitude": 49.28299000000004, "longitude": -123.11890999999997}, "136413804RR0001": {"name": "Trust Under the Will of Peter Donald Stewart", "designationCode": "B", "categoryCode": "25", "address": "POST OFFICE BOX 10085         PACIFIC CENTRE", "city": "VANCOUVER", "province": "BC", "country": "CA", "postalCode": "V7Y1B6", "twitter": "None", "instagram": "None", "facebook": "None", "youtube": "None", "website": "None", "summary": "None", "logo": "None", "latitude": 49.28299000000004, "longitude": -123.11890999999997}, "816692735RR0001": {"name": "Trust Under the Will of Wilfred Baldwin Smith - The Ivy Amelia Smith and Wilfred Baldwin Smith Trust", "designationCode": "B", "categoryCode": "25", "address": "380 WELLINGTON STREET         12TH FLOOR", "city": "LONDON", "province": "ON", "country": "CA", "postalCode": "N6A5B5", "twitter": "None", "instagram": "None", "facebook": "None", "youtube": "None", "website": "None", "summary": "None", "logo": "None", "latitude": 42.98403487844074, "longitude": -81.24475227780037}, "850382318RR0001": {"name": "Trust Under the Will of Willard Ivan Miller Estate", "designationCode": "B", "categoryCode": "05", "address": "TD PRIVATE CLIENT SERVICES    PO BOX 10085", "city": "VANCOUVER", "province": "BC", "country": "CA", "postalCode": "V7Y1B6", "twitter": "None", "instagram": "None", "facebook": "None", "youtube": "None", "website": "None", "summary": "None", "logo": "None", "latitude": 49.26037200000006, "longitude": -123.11336149999994}, "813885886RR0001": {"name": "Trust 15 Youth Community Support Organization", "designationCode": "C", "categoryCode": "59", "address": "236 FINCH AVE W", "city": "NORTH YORK", "province": "ON", "country": "CA", "postalCode": "M2R1M7", "twitter": "None", "instagram": "None", "facebook": "None", "youtube": "None", "website": "None", "summary": "None", "logo": "None", "latitude": 43.775213132407984, "longitude": -79.43612895504639}, "827507815RR0001": {"name": "Trustees of the Roman Catholic Mission of Saint Anthony", "designationCode": "C", "categoryCode": "38", "address": "TOUTES-AIDES AND MISSIONS     P.O. BOX 179", "city": "STE-ROSE-DU-LAC", "province": "MB", "country": "CA", "postalCode": "R0L1S0", "twitter": "None", "instagram": "None", "facebook": "None", "youtube": "None", "website": "None", "summary": "None", "logo": "None", "latitude": 51.059202000000056, "longitude": -99.52320049999993}, "130567761RR0001": {"name": "Trustees of the Roman Catholic Parish of Saint John XXIII", "designationCode": "C", "categoryCode": "38", "address": "3390 PORTAGE AVENUE", "city": "WINNIPEG", "province": "MB", "country": "CA", "postalCode": "R3K0Z3", "twitter": "None", "instagram": "None", "facebook": "None", "youtube": "None", "website": "None", "summary": "None", "logo": "None", "latitude": 49.88262466273332, "longitude": -97.2993847825609}, "106727845RR0001": {"name": "Trustees of Charleswood Community Church, a Religious Society, in the City of Winnipeg, in the Province of Manitiba", "designationCode": "C", "categoryCode": "39", "address": "760 CHARLESWOOD ROAD", "city": "WINNIPEG", "province": "MB", "country": "CA", "postalCode": "R3R1K6", "twitter": "None", "instagram": "None", "facebook": "None", "youtube": "None", "website": "None", "summary": "None", "logo": "None", "latitude": 49.85277134416292, "longitude": -97.30752205839843}, "809415425RR0001": {"name": "Trustees of Evangelical Mennonite Brethren Church", "designationCode": "C", "categoryCode": "34", "address": "295 REINFELD ST N", "city": "REINFELD", "province": "MB", "country": "CA", "postalCode": "R6W1L4", "twitter": "None", "instagram": "None", "facebook": "None", "youtube": "None", "website": "None", "summary": "None", "logo": "None", "latitude": 49.192200110095094, "longitude": -97.88600910666752}, "118932359RR0001": {"name": "Trustees of New Life Sanctuary, a Religious Society, on the R.M. of Headingley, in the Province of Manitoba", "designationCode": "C", "categoryCode": "31", "address": "618 MURIEL ST", "city": "WINNIPEG", "province": "MB", "country": "CA", "postalCode": "R2Y0Y2", "twitter": "None", "instagram": "None", "facebook": "None", "youtube": "None", "website": "None", "summary": "None", "logo": "None", "latitude": 49.88311415820299, "longitude": -97.29723568766202}, "119272078RR0001": {"name": "Trustees Of Springton Cemetery", "designationCode": "C", "categoryCode": "59", "address": "3091 BEDEQUE ROAD             ROUTE 225", "city": "SPRINGTON", "province": "PE", "country": "CA", "postalCode": "C0A1Y0", "twitter": "None", "instagram": "None", "facebook": "None", "youtube": "None", "website": "None", "summary": "None", "logo": "None", "latitude": 46.31545500000006, "longitude": -63.24683749999993}, "892356437RR0001": {"name": "Truth and Life Worship Centre Inc.", "designationCode": "C", "categoryCode": "39", "address": "51 RICHFIELD AVENUE", "city": "WINNIPEG", "province": "MB", "country": "CA", "postalCode": "R2M2R9", "twitter": "None", "instagram": "None", "facebook": "None", "youtube": "None", "website": "None", "summary": "None", "logo": "None", "latitude": 49.83732615179772, "longitude": -97.09002177211623}, "831675244RR0001": {"name": "Truth Community Church", "designationCode": "C", "categoryCode": "39", "address": "46 BUCKLEY TROW BAY", "city": "WINNIPEG", "province": "MB", "country": "CA", "postalCode": "R2N0G5", "twitter": "None", "instagram": "None", "facebook": "None", "youtube": "None", "website": "None", "summary": "None", "logo": "None", "latitude": 49.79841535772521, "longitude": -97.10071278592437}, "849144134RR0001": {"name": "Tryon Peoples' Cemetery Inc.", "designationCode": "C", "categoryCode": "59", "address": "PO BOX 38", "city": "CRAPAUD", "province": "PE", "country": "CA", "postalCode": "C0A1J0", "twitter": "None", "instagram": "None", "facebook": "None", "youtube": "None", "website": "None", "summary": "None", "logo": "None", "latitude": 46.23952000000003, "longitude": -63.49867999999998}, "829331446RR0001": {"name": "Tse' K'wa Heritage Society", "designationCode": "C", "categoryCode": "22", "address": "10233 100 AVE", "city": "FORT ST. JOHN", "province": "BC", "country": "CA", "postalCode": "V1J1Y8", "twitter": "None", "instagram": "None", "facebook": "None", "youtube": "None", "website": "None", "summary": "None", "logo": "None", "latitude": 56.246446521207396, "longitude": -120.85162110935426}, "847249307RR0001": {"name": "Tsedenia Kidist Mariam Ethiopian Orthodox Tewahido Church", "designationCode": "C", "categoryCode": "39", "address": "628 ROYAL AVENUE", "city": "NEW WESTMINSTER", "province": "BC", "country": "CA", "postalCode": "V3M1J2", "twitter": "None", "instagram": "None", "facebook": "None", "youtube": "None", "website": "None", "summary": "None", "logo": "None", "latitude": 49.20491206659371, "longitude": -122.91222000885814}, "841953854RR0001": {"name": "Tsegawit Evangelical Church", "designationCode": "C", "categoryCode": "39", "address": "150 FORESTGLADE CRES", "city": "OTTAWA", "province": "ON", "country": "CA", "postalCode": "K1G6A5", "twitter": "None", "instagram": "None", "facebook": "None", "youtube": "None", "website": "None", "summary": "None", "logo": "None", "latitude": 45.37445255288812, "longitude": -75.60010310603603}, "802374546RR0001": {"name": "Tsengdok Monastery Association", "designationCode": "B", "categoryCode": "35", "address": "1701 - 1166 ALBERNI STREET", "city": "VANCOUVER", "province": "BC", "country": "CA", "postalCode": "V6E3Z3", "twitter": "None", "instagram": "None", "facebook": "None", "youtube": "None", "website": "None", "summary": "None", "logo": "None", "latitude": 49.286152466176894, "longitude": -123.12528575074712}, "817448525RR0001": {"name": "Tsohar", "designationCode": "C", "categoryCode": "42", "address": "6921 AV WILDERTON", "city": "MONTREAL", "province": "QC", "country": "CA", "postalCode": "H3S2M4", "twitter": "None", "instagram": "None", "facebook": "None", "youtube": "None", "website": "None", "summary": "None", "logo": "None", "latitude": 45.51312530725942, "longitude": -73.63049604356863}, "839584414RR0001": {"name": "Tu Thuyen Ni Tu Vietnamese Buddhist Association of Canada", "designationCode": "C", "categoryCode": "35", "address": "241 QUEEN STREET WEST", "city": "BRAMPTON", "province": "ON", "country": "CA", "postalCode": "L6Y1M6", "twitter": "None", "instagram": "None", "facebook": "None", "youtube": "None", "website": "None", "summary": "None", "logo": "None", "latitude": 43.67919698583307, "longitude": -79.76724927780037}, "837073030RR0001": {"name": "Tudor Ridge Foundation", "designationCode": "B", "categoryCode": "03", "address": "3RD FLOOR                     11580 24 STREET SOUTHEAST", "city": "CALGARY", "province": "AB", "country": "CA", "postalCode": "T2Z3K1", "twitter": "None", "instagram": "None", "facebook": "None", "youtube": "None", "website": "None", "summary": "None", "logo": "None", "latitude": 50.95141340993289, "longitude": -114.00268182584219}, "812016418RR0001": {"name": "Tulo Centre of Indigenous Economics", "designationCode": "C", "categoryCode": "20", "address": "345 CHIEF ALEX THOMAS WAY     APT 321", "city": "KAMLOOPS", "province": "BC", "country": "CA", "postalCode": "V2H1H1", "twitter": "None", "instagram": "None", "facebook": "None", "youtube": "None", "website": "None", "summary": "None", "logo": "None", "latitude": 50.67913200000005, "longitude": -120.29876899999994}, "831502059RR0001": {"name": "Tumaini Children's Foundation", "designationCode": "C", "categoryCode": "01", "address": "857 NORFOLK STREET SOUTH", "city": "SIMCOE", "province": "ON", "country": "CA", "postalCode": "N3Y4K1", "twitter": "None", "instagram": "None", "facebook": "None", "youtube": "None", "website": "None", "summary": "None", "logo": "None", "latitude": 42.80030933971954, "longitude": -80.29050895738366}, "843527938RR0001": {"name": "Tumaini Fund Canada", "designationCode": "C", "categoryCode": "09", "address": "2341 BALSAM CRESCENT", "city": "NANOOSE BAY", "province": "BC", "country": "CA", "postalCode": "V9P9G2", "twitter": "None", "instagram": "None", "facebook": "None", "youtube": "None", "website": "None", "summary": "None", "logo": "None", "latitude": 49.27721407464357, "longitude": -124.16873248590493}, "852190248RR0001": {"name": "Tumbler Ridge Forever Young Society", "designationCode": "C", "categoryCode": "09", "address": "419 WILLOW DRIVE              BOX 1543", "city": "TUMBLER RIDGE", "province": "BC", "country": "CA", "postalCode": "V0C2W0", "twitter": "None", "instagram": "None", "facebook": "None", "youtube": "None", "website": "None", "summary": "None", "logo": "None", "latitude": 55.13217147879262, "longitude": -120.99754903260434}, "131041352RR0001": {"name": "Tumour Foundation of BC", "designationCode": "C", "categoryCode": "11", "address": "19172 FOURTH AVENUE WEST PO", "city": "VANCOUVER", "province": "BC", "country": "CA", "postalCode": "V6K4R8", "twitter": "None", "instagram": "None", "facebook": "None", "youtube": "None", "website": "None", "summary": "None", "logo": "None", "latitude": 49.268319630685674, "longitude": -123.16518938390976}, "824213219RR0001": {"name": "Tupendane Inc.", "designationCode": "C", "categoryCode": "47", "address": "PO BOX 219                    190 PTH 52 WEST", "city": "STEINBACH", "province": "MB", "country": "CA", "postalCode": "R5G1M2", "twitter": "None", "instagram": "None", "facebook": "None", "youtube": "None", "website": "None", "summary": "None", "logo": "None", "latitude": 49.53230801062668, "longitude": -96.70980944015668}, "119272813RR0001": {"name": "Tupperville (Zion) United Church", "designationCode": "C", "categoryCode": "44", "address": "10370 BUSH LINE               RR#3", "city": "TUPPERVILLE", "province": "ON", "country": "CA", "postalCode": "N0P2M0", "twitter": "None", "instagram": "None", "facebook": "None", "youtube": "None", "website": "None", "summary": "None", "logo": "None", "latitude": 42.57100741491157, "longitude": -82.2473458921463}, "828354613RR0001": {"name": "Tupperville Gathering Place Society", "designationCode": "C", "categoryCode": "56", "address": "2346 HWY 201                  RR3", "city": "BRIDGETOWN", "province": "NS", "country": "CA", "postalCode": "B0S1C0", "twitter": "None", "instagram": "None", "facebook": "None", "youtube": "None", "website": "None", "summary": "None", "logo": "None", "latitude": 44.79020780276429, "longitude": -65.38167662629654}, "800463994RR0001": {"name": "Turkey Outreach Toronto", "designationCode": "C", "categoryCode": "09", "address": "3311 BATHURST STREET          UNIT 504", "city": "TORONTO", "province": "ON", "country": "CA", "postalCode": "M6A2B5", "twitter": "None", "instagram": "None", "facebook": "None", "youtube": "None", "website": "None", "summary": "None", "logo": "None", "latitude": 43.72434915462498, "longitude": -79.43028733126542}, "834298010RR0001": {"name": "Turkish Community Heritage Centre of Canada", "designationCode": "C", "categoryCode": "56", "address": "115 REGENT STREET", "city": "RICHMOND HILL", "province": "ON", "country": "CA", "postalCode": "L4C9P3", "twitter": "None", "instagram": "None", "facebook": "None", "youtube": "None", "website": "None", "summary": "None", "logo": "None", "latitude": 43.880420725489174, "longitude": -79.45410731432854}, "845408053RR0001": {"name": "Turkish-Canadian Society", "designationCode": "C", "categoryCode": "22", "address": "PO BOX NO. 74705              KITSILANO RPO", "city": "VANCOUVER", "province": "BC", "country": "CA", "postalCode": "V6K4P4", "twitter": "None", "instagram": "None", "facebook": "None", "youtube": "None", "website": "None", "summary": "None", "logo": "None", "latitude": 49.26220854333842, "longitude": -123.16811099612045}, "815204995RR0001": {"name": "Turnbull Family Community Building Foundation", "designationCode": "B", "categoryCode": "03", "address": "415 WOOD AVENUE", "city": "OTTAWA", "province": "ON", "country": "CA", "postalCode": "K1M1J8", "twitter": "None", "instagram": "None", "facebook": "None", "youtube": "None", "website": "None", "summary": "None", "logo": "None", "latitude": 45.44614566224239, "longitude": -75.67088212865707}, "129753190RR0001": {"name": "Turner Syndrome Society of Canada", "designationCode": "C", "categoryCode": "11", "address": "7A - 2100 THURSTON DR", "city": "OTTAWA", "province": "ON", "country": "CA", "postalCode": "K1G4K8", "twitter": "None", "instagram": "None", "facebook": "None", "youtube": "None", "website": "None", "summary": "None", "logo": "None", "latitude": 45.37821332217708, "longitude": -75.62493291072795}, "135483691RR0001": {"name": "Turner Valley Oilfield Society", "designationCode": "C", "categoryCode": "50", "address": "PO BOX 583", "city": "TURNER VALLEY", "province": "AB", "country": "CA", "postalCode": "T0L2A0", "twitter": "None", "instagram": "None", "facebook": "None", "youtube": "None", "website": "None", "summary": "None", "logo": "None", "latitude": 50.663565, "longitude": -114.28559999999999}, "731673125RR0001": {"name": "Turning Point Alliance Church", "designationCode": "C", "categoryCode": "39", "address": "711 GLADMER PK", "city": "REGINA", "province": "SK", "country": "CA", "postalCode": "S4P2X6", "twitter": "None", "instagram": "None", "facebook": "None", "youtube": "None", "website": "None", "summary": "None", "logo": "None", "latitude": 50.43492238659527, "longitude": -104.603786011432}, "836838888RR0001": {"name": "Turning Point Housing Society", "designationCode": "C", "categoryCode": "09", "address": "260 - 7000 MINORU BLVD", "city": "RICHMOND", "province": "BC", "country": "CA", "postalCode": "V6Y3Z5", "twitter": "None", "instagram": "None", "facebook": "None", "youtube": "None", "website": "None", "summary": "None", "logo": "None", "latitude": 49.162613713471075, "longitude": -123.14016571347106}, "108200544RR0001": {"name": "Turning Point Recovery Society", "designationCode": "C", "categoryCode": "57", "address": "260 - 7000 MINORU BLVD", "city": "RICHMOND", "province": "BC", "country": "CA", "postalCode": "V6Y3Z5", "twitter": "None", "instagram": "None", "facebook": "None", "youtube": "None", "website": "None", "summary": "None", "logo": "None", "latitude": 49.162613713471075, "longitude": -123.14016571347106}, "137954707RR0001": {"name": "Turning Point Society of Central Alberta", "designationCode": "C", "categoryCode": "11", "address": "4611 50 AVE", "city": "RED DEER", "province": "AB", "country": "CA", "postalCode": "T4N3Z9", "twitter": "None", "instagram": "None", "facebook": "None", "youtube": "None", "website": "None", "summary": "None", "logo": "None", "latitude": 52.2657089686364, "longitude": -113.81409909738038}, "829219377RR0001": {"name": "Turning Point Youth Services Foundation", "designationCode": "A", "categoryCode": "03", "address": "95 WELLESLEY STREET EAST", "city": "TORONTO", "province": "ON", "country": "CA", "postalCode": "M4Y2X9", "twitter": "None", "instagram": "None", "facebook": "None", "youtube": "None", "website": "None", "summary": "None", "logo": "None", "latitude": 43.66602086037867, "longitude": -79.37924601220502}, "841051675RR0001": {"name": "Turtle House Art/Play Centre", "designationCode": "C", "categoryCode": "09", "address": "760 COLLEGE STREET            2ND FLOOR", "city": "TORONTO", "province": "ON", "country": "CA", "postalCode": "M6G1C4", "twitter": "None", "instagram": "None", "facebook": "None", "youtube": "None", "website": "None", "summary": "None", "logo": "None", "latitude": 43.65508113240797, "longitude": -79.41965895504639}, "822309001RR0001": {"name": "Turtle Valley Donkey Refuge Society", "designationCode": "C", "categoryCode": "54", "address": "7877 SKIMIKIN RD", "city": "CHASE", "province": "BC", "country": "CA", "postalCode": "V0E1M1", "twitter": "None", "instagram": "None", "facebook": "None", "youtube": "None", "website": "None", "summary": "None", "logo": "None", "latitude": 50.80915862782035, "longitude": -119.59114776628599}, "849408208RR0001": {"name": "Turtleford Early Learning Centre Inc.", "designationCode": "C", "categoryCode": "01", "address": "PO BOX 697", "city": "TURTLEFORD", "province": "SK", "country": "CA", "postalCode": "S0M2Y0", "twitter": "None", "instagram": "None", "facebook": "None", "youtube": "None", "website": "None", "summary": "None", "logo": "None", "latitude": 53.38348000000008, "longitude": -108.95143999999999}, "763644895RR0001": {"name": "Turtleford Hospital Auxiliary Inc.", "designationCode": "C", "categoryCode": "19", "address": "POST OFFICE BOX 678", "city": "TURTLEFORD", "province": "SK", "country": "CA", "postalCode": "S0M2Y0", "twitter": "None", "instagram": "None", "facebook": "None", "youtube": "None", "website": "None", "summary": "None", "logo": "None", "latitude": 53.38348000000008, "longitude": -108.95143999999999}, "808894620RR0001": {"name": "Tusarnaarniq Sivumut Association - Music For The Future", "designationCode": "C", "categoryCode": "22", "address": "23 JUDY ANNE COURT", "city": "LOWER SACKVILLE", "province": "NS", "country": "CA", "postalCode": "B4C3X5", "twitter": "None", "instagram": "None", "facebook": "None", "youtube": "None", "website": "None", "summary": "None", "logo": "None", "latitude": 44.762583896762585, "longitude": -63.652970562438746}, "119288918RR1563": {"name": "Tuscany Congregation of Jehovah's Witnesses, Calgary, Alberta", "designationCode": "C", "categoryCode": "61", "address": "1705 RANCHLANDS WAY NW", "city": "CALGARY", "province": "AB", "country": "CA", "postalCode": "T3G3S6", "twitter": "None", "instagram": "None", "facebook": "None", "youtube": "None", "website": "None", "summary": "None", "logo": "None", "latitude": 51.12202551154118, "longitude": -114.19801458243406}, "807262258RR0001": {"name": "Tutoring Beyond Borders", "designationCode": "C", "categoryCode": "21", "address": "566 STRATHMERE COURT", "city": "WATERLOO", "province": "ON", "country": "CA", "postalCode": "N2T2K2", "twitter": "None", "instagram": "None", "facebook": "None", "youtube": "None", "website": "None", "summary": "None", "logo": "None", "latitude": 43.45879341661366, "longitude": -80.5727237843499}, "737134726RR0001": {"name": "Tutsch Family Foundation", "designationCode": "B", "categoryCode": "03", "address": "10 DUNLOE ROAD", "city": "TORONTO", "province": "ON", "country": "CA", "postalCode": "M4V2W5", "twitter": "None", "instagram": "None", "facebook": "None", "youtube": "None", "website": "None", "summary": "None", "logo": "None", "latitude": 43.69120335192456, "longitude": -79.41178406913251}, "119288918RR1147": {"name": "Tuxedo Park Congregation of Jehovah's Witnesses, Winnipeg, Manitoba", "designationCode": "C", "categoryCode": "61", "address": "805 CLIFTON ST", "city": "WINNIPEG", "province": "MB", "country": "CA", "postalCode": "R3G2X7", "twitter": "None", "instagram": "None", "facebook": "None", "youtube": "None", "website": "None", "summary": "None", "logo": "None", "latitude": 49.890103124617696, "longitude": -97.18571861584647}, "826155160RR0001": {"name": "Tweed & Area Arts Council", "designationCode": "C", "categoryCode": "22", "address": "PO BOX 359", "city": "TWEED", "province": "ON", "country": "CA", "postalCode": "K0K3J0", "twitter": "None", "instagram": "None", "facebook": "None", "youtube": "None", "website": "None", "summary": "None", "logo": "None", "latitude": 44.51884534534283, "longitude": -77.11593882304619}, "847386844RR0001": {"name": "Twelve Canada", "designationCode": "C", "categoryCode": "20", "address": "30 WILLINGDON AVENUE", "city": "LONDON", "province": "ON", "country": "CA", "postalCode": "N6A3Y6", "twitter": "None", "instagram": "None", "facebook": "None", "youtube": "None", "website": "None", "summary": "None", "logo": "None", "latitude": 43.00255946655894, "longitude": -81.24987945363276}, "818703365RR0001": {"name": "Twenty Under Forty London Alumni Foundation", "designationCode": "A", "categoryCode": "03", "address": "88 DUFFERIN AVE", "city": "LONDON", "province": "ON", "country": "CA", "postalCode": "N6A1K4", "twitter": "None", "instagram": "None", "facebook": "None", "youtube": "None", "website": "None", "summary": "None", "logo": "None", "latitude": 42.98601558185344, "longitude": -81.25366814059781}, "847056165RR0001": {"name": "Twenty-Something Theatre Society", "designationCode": "C", "categoryCode": "22", "address": "305 - 15127 100 AVE", "city": "SURREY", "province": "BC", "country": "CA", "postalCode": "V3R0N9", "twitter": "None", "instagram": "None", "facebook": "None", "youtube": "None", "website": "None", "summary": "None", "logo": "None", "latitude": 49.1842764893242, "longitude": -122.80312282944774}, "839381480RR0001": {"name": "Twic East Development Program", "designationCode": "C", "categoryCode": "21", "address": "68 AUSTIN DR", "city": "WATERLOO", "province": "ON", "country": "CA", "postalCode": "N2L3Y4", "twitter": "None", "instagram": "None", "facebook": "None", "youtube": "None", "website": "None", "summary": "None", "logo": "None", "latitude": 43.4812065601015, "longitude": -80.53361000389513}}