{"108082637RR0001": {"name": "FRIENDS OF THE UNIVERSITY OF ALBERTA MUSEUMS", "designationCode": "C", "categoryCode": "50", "address": "U. OF A. RING HOUSE ONE", "city": "EDMONTON", "province": "AB", "country": "CA", "postalCode": "T6G0E2", "twitter": "None", "instagram": "None", "facebook": "None", "youtube": "None", "website": "None", "summary": "None", "logo": "None", "latitude": 53.52503000000007, "longitude": -113.52540999999997}, "898032081RR0001": {"name": "FRIENDS OF THE VANCOUVER PUBLIC LIBRARY SOCIETY", "designationCode": "A", "categoryCode": "53", "address": "350 WEST GEORGIA ST", "city": "VANCOUVER", "province": "BC", "country": "CA", "postalCode": "V6B6B1", "twitter": "None", "instagram": "None", "facebook": "None", "youtube": "None", "website": "None", "summary": "None", "logo": "None", "latitude": 49.28022479810131, "longitude": -123.11473364666867}, "897350328RR0001": {"name": "FRIENDS OF THE VERMILION PUBLIC LIBRARY SOCIETY", "designationCode": "C", "categoryCode": "50", "address": "5001-49 AVE", "city": "VERMILION", "province": "AB", "country": "CA", "postalCode": "T9X1B8", "twitter": "None", "instagram": "None", "facebook": "None", "youtube": "None", "website": "None", "summary": "None", "logo": "None", "latitude": 53.35293932255222, "longitude": -110.85237486754671}, "852024777RR0001": {"name": "FRIENDS OF THE VIKING LIBRARY SOCIETY", "designationCode": "C", "categoryCode": "53", "address": "PO BOX 932", "city": "VIKING", "province": "AB", "country": "CA", "postalCode": "T0B4N0", "twitter": "None", "instagram": "None", "facebook": "None", "youtube": "None", "website": "None", "summary": "None", "logo": "None", "latitude": 53.10014000000007, "longitude": -111.76843999999994}, "893127365RR0001": {"name": "FRIENDS OF THE VILLAGE OF ROCKCLIFFE PARK FOUNDATION", "designationCode": "A", "categoryCode": "53", "address": "25 WESTWARD WAY", "city": "ROCKCLIFFE PARK", "province": "ON", "country": "CA", "postalCode": "K1L5A8", "twitter": "None", "instagram": "None", "facebook": "None", "youtube": "None", "website": "None", "summary": "None", "logo": "None", "latitude": 45.45406948600598, "longitude": -75.66518502997862}, "869038224RR0001": {"name": "FRIENDS OF THE WESTLOCK PUBLIC LIBRARY SOCIETY", "designationCode": "A", "categoryCode": "03", "address": "#1, 10007 100 AVENUE", "city": "WESTLOCK", "province": "AB", "country": "CA", "postalCode": "T7P2H5", "twitter": "None", "instagram": "None", "facebook": "None", "youtube": "None", "website": "None", "summary": "None", "logo": "None", "latitude": 54.15242839912851, "longitude": -113.858439227538}, "892115643RR0001": {"name": "FRIENDS OF THE WHITEHORSE PUBLIC LIBRARY", "designationCode": "C", "categoryCode": "50", "address": "P.O. BOX 2703", "city": "WHITEHORSE", "province": "YT", "country": "CA", "postalCode": "Y1A5L7", "twitter": "None", "instagram": "None", "facebook": "None", "youtube": "None", "website": "None", "summary": "None", "logo": "None", "latitude": 60.69839000000002, "longitude": -135.07167981724598}, "886762129RR0001": {"name": "FRIENDS OF THE WINDSOR REGIONAL LIBRARY SOCIETY", "designationCode": "C", "categoryCode": "50", "address": "1077 HIGHWAY 14               RR 3", "city": "WINDSOR", "province": "NS", "country": "CA", "postalCode": "B0N2T0", "twitter": "None", "instagram": "None", "facebook": "None", "youtube": "None", "website": "None", "summary": "None", "logo": "None", "latitude": 44.809173610216334, "longitude": -64.23532891866056}, "887838266RR0001": {"name": "FRIENDS OF THE WINNIPEG PUBLIC LIBRARY INC", "designationCode": "C", "categoryCode": "21", "address": "251 DONALD STREET", "city": "WINNIPEG", "province": "MB", "country": "CA", "postalCode": "R3C3P5", "twitter": "None", "instagram": "None", "facebook": "None", "youtube": "None", "website": "None", "summary": "None", "logo": "None", "latitude": 49.89171257314323, "longitude": -97.14240972170961}, "895864692RR0001": {"name": "FRIENDS OF THE YARMOUTH LIGHT SOCIETY", "designationCode": "C", "categoryCode": "52", "address": "105 - 25 JOHN ST", "city": "YARMOUTH", "province": "NS", "country": "CA", "postalCode": "B5A3H3", "twitter": "None", "instagram": "None", "facebook": "None", "youtube": "None", "website": "None", "summary": "None", "logo": "None", "latitude": 43.835661, "longitude": -66.1194855}, "133503094RR0001": {"name": "FRIENDS OF THE ZOO INC", "designationCode": "A", "categoryCode": "53", "address": "655 MAIN ST", "city": "MONCTON", "province": "NB", "country": "CA", "postalCode": "E1C1E8", "twitter": "None", "instagram": "None", "facebook": "None", "youtube": "None", "website": "None", "summary": "None", "logo": "None", "latitude": 46.089153750533484, "longitude": -64.77504164074652}, "886583053RR0001": {"name": "FRIENDS OF THE 28TH MEDICAL COMPANY (OTTAWA) FOUNDATION", "designationCode": "C", "categoryCode": "99", "address": "28TH (OTTAWA) FIELD AMBULANCE 1745 ALTA VISTA DRIVE", "city": "OTTAWA", "province": "ON", "country": "CA", "postalCode": "K1A0K6", "twitter": "None", "instagram": "None", "facebook": "None", "youtube": "None", "website": "None", "summary": "None", "logo": "None", "latitude": 45.40346161016325, "longitude": -75.66127341927178}, "892683772RR0001": {"name": "FRIENDS OF THORHILD LIBRARY SOCIETY", "designationCode": "A", "categoryCode": "50", "address": "BOX 658", "city": "THORHILD", "province": "AB", "country": "CA", "postalCode": "T0A3J0", "twitter": "None", "instagram": "None", "facebook": "None", "youtube": "None", "website": "None", "summary": "None", "logo": "None", "latitude": 54.15764000000007, "longitude": -113.12560999999994}, "873788814RR0001": {"name": "FRIENDS OF THUNDERBIRD BASEBALL", "designationCode": "A", "categoryCode": "21", "address": "2150 WEST BROADWAY            SUITE 308", "city": "VANCOUVER", "province": "BC", "country": "CA", "postalCode": "V6K4L9", "twitter": "None", "instagram": "None", "facebook": "None", "youtube": "None", "website": "None", "summary": "None", "logo": "None", "latitude": 49.263882404351335, "longitude": -123.15412316472387}, "891013773RR0001": {"name": "FRIENDS OF TORONTO PUBLIC LIBRARY", "designationCode": "A", "categoryCode": "53", "address": "789 YONGE STEET", "city": "TORONTO", "province": "ON", "country": "CA", "postalCode": "M4W2G8", "twitter": "None", "instagram": "None", "facebook": "None", "youtube": "None", "website": "None", "summary": "None", "logo": "None", "latitude": 43.6717527685382, "longitude": -79.3873500718165}, "889828398RR0001": {"name": "FRIENDS OF VERMILION HEALTH CARE COMPLEX SOCIETY", "designationCode": "A", "categoryCode": "13", "address": "5720 50 AVE", "city": "VERMILION", "province": "AB", "country": "CA", "postalCode": "T9X1K7", "twitter": "None", "instagram": "None", "facebook": "None", "youtube": "None", "website": "None", "summary": "None", "logo": "None", "latitude": 53.354879831354886, "longitude": -110.87334660939709}, "888978178RR0001": {"name": "FRIENDS OF VITAL GRANDIN SCHOOL SOCIETY", "designationCode": "C", "categoryCode": "21", "address": "39 SUNSET BLVD.", "city": "ST.ALBERT", "province": "AB", "country": "CA", "postalCode": "T8N0N6", "twitter": "None", "instagram": "None", "facebook": "None", "youtube": "None", "website": "None", "summary": "None", "logo": "None", "latitude": 53.62726241996055, "longitude": -113.61494281966691}, "885511956RR0001": {"name": "FRIENDS OF WAINWRIGHT HIGH SCHOOL FOUNDATION", "designationCode": "C", "categoryCode": "21", "address": "800 6TH STREET", "city": "WAINWRIGHT", "province": "AB", "country": "CA", "postalCode": "T9W2R5", "twitter": "None", "instagram": "None", "facebook": "None", "youtube": "None", "website": "None", "summary": "None", "logo": "None", "latitude": 52.842097880675496, "longitude": -110.86404527462163}, "862057569RR0001": {"name": "FRIENDS OF WE CARE FOUNDATION INC.", "designationCode": "C", "categoryCode": "03", "address": "2 - 35 ADESSO DR", "city": "CONCORD", "province": "ON", "country": "CA", "postalCode": "L4K3C7", "twitter": "None", "instagram": "None", "facebook": "None", "youtube": "None", "website": "None", "summary": "None", "logo": "None", "latitude": 43.775355560938195, "longitude": -79.52721090028328}, "130514870RR0001": {"name": "FRIENDS OF WELLERS BAY INC", "designationCode": "C", "categoryCode": "52", "address": "P.O. BOX 53", "city": "CARRYING PLACE", "province": "ON", "country": "CA", "postalCode": "K0K1L0", "twitter": "None", "instagram": "None", "facebook": "None", "youtube": "None", "website": "None", "summary": "None", "logo": "None", "latitude": 44.052302823100284, "longitude": -77.59198642347651}, "129800637RR0001": {"name": "FRIENDS OF WEST KOOTENAY PARKS SOCIETY", "designationCode": "C", "categoryCode": "52", "address": "P.O. BOX 212", "city": "NELSON", "province": "BC", "country": "CA", "postalCode": "V1L5P9", "twitter": "None", "instagram": "None", "facebook": "None", "youtube": "None", "website": "None", "summary": "None", "logo": "None", "latitude": 49.49754900000005, "longitude": -117.28882249999992}, "892643768RR0001": {"name": "FRIENDS OF WESTERN CANADA HIGH SCHOOL SOCIETY", "designationCode": "C", "categoryCode": "21", "address": "641 17TH AVE SW", "city": "CALGARY", "province": "AB", "country": "CA", "postalCode": "T2S0B5", "twitter": "None", "instagram": "None", "facebook": "None", "youtube": "None", "website": "None", "summary": "None", "logo": "None", "latitude": 51.03779850678068, "longitude": -114.076872}, "860032127RR0001": {"name": "FRIENDS OF WESTHAVEN SOCIETY", "designationCode": "A", "categoryCode": "03", "address": "3949 PORT ALBERNI HWY", "city": "PORT ALBERNI", "province": "BC", "country": "CA", "postalCode": "V9Y4S1", "twitter": "None", "instagram": "None", "facebook": "None", "youtube": "None", "website": "None", "summary": "None", "logo": "None", "latitude": 49.24910905906761, "longitude": -124.78351993084566}, "889293346RR0001": {"name": "FRIENDS OF WHALE WATCH CAPE BRETON", "designationCode": "C", "categoryCode": "50", "address": "104 HARBOUR ROAD", "city": "PLEASANT BAY", "province": "NS", "country": "CA", "postalCode": "B0E2P0", "twitter": "None", "instagram": "None", "facebook": "None", "youtube": "None", "website": "None", "summary": "None", "logo": "None", "latitude": 46.82820955121469, "longitude": -60.798265222546334}, "135152130RR0001": {"name": "FRIENDS OF WHITE OTTER CASTLE INC", "designationCode": "C", "categoryCode": "52", "address": "189 AUTUMNWOOD DRIVE", "city": "THUNDER BAY", "province": "ON", "country": "CA", "postalCode": "P7A3L5", "twitter": "None", "instagram": "None", "facebook": "None", "youtube": "None", "website": "None", "summary": "None", "logo": "None", "latitude": 48.44938081932019, "longitude": -89.21999228264781}, "119297182RR0001": {"name": "FRIENDS OF WHITECOURT SOCIETY", "designationCode": "C", "categoryCode": "19", "address": "BOX 1101", "city": "WHITECOURT", "province": "AB", "country": "CA", "postalCode": "T7S1P1", "twitter": "None", "instagram": "None", "facebook": "None", "youtube": "None", "website": "None", "summary": "None", "logo": "None", "latitude": 54.12540300000006, "longitude": -115.66208149999994}, "136021656RR0001": {"name": "FRIENDS OF WILDWOOD LIBRARY SOCIETY", "designationCode": "C", "categoryCode": "50", "address": "PO BOX 309", "city": "WILDWOOD", "province": "AB", "country": "CA", "postalCode": "T0E2M0", "twitter": "None", "instagram": "None", "facebook": "None", "youtube": "None", "website": "None", "summary": "None", "logo": "None", "latitude": 53.60579000000007, "longitude": -115.23706999999996}, "101894426RR0001": {"name": "FRIENDS OF WYE MARSH", "designationCode": "C", "categoryCode": "50", "address": "BOX 100", "city": "MIDLAND", "province": "ON", "country": "CA", "postalCode": "L4R4K6", "twitter": "None", "instagram": "None", "facebook": "None", "youtube": "None", "website": "None", "summary": "None", "logo": "None", "latitude": 44.74989600000005, "longitude": -79.88850349999993}, "897234803RR0001": {"name": "FRIENDS OF YE OLDE TOWNE HALL", "designationCode": "C", "categoryCode": "56", "address": "160 AILSA CRAIG MAIN STREET   P.O. BOX 165", "city": "AILSA CRAIG", "province": "ON", "country": "CA", "postalCode": "N0M1A0", "twitter": "None", "instagram": "None", "facebook": "None", "youtube": "None", "website": "None", "summary": "None", "logo": "None", "latitude": 43.147461609797396, "longitude": -81.53628523540107}, "890132665RR0001": {"name": "FRIENDS OF YIDDISH IN TORONTO", "designationCode": "C", "categoryCode": "21", "address": "481 ORIOLE PKWY", "city": "TORONTO", "province": "ON", "country": "CA", "postalCode": "M5P2H9", "twitter": "None", "instagram": "None", "facebook": "None", "youtube": "None", "website": "None", "summary": "None", "logo": "None", "latitude": 43.70395306134223, "longitude": -79.4056094862371}, "884753104RR0001": {"name": "FRIENDS OF YOUNGSTOWN LIBRARY SOCIETY", "designationCode": "C", "categoryCode": "50", "address": "PO BOX 39", "city": "YOUNGSTOWN", "province": "AB", "country": "CA", "postalCode": "T0J3P0", "twitter": "None", "instagram": "None", "facebook": "None", "youtube": "None", "website": "None", "summary": "None", "logo": "None", "latitude": 51.52899000000008, "longitude": -111.20751999999999}, "890961022RR0001": {"name": "FRIENDS REACHING INDIVIDUALS IN EVERY NATION DOING SERVICE, INCORPORATED", "designationCode": "A", "categoryCode": "03", "address": "1590 CHAMPLAIN DR", "city": "PETERBOROUGH", "province": "ON", "country": "CA", "postalCode": "K9L1N6", "twitter": "None", "instagram": "None", "facebook": "None", "youtube": "None", "website": "None", "summary": "None", "logo": "None", "latitude": 44.35435344405345, "longitude": -78.30037438476005}, "134440411RR0001": {"name": "FRIENDS SOCIETY OF REMINGTON - ALBERTA CARRIAGE CENTRE", "designationCode": "C", "categoryCode": "56", "address": "BOX 1983", "city": "CARDSTON", "province": "AB", "country": "CA", "postalCode": "T0K0K0", "twitter": "None", "instagram": "None", "facebook": "None", "youtube": "None", "website": "None", "summary": "None", "logo": "None", "latitude": 49.198480000000075, "longitude": -113.30176999999998}, "118933423RR0001": {"name": "FRIENDS TOGETHER CHILDCARE CO-OPERATIVE", "designationCode": "C", "categoryCode": "20", "address": "913 ARGYLE AVENUE", "city": "SASKATOON", "province": "SK", "country": "CA", "postalCode": "S7H2V9", "twitter": "None", "instagram": "None", "facebook": "None", "youtube": "None", "website": "None", "summary": "None", "logo": "None", "latitude": 52.1157409103526, "longitude": -106.62112631608888}, "119813517RR0001": {"name": "FRIENDS TOGETHER PRESCHOOL INC", "designationCode": "C", "categoryCode": "20", "address": "830 NORTH DR                  TREASURER", "city": "WINNIPEG", "province": "MB", "country": "CA", "postalCode": "R3T0A6", "twitter": "None", "instagram": "None", "facebook": "None", "youtube": "None", "website": "None", "summary": "None", "logo": "None", "latitude": 49.847187091048774, "longitude": -97.14721860206173}, "863099420RR0001": {"name": "FRIENDS WHO CARE CHARITIES LTD.", "designationCode": "B", "categoryCode": "11", "address": "63 SUNLAKE WAY SE", "city": "CALGARY", "province": "AB", "country": "CA", "postalCode": "T2X3E4", "twitter": "None", "instagram": "None", "facebook": "None", "youtube": "None", "website": "None", "summary": "None", "logo": "None", "latitude": 50.897852832361934, "longitude": -114.04759706815156}, "107407793RR0001": {"name": "FRIENDSHIP BAPTIST CHURCH", "designationCode": "C", "categoryCode": "31", "address": "1 CONNELL DRIVE               BOX 410", "city": "PICKLE LAKE", "province": "ON", "country": "CA", "postalCode": "P0V3A0", "twitter": "None", "instagram": "None", "facebook": "None", "youtube": "None", "website": "None", "summary": "None", "logo": "None", "latitude": 51.48800309274683, "longitude": -90.1562053500634}, "107407827RR0001": {"name": "FRIENDSHIP BAPTIST CHURCH OF COQUITLAM", "designationCode": "C", "categoryCode": "31", "address": "2950 DEWDNEY TRUNK ROAD", "city": "COQUITLAM", "province": "BC", "country": "CA", "postalCode": "V3C2J4", "twitter": "None", "instagram": "None", "facebook": "None", "youtube": "None", "website": "None", "summary": "None", "logo": "None", "latitude": 49.268074506780685, "longitude": -122.79719155689884}, "883071912RR0001": {"name": "FRIENDSHIP COMMUNITY CHRISTIAN REFORMED CHURCH", "designationCode": "C", "categoryCode": "39", "address": "19-1290 FINCH AVE W", "city": "TORONTO", "province": "ON", "country": "CA", "postalCode": "M3J3K3", "twitter": "None", "instagram": "None", "facebook": "None", "youtube": "None", "website": "None", "summary": "None", "logo": "None", "latitude": 43.76408307744241, "longitude": -79.48849985307838}, "118932391RR0001": {"name": "FRIENDSHIP HALL", "designationCode": "C", "categoryCode": "56", "address": "R.R.#2", "city": "RIVER DENYS", "province": "NS", "country": "CA", "postalCode": "B0E2Y0", "twitter": "None", "instagram": "None", "facebook": "None", "youtube": "None", "website": "None", "summary": "None", "logo": "None", "latitude": 45.861219000000006, "longitude": -61.36836643541265}, "865741573RR0001": {"name": "FRIENDSHIP HOUSE OF BRANT INC", "designationCode": "C", "categoryCode": "09", "address": "452 GREY STREET", "city": "BRANTFORD", "province": "ON", "country": "CA", "postalCode": "N3S4X8", "twitter": "None", "instagram": "None", "facebook": "None", "youtube": "None", "website": "None", "summary": "None", "logo": "None", "latitude": 43.14713135558854, "longitude": -80.23226623578962}, "118932375RR0001": {"name": "FRIENDSHIP MINISTRIES CANADA", "designationCode": "C", "categoryCode": "47", "address": "P.O. BOX 1636 STN LCD 1", "city": "BURLINGTON", "province": "ON", "country": "CA", "postalCode": "L7R5A1", "twitter": "None", "instagram": "None", "facebook": "None", "youtube": "None", "website": "None", "summary": "None", "logo": "None", "latitude": 43.326195000000055, "longitude": -79.79863399999994}, "131922262RR0001": {"name": "FRIENDSHIP UNITED CHURCH DEMORESTVILLE", "designationCode": "C", "categoryCode": "44", "address": "3061 COUNTY RD 15, RR#2", "city": "PICTON", "province": "ON", "country": "CA", "postalCode": "K0K2T0", "twitter": "None", "instagram": "None", "facebook": "None", "youtube": "None", "website": "None", "summary": "None", "logo": "None", "latitude": 44.6109678691126, "longitude": -76.97947264511475}, "134103902RR0001": {"name": "FRIENDSHIP, LOVE & TRUTH (FLT) CHARITABLE FOUNDATION (BARRIE) INC", "designationCode": "A", "categoryCode": "63", "address": "12 GRAY STREET                P.O. BOX 190", "city": "COLDWATER", "province": "ON", "country": "CA", "postalCode": "L0K1E0", "twitter": "None", "instagram": "None", "facebook": "None", "youtube": "None", "website": "None", "summary": "None", "logo": "None", "latitude": 44.71057215211483, "longitude": -79.64206307773085}, "118933449RR0001": {"name": "FRIKIRKJU LUTHERAN CHURCH", "designationCode": "C", "categoryCode": "32", "address": "BOX 99", "city": "CYPRESS RIVER", "province": "MB", "country": "CA", "postalCode": "R0K0P0", "twitter": "None", "instagram": "None", "facebook": "None", "youtube": "None", "website": "None", "summary": "None", "logo": "None", "latitude": 50.04757803653237, "longitude": -99.55971609548558}, "118853506RR0001": {"name": "FRINGE THEATRE ADVENTURES SOCIETY", "designationCode": "C", "categoryCode": "22", "address": "10330 84TH AVENUE", "city": "EDMONTON", "province": "AB", "country": "CA", "postalCode": "T6E2G9", "twitter": "None", "instagram": "None", "facebook": "None", "youtube": "None", "website": "None", "summary": "None", "logo": "None", "latitude": 53.52003445268047, "longitude": -113.49668241892228}, "862378171RR0001": {"name": "FRIPE.COM", "designationCode": "C", "categoryCode": "09", "address": "2120, RUE BOIVIN", "city": "STE-FOY", "province": "QC", "country": "CA", "postalCode": "G1V1N7", "twitter": "None", "instagram": "None", "facebook": "None", "youtube": "None", "website": "None", "summary": "None", "logo": "None", "latitude": 46.790467226787264, "longitude": -71.27086906165934}, "123694358RR0001": {"name": "FRIULI BENEVOLENT CORPORATION", "designationCode": "C", "categoryCode": "09", "address": "60 FRIULI CRT", "city": "WOODBRIDGE", "province": "ON", "country": "CA", "postalCode": "L4L8G8", "twitter": "None", "instagram": "None", "facebook": "None", "youtube": "None", "website": "None", "summary": "None", "logo": "None", "latitude": 43.7658334754744, "longitude": -79.57315333236194}, "893014118RR0001": {"name": "FRIULI LONG TERM CARE", "designationCode": "C", "categoryCode": "09", "address": "7065 ISLINGTON AVENUE", "city": "WOODBRIDGE", "province": "ON", "country": "CA", "postalCode": "L4L1V9", "twitter": "None", "instagram": "None", "facebook": "None", "youtube": "None", "website": "None", "summary": "None", "logo": "None", "latitude": 43.76586518070848, "longitude": -79.57584463662117}, "869962340RR0001": {"name": "FROG'S BREATH FOUNDATION", "designationCode": "A", "categoryCode": "03", "address": "PO BOX 130", "city": "NEW LISKEARD", "province": "ON", "country": "CA", "postalCode": "P0J1P0", "twitter": "None", "instagram": "None", "facebook": "None", "youtube": "None", "website": "None", "summary": "None", "logo": "None", "latitude": 47.50254600000005, "longitude": -79.69562449999994}, "888719812RR0001": {"name": "FROM GRIEF TO ACTION ASSOCIATION OF FAMILIES AND FRIENDS OF DRUG USERS", "designationCode": "C", "categoryCode": "57", "address": "2490-37TH AVE W.", "city": "VANCOUVER", "province": "BC", "country": "CA", "postalCode": "V6M1P5", "twitter": "None", "instagram": "None", "facebook": "None", "youtube": "None", "website": "None", "summary": "None", "logo": "None", "latitude": 49.23841150288554, "longitude": -123.16207299861503}, "896331360RR0001": {"name": "FROM THE TOP", "designationCode": "C", "categoryCode": "22", "address": "30 GREENFIELD COVE", "city": "WINNIPEG", "province": "MB", "country": "CA", "postalCode": "R2R0R1", "twitter": "None", "instagram": "None", "facebook": "None", "youtube": "None", "website": "None", "summary": "None", "logo": "None", "latitude": 49.962593994200276, "longitude": -97.19472225033192}, "891402562RR0001": {"name": "FRONT OF LEEDS AND LANSDOWNE HISTORICAL SOCIETY", "designationCode": "C", "categoryCode": "50", "address": "P.O. BOX 332", "city": "LANSDOWNE", "province": "ON", "country": "CA", "postalCode": "K0E1L0", "twitter": "None", "instagram": "None", "facebook": "None", "youtube": "None", "website": "None", "summary": "None", "logo": "None", "latitude": 44.37270600000005, "longitude": -75.98540599999993}, "892438565RR0001": {"name": "FRONT ROW CENTRE PLAYERS SOCIETY", "designationCode": "C", "categoryCode": "22", "address": "375 BERMUDA DRIVE NW", "city": "CALGARY", "province": "AB", "country": "CA", "postalCode": "T3K2J5", "twitter": "None", "instagram": "None", "facebook": "None", "youtube": "None", "website": "None", "summary": "None", "logo": "None", "latitude": 51.132290627243435, "longitude": -114.08561690437998}, "108072935RR0001": {"name": "FRONTENAC ARCH BIOSPHERE FOUNDATION", "designationCode": "A", "categoryCode": "03", "address": "BOX 483", "city": "GANANOQUE", "province": "ON", "country": "CA", "postalCode": "K7G2V1", "twitter": "None", "instagram": "None", "facebook": "None", "youtube": "None", "website": "None", "summary": "None", "logo": "None", "latitude": 44.328480000000056, "longitude": -76.16426299999993}, "119060275RR0001": {"name": "FRONTENAC COMMUNITY ARENA", "designationCode": "C", "categoryCode": "56", "address": "", "city": "GODFREY", "province": "ON", "country": "CA", "postalCode": "K0H1T0", "twitter": "None", "instagram": "None", "facebook": "None", "youtube": "None", "website": "None", "summary": "None", "logo": "None", "latitude": 44.54492100000006, "longitude": -76.65820999999994}, "118933514RR0001": {"name": "FRONTENAC COUNTY SCHOOLS MUSEUM ASSOCIATION", "designationCode": "C", "categoryCode": "50", "address": "PO BOX 2146", "city": "KINGSTON", "province": "ON", "country": "CA", "postalCode": "K7L5J9", "twitter": "None", "instagram": "None", "facebook": "None", "youtube": "None", "website": "None", "summary": "None", "logo": "None", "latitude": 44.23153200000006, "longitude": -76.47933049999993}, "119234250RR0001": {"name": "FRONTENAC HERITAGE FOUNDATION", "designationCode": "C", "categoryCode": "52", "address": "9 TRILLIUM CRT", "city": "KINGSTON", "province": "ON", "country": "CA", "postalCode": "K7K6W9", "twitter": "None", "instagram": "None", "facebook": "None", "youtube": "None", "website": "None", "summary": "None", "logo": "None", "latitude": 44.26216357146978, "longitude": -76.4933359161523}, "132738691RR0001": {"name": "FRONTENAC YOUTH SERVICES", "designationCode": "C", "categoryCode": "13", "address": "1160 SIMCOE ST. S", "city": "OSHAWA", "province": "ON", "country": "CA", "postalCode": "L1H5L8", "twitter": "None", "instagram": "None", "facebook": "None", "youtube": "None", "website": "None", "summary": "None", "logo": "None", "latitude": 43.872404154471525, "longitude": -78.84178165677208}, "847349404RR0001": {"name": "FRONTENAC-KINGSTON COUNCIL ON AGING INC.", "designationCode": "C", "categoryCode": "09", "address": "1786 BATH RD", "city": "KINGSTON", "province": "ON", "country": "CA", "postalCode": "K7M4Y2", "twitter": "None", "instagram": "None", "facebook": "None", "youtube": "None", "website": "None", "summary": "None", "logo": "None", "latitude": 44.23775243551243, "longitude": -76.57695230529751}, "892394644RR0001": {"name": "FRONTENAC, LENNOX AND ADDINGTON SCIENCE FAIR", "designationCode": "C", "categoryCode": "21", "address": "164 - 427 PRINCESS ST", "city": "KINGSTON", "province": "ON", "country": "CA", "postalCode": "K7L5S9", "twitter": "None", "instagram": "None", "facebook": "None", "youtube": "None", "website": "None", "summary": "None", "logo": "None", "latitude": 44.23348314821968, "longitude": -76.49301981972422}, "118933530RR0001": {"name": "FRONTIER CAMPING SOCIETY", "designationCode": "C", "categoryCode": "56", "address": "P.O. BOX 1", "city": "NORDEGG", "province": "AB", "country": "CA", "postalCode": "T0M2H0", "twitter": "None", "instagram": "None", "facebook": "None", "youtube": "None", "website": "None", "summary": "None", "logo": "None", "latitude": 52.44528200434626, "longitude": -116.09730958900414}, "892549965RR0001": {"name": "FRONTIER COLLEGE FOUNDATION / FONDATION DU COLL\u00c8GE FRONTI\u00c8RE", "designationCode": "A", "categoryCode": "20", "address": "35 JACKES AVE", "city": "TORONTO", "province": "ON", "country": "CA", "postalCode": "M4T1E2", "twitter": "None", "instagram": "None", "facebook": "None", "youtube": "None", "website": "None", "summary": "None", "logo": "None", "latitude": 43.68541287480539, "longitude": -79.3908175449536}, "886037852RR0002": {"name": "FRONTIER LABOURERS FOR CHRIST (CANADA)", "designationCode": "C", "categoryCode": "47", "address": "PO BOX 35", "city": "SELKIRK", "province": "ON", "country": "CA", "postalCode": "N0A1P0", "twitter": "None", "instagram": "None", "facebook": "None", "youtube": "None", "website": "None", "summary": "None", "logo": "None", "latitude": 42.834250000000054, "longitude": -79.93206999999995}, "118933548RR0001": {"name": "FRONTIER SENIOR CITIZENS GROUP", "designationCode": "C", "categoryCode": "56", "address": "BOX 60", "city": "FRONTIER", "province": "SK", "country": "CA", "postalCode": "S0N0W0", "twitter": "None", "instagram": "None", "facebook": "None", "youtube": "None", "website": "None", "summary": "None", "logo": "None", "latitude": 49.20003000000003, "longitude": -108.56809999999996}, "894227172RR0001": {"name": "FRONTIER TRADING COMPANY INC.", "designationCode": "C", "categoryCode": "09", "address": "BOX 1467", "city": "MINNEDOSA", "province": "MB", "country": "CA", "postalCode": "R0J1E0", "twitter": "None", "instagram": "None", "facebook": "None", "youtube": "None", "website": "None", "summary": "None", "logo": "None", "latitude": 50.35204290882316, "longitude": -100.20187636199029}, "110166535RR0001": {"name": "FRONTIER TRAILS CAMP", "designationCode": "C", "categoryCode": "56", "address": "10545 60 HWY", "city": "EGANVILLE", "province": "ON", "country": "CA", "postalCode": "K0J1T0", "twitter": "None", "instagram": "None", "facebook": "None", "youtube": "None", "website": "None", "summary": "None", "logo": "None", "latitude": 45.53990091487322, "longitude": -77.08503519777237}, "118933563RR0001": {"name": "FRONTIER UNITED CHURCH", "designationCode": "C", "categoryCode": "44", "address": "BOX 38", "city": "FRONTIER", "province": "SK", "country": "CA", "postalCode": "S0N0W0", "twitter": "None", "instagram": "None", "facebook": "None", "youtube": "None", "website": "None", "summary": "None", "logo": "None", "latitude": 49.20003000000003, "longitude": -108.56809999999996}, "893012765RR0001": {"name": "FRONTLINES CHRISTIAN FELLOWSHIP INC.", "designationCode": "C", "categoryCode": "39", "address": "4021 KENNEDY DRIVE EAST", "city": "WINDSOR", "province": "ON", "country": "CA", "postalCode": "N9G1X9", "twitter": "None", "instagram": "None", "facebook": "None", "youtube": "None", "website": "None", "summary": "None", "logo": "None", "latitude": 42.25323546627046, "longitude": -83.00234714490145}, "134157155RR0001": {"name": "FROUDE AVENUE COMMUNITY CENTRE INC.", "designationCode": "C", "categoryCode": "21", "address": "89 FROUDE AVENUE", "city": "ST. JOHN'S", "province": "NL", "country": "CA", "postalCode": "A1E3B8", "twitter": "None", "instagram": "None", "facebook": "None", "youtube": "None", "website": "None", "summary": "None", "logo": "None", "latitude": 47.553873045790326, "longitude": -52.7332904721275}, "839049046RR0001": {"name": "FRUITFUL LIFE CHRISTIAN CHURCH IN CALGARY", "designationCode": "C", "categoryCode": "49", "address": "41 HAWKSIDE ROAD NORTHWEST", "city": "CALGARY", "province": "AB", "country": "CA", "postalCode": "T3G3K9", "twitter": "None", "instagram": "None", "facebook": "None", "youtube": "None", "website": "None", "summary": "None", "logo": "None", "latitude": 51.1271252761556, "longitude": -114.18278298848746}, "877783803RR0001": {"name": "FRUITFUL LIFE CHRISTIAN CHURCH IN VANCOUVER", "designationCode": "C", "categoryCode": "39", "address": "5 WEST KING EDWARD AVE", "city": "VANCOUVER", "province": "BC", "country": "CA", "postalCode": "V5Y2H6", "twitter": "None", "instagram": "None", "facebook": "None", "youtube": "None", "website": "None", "summary": "None", "logo": "None", "latitude": 49.24887050432783, "longitude": -123.10527188773156}, "108197526RR0001": {"name": "FRUITLAND PASTORAL CHARGE", "designationCode": "C", "categoryCode": "44", "address": "51 SHADELAND CRES", "city": "STONEY CREEK", "province": "ON", "country": "CA", "postalCode": "L8G4Y1", "twitter": "None", "instagram": "None", "facebook": "None", "youtube": "None", "website": "None", "summary": "None", "logo": "None", "latitude": 43.20950847322403, "longitude": -79.70593334710577}, "107408742RR0001": {"name": "FRUITVALE CHRISTIAN FELLOWSHIP", "designationCode": "C", "categoryCode": "39", "address": "BOX 244", "city": "FRUITVALE", "province": "BC", "country": "CA", "postalCode": "V0G1L0", "twitter": "None", "instagram": "None", "facebook": "None", "youtube": "None", "website": "None", "summary": "None", "logo": "None", "latitude": 49.115270000000066, "longitude": -117.54598999999996}, "118933613RR0001": {"name": "FRUITVALE COMMUNITY CHEST", "designationCode": "C", "categoryCode": "03", "address": "PO BOX 164", "city": "FRUITVALE", "province": "BC", "country": "CA", "postalCode": "V0G1L0", "twitter": "None", "instagram": "None", "facebook": "None", "youtube": "None", "website": "None", "summary": "None", "logo": "None", "latitude": 49.115270000000066, "longitude": -117.54598999999996}, "823566245RR0001": {"name": "FSAEA: The Foundation for Student Advancement, Excellence and Advocacy", "designationCode": "C", "categoryCode": "21", "address": "60 SKYVIEW CRESCENT", "city": "TORONTO", "province": "ON", "country": "CA", "postalCode": "M2J1B8", "twitter": "None", "instagram": "None", "facebook": "None", "youtube": "None", "website": "None", "summary": "None", "logo": "None", "latitude": 43.76973555981302, "longitude": -79.34735944376499}, "841586266RR0001": {"name": "FSSP Charitable Holdings", "designationCode": "C", "categoryCode": "43", "address": "P.O. BOX 7248, STATION V", "city": "VANIER", "province": "ON", "country": "CA", "postalCode": "K1L8E3", "twitter": "None", "instagram": "None", "facebook": "None", "youtube": "None", "website": "None", "summary": "None", "logo": "None", "latitude": 45.42177300000006, "longitude": -75.69115999999994}, "118933621RR0001": {"name": "FT MCMURRAY PRO-LIFE ASSOCIATION", "designationCode": "C", "categoryCode": "09", "address": "PO BOX 5202 STN. MAIN", "city": "FORT MCMURRAY", "province": "AB", "country": "CA", "postalCode": "T9H3G3", "twitter": "None", "instagram": "None", "facebook": "None", "youtube": "None", "website": "None", "summary": "None", "logo": "None", "latitude": 56.72886017135369, "longitude": -111.38020385943572}, "890675135RR0001": {"name": "FU HUI BUDDHIST TEMPLE SOCIETY", "designationCode": "C", "categoryCode": "35", "address": "5428 COLLEGE ST", "city": "VANCOUVER", "province": "BC", "country": "CA", "postalCode": "V5R3Z7", "twitter": "None", "instagram": "None", "facebook": "None", "youtube": "None", "website": "None", "summary": "None", "logo": "None", "latitude": 49.23559908964742, "longitude": -123.04450997276268}, "131232084RR0001": {"name": "FU SIEN TONG BUDDHIST TEMPLE", "designationCode": "C", "categoryCode": "35", "address": "185 NIAGARA ST", "city": "TORONTO", "province": "ON", "country": "CA", "postalCode": "M5V1C9", "twitter": "None", "instagram": "None", "facebook": "None", "youtube": "None", "website": "None", "summary": "None", "logo": "None", "latitude": 43.642147746869476, "longitude": -79.40680197781165}, "874670300RR0001": {"name": "FU-GEN THEATRE COMPANY", "designationCode": "C", "categoryCode": "22", "address": "157 CARLTON STREET            SUITE 207", "city": "TORONTO", "province": "ON", "country": "CA", "postalCode": "M5A2K3", "twitter": "None", "instagram": "None", "facebook": "None", "youtube": "None", "website": "None", "summary": "None", "logo": "None", "latitude": 43.663294834843455, "longitude": -79.37244587301637}, "891488264RR0001": {"name": "FUENTE DE AGUA VIVA", "designationCode": "C", "categoryCode": "36", "address": "166 - 10 ANN STREET", "city": "BELLEVILLE", "province": "ON", "country": "CA", "postalCode": "K8N3L3", "twitter": "None", "instagram": "None", "facebook": "None", "youtube": "None", "website": "None", "summary": "None", "logo": "None", "latitude": 44.162238116972404, "longitude": -77.3745820197791}, "846717874RR0001": {"name": "FUGUE THEATRE SOCIETY", "designationCode": "C", "categoryCode": "22", "address": "UNIT A - 1215 WEST 7TH AVENUE", "city": "VANCOUVER", "province": "BC", "country": "CA", "postalCode": "V6H1B7", "twitter": "None", "instagram": "None", "facebook": "None", "youtube": "None", "website": "None", "summary": "None", "logo": "None", "latitude": 49.26526649321932, "longitude": -123.13174008090485}, "131639239RR0001": {"name": "FUJIAN EVANGELICAL CHURCH", "designationCode": "C", "categoryCode": "39", "address": "12200 BLUNDELL ROAD", "city": "RICHMOND", "province": "BC", "country": "CA", "postalCode": "V6W1B3", "twitter": "None", "instagram": "None", "facebook": "None", "youtube": "None", "website": "None", "summary": "None", "logo": "None", "latitude": 49.155364188112245, "longitude": -123.08828008962824}, "890821341RR0001": {"name": "FUJIWARA DANCE INVENTIONS", "designationCode": "C", "categoryCode": "22", "address": "509 PARLIAMENT ST", "city": "TORONTO", "province": "ON", "country": "CA", "postalCode": "M4X1P3", "twitter": "None", "instagram": "None", "facebook": "None", "youtube": "None", "website": "None", "summary": "None", "logo": "None", "latitude": 43.66507158396327, "longitude": -79.36825969092293}, "837886274RR0001": {"name": "FULCHER FOUNDATION", "designationCode": "B", "categoryCode": "03", "address": "2000 BARRINGTON ST. SUITE 1100", "city": "HALIFAX", "province": "NS", "country": "CA", "postalCode": "B3J3K1", "twitter": "None", "instagram": "None", "facebook": "None", "youtube": "None", "website": "None", "summary": "None", "logo": "None", "latitude": 44.650150961805274, "longitude": -63.57561955750014}, "869905620RR0001": {"name": "FULFORD COMMUNITY HALL ASSOCIATION", "designationCode": "C", "categoryCode": "56", "address": "2591 FULFORD GANGES ROAD", "city": "SALT SPRING ISLAND", "province": "BC", "country": "CA", "postalCode": "V8K1Z4", "twitter": "None", "instagram": "None", "facebook": "None", "youtube": "None", "website": "None", "summary": "None", "logo": "None", "latitude": 48.772229069715905, "longitude": -123.46574634169754}, "139372916RR0001": {"name": "FULFORD HARBOUR CHILD CARE SOCIETY", "designationCode": "C", "categoryCode": "01", "address": "215 SOUTHRIDGE RD.", "city": "SALTSPRING ISLAND", "province": "BC", "country": "CA", "postalCode": "V8K1Y9", "twitter": "None", "instagram": "None", "facebook": "None", "youtube": "None", "website": "None", "summary": "None", "logo": "None", "latitude": 48.77451600000006, "longitude": -123.44725249999993}, "118933654RR0001": {"name": "FULFORD UNITED CHURCH", "designationCode": "C", "categoryCode": "44", "address": "71 DAVIS ROAD", "city": "FULFORD", "province": "QC", "country": "CA", "postalCode": "J0E1S0", "twitter": "None", "instagram": "None", "facebook": "None", "youtube": "None", "website": "None", "summary": "None", "logo": "None", "latitude": 45.29867843501045, "longitude": -72.55549292485017}, "878559343RR0001": {"name": "FULFORD-HARDY ENDOWMENT FUND", "designationCode": "B", "categoryCode": "05", "address": "1814 COUNTY RD #2", "city": "BROCKVILLE", "province": "ON", "country": "CA", "postalCode": "K6V5T1", "twitter": "None", "instagram": "None", "facebook": "None", "youtube": "None", "website": "None", "summary": "None", "logo": "None", "latitude": 44.60453776411596, "longitude": -75.66213421204846}, "132091059RR0001": {"name": "FULHAM COMMUNITY CENTRE", "designationCode": "C", "categoryCode": "56", "address": "55426 HWY 32", "city": "YELLOWHEAD COUNTY", "province": "AB", "country": "CA", "postalCode": "T7E3X6", "twitter": "None", "instagram": "None", "facebook": "None", "youtube": "None", "website": "None", "summary": "None", "logo": "None", "latitude": 53.78672124115447, "longitude": -115.98359724115447}, "886664085RR0001": {"name": "FULHAM MEMORIAL SCHOLARSHIP FUND", "designationCode": "C", "categoryCode": "21", "address": "BOX 17", "city": "PEERS", "province": "AB", "country": "CA", "postalCode": "T0E1W0", "twitter": "None", "instagram": "None", "facebook": "None", "youtube": "None", "website": "None", "summary": "None", "logo": "None", "latitude": 53.66647000000006, "longitude": -115.99244999999996}, "809343072RR0001": {"name": "FULL AHEAD CHRISTIAN MINISTRIES", "designationCode": "B", "categoryCode": "39", "address": "394 - A KING ST", "city": "MIDLAND", "province": "ON", "country": "CA", "postalCode": "L4R3M9", "twitter": "None", "instagram": "None", "facebook": "None", "youtube": "None", "website": "None", "summary": "None", "logo": "None", "latitude": 44.74625502824879, "longitude": -79.88242682442161}, "134191816RR0001": {"name": "FULL CIRCLE: FIRST NATIONS PERFORMANCE SOCIETY", "designationCode": "C", "categoryCode": "22", "address": "125A-1030 DENMAN ST", "city": "VANCOUVER", "province": "BC", "country": "CA", "postalCode": "V6G2M6", "twitter": "None", "instagram": "None", "facebook": "None", "youtube": "None", "website": "None", "summary": "None", "logo": "None", "latitude": 49.28898777321276, "longitude": -123.13915680775034}, "139315337RR0001": {"name": "FULL FIGURE THEATRE COMPANY SOCIETY", "designationCode": "C", "categoryCode": "22", "address": "303-215 TEMPLETON DR N", "city": "VANCOUVER", "province": "BC", "country": "CA", "postalCode": "V5L3E3", "twitter": "None", "instagram": "None", "facebook": "None", "youtube": "None", "website": "None", "summary": "None", "logo": "None", "latitude": 49.286844031363614, "longitude": -123.0596656149515}, "118933688RR0001": {"name": "FULL GOSPEL ASSEMBLY", "designationCode": "C", "categoryCode": "36", "address": "PO BOX 758", "city": "SAINT JOHN", "province": "NB", "country": "CA", "postalCode": "E2L4B3", "twitter": "None", "instagram": "None", "facebook": "None", "youtube": "None", "website": "None", "summary": "None", "logo": "None", "latitude": 45.27342600000006, "longitude": -66.06407149999993}, "118933696RR0001": {"name": "FULL GOSPEL ASSEMBLY", "designationCode": "C", "categoryCode": "36", "address": "PO BOX 383", "city": "ATIKOKAN", "province": "ON", "country": "CA", "postalCode": "P0T1C0", "twitter": "None", "instagram": "None", "facebook": "None", "youtube": "None", "website": "None", "summary": "None", "logo": "None", "latitude": 48.78243202695454, "longitude": -91.62784818644623}, "107409153RR0001": {"name": "FULL GOSPEL ASSEMBLY EDAM", "designationCode": "C", "categoryCode": "36", "address": "BOX 315", "city": "EDAM", "province": "SK", "country": "CA", "postalCode": "S0M0V0", "twitter": "None", "instagram": "None", "facebook": "None", "youtube": "None", "website": "None", "summary": "None", "logo": "None", "latitude": 53.18347000000006, "longitude": -108.76810999999998}, "107428807RR0001": {"name": "FULL GOSPEL ASSEMBLY LACHINE", "designationCode": "C", "categoryCode": "36", "address": "5060 RUE SIR-GEORGE-SIMPSON", "city": "LACHINE", "province": "QC", "country": "CA", "postalCode": "H8T1E7", "twitter": "None", "instagram": "None", "facebook": "None", "youtube": "None", "website": "None", "summary": "None", "logo": "None", "latitude": 45.447773467684115, "longitude": -73.71510338773155}, "892631060RR0001": {"name": "FULL GOSPEL ASSEMBLY OF GOD", "designationCode": "C", "categoryCode": "36", "address": "2 LEGACY DRIVE", "city": "MARKHAM", "province": "ON", "country": "CA", "postalCode": "L3S4E7", "twitter": "None", "instagram": "None", "facebook": "None", "youtube": "None", "website": "None", "summary": "None", "logo": "None", "latitude": 43.85982026305655, "longitude": -79.23184269239388}}