{"813790078RR0001": {"name": "MERCY AND CARING CHILDREN'S HOMES", "designationCode": "C", "categoryCode": "01", "address": "11 - 2023 WINFIELD DR", "city": "ABBOTSFORD", "province": "BC", "country": "CA", "postalCode": "V3G1K5", "twitter": "None", "instagram": "None", "facebook": "None", "youtube": "None", "website": "None", "summary": "None", "logo": "None", "latitude": 49.0388313271974, "longitude": -122.22946051462827}, "864105457RR0001": {"name": "MERCY ECONOMIC DEVELOPMENT INTERNATIONAL CANADA CORPORATION", "designationCode": "C", "categoryCode": "47", "address": "PO BOX 3923 STN MAIN", "city": "OLDS", "province": "AB", "country": "CA", "postalCode": "T4H1P6", "twitter": "None", "instagram": "None", "facebook": "None", "youtube": "None", "website": "None", "summary": "None", "logo": "None", "latitude": 51.791613000000055, "longitude": -114.11061199999993}, "891539348RR0001": {"name": "MERCY FOR YOUTH MINISTRIES", "designationCode": "C", "categoryCode": "39", "address": "59 CASTLERIDGE CLOSE N.E.", "city": "CALGARY", "province": "AB", "country": "CA", "postalCode": "T3J1Y9", "twitter": "None", "instagram": "None", "facebook": "None", "youtube": "None", "website": "None", "summary": "None", "logo": "None", "latitude": 51.109163077990644, "longitude": -113.95350675742971}, "873020796RR0001": {"name": "MERCY HILL CHRISTIAN FELLOWSHIP", "designationCode": "C", "categoryCode": "49", "address": "18 ABSOLOM ST. W., PO BOX 203", "city": "MILDMAY", "province": "ON", "country": "CA", "postalCode": "N0G2J0", "twitter": "None", "instagram": "None", "facebook": "None", "youtube": "None", "website": "None", "summary": "None", "logo": "None", "latitude": 44.04139300141191, "longitude": -81.12004400282382}, "890648249RR0001": {"name": "MERCY SHIPS CANADA SOCIETY", "designationCode": "C", "categoryCode": "09", "address": "5-3318 OAK ST", "city": "VICTORIA", "province": "BC", "country": "CA", "postalCode": "V8X1R1", "twitter": "None", "instagram": "None", "facebook": "None", "youtube": "None", "website": "None", "summary": "None", "logo": "None"}, "866075534RR0001": {"name": "MERCY TOUCH MISSION INTERNATIONAL, INC.", "designationCode": "C", "categoryCode": "47", "address": "8250 161 ST", "city": "SURREY", "province": "BC", "country": "CA", "postalCode": "V4N0M9", "twitter": "None", "instagram": "None", "facebook": "None", "youtube": "None", "website": "None", "summary": "None", "logo": "None", "latitude": 49.15268952844943, "longitude": -122.77597798776631}, "894585553RR0001": {"name": "MERCY USA FOR AID AND DEVELOPMENT (CANADA), INC.", "designationCode": "C", "categoryCode": "09", "address": "FIESTA PO BOX 56102           312 GRAYS RD", "city": "STONEY CREEK", "province": "ON", "country": "CA", "postalCode": "L8G5C9", "twitter": "None", "instagram": "None", "facebook": "None", "youtube": "None", "website": "None", "summary": "None", "logo": "None", "latitude": 43.20879000000005, "longitude": -79.65669049999994}, "837367077RR0001": {"name": "MERE DE LA LUMIERE", "designationCode": "B", "categoryCode": "09", "address": "24 ST. LOUIS", "city": "BEACONSFIELD", "province": "QC", "country": "CA", "postalCode": "H9W4X5", "twitter": "None", "instagram": "None", "facebook": "None", "youtube": "None", "website": "None", "summary": "None", "logo": "None", "latitude": 45.419427356367954, "longitude": -73.87920698156258}, "888528809RR0001": {"name": "MERES AVEC POUVOIR (MAP) MONTREAL", "designationCode": "C", "categoryCode": "09", "address": "1503 RUE LAFONTAINE", "city": "MONTREAL", "province": "QC", "country": "CA", "postalCode": "H2L1T7", "twitter": "None", "instagram": "None", "facebook": "None", "youtube": "None", "website": "None", "summary": "None", "logo": "None", "latitude": 45.52312200000006, "longitude": -73.55829499999993}, "869831776RR0001": {"name": "MERES ET MONDE CENTRE DE RESSOURCES POUR JEUNES MERES", "designationCode": "C", "categoryCode": "09", "address": "727 8\u00c8ME AVENUE", "city": "QUEBEC", "province": "QC", "country": "CA", "postalCode": "G1J3M3", "twitter": "None", "instagram": "None", "facebook": "None", "youtube": "None", "website": "None", "summary": "None", "logo": "None", "latitude": 46.8266573100007, "longitude": -71.22403518336286}, "107691651RR0001": {"name": "MERIDIAN FOUNDATION", "designationCode": "C", "categoryCode": "01", "address": "5303 47 ST", "city": "STONY PLAIN", "province": "AB", "country": "CA", "postalCode": "T7Z1P1", "twitter": "None", "instagram": "None", "facebook": "None", "youtube": "None", "website": "None", "summary": "None", "logo": "None", "latitude": 53.52704094754458, "longitude": -114.00018781672405}, "868163346RR0001": {"name": "MERIGOMISH AND DISTRICT FIRE DEPARTMENT", "designationCode": "C", "categoryCode": "59", "address": "P.O. BOX 75", "city": "MERIGOMISH", "province": "NS", "country": "CA", "postalCode": "B0K1G0", "twitter": "None", "instagram": "None", "facebook": "None", "youtube": "None", "website": "None", "summary": "None", "logo": "None", "latitude": 45.63122000000004, "longitude": -62.42946999999998}, "862202512RR0001": {"name": "MERIGOMISH CEMETERY COMPANY, (LIMITED).", "designationCode": "C", "categoryCode": "59", "address": "2284 SHORE RD", "city": "MERIGOMISH", "province": "NS", "country": "CA", "postalCode": "B0K1G0", "twitter": "None", "instagram": "None", "facebook": "None", "youtube": "None", "website": "None", "summary": "None", "logo": "None", "latitude": 45.645772796602316, "longitude": -62.39061299951891}, "119038701RR0001": {"name": "MERIGOMISH UNITED CHURCH", "designationCode": "C", "categoryCode": "44", "address": "P.O. BOX 2", "city": "MERIGOMISH", "province": "NS", "country": "CA", "postalCode": "B0K1G0", "twitter": "None", "instagram": "None", "facebook": "None", "youtube": "None", "website": "None", "summary": "None", "logo": "None", "latitude": 45.63122000000004, "longitude": -62.42946999999998}, "108154196RR0001": {"name": "MERIVALE UNITED CHURCH", "designationCode": "C", "categoryCode": "44", "address": "55 PARKLAND CRES.", "city": "OTTAWA", "province": "ON", "country": "CA", "postalCode": "K2H5V4", "twitter": "None", "instagram": "None", "facebook": "None", "youtube": "None", "website": "None", "summary": "None", "logo": "None", "latitude": 45.32245196973293, "longitude": -75.79157898640999}, "861230316RR0001": {"name": "MERLEN KROPF FOUNDATION", "designationCode": "B", "categoryCode": "05", "address": "RR 2", "city": "ELORA", "province": "ON", "country": "CA", "postalCode": "N0B1S0", "twitter": "None", "instagram": "None", "facebook": "None", "youtube": "None", "website": "None", "summary": "None", "logo": "None", "latitude": 43.73237071669247, "longitude": -80.50547829004643}, "129621256RR0001": {"name": "MERLIN PARKS AND RECREATION", "designationCode": "C", "categoryCode": "56", "address": "PO BOX 234", "city": "MERLIN", "province": "ON", "country": "CA", "postalCode": "N0P1W0", "twitter": "None", "instagram": "None", "facebook": "None", "youtube": "None", "website": "None", "summary": "None", "logo": "None", "latitude": 42.32416979726086, "longitude": -82.33013559251839}, "119038743RR0001": {"name": "MERLIN UNITED CHURCH", "designationCode": "C", "categoryCode": "44", "address": "P.O. BOX 234", "city": "MERLIN", "province": "ON", "country": "CA", "postalCode": "N0P1W0", "twitter": "None", "instagram": "None", "facebook": "None", "youtube": "None", "website": "None", "summary": "None", "logo": "None", "latitude": 42.32416979726086, "longitude": -82.33013559251839}, "107691883RR0001": {"name": "MERLIN-FLETCHER PASTORAL CHARGE", "designationCode": "C", "categoryCode": "44", "address": "13 ERIE STREET NORTH", "city": "MERLIN", "province": "ON", "country": "CA", "postalCode": "N0P1W0", "twitter": "None", "instagram": "None", "facebook": "None", "youtube": "None", "website": "None", "summary": "None", "logo": "None", "latitude": 42.24220248566019, "longitude": -82.23282217176434}, "895487197RR0001": {"name": "MERLINI STUDY CENTRE", "designationCode": "C", "categoryCode": "20", "address": "100 PELMO CRES", "city": "NORTH YORK", "province": "ON", "country": "CA", "postalCode": "M9N2Y1", "twitter": "None", "instagram": "None", "facebook": "None", "youtube": "None", "website": "None", "summary": "None", "logo": "None", "latitude": 43.711952907871094, "longitude": -79.51261932832257}, "119038750RR0001": {"name": "MERMAID PRESBYTERIAN CHURCH", "designationCode": "C", "categoryCode": "37", "address": "28 STARLING CRES", "city": "STRATFORD", "province": "PE", "country": "CA", "postalCode": "C1B0K1", "twitter": "None", "instagram": "None", "facebook": "None", "youtube": "None", "website": "None", "summary": "None", "logo": "None", "latitude": 46.239920940564204, "longitude": -63.08995447036732}, "119038768RR0001": {"name": "MERMAID THEATRE OF NOVA SCOTIA", "designationCode": "C", "categoryCode": "22", "address": "BOX 2697                      132 GERRISH STREET", "city": "WINDSOR", "province": "NS", "country": "CA", "postalCode": "B0N2T0", "twitter": "None", "instagram": "None", "facebook": "None", "youtube": "None", "website": "None", "summary": "None", "logo": "None", "latitude": 44.99421185899368, "longitude": -64.1367834245195}, "891431397RR0001": {"name": "MERRICKVILLE AGRICULTURAL SOCIETY", "designationCode": "C", "categoryCode": "56", "address": "P.O.BOX 595", "city": "MERRICKVILE", "province": "ON", "country": "CA", "postalCode": "K0G1N0", "twitter": "None", "instagram": "None", "facebook": "None", "youtube": "None", "website": "None", "summary": "None", "logo": "None", "latitude": 44.916040000000066, "longitude": -75.83737999999994}, "119038776RR0001": {"name": "MERRICKVILLE AND DISTRICT HISTORICAL SOCIETY", "designationCode": "C", "categoryCode": "50", "address": "P.O. BOX 294", "city": "MERRICKVILLE", "province": "ON", "country": "CA", "postalCode": "K0G1N0", "twitter": "None", "instagram": "None", "facebook": "None", "youtube": "None", "website": "None", "summary": "None", "logo": "None", "latitude": 44.91574000000003, "longitude": -75.83684999999997}, "892382730RR0001": {"name": "MERRICKVILLE NURSERY SCHOOL", "designationCode": "C", "categoryCode": "20", "address": "BOX 576", "city": "MERRICKVILLE", "province": "ON", "country": "CA", "postalCode": "K0G1N0", "twitter": "None", "instagram": "None", "facebook": "None", "youtube": "None", "website": "None", "summary": "None", "logo": "None", "latitude": 44.91574000000003, "longitude": -75.83684999999997}, "885866566RR0001": {"name": "MERRICKVILLE UNION PROTESTANT BURIAL GROUND", "designationCode": "C", "categoryCode": "59", "address": "734 BOLTON RD.", "city": "MERRICKVILLE", "province": "ON", "country": "CA", "postalCode": "K0G1N0", "twitter": "None", "instagram": "None", "facebook": "None", "youtube": "None", "website": "None", "summary": "None", "logo": "None", "latitude": 44.84584274099197, "longitude": -75.7141387787551}, "132014754RR0001": {"name": "MERRICKVILLE UNITED CHURCH", "designationCode": "C", "categoryCode": "44", "address": "P.O. BOX 40", "city": "MERRICKVILLE", "province": "ON", "country": "CA", "postalCode": "K0G1N0", "twitter": "None", "instagram": "None", "facebook": "None", "youtube": "None", "website": "None", "summary": "None", "logo": "None", "latitude": 44.91574000000003, "longitude": -75.83684999999997}, "119038826RR0001": {"name": "MERRITT BAPTIST CHURCH", "designationCode": "C", "categoryCode": "31", "address": "PO BOX 977", "city": "MERRITT", "province": "BC", "country": "CA", "postalCode": "V1K1B8", "twitter": "None", "instagram": "None", "facebook": "None", "youtube": "None", "website": "None", "summary": "None", "logo": "None", "latitude": 50.111565000000056, "longitude": -120.78738349999993}, "107692196RR0001": {"name": "MERRITT CROSSROADS COMMUNITY CHURCH", "designationCode": "C", "categoryCode": "36", "address": "2990 VOGHT STREET", "city": "MERRITT", "province": "BC", "country": "CA", "postalCode": "V1K1C8", "twitter": "None", "instagram": "None", "facebook": "None", "youtube": "None", "website": "None", "summary": "None", "logo": "None", "latitude": 50.118500976946294, "longitude": -120.78042523798266}, "134949312RR0001": {"name": "MERRITT ROTARY CLUB SOCIETY", "designationCode": "C", "categoryCode": "56", "address": "BOX 938", "city": "MERRITT", "province": "BC", "country": "CA", "postalCode": "V1K1B8", "twitter": "None", "instagram": "None", "facebook": "None", "youtube": "None", "website": "None", "summary": "None", "logo": "None", "latitude": 50.111565000000056, "longitude": -120.78738349999993}, "119038875RR0001": {"name": "MERRITT SENIOR CITIZENS ASSOCIATION", "designationCode": "C", "categoryCode": "09", "address": "BOX 2935", "city": "MERRITT", "province": "BC", "country": "CA", "postalCode": "V1K1B8", "twitter": "None", "instagram": "None", "facebook": "None", "youtube": "None", "website": "None", "summary": "None", "logo": "None", "latitude": 50.111565000000056, "longitude": -120.78738349999993}, "118818491RR0021": {"name": "MERRITT SEVENTH-DAY ADVENTIST CHURCH", "designationCode": "C", "categoryCode": "41", "address": "PO 1000", "city": "ABBOTSFORD", "province": "BC", "country": "CA", "postalCode": "V2S4P5", "twitter": "None", "instagram": "None", "facebook": "None", "youtube": "None", "website": "None", "summary": "None", "logo": "None", "latitude": 49.03851300000005, "longitude": -122.29441549999993}, "119038891RR0001": {"name": "MERRITT SIKH SOCIETY", "designationCode": "C", "categoryCode": "62", "address": "PO BOX 700 STN MAIN", "city": "MERRITT", "province": "BC", "country": "CA", "postalCode": "V1K1B8", "twitter": "None", "instagram": "None", "facebook": "None", "youtube": "None", "website": "None", "summary": "None", "logo": "None", "latitude": 50.110601889565906, "longitude": -120.80346822143058}, "119288918RR0616": {"name": "MERRITT, BRITISH COLUMBIA CONGREGATION OF JEHOVAH'S WITNESSES", "designationCode": "C", "categoryCode": "61", "address": "BOX 1659", "city": "MERRITT", "province": "BC", "country": "CA", "postalCode": "V1K1B8", "twitter": "None", "instagram": "None", "facebook": "None", "youtube": "None", "website": "None", "summary": "None", "logo": "None", "latitude": 50.111565000000056, "longitude": -120.78738349999993}, "132975285RR0001": {"name": "MERRITTS UNITED CHURCH", "designationCode": "C", "categoryCode": "44", "address": "7564 SOUTH CHIPPAWA ROAD", "city": "WELLANDPORT", "province": "ON", "country": "CA", "postalCode": "L0R2J0", "twitter": "None", "instagram": "None", "facebook": "None", "youtube": "None", "website": "None", "summary": "None", "logo": "None", "latitude": 43.01008952850674, "longitude": -79.60242326862512}, "891036899RR0001": {"name": "MERRY-GO-ROUND CHILDREN'S FOUNDATION", "designationCode": "C", "categoryCode": "23", "address": "441 KING STREET W., SUITE 200", "city": "TORONTO", "province": "ON", "country": "CA", "postalCode": "M5V1K4", "twitter": "None", "instagram": "None", "facebook": "None", "youtube": "None", "website": "None", "summary": "None", "logo": "None", "latitude": 43.64528477655964, "longitude": -79.3957157082925}, "107692303RR0001": {"name": "MERRYMOUNT CHILDRENS CENTRE", "designationCode": "C", "categoryCode": "01", "address": "1064 COLBORNE STREET", "city": "LONDON", "province": "ON", "country": "CA", "postalCode": "N6A4B3", "twitter": "None", "instagram": "None", "facebook": "None", "youtube": "None", "website": "None", "summary": "None", "logo": "None", "latitude": 43.00942458093818, "longitude": -81.25139677486129}, "891457590RR0001": {"name": "MERRYMOUNT FOUNDATION INC", "designationCode": "A", "categoryCode": "03", "address": "1064 COLBORNE STREET", "city": "LONDON", "province": "ON", "country": "CA", "postalCode": "N6A4B3", "twitter": "None", "instagram": "None", "facebook": "None", "youtube": "None", "website": "None", "summary": "None", "logo": "None", "latitude": 43.00942458093818, "longitude": -81.25139677486129}, "857599112RR0001": {"name": "MERS Marine Education and Research Society", "designationCode": "C", "categoryCode": "54", "address": "PO BOX 1347", "city": "PORT MCNEILL", "province": "BC", "country": "CA", "postalCode": "V0N2R0", "twitter": "None", "instagram": "None", "facebook": "None", "youtube": "None", "website": "None", "summary": "None", "logo": "None", "latitude": 50.58438000000007, "longitude": -127.08205999999996}, "107692329RR0001": {"name": "MERSEA PASTORAL CHARGE", "designationCode": "C", "categoryCode": "44", "address": "PO BOX 652", "city": "WHEATLEY", "province": "ON", "country": "CA", "postalCode": "N0P2P0", "twitter": "None", "instagram": "None", "facebook": "None", "youtube": "None", "website": "None", "summary": "None", "logo": "None", "latitude": 42.1475991071054, "longitude": -82.45917754061918}, "890432792RR0001": {"name": "MERSEY BAND SOCIETY", "designationCode": "C", "categoryCode": "22", "address": "PO BOX 671", "city": "LIVERPOOL", "province": "NS", "country": "CA", "postalCode": "B0T1K0", "twitter": "None", "instagram": "None", "facebook": "None", "youtube": "None", "website": "None", "summary": "None", "logo": "None", "latitude": 44.03577000000007, "longitude": -64.72067999999996}, "824452973RR0001": {"name": "MERSEY POINT COMMUNITY ASSOCIATION", "designationCode": "C", "categoryCode": "56", "address": "1150 SHORE ROAD               WESTERN HEAD", "city": "LIVERPOOL", "province": "NS", "country": "CA", "postalCode": "B0T1K0", "twitter": "None", "instagram": "None", "facebook": "None", "youtube": "None", "website": "None", "summary": "None", "logo": "None", "latitude": 44.00107933608419, "longitude": -64.66591570572407}, "864101233RR0001": {"name": "MERSEY TOBEATIC RESEARCH INSTITUTE CO-OPERATIVE LIMITED", "designationCode": "C", "categoryCode": "21", "address": "P.O. BOX 215", "city": "CALEDONIA", "province": "NS", "country": "CA", "postalCode": "B0T1B0", "twitter": "None", "instagram": "None", "facebook": "None", "youtube": "None", "website": "None", "summary": "None", "logo": "None", "latitude": 44.3565241005682, "longitude": -65.135905969237}, "136380557RR0001": {"name": "MERSYNERGY CHARITABLE FOUNDATION", "designationCode": "B", "categoryCode": "03", "address": "PO BOX 310                    1386 KING ST N", "city": "ST JACOBS", "province": "ON", "country": "CA", "postalCode": "N0B2N0", "twitter": "None", "instagram": "None", "facebook": "None", "youtube": "None", "website": "None", "summary": "None", "logo": "None", "latitude": 43.5383727461881, "longitude": -80.55369605346515}, "802537746RR0001": {"name": "MERVILLE MENNONITE CHURCH", "designationCode": "C", "categoryCode": "34", "address": "2782 HAMM RD", "city": "BLACK CREEK", "province": "BC", "country": "CA", "postalCode": "V9J1B4", "twitter": "None", "instagram": "None", "facebook": "None", "youtube": "None", "website": "None", "summary": "None", "logo": "None", "latitude": 49.84392329532902, "longitude": -125.16898724505043}, "119038966RR0001": {"name": "MERVIN UNITED CHURCH", "designationCode": "C", "categoryCode": "44", "address": "BOX 153", "city": "MERVIN", "province": "SK", "country": "CA", "postalCode": "S0M1Y0", "twitter": "None", "instagram": "None", "facebook": "None", "youtube": "None", "website": "None", "summary": "None", "logo": "None", "latitude": 53.333470000000034, "longitude": -108.88472999999999}, "133512715RR0001": {"name": "MES AMIS EN FRANCAIS CO-OPERATIVE", "designationCode": "C", "categoryCode": "20", "address": "3301 GARNET STREET", "city": "REGINA", "province": "SK", "country": "CA", "postalCode": "S4S1X8", "twitter": "None", "instagram": "None", "facebook": "None", "youtube": "None", "website": "None", "summary": "None", "logo": "None", "latitude": 50.426946419095174, "longitude": -104.62675740302458}, "888994449RR0001": {"name": "MESIVTA BETH SHRAGA CANADA", "designationCode": "C", "categoryCode": "21", "address": "6062 WILDERTON CRES", "city": "MONTREAL", "province": "QC", "country": "CA", "postalCode": "H3S2M6", "twitter": "None", "instagram": "None", "facebook": "None", "youtube": "None", "website": "None", "summary": "None", "logo": "None", "latitude": 45.508780928386, "longitude": -73.62306167802542}, "119038990RR0001": {"name": "MESKANAW \"TRAILL\" COMMUNITY CEMETERY", "designationCode": "C", "categoryCode": "30", "address": "BOX 21", "city": "MESKANAW", "province": "SK", "country": "CA", "postalCode": "S0K2W0", "twitter": "None", "instagram": "None", "facebook": "None", "youtube": "None", "website": "None", "summary": "None", "logo": "None", "latitude": 52.78326000000004, "longitude": -105.07840999999996}, "890089881RR0001": {"name": "MESORAH HERITAGE FOUNDATION OF CANADA", "designationCode": "C", "categoryCode": "49", "address": "6232 DE VIMY AVENUE", "city": "MONTREAL", "province": "QC", "country": "CA", "postalCode": "H3S2R3", "twitter": "None", "instagram": "None", "facebook": "None", "youtube": "None", "website": "None", "summary": "None", "logo": "None", "latitude": 45.51376597556129, "longitude": -73.62162378103169}, "888923778RR0001": {"name": "MESS'AJE QUEBEC", "designationCode": "C", "categoryCode": "38", "address": "2960 BOUL. MASSON", "city": "QUEBEC", "province": "QC", "country": "CA", "postalCode": "G1P1J6", "twitter": "None", "instagram": "None", "facebook": "None", "youtube": "None", "website": "None", "summary": "None", "logo": "None", "latitude": 46.81156145741232, "longitude": -71.32159515748184}, "136758497RR0001": {"name": "MESSAGER CHRETIEN", "designationCode": "C", "categoryCode": "47", "address": "185 AVE GATINEAU", "city": "GATINEAU", "province": "QC", "country": "CA", "postalCode": "J8T4J7", "twitter": "None", "instagram": "None", "facebook": "None", "youtube": "None", "website": "None", "summary": "None", "logo": "None", "latitude": 45.487716834266514, "longitude": -75.71728779421765}, "106925993RR0002": {"name": "MESSIAH", "designationCode": "C", "categoryCode": "30", "address": "421 RUSSEL STREET", "city": "KINCARDINE", "province": "ON", "country": "CA", "postalCode": "N2Z2A9", "twitter": "None", "instagram": "None", "facebook": "None", "youtube": "None", "website": "None", "summary": "None", "logo": "None", "latitude": 44.1735274199583, "longitude": -81.63275840528601}, "119039030RR0001": {"name": "MESSIAH EVANGELICAL LUTHERAN CHURCH", "designationCode": "C", "categoryCode": "32", "address": "700 GLEN FORREST BLVD", "city": "WATERLOO", "province": "ON", "country": "CA", "postalCode": "N2L4K6", "twitter": "None", "instagram": "None", "facebook": "None", "youtube": "None", "website": "None", "summary": "None", "logo": "None", "latitude": 43.493292578106235, "longitude": -80.55077009864978}, "107692543RR0001": {"name": "MESSIAH LAKESHORE CO-OPERATIVE NURSERY INCORPORATED", "designationCode": "C", "categoryCode": "20", "address": "315 NORTHLAKE DRIVE", "city": "WATERLOO", "province": "ON", "country": "CA", "postalCode": "N2V1W5", "twitter": "None", "instagram": "None", "facebook": "None", "youtube": "None", "website": "None", "summary": "None", "logo": "None", "latitude": 43.50008943020366, "longitude": -80.55447894416903}, "107692592RR0001": {"name": "MESSIAH LUTHERAN CHURCH", "designationCode": "C", "categoryCode": "32", "address": "4810 50 STREET", "city": "CAMROSE", "province": "AB", "country": "CA", "postalCode": "T4V1P5", "twitter": "None", "instagram": "None", "facebook": "None", "youtube": "None", "website": "None", "summary": "None", "logo": "None", "latitude": 53.01830370941767, "longitude": -112.82596036086866}, "119039063RR0001": {"name": "MESSIAH LUTHERAN CHURCH", "designationCode": "C", "categoryCode": "32", "address": "1796, 15TH ST E", "city": "PRINCE ALBERT", "province": "SK", "country": "CA", "postalCode": "S6V8A1", "twitter": "None", "instagram": "None", "facebook": "None", "youtube": "None", "website": "None", "summary": "None", "logo": "None", "latitude": 53.19915300272649, "longitude": -105.69417214811932}, "119039089RR0001": {"name": "MESSIAH LUTHERAN CHURCH OF ASSINIBOIA INC.", "designationCode": "C", "categoryCode": "32", "address": "PO 536                        123 6TH AVE E", "city": "ASSINIBOIA", "province": "SK", "country": "CA", "postalCode": "S0H0B0", "twitter": "None", "instagram": "None", "facebook": "None", "youtube": "None", "website": "None", "summary": "None", "logo": "None", "latitude": 49.62927480500465, "longitude": -105.99218499404209}, "119039097RR0001": {"name": "MESSIAH LUTHERAN CHURCH WESTWOOD INC.", "designationCode": "C", "categoryCode": "32", "address": "400 ROUGE ROAD", "city": "WINNIPEG", "province": "MB", "country": "CA", "postalCode": "R3K1K3", "twitter": "None", "instagram": "None", "facebook": "None", "youtube": "None", "website": "None", "summary": "None", "logo": "None", "latitude": 49.87746148765074, "longitude": -97.29947330812479}, "861338135RR0001": {"name": "MESSIANIC VISION CANADA", "designationCode": "C", "categoryCode": "47", "address": "PO BOX 345 STN MAIN", "city": "BARRIE", "province": "ON", "country": "CA", "postalCode": "L4M4T5", "twitter": "None", "instagram": "None", "facebook": "None", "youtube": "None", "website": "None", "summary": "None", "logo": "None", "latitude": 44.38929300000005, "longitude": -79.68626449999994}, "119039139RR0001": {"name": "MESSORAH TZEDAKAH FOUNDATION", "designationCode": "B", "categoryCode": "03", "address": "15 ERICA AVENUE", "city": "TORONTO", "province": "ON", "country": "CA", "postalCode": "M3H3H3", "twitter": "None", "instagram": "None", "facebook": "None", "youtube": "None", "website": "None", "summary": "None", "logo": "None", "latitude": 43.74476767361067, "longitude": -79.44037902189989}, "130327281RR0001": {"name": "MESURE ALTERNATIVE JEUNESSE GASPESIE-SUD INC.", "designationCode": "C", "categoryCode": "09", "address": "549, BOUL. PERRON", "city": "MARIA", "province": "QC", "country": "CA", "postalCode": "G0C1Y0", "twitter": "None", "instagram": "None", "facebook": "None", "youtube": "None", "website": "None", "summary": "None", "logo": "None", "latitude": 48.177857650297156, "longitude": -65.97982182711047}, "107692691RR0001": {"name": "MESURES ALTERNATIVES JEUNESSE DE LAVAL", "designationCode": "C", "categoryCode": "09", "address": "234 BOUL DES LAURENTIDES", "city": "PONT-VIAU LAVAL", "province": "QC", "country": "CA", "postalCode": "H7G2T6", "twitter": "None", "instagram": "None", "facebook": "None", "youtube": "None", "website": "None", "summary": "None", "logo": "None", "latitude": 45.566264767124586, "longitude": -73.68755307579761}, "138716501RR0001": {"name": "MESURES ALTERNATIVES ST-JEROME INC", "designationCode": "C", "categoryCode": "59", "address": "515 RUE ST-GEORGES", "city": "ST-JEROME", "province": "QC", "country": "CA", "postalCode": "J7Z5B6", "twitter": "None", "instagram": "None", "facebook": "None", "youtube": "None", "website": "None", "summary": "None", "logo": "None", "latitude": 45.78168987676728, "longitude": -74.00182336799604}, "896927969RR0001": {"name": "META VOCATIONAL SERVICES INCORPORATED", "designationCode": "C", "categoryCode": "11", "address": "8-161 BRIDGE ST. W.", "city": "BELLEVILLE", "province": "ON", "country": "CA", "postalCode": "K8P1K2", "twitter": "None", "instagram": "None", "facebook": "None", "youtube": "None", "website": "None", "summary": "None", "logo": "None", "latitude": 44.16084261670451, "longitude": -77.39618659190131}, "860672435RR0001": {"name": "META.FOR THEATRE SOCIETY", "designationCode": "C", "categoryCode": "22", "address": "1001 - 1515 HOMER MEWS", "city": "VANCOUVER", "province": "BC", "country": "CA", "postalCode": "V6Z3E8", "twitter": "None", "instagram": "None", "facebook": "None", "youtube": "None", "website": "None", "summary": "None", "logo": "None", "latitude": 49.27154709936899, "longitude": -123.12704309034787}, "891998817RR0001": {"name": "METACOMMUNITY PRAYER MINISTRIES", "designationCode": "C", "categoryCode": "49", "address": "977 MEADOW WOOD RD", "city": "MISSISSAUGA", "province": "ON", "country": "CA", "postalCode": "L5J2S8", "twitter": "None", "instagram": "None", "facebook": "None", "youtube": "None", "website": "None", "summary": "None", "logo": "None", "latitude": 43.51867815877992, "longitude": -79.62036598886283}, "140591678RR0001": {"name": "METAL ARTS GUILD", "designationCode": "C", "categoryCode": "22", "address": "2251A RUE D'IBERVILLE", "city": "MONTREAL", "province": "QC", "country": "CA", "postalCode": "H2K3C8", "twitter": "None", "instagram": "None", "facebook": "None", "youtube": "None", "website": "None", "summary": "None", "logo": "None", "latitude": 45.5341054594703, "longitude": -73.55686010462512}, "861129468RR0001": {"name": "METANOIA COMMUNITY FOUNDATION", "designationCode": "C", "categoryCode": "49", "address": "3601 HIGHWAY 7                SUITE 1003", "city": "MARKHAM", "province": "ON", "country": "CA", "postalCode": "L3R0M3", "twitter": "None", "instagram": "None", "facebook": "None", "youtube": "None", "website": "None", "summary": "None", "logo": "None", "latitude": 43.8548795960514, "longitude": -79.33689812022034}, "132174178RR0001": {"name": "METANOIA OUTREACH ASSOCIATION OF CANADA", "designationCode": "C", "categoryCode": "47", "address": "PO BOX 1107,STATION F", "city": "TORONTO", "province": "ON", "country": "CA", "postalCode": "M4Y2T8", "twitter": "None", "instagram": "None", "facebook": "None", "youtube": "None", "website": "None", "summary": "None", "logo": "None", "latitude": 43.666332000000054, "longitude": -79.38025549999993}, "119039162RR0001": {"name": "METCALFE AGRICULTURAL SOCIETY", "designationCode": "C", "categoryCode": "56", "address": "PO BOX 29", "city": "METCALFE", "province": "ON", "country": "CA", "postalCode": "K0A2P0", "twitter": "None", "instagram": "None", "facebook": "None", "youtube": "None", "website": "None", "summary": "None", "logo": "None", "latitude": 45.216193377378154, "longitude": -76.19296584601686}, "119039170RR0001": {"name": "METCALFE AND DISTRICT LIONS CLUB CHARITABLE TRUST", "designationCode": "C", "categoryCode": "63", "address": "P.O. BOX 347", "city": "METCALFE", "province": "ON", "country": "CA", "postalCode": "K0A2P0", "twitter": "None", "instagram": "None", "facebook": "None", "youtube": "None", "website": "None", "summary": "None", "logo": "None", "latitude": 45.216193377378154, "longitude": -76.19296584601686}, "118967785RR0010": {"name": "METCALFE HOLINESS CHURCH", "designationCode": "C", "categoryCode": "39", "address": "1564 JOHN QUINN RD", "city": "GREELY", "province": "ON", "country": "CA", "postalCode": "K4P1J9", "twitter": "None", "instagram": "None", "facebook": "None", "youtube": "None", "website": "None", "summary": "None", "logo": "None", "latitude": 45.271849714957604, "longitude": -75.52026435749313}, "119039196RR0001": {"name": "METCALFE ST. ANDREWS UNITED CHARGE", "designationCode": "C", "categoryCode": "44", "address": "BOX 70", "city": "METCALFE", "province": "ON", "country": "CA", "postalCode": "K0A2P0", "twitter": "None", "instagram": "None", "facebook": "None", "youtube": "None", "website": "None", "summary": "None", "logo": "None", "latitude": 45.216193377378154, "longitude": -76.19296584601686}, "119288918RR0462": {"name": "METCHOSIN CONGREGATION OF JEHOVAH'S WITNESSES", "designationCode": "C", "categoryCode": "61", "address": "32 - 2006 SOOKE RD", "city": "VICTORIA", "province": "BC", "country": "CA", "postalCode": "V9B1W3", "twitter": "None", "instagram": "None", "facebook": "None", "youtube": "None", "website": "None", "summary": "None", "logo": "None", "latitude": 48.439662169051694, "longitude": -123.4784179946043}, "107768087RR0001": {"name": "METCHOSIN INTERNATIONAL SUMMER SCHOOL OF THE ARTS", "designationCode": "C", "categoryCode": "20", "address": "650 PEARSON COLLEGE", "city": "VICTORIA", "province": "BC", "country": "CA", "postalCode": "V9C4H7", "twitter": "None", "instagram": "None", "facebook": "None", "youtube": "None", "website": "None", "summary": "None", "logo": "None"}, "119039220RR0001": {"name": "METCHOSIN SCHOOL MUSEUM SOCIETY", "designationCode": "C", "categoryCode": "50", "address": "4475 HAPPY VALLEY RD.", "city": "VICTORIA", "province": "BC", "country": "CA", "postalCode": "V9C3Z3", "twitter": "None", "instagram": "None", "facebook": "None", "youtube": "None", "website": "None", "summary": "None", "logo": "None", "latitude": 48.380375658924166, "longitude": -123.5334607041089}, "133708008RR0001": {"name": "METIS ADDICTIONS COUNCIL OF SASKATCHEWAN INC", "designationCode": "C", "categoryCode": "57", "address": "1-2220 NORTH RIDGE DR", "city": "SASKATOON", "province": "SK", "country": "CA", "postalCode": "S7K8A7", "twitter": "None", "instagram": "None", "facebook": "None", "youtube": "None", "website": "None", "summary": "None", "logo": "None", "latitude": 52.160118000865374, "longitude": -106.66825123001948}, "892830043RR0001": {"name": "METIS BEACH PASTORAL CHARGE,", "designationCode": "C", "categoryCode": "44", "address": "490 RUE BEACH", "city": "METIS-SUR-MER", "province": "QC", "country": "CA", "postalCode": "G0J1S0", "twitter": "None", "instagram": "None", "facebook": "None", "youtube": "None", "website": "None", "summary": "None", "logo": "None", "latitude": 48.66669178238801, "longitude": -68.01493808699301}, "896957255RR0001": {"name": "METIS CALGARY FAMILY SERVICES SOCIETY", "designationCode": "C", "categoryCode": "09", "address": "352 SUNVALE DRIVE SE", "city": "CALGARY", "province": "AB", "country": "CA", "postalCode": "T2X2P1", "twitter": "None", "instagram": "None", "facebook": "None", "youtube": "None", "website": "None", "summary": "None", "logo": "None", "latitude": 50.899753110190986, "longitude": -114.04798908756993}, "119039246RR0001": {"name": "METIS CHILD AND FAMILY SERVICES SOCIETY", "designationCode": "C", "categoryCode": "09", "address": "10437-123 STREET", "city": "EDMONTON", "province": "AB", "country": "CA", "postalCode": "T5N1N8", "twitter": "None", "instagram": "None", "facebook": "None", "youtube": "None", "website": "None", "summary": "None", "logo": "None", "latitude": 53.54731741326677, "longitude": -113.5340642490625}, "867730202RR0001": {"name": "METIS COMMUNITY SERVICES SOCIETY OF BC", "designationCode": "C", "categoryCode": "09", "address": "201-2949 PANDOSY ST", "city": "KELOWNA", "province": "BC", "country": "CA", "postalCode": "V1Y1W1", "twitter": "None", "instagram": "None", "facebook": "None", "youtube": "None", "website": "None", "summary": "None", "logo": "None", "latitude": 49.864023, "longitude": -119.49119141156467}, "107693467RR0001": {"name": "METIS INDIAN TOWN ALCOHOL ASSOCIATION", "designationCode": "C", "categoryCode": "57", "address": "4728 53 AVENUE BOX 1202", "city": "HIGH PRAIRIE", "province": "AB", "country": "CA", "postalCode": "T0G1E0", "twitter": "None", "instagram": "None", "facebook": "None", "youtube": "None", "website": "None", "summary": "None", "logo": "None", "latitude": 55.43297264240245, "longitude": -116.48665098960105}, "898169818RR0001": {"name": "METIS NATION OF ONTARIO CULTURAL COMMISSION", "designationCode": "C", "categoryCode": "21", "address": "500 OLD ST PATRICK STREET     UNIT 3", "city": "OTTAWA", "province": "ON", "country": "CA", "postalCode": "K1N9G4", "twitter": "None", "instagram": "None", "facebook": "None", "youtube": "None", "website": "None", "summary": "None", "logo": "None", "latitude": 45.43444762528153, "longitude": -75.68432184038336}, "892576570RR0001": {"name": "METIS SETTLEMENT EDUCATION AND TRAINING INCENTIVE SCHOLARSHIP SOCIETY", "designationCode": "C", "categoryCode": "21", "address": "101, 10335 172 STREET NW", "city": "EDMONTON", "province": "AB", "country": "CA", "postalCode": "T5S1K9", "twitter": "None", "instagram": "None", "facebook": "None", "youtube": "None", "website": "None", "summary": "None", "logo": "None", "latitude": 53.54985951807258, "longitude": -113.61788409240846}, "870411329RR0001": {"name": "METIS WOMEN'S CIRCLE (CERCLE DES FEMMES METISSES)", "designationCode": "C", "categoryCode": "59", "address": "44 PARK ST E", "city": "DUNDAS", "province": "ON", "country": "CA", "postalCode": "L9H1C7", "twitter": "None", "instagram": "None", "facebook": "None", "youtube": "None", "website": "None", "summary": "None", "logo": "None", "latitude": 43.2666650024815, "longitude": -79.95074096087477}, "107693533RR0001": {"name": "METOCHOS MINISTRIES LUTHERAN BIBLE CAMP ASSOCIATION INC.", "designationCode": "C", "categoryCode": "56", "address": "PO BOX 1671 STN MAIN", "city": "ESTEVAN", "province": "SK", "country": "CA", "postalCode": "S4A1C8", "twitter": "None", "instagram": "None", "facebook": "None", "youtube": "None", "website": "None", "summary": "None", "logo": "None", "latitude": 49.140249000000054, "longitude": -102.99454999999993}, "859439739RR0001": {"name": "METRO BAPTIST CHURCH", "designationCode": "C", "categoryCode": "31", "address": "7768 WEDGEWOOD ST UPPER UNIT", "city": "BURNABY", "province": "BC", "country": "CA", "postalCode": "V5E2E6", "twitter": "None", "instagram": "None", "facebook": "None", "youtube": "None", "website": "None", "summary": "None", "logo": "None", "latitude": 49.22518847829861, "longitude": -122.94022695433034}, "865238695RR0001": {"name": "METRO BIBLE COLLEGE INC.", "designationCode": "C", "categoryCode": "39", "address": "184 WATERBURY STREET", "city": "BOLTON", "province": "ON", "country": "CA", "postalCode": "L7E2H9", "twitter": "None", "instagram": "None", "facebook": "None", "youtube": "None", "website": "None", "summary": "None", "logo": "None", "latitude": 43.869092877055756, "longitude": -79.70861038617369}, "135681393RR0001": {"name": "METRO CARE AND SHARE SOCIETY", "designationCode": "C", "categoryCode": "21", "address": "2710 AGRICOLA ST", "city": "HALIFAX", "province": "NS", "country": "CA", "postalCode": "B3K4E1", "twitter": "None", "instagram": "None", "facebook": "None", "youtube": "None", "website": "None", "summary": "None", "logo": "None", "latitude": 44.657049542587664, "longitude": -63.59583817196589}, "137608733RR0001": {"name": "METRO CHINESE CHRISTIAN MISSION", "designationCode": "C", "categoryCode": "39", "address": "28 CROWN STEEL DRIVE          UNIT 1", "city": "MARKHAM", "province": "ON", "country": "CA", "postalCode": "L3R9Y1", "twitter": "None", "instagram": "None", "facebook": "None", "youtube": "None", "website": "None", "summary": "None", "logo": "None", "latitude": 43.839589674966994, "longitude": -79.32534412819479}, "122449895RR0001": {"name": "METRO CINEMA SOCIETY", "designationCode": "C", "categoryCode": "22", "address": "8712 109ST NW", "city": "EDMONTON", "province": "AB", "country": "CA", "postalCode": "T6G1E9", "twitter": "None", "instagram": "None", "facebook": "None", "youtube": "None", "website": "None", "summary": "None", "logo": "None", "latitude": 53.523181278377315, "longitude": -113.51222660286204}, "876565805RR0001": {"name": "METRO COMMUNITY CHAPLAINCY INC.", "designationCode": "C", "categoryCode": "59", "address": "21 MERRY MEETING ROAD", "city": "ST. JOHN'S", "province": "NL", "country": "CA", "postalCode": "A1C2V6", "twitter": "None", "instagram": "None", "facebook": "None", "youtube": "None", "website": "None", "summary": "None", "logo": "None", "latitude": 47.56593300000006, "longitude": -52.71679699999993}, "129935185RR0001": {"name": "METRO COMMUNITY HOUSING ASSOCIATION", "designationCode": "C", "categoryCode": "01", "address": "280 - 7071 BAYERS RD", "city": "HALIFAX", "province": "NS", "country": "CA", "postalCode": "B3L2C2", "twitter": "None", "instagram": "None", "facebook": "None", "youtube": "None", "website": "None", "summary": "None", "logo": "None", "latitude": 44.65370574279748, "longitude": -63.627277609595474}, "119288918RR0221": {"name": "METRO CONGREGATION OF JEHOVAH'S WITNESSES, TORONTO, ONTARIO", "designationCode": "C", "categoryCode": "61", "address": "402 OAKWOOD AVE", "city": "TORONTO", "province": "ON", "country": "CA", "postalCode": "M6E2W3", "twitter": "None", "instagram": "None", "facebook": "None", "youtube": "None", "website": "None", "summary": "None", "logo": "None", "latitude": 43.68814363474525, "longitude": -79.43909397671513}, "119039337RR0001": {"name": "METRO FOOD BANK SOCIETY - NOVA SCOTIA", "designationCode": "C", "categoryCode": "09", "address": "FEED NOVA SCOTIA              213 BEDFORD HIGHWAY", "city": "HALIFAX", "province": "NS", "country": "CA", "postalCode": "B3M2J9", "twitter": "None", "instagram": "None", "facebook": "None", "youtube": "None", "website": "None", "summary": "None", "logo": "None", "latitude": 44.675735028045374, "longitude": -63.64794705020507}, "119039345RR0001": {"name": "METRO KESWICK CHURCH CONVENTION ASSOCIATION", "designationCode": "C", "categoryCode": "47", "address": "21 KARELS DRIVE", "city": "FALL RIVER", "province": "NS", "country": "CA", "postalCode": "B2T1E5", "twitter": "None", "instagram": "None", "facebook": "None", "youtube": "None", "website": "None", "summary": "None", "logo": "None", "latitude": 44.81621769579902, "longitude": -63.62210896303915}, "897657292RR0001": {"name": "METRO MOTHERS NETWORK", "designationCode": "C", "categoryCode": "13", "address": "350 CRANBROOKE AVE", "city": "NORTH YORK", "province": "ON", "country": "CA", "postalCode": "M5M1N3", "twitter": "None", "instagram": "None", "facebook": "None", "youtube": "None", "website": "None", "summary": "None", "logo": "None", "latitude": 43.72651616515655, "longitude": -79.41599684569213}, "132671066RR0001": {"name": "METRO NON-PROFIT HOUSING ASSOCIATION", "designationCode": "C", "categoryCode": "09", "address": "101-75 PRIMROSE ST", "city": "DARTMOUTH", "province": "NS", "country": "CA", "postalCode": "B3A4C9", "twitter": "None", "instagram": "None", "facebook": "None", "youtube": "None", "website": "None", "summary": "None", "logo": "None", "latitude": 44.68407017703183, "longitude": -63.583809193129284}, "138773254RR0001": {"name": "METRO TORONTO METIS AND ABORIGINAL HISTORICAL AND EDUCATIONAL ASSOCIATION", "designationCode": "C", "categoryCode": "99", "address": "57 BONNECHERE STREET SOUTH", "city": "RENFREW", "province": "ON", "country": "CA", "postalCode": "K7V1Z2", "twitter": "None", "instagram": "None", "facebook": "None", "youtube": "None", "website": "None", "summary": "None", "logo": "None", "latitude": 45.47243030420098, "longitude": -76.68894560309319}}