{"826726135RR0001": {"name": "FIRST UNITED CHURCH COMMUNITY MINISTRY SOCIETY", "designationCode": "C", "categoryCode": "59", "address": "320 HASTINGS ST E", "city": "VANCOUVER", "province": "BC", "country": "CA", "postalCode": "V6A1P4", "twitter": "None", "instagram": "None", "facebook": "None", "youtube": "None", "website": "None", "summary": "None", "logo": "None", "latitude": 49.28124947013695, "longitude": -123.09715205398464}, "118919182RR0001": {"name": "FIRST UNITED CHURCH DRYDEN", "designationCode": "C", "categoryCode": "44", "address": "23 VAN HORNE AVE", "city": "DRYDEN", "province": "ON", "country": "CA", "postalCode": "P8N2A6", "twitter": "None", "instagram": "None", "facebook": "None", "youtube": "None", "website": "None", "summary": "None", "logo": "None", "latitude": 49.784003245628725, "longitude": -92.83629143378168}, "118919455RR0001": {"name": "FIRST UNITED CHURCH THE UNITED CHURCH OF CANADA", "designationCode": "C", "categoryCode": "44", "address": "P.O. BOX 221", "city": "WAWA", "province": "ON", "country": "CA", "postalCode": "P0S1K0", "twitter": "None", "instagram": "None", "facebook": "None", "youtube": "None", "website": "None", "summary": "None", "logo": "None", "latitude": 47.99670182883135, "longitude": -84.76954309189294}, "107388225RR0001": {"name": "FIRST UNITED CHURCH, SALMON ARM", "designationCode": "C", "categoryCode": "44", "address": "BOX 940", "city": "SALMON ARM", "province": "BC", "country": "CA", "postalCode": "V1E4P1", "twitter": "None", "instagram": "None", "facebook": "None", "youtube": "None", "website": "None", "summary": "None", "logo": "None", "latitude": 50.70318000000006, "longitude": -119.26884049999992}, "891190522RR0001": {"name": "FIRST UNITED FOUNDATION", "designationCode": "A", "categoryCode": "43", "address": "151 LAKESHORE ROAD WEST", "city": "MISSISSAUGA", "province": "ON", "country": "CA", "postalCode": "L5H1G3", "twitter": "None", "instagram": "None", "facebook": "None", "youtube": "None", "website": "None", "summary": "None", "logo": "None", "latitude": 43.54852374490756, "longitude": -79.58901023628057}, "107388381RR0001": {"name": "FIRST UNITED LUTHERAN CHURCH", "designationCode": "C", "categoryCode": "32", "address": "20 SECOND AVENUE              BOX 612", "city": "FLIN FLON", "province": "MB", "country": "CA", "postalCode": "R8A1N4", "twitter": "None", "instagram": "None", "facebook": "None", "youtube": "None", "website": "None", "summary": "None", "logo": "None", "latitude": 54.76763625251601, "longitude": -101.87210046677909}, "118919471RR0001": {"name": "FIRST UNITED MENNONITE CHURCH", "designationCode": "C", "categoryCode": "34", "address": "659 E-52ND AVE", "city": "VANCOUVER", "province": "BC", "country": "CA", "postalCode": "V5X1G8", "twitter": "None", "instagram": "None", "facebook": "None", "youtube": "None", "website": "None", "summary": "None", "logo": "None", "latitude": 49.22275146768412, "longitude": -123.09171185789717}, "871703823RR0001": {"name": "FIRST UNITED PENTECOSTAL CHURCH (SAINT JOHN) INC.", "designationCode": "C", "categoryCode": "36", "address": "PO BOX 145", "city": "SAINT JOHN", "province": "NB", "country": "CA", "postalCode": "E2L3X8", "twitter": "None", "instagram": "None", "facebook": "None", "youtube": "None", "website": "None", "summary": "None", "logo": "None", "latitude": 45.27342600000006, "longitude": -66.06407149999993}, "891049843RR0001": {"name": "FIRST UNITED PENTECOSTAL CHURCH OF LETHBRIDGE ALBERTA", "designationCode": "C", "categoryCode": "39", "address": "1721 5TH AV N", "city": "LETHBRIDGE", "province": "AB", "country": "CA", "postalCode": "T1H0N2", "twitter": "None", "instagram": "None", "facebook": "None", "youtube": "None", "website": "None", "summary": "None", "logo": "None", "latitude": 49.705753451551345, "longitude": -112.81815733347496}, "138643630RR0001": {"name": "FIRST UNITED PENTECOSTAL CHURCH OF NOONAN", "designationCode": "C", "categoryCode": "36", "address": "851 ROUTE 10 HWY", "city": "NOONAN", "province": "NB", "country": "CA", "postalCode": "E3A7H4", "twitter": "None", "instagram": "None", "facebook": "None", "youtube": "None", "website": "None", "summary": "None", "logo": "None", "latitude": 45.96382019172429, "longitude": -66.53352030827573}, "118919497RR0001": {"name": "FIRST UNITED PENTECOSTAL CHURCH OF SASKATOON", "designationCode": "C", "categoryCode": "36", "address": "143 WEDGE RD", "city": "SASKATOON", "province": "SK", "country": "CA", "postalCode": "S7L6P9", "twitter": "None", "instagram": "None", "facebook": "None", "youtube": "None", "website": "None", "summary": "None", "logo": "None", "latitude": 52.145723065208706, "longitude": -106.72697995146837}, "118919489RR0001": {"name": "FIRST UNITED PENTECOSTAL CHURCH OF TORONTO", "designationCode": "C", "categoryCode": "36", "address": "793 PHARMACY AVE", "city": "SCARBOROUGH", "province": "ON", "country": "CA", "postalCode": "M1L3K2", "twitter": "None", "instagram": "None", "facebook": "None", "youtube": "None", "website": "None", "summary": "None", "logo": "None", "latitude": 43.720612049425654, "longitude": -79.29543834433674}, "896148475RR0001": {"name": "FIRST UNITED PENTECOSTAL CHURCH OF WOODSTOCK INC.", "designationCode": "C", "categoryCode": "36", "address": "P.O. BOX 85", "city": "WOODSTOCK", "province": "NL", "country": "CA", "postalCode": "A0K5X0", "twitter": "None", "instagram": "None", "facebook": "None", "youtube": "None", "website": "None", "summary": "None", "logo": "None", "latitude": 49.942005355170934, "longitude": -55.93114739649044}, "118919521RR0001": {"name": "FIRST UNITED SPIRITUALIST CHURCH OF VANCOUVER", "designationCode": "C", "categoryCode": "39", "address": "5584 KINCAID ST", "city": "BURNABY", "province": "BC", "country": "CA", "postalCode": "V5G1W3", "twitter": "None", "instagram": "None", "facebook": "None", "youtube": "None", "website": "None", "summary": "None", "logo": "None", "latitude": 49.24831749494099, "longitude": -122.98166386888703}, "107388464RR0001": {"name": "FIRST WESLEYAN CHURCH", "designationCode": "C", "categoryCode": "39", "address": "131 DUNCAN LANE", "city": "FREDERICTON", "province": "NB", "country": "CA", "postalCode": "E3B7S2", "twitter": "None", "instagram": "None", "facebook": "None", "youtube": "None", "website": "None", "summary": "None", "logo": "None", "latitude": 45.95943635636795, "longitude": -66.69575469426981}, "118919588RR0001": {"name": "FIRST YARMOUTH BAPTIST CHURCH", "designationCode": "C", "categoryCode": "31", "address": "RR 4                          6071 FAIRVIEW RD", "city": "ST THOMAS", "province": "ON", "country": "CA", "postalCode": "N5P3S8", "twitter": "None", "instagram": "None", "facebook": "None", "youtube": "None", "website": "None", "summary": "None", "logo": "None", "latitude": 42.703227062727215, "longitude": -81.16707777176951}, "107387243RR0001": {"name": "FIRST-PILGRIM UNITED CHURCH", "designationCode": "C", "categoryCode": "44", "address": "200 MAIN ST. EAST", "city": "HAMILTON", "province": "ON", "country": "CA", "postalCode": "L8N1H3", "twitter": "None", "instagram": "None", "facebook": "None", "youtube": "None", "website": "None", "summary": "None", "logo": "None", "latitude": 43.25331306797866, "longitude": -79.8616474565756}, "118919067RR0001": {"name": "FIRST-ST. ANDREW'S UNITED CHURCH", "designationCode": "C", "categoryCode": "44", "address": "350 QUEENS AVE", "city": "LONDON", "province": "ON", "country": "CA", "postalCode": "N6B1X6", "twitter": "None", "instagram": "None", "facebook": "None", "youtube": "None", "website": "None", "summary": "None", "logo": "None", "latitude": 42.987145962028606, "longitude": -81.24267820901365}, "108197575RR0001": {"name": "FIRST-WESLEY UNITED CHURCH", "designationCode": "C", "categoryCode": "44", "address": "130 NORTH BRODIE ST", "city": "THUNDER BAY", "province": "ON", "country": "CA", "postalCode": "P7C3S3", "twitter": "None", "instagram": "None", "facebook": "None", "youtube": "None", "website": "None", "summary": "None", "logo": "None", "latitude": 48.385323, "longitude": -89.24661013278335}, "889653895RR0001": {"name": "FIRSTENERGY COMMUNITY FOUNDATION", "designationCode": "B", "categoryCode": "01", "address": "1100, 311 - 6TH AVENUE SW", "city": "CALGARY", "province": "AB", "country": "CA", "postalCode": "T2P3H2", "twitter": "None", "instagram": "None", "facebook": "None", "youtube": "None", "website": "None", "summary": "None", "logo": "None", "latitude": 51.0478195947294, "longitude": -114.07564953611224}, "118919661RR0001": {"name": "FISH FUTURES INC.", "designationCode": "C", "categoryCode": "52", "address": "360 MAIN ST                   30TH FLOOR", "city": "WINNIPEG", "province": "MB", "country": "CA", "postalCode": "R3C4G1", "twitter": "None", "instagram": "None", "facebook": "None", "youtube": "None", "website": "None", "summary": "None", "logo": "None", "latitude": 49.89459781320337, "longitude": -97.1381563866637}, "888077195RR0001": {"name": "FISHBURN-MARR UNITED CHURCH,", "designationCode": "C", "categoryCode": "44", "address": "BOX 546", "city": "PINCHER CREEK", "province": "AB", "country": "CA", "postalCode": "T0K1W0", "twitter": "None", "instagram": "None", "facebook": "None", "youtube": "None", "website": "None", "summary": "None", "logo": "None", "latitude": 49.48739000000006, "longitude": -113.9366800732874}, "818956252RR0001": {"name": "FISHER BAY BIBLE CAMP INC.", "designationCode": "C", "categoryCode": "56", "address": "120 MAPLE DR.", "city": "WINKLER", "province": "MB", "country": "CA", "postalCode": "R6W1Z7", "twitter": "None", "instagram": "None", "facebook": "None", "youtube": "None", "website": "None", "summary": "None", "logo": "None", "latitude": 49.176702376911514, "longitude": -97.94462584237391}, "121274872RR0001": {"name": "FISHER BRANCH CARE-A-LOT FOR TOTS INC", "designationCode": "C", "categoryCode": "01", "address": "BOX 215", "city": "FISHER BRANCH", "province": "MB", "country": "CA", "postalCode": "R0C0Z0", "twitter": "None", "instagram": "None", "facebook": "None", "youtube": "None", "website": "None", "summary": "None", "logo": "None", "latitude": 51.08144020941467, "longitude": -97.61850910684359}, "892919960RR0001": {"name": "FISHER CREEK CEMETERY SOCIETY", "designationCode": "C", "categoryCode": "59", "address": "508 HWY 236", "city": "GREEN OAK", "province": "NS", "country": "CA", "postalCode": "B6L1H8", "twitter": "None", "instagram": "None", "facebook": "None", "youtube": "None", "website": "None", "summary": "None", "logo": "None", "latitude": 45.257329834431864, "longitude": -63.432013190309036}, "864675293RR0001": {"name": "FISHER DISTRICT HANDIVAN INC.", "designationCode": "C", "categoryCode": "09", "address": "BOX 299", "city": "FISHER BRANCH", "province": "MB", "country": "CA", "postalCode": "R0C0Z0", "twitter": "None", "instagram": "None", "facebook": "None", "youtube": "None", "website": "None", "summary": "None", "logo": "None", "latitude": 51.08144020941467, "longitude": -97.61850910684359}, "895207389RR0001": {"name": "FISHER PCH FOUNDATION INC.", "designationCode": "C", "categoryCode": "01", "address": "BOX 548", "city": "FISHER BRANCH", "province": "MB", "country": "CA", "postalCode": "R0C0Z0", "twitter": "None", "instagram": "None", "facebook": "None", "youtube": "None", "website": "None", "summary": "None", "logo": "None", "latitude": 51.08144020941467, "longitude": -97.61850910684359}, "890418411RR0001": {"name": "FISHER SCIENTIFIC COMPANY EMPLOYEES' CHARITY TRUST", "designationCode": "C", "categoryCode": "75", "address": "P.O. BOX 9200 TERMINAL", "city": "OTTAWA", "province": "ON", "country": "CA", "postalCode": "K1G4A9", "twitter": "None", "instagram": "None", "facebook": "None", "youtube": "None", "website": "None", "summary": "None", "logo": "None", "latitude": 45.41457413044227, "longitude": -75.65216453404872}, "118919646RR0001": {"name": "FISHER TRUST FUND", "designationCode": "C", "categoryCode": "59", "address": "392 STAGE COACH ROAD", "city": "BROME", "province": "QC", "country": "CA", "postalCode": "J0E1K0", "twitter": "None", "instagram": "None", "facebook": "None", "youtube": "None", "website": "None", "summary": "None", "logo": "None", "latitude": 45.18753352720659, "longitude": -72.55761179953119}, "889804142RR0001": {"name": "FISHERMAN'S HARBOUR CEMETARY", "designationCode": "C", "categoryCode": "59", "address": "29 STIRLING LANE RR 5", "city": "ANTIGONISH", "province": "NS", "country": "CA", "postalCode": "B2G2L3", "twitter": "None", "instagram": "None", "facebook": "None", "youtube": "None", "website": "None", "summary": "None", "logo": "None", "latitude": 45.39115778040895, "longitude": -62.04219672728408}, "890056880RR0001": {"name": "FISHERMEN'S MEMORIAL HOSPITAL AUXILIARY", "designationCode": "C", "categoryCode": "19", "address": "P.O. BOX 143", "city": "LUNENBURG", "province": "NS", "country": "CA", "postalCode": "B0J2C0", "twitter": "None", "instagram": "None", "facebook": "None", "youtube": "None", "website": "None", "summary": "None", "logo": "None", "latitude": 44.37886006217898, "longitude": -64.31792993782098}, "871697017RR0001": {"name": "FISHERS OF MEN OUTREACH MINISTRIES", "designationCode": "C", "categoryCode": "39", "address": "240 DELANO AVE", "city": "MIRAMICHI", "province": "NB", "country": "CA", "postalCode": "E1V2Y3", "twitter": "None", "instagram": "None", "facebook": "None", "youtube": "None", "website": "None", "summary": "None", "logo": "None", "latitude": 46.99801811353786, "longitude": -65.57277757421109}, "886665686RR0001": {"name": "FISKE MENNONITE CHURCH", "designationCode": "C", "categoryCode": "34", "address": "BOX 88", "city": "FISKE", "province": "SK", "country": "CA", "postalCode": "S0L1C0", "twitter": "None", "instagram": "None", "facebook": "None", "youtube": "None", "website": "None", "summary": "None", "logo": "None", "latitude": 51.48497000000003, "longitude": -108.40207999999996}, "880165329RR0001": {"name": "FITCH BAY BROOKSIDE CEMETERY ASSOCIATION", "designationCode": "C", "categoryCode": "59", "address": "100 CHEMIN REMICK", "city": "CANTON STANSTEAD", "province": "QC", "country": "CA", "postalCode": "J1X3W4", "twitter": "None", "instagram": "None", "facebook": "None", "youtube": "None", "website": "None", "summary": "None", "logo": "None", "latitude": 45.13485221891515, "longitude": -72.1751113448807}, "118919687RR0001": {"name": "FITZROY HARBOUR COMMUNITY ASSOCIATION", "designationCode": "C", "categoryCode": "56", "address": "100 CLIFFORD CAMPBELL ST", "city": "FITZROY HARBOUR", "province": "ON", "country": "CA", "postalCode": "K0A1X0", "twitter": "None", "instagram": "None", "facebook": "None", "youtube": "None", "website": "None", "summary": "None", "logo": "None", "latitude": 45.46975523789575, "longitude": -76.20609812813746}, "891263998RR0001": {"name": "FITZROY TOWNSHIP HISTORICAL SOCIETY", "designationCode": "C", "categoryCode": "50", "address": "BOX 147", "city": "KINBURN", "province": "ON", "country": "CA", "postalCode": "K0A2H0", "twitter": "None", "instagram": "None", "facebook": "None", "youtube": "None", "website": "None", "summary": "None", "logo": "None", "latitude": 45.33578106406066, "longitude": -76.27758764145277}, "893832121RR0001": {"name": "FIVE CORNERS PENTECOSTAL CHURCH", "designationCode": "C", "categoryCode": "36", "address": "3160 10TH AVENUE S E", "city": "SALMON ARM", "province": "BC", "country": "CA", "postalCode": "V1E1W8", "twitter": "None", "instagram": "None", "facebook": "None", "youtube": "None", "website": "None", "summary": "None", "logo": "None", "latitude": 50.69255253837541, "longitude": -119.24874}, "118919711RR0001": {"name": "FIVE COUNTIES CHILDREN'S CENTRE FOUNDATION", "designationCode": "A", "categoryCode": "13", "address": "872 DUTTON ROAD", "city": "PETERBOROUGH", "province": "ON", "country": "CA", "postalCode": "K9H7G1", "twitter": "None", "instagram": "None", "facebook": "None", "youtube": "None", "website": "None", "summary": "None", "logo": "None", "latitude": 44.325106577269516, "longitude": -78.31712387117004}, "123976342RR0001": {"name": "FIVE COUNTIES CHILDRENS CENTRE", "designationCode": "C", "categoryCode": "11", "address": "872 DUTTON ROAD", "city": "PETERBOROUGH", "province": "ON", "country": "CA", "postalCode": "K9H7G1", "twitter": "None", "instagram": "None", "facebook": "None", "youtube": "None", "website": "None", "summary": "None", "logo": "None", "latitude": 44.325106577269516, "longitude": -78.31712387117004}, "118919737RR0001": {"name": "FIVE FOLD CHRISTIAN MINISTRIES INC.", "designationCode": "C", "categoryCode": "47", "address": "RR # 6", "city": "DRESDEN", "province": "ON", "country": "CA", "postalCode": "N0P1M0", "twitter": "None", "instagram": "None", "facebook": "None", "youtube": "None", "website": "None", "summary": "None", "logo": "None", "latitude": 42.604530000000054, "longitude": -82.19570299999994}, "127824282RR0001": {"name": "FIVE ISLANDS AND DISTRICT FIRE BRIGADE", "designationCode": "C", "categoryCode": "59", "address": "341 HWY 2", "city": "LOWER FIVE ISLANDS", "province": "NS", "country": "CA", "postalCode": "B0M1N0", "twitter": "None", "instagram": "None", "facebook": "None", "youtube": "None", "website": "None", "summary": "None", "logo": "None", "latitude": 45.412002732274736, "longitude": -64.0854553181541}, "118919745RR0001": {"name": "FIVE ISLANDS CEMETERY COMPANY LIMITED", "designationCode": "C", "categoryCode": "59", "address": "1114 HIGWAY 2", "city": "FIVE ISLANDS", "province": "NS", "country": "CA", "postalCode": "B0M1K0", "twitter": "None", "instagram": "None", "facebook": "None", "youtube": "None", "website": "None", "summary": "None", "logo": "None", "latitude": 45.41175693516108, "longitude": -64.03724328724533}, "107389108RR0001": {"name": "FIVE OAKS CHRISTIAN WORKERS CENTRE", "designationCode": "C", "categoryCode": "49", "address": "R.R. 3", "city": "PARIS", "province": "ON", "country": "CA", "postalCode": "N3L3E3", "twitter": "None", "instagram": "None", "facebook": "None", "youtube": "None", "website": "None", "summary": "None", "logo": "None", "latitude": 43.17774000000006, "longitude": -80.40454549999993}, "118919752RR0001": {"name": "FIVE POINTS BAPTIST CHURCH", "designationCode": "C", "categoryCode": "31", "address": "5597 ROUTE 895", "city": "COLPITTS SETTLEMENT", "province": "NB", "country": "CA", "postalCode": "E4J3A2", "twitter": "None", "instagram": "None", "facebook": "None", "youtube": "None", "website": "None", "summary": "None", "logo": "None", "latitude": 46.02176707032248, "longitude": -65.0171026502845}, "824205926RR0001": {"name": "FIVE WITH D.R.I.V.E. Foundation", "designationCode": "B", "categoryCode": "03", "address": "73 DICKSON HILL RD", "city": "MARKHAM", "province": "ON", "country": "CA", "postalCode": "L3P3J3", "twitter": "None", "instagram": "None", "facebook": "None", "youtube": "None", "website": "None", "summary": "None", "logo": "None", "latitude": 43.94388156786311, "longitude": -79.27636769467384}, "854550977RR0001": {"name": "FIXED \"FUR\" LIFE", "designationCode": "C", "categoryCode": "54", "address": "26 SMITH CRESCENT", "city": "BELLEVILLE", "province": "ON", "country": "CA", "postalCode": "K8N4K4", "twitter": "None", "instagram": "None", "facebook": "None", "youtube": "None", "website": "None", "summary": "None", "logo": "None", "latitude": 44.17344086037867, "longitude": -77.3532474837556}, "845026723RR0001": {"name": "FIYSABIYLILLAH COMPASSIONATE AID ORGANIZATION", "designationCode": "B", "categoryCode": "09", "address": "31 ELMEROY COURT", "city": "WHITBY", "province": "ON", "country": "CA", "postalCode": "L1N8A5", "twitter": "None", "instagram": "None", "facebook": "None", "youtube": "None", "website": "None", "summary": "None", "logo": "None", "latitude": 43.88207385180898, "longitude": -78.90087889422375}, "891460503RR0001": {"name": "FLAGSTAFF FOOD BANK", "designationCode": "C", "categoryCode": "09", "address": "BOX 68", "city": "KILLAM", "province": "AB", "country": "CA", "postalCode": "T0B2L0", "twitter": "None", "instagram": "None", "facebook": "None", "youtube": "None", "website": "None", "summary": "None", "logo": "None", "latitude": 52.78344000000004, "longitude": -111.85174999999998}, "899148837RR0001": {"name": "FLAGSTAFF REGIONAL HOUSING GROUP", "designationCode": "C", "categoryCode": "09", "address": "4612-53 ST.", "city": "CAMROSE", "province": "AB", "country": "CA", "postalCode": "T4V1Y6", "twitter": "None", "instagram": "None", "facebook": "None", "youtube": "None", "website": "None", "summary": "None", "logo": "None", "latitude": 53.01461368924136, "longitude": -112.83121729820299}, "897085882RR0001": {"name": "FLAGSTAFF SATELLITE FAMILY DAY HOME SOCIETY", "designationCode": "C", "categoryCode": "01", "address": "BOX 450", "city": "KILLAM", "province": "AB", "country": "CA", "postalCode": "T0B2L0", "twitter": "None", "instagram": "None", "facebook": "None", "youtube": "None", "website": "None", "summary": "None", "logo": "None", "latitude": 52.78344000000004, "longitude": -111.85174999999998}, "868238759RR0001": {"name": "FLAGSTAFF'S INITIATIVE TO RELATIONSHIP & SPOUSAL TRAUMA SOCIETY", "designationCode": "C", "categoryCode": "09", "address": "BOX 450", "city": "KILLAM", "province": "AB", "country": "CA", "postalCode": "T0B2L0", "twitter": "None", "instagram": "None", "facebook": "None", "youtube": "None", "website": "None", "summary": "None", "logo": "None", "latitude": 52.78344000000004, "longitude": -111.85174999999998}, "119245942RR0001": {"name": "FLAMAN-MORRIS HOME, INC.", "designationCode": "C", "categoryCode": "11", "address": "BOX 59", "city": "LEBRET", "province": "SK", "country": "CA", "postalCode": "S0G2Y0", "twitter": "None", "instagram": "None", "facebook": "None", "youtube": "None", "website": "None", "summary": "None", "logo": "None", "latitude": 50.757840000000044, "longitude": -103.70525999999995}, "892060047RR0001": {"name": "FLAMBOROUGH (WATERDOWN) COUNCIL NO 10091 CHARITABLE WELFARE", "designationCode": "A", "categoryCode": "65", "address": "715 CENTRE ROAD               P.O. BOX 348", "city": "WATERDOWN", "province": "ON", "country": "CA", "postalCode": "L0R2H0", "twitter": "None", "instagram": "None", "facebook": "None", "youtube": "None", "website": "None", "summary": "None", "logo": "None", "latitude": 43.34534079346785, "longitude": -79.91476135128939}, "107389421RR0001": {"name": "FLAMBOROUGH BAPTIST CHURCH", "designationCode": "C", "categoryCode": "31", "address": "41-5TH CONCESSION ROAD EAST   RR #1", "city": "WATERDOWN", "province": "ON", "country": "CA", "postalCode": "L8B1K4", "twitter": "None", "instagram": "None", "facebook": "None", "youtube": "None", "website": "None", "summary": "None", "logo": "None", "latitude": 43.34281800000005, "longitude": -79.92832849999994}, "106918907RR0001": {"name": "FLAMBOROUGH CHRISTIAN FELLOWSHIP", "designationCode": "C", "categoryCode": "39", "address": "329 CONCESSION 6 E", "city": "MILLGROVE", "province": "ON", "country": "CA", "postalCode": "L8B1M2", "twitter": "None", "instagram": "None", "facebook": "None", "youtube": "None", "website": "None", "summary": "None", "logo": "None", "latitude": 43.363226282560916, "longitude": -79.93091933960396}, "891569840RR0001": {"name": "FLAMBOROUGH FOOD BANK", "designationCode": "C", "categoryCode": "09", "address": "1432 CENTRE ROAD", "city": "CARLISLE", "province": "ON", "country": "CA", "postalCode": "L0R1H1", "twitter": "None", "instagram": "None", "facebook": "None", "youtube": "None", "website": "None", "summary": "None", "logo": "None", "latitude": 43.39162136637994, "longitude": -79.97684641185313}, "107506610RR0001": {"name": "FLAMBOROUGH INFORMATION AND COMMUNITY SERVICES", "designationCode": "C", "categoryCode": "09", "address": "BOX 240", "city": "WATERDOWN", "province": "ON", "country": "CA", "postalCode": "L0R2H0", "twitter": "None", "instagram": "None", "facebook": "None", "youtube": "None", "website": "None", "summary": "None", "logo": "None", "latitude": 43.329109500000015, "longitude": -79.8842655}, "874458227RR0001": {"name": "FLASH FUND FOUNDATION", "designationCode": "B", "categoryCode": "03", "address": "1701-5989 WALTER GAGE ROAD", "city": "VANCOUVER", "province": "BC", "country": "CA", "postalCode": "V6T0A8", "twitter": "None", "instagram": "None", "facebook": "None", "youtube": "None", "website": "None", "summary": "None", "logo": "None", "latitude": 49.27077085873388, "longitude": -123.24816312184772}, "810540476RR0001": {"name": "FLATT FOUNDATION", "designationCode": "B", "categoryCode": "03", "address": "1101 180 TUXEDO AVENUE", "city": "WINNIPEG", "province": "MB", "country": "CA", "postalCode": "R3P2A6", "twitter": "None", "instagram": "None", "facebook": "None", "youtube": "None", "website": "None", "summary": "None", "logo": "None", "latitude": 49.86888183460154, "longitude": -97.2131754538626}, "890597974RR0001": {"name": "FLAXCOMBE COMMUNITY CLUB", "designationCode": "C", "categoryCode": "56", "address": "BOX 35", "city": "FLAXCOMBE", "province": "SK", "country": "CA", "postalCode": "S0L1E0", "twitter": "None", "instagram": "None", "facebook": "None", "youtube": "None", "website": "None", "summary": "None", "logo": "None", "latitude": 51.48342000000008, "longitude": -109.60152999999997}, "130498678RR0001": {"name": "FLEETWOOD CHRISTIAN REFORMED CHURCH", "designationCode": "C", "categoryCode": "39", "address": "9165 160TH ST", "city": "SURREY", "province": "BC", "country": "CA", "postalCode": "V4N2X7", "twitter": "None", "instagram": "None", "facebook": "None", "youtube": "None", "website": "None", "summary": "None", "logo": "None", "latitude": 49.16927636081135, "longitude": -122.77891351944704}, "119288918RR0487": {"name": "FLEETWOOD CONGREGATION OF JEHOVAH'S WITNESSES", "designationCode": "C", "categoryCode": "61", "address": "15577 82ND AVENUE", "city": "SURREY", "province": "BC", "country": "CA", "postalCode": "V3S2K8", "twitter": "None", "instagram": "None", "facebook": "None", "youtube": "None", "website": "None", "summary": "None", "logo": "None", "latitude": 49.1518955232266, "longitude": -122.79076399570084}, "107382624RR0001": {"name": "FLEETWOOD INTERNATIONAL CHURCH", "designationCode": "C", "categoryCode": "31", "address": "8250-161 ST", "city": "SURREY", "province": "BC", "country": "CA", "postalCode": "V4N0M9", "twitter": "None", "instagram": "None", "facebook": "None", "youtube": "None", "website": "None", "summary": "None", "logo": "None", "latitude": 49.15268952844943, "longitude": -122.77597798776631}, "890087687RR0001": {"name": "FLEMING COLLEGE FOUNDATION", "designationCode": "A", "categoryCode": "23", "address": "SIR SANDFORD FLEMING COLLEGE  BREALEY DRIVE", "city": "PETERBOROUGH", "province": "ON", "country": "CA", "postalCode": "K9J7B1", "twitter": "None", "instagram": "None", "facebook": "None", "youtube": "None", "website": "None", "summary": "None", "logo": "None", "latitude": 44.26647566109263, "longitude": -78.34914983069753}, "877772160RR0001": {"name": "FLEMING FOUNDATION", "designationCode": "B", "categoryCode": "43", "address": "PO BOX 2010 STN CLEARBROOK", "city": "ABBOTSFORD", "province": "BC", "country": "CA", "postalCode": "V2T3T8", "twitter": "None", "instagram": "None", "facebook": "None", "youtube": "None", "website": "None", "summary": "None", "logo": "None", "latitude": 49.053613958605766, "longitude": -122.3379315}, "891465247RR0001": {"name": "FLEMING FOUNDATION", "designationCode": "B", "categoryCode": "03", "address": "4537 ONTARIO STREET           P. O. BOX 70", "city": "BEAMSVILLE", "province": "ON", "country": "CA", "postalCode": "L0R1B0", "twitter": "None", "instagram": "None", "facebook": "None", "youtube": "None", "website": "None", "summary": "None", "logo": "None", "latitude": 43.17752339557039, "longitude": -79.47681258434349}, "129904694RR0001": {"name": "FLEMINGDON HEALTH CENTRE", "designationCode": "C", "categoryCode": "11", "address": "10 GATEWAY BLVD", "city": "TORONTO", "province": "ON", "country": "CA", "postalCode": "M3C3A1", "twitter": "None", "instagram": "None", "facebook": "None", "youtube": "None", "website": "None", "summary": "None", "logo": "None", "latitude": 43.710341180074224, "longitude": -79.33300533954663}, "837968072RR0001": {"name": "FLEMINGDON PARK PARENT ASSOCIATION (FPPA)", "designationCode": "C", "categoryCode": "59", "address": "9 GRENOBLE DR                 GRENOBLE PUBLIC SCHOOL", "city": "TORONTO", "province": "ON", "country": "CA", "postalCode": "M3C1C3", "twitter": "None", "instagram": "None", "facebook": "None", "youtube": "None", "website": "None", "summary": "None", "logo": "None", "latitude": 43.71607994330369, "longitude": -79.33257997720605}, "875181422RR0001": {"name": "FLEMINGDON PARK PENTECOSTAL CHURCH", "designationCode": "C", "categoryCode": "36", "address": "5 GRENOBLE DR", "city": "DON MILLS", "province": "ON", "country": "CA", "postalCode": "M3C1C3", "twitter": "None", "instagram": "None", "facebook": "None", "youtube": "None", "website": "None", "summary": "None", "logo": "None", "latitude": 43.71568196055767, "longitude": -79.33401080901976}, "870568045RR0001": {"name": "FLEMMING CHARITABLE FOUNDATION", "designationCode": "B", "categoryCode": "03", "address": "204 CONO DRIVE                PO BOX 65", "city": "DARTMOUTH", "province": "NS", "country": "CA", "postalCode": "B2Y3Y2", "twitter": "None", "instagram": "None", "facebook": "None", "youtube": "None", "website": "None", "summary": "None", "logo": "None", "latitude": 44.732501268913595, "longitude": -63.54417040706302}, "107389744RR0001": {"name": "FLESHERTON PASTORAL CHARGE OF THE UNITED CHURCH OF CANADA", "designationCode": "C", "categoryCode": "44", "address": "P.O. BOX 74", "city": "FLESHERTON", "province": "ON", "country": "CA", "postalCode": "N0C1E0", "twitter": "None", "instagram": "None", "facebook": "None", "youtube": "None", "website": "None", "summary": "None", "logo": "None", "latitude": 44.30319000000006, "longitude": -80.51740549999994}, "119288918RR0637": {"name": "FLESHERTON, ONTARIO CONGREGATION OF JEHOVAH'S WITNESSES", "designationCode": "C", "categoryCode": "61", "address": "P.O. BOX 94", "city": "MARKDALE", "province": "ON", "country": "CA", "postalCode": "N0C1H0", "twitter": "None", "instagram": "None", "facebook": "None", "youtube": "None", "website": "None", "summary": "None", "logo": "None", "latitude": 44.31914000000006, "longitude": -80.64888999999994}, "118919943RR0001": {"name": "FLETCHER UNITED CHURCH", "designationCode": "C", "categoryCode": "44", "address": "22499 MERLIN RD               RR 6", "city": "MERLIN", "province": "ON", "country": "CA", "postalCode": "N0P1W0", "twitter": "None", "instagram": "None", "facebook": "None", "youtube": "None", "website": "None", "summary": "None", "logo": "None", "latitude": 42.28949643326209, "longitude": -82.29005046901176}, "118919968RR0001": {"name": "FLEUR DE PAPIER", "designationCode": "C", "categoryCode": "22", "address": "11011 BOUL. MAURICE-DUPLESSIS", "city": "MONTREAL", "province": "QC", "country": "CA", "postalCode": "H1C1V6", "twitter": "None", "instagram": "None", "facebook": "None", "youtube": "None", "website": "None", "summary": "None", "logo": "None", "latitude": 45.665592419960554, "longitude": -73.53161714686335}, "895788743RR0001": {"name": "FLIGHT MINISTRIES", "designationCode": "C", "categoryCode": "49", "address": "PO BOX 2180", "city": "STONY PLAIN", "province": "AB", "country": "CA", "postalCode": "T7Z1X7", "twitter": "None", "instagram": "None", "facebook": "None", "youtube": "None", "website": "None", "summary": "None", "logo": "None", "latitude": 53.52878400000006, "longitude": -114.00552349999992}, "897807681RR0001": {"name": "FLIN FLON & DISTRICT ENVIRONMENT COUNCIL, INC.", "designationCode": "C", "categoryCode": "59", "address": "PO BOX 392 STN MAIN", "city": "FLIN FLON", "province": "MB", "country": "CA", "postalCode": "R8A1N1", "twitter": "None", "instagram": "None", "facebook": "None", "youtube": "None", "website": "None", "summary": "None", "logo": "None", "latitude": 54.76559394711583, "longitude": -101.8760435688571}, "870634805RR0001": {"name": "FLIN FLON / CREIGHTON & AREA S.P.C.A. INC.", "designationCode": "C", "categoryCode": "54", "address": "PO BOX 863", "city": "FLIN FLON", "province": "MB", "country": "CA", "postalCode": "R8A1N6", "twitter": "None", "instagram": "None", "facebook": "None", "youtube": "None", "website": "None", "summary": "None", "logo": "None", "latitude": 54.76821900000006, "longitude": -101.87697049999993}, "887309391RR0001": {"name": "FLIN FLON AND DISTRICT GUIDANCE NURSERY INC", "designationCode": "C", "categoryCode": "01", "address": "BOX 881", "city": "FLIN FLON", "province": "MB", "country": "CA", "postalCode": "R8A1N7", "twitter": "None", "instagram": "None", "facebook": "None", "youtube": "None", "website": "None", "summary": "None", "logo": "None", "latitude": 54.76821900000006, "longitude": -101.87697049999993}, "107389975RR0001": {"name": "FLIN FLON ARTS COUNCIL INC.", "designationCode": "C", "categoryCode": "22", "address": "PO BOX 933", "city": "FLIN FLON", "province": "MB", "country": "CA", "postalCode": "R8A1N7", "twitter": "None", "instagram": "None", "facebook": "None", "youtube": "None", "website": "None", "summary": "None", "logo": "None", "latitude": 54.76821900000006, "longitude": -101.87697049999993}, "118920016RR0001": {"name": "FLIN FLON HEALTH AUXILIARY", "designationCode": "C", "categoryCode": "19", "address": "BOX 340", "city": "FLIN FLON", "province": "MB", "country": "CA", "postalCode": "R8A1N2", "twitter": "None", "instagram": "None", "facebook": "None", "youtube": "None", "website": "None", "summary": "None", "logo": "None", "latitude": 54.76821900000006, "longitude": -101.87697049999993}, "131477887RR0001": {"name": "FLIN FLON KIDDIE KORNER DAY CARE, INC", "designationCode": "C", "categoryCode": "01", "address": "BOX 336", "city": "FLIN FLON", "province": "MB", "country": "CA", "postalCode": "R8A1N1", "twitter": "None", "instagram": "None", "facebook": "None", "youtube": "None", "website": "None", "summary": "None", "logo": "None", "latitude": 54.76821900000006, "longitude": -101.87697049999993}, "107390098RR0001": {"name": "FLIN FLON LIBRARY BOARD", "designationCode": "C", "categoryCode": "50", "address": "58 MAIN STREET", "city": "FLIN FLON", "province": "MB", "country": "CA", "postalCode": "R8A1J8", "twitter": "None", "instagram": "None", "facebook": "None", "youtube": "None", "website": "None", "summary": "None", "logo": "None", "latitude": 54.765896375238086, "longitude": -101.87626482448474}, "890799562RR0001": {"name": "FLIN FLON PENTECOSTAL ASSEMBLY", "designationCode": "C", "categoryCode": "36", "address": "180 GREEN STREET", "city": "FLIN FLON", "province": "MB", "country": "CA", "postalCode": "R8A1T8", "twitter": "None", "instagram": "None", "facebook": "None", "youtube": "None", "website": "None", "summary": "None", "logo": "None", "latitude": 54.77199007550915, "longitude": -101.84977711743299}, "119288918RR0264": {"name": "FLIN FLON, MANITOBA, CONGREGATION OF JEHOVAH'S WITNESSES", "designationCode": "C", "categoryCode": "61", "address": "PO BOX 719", "city": "CREIGHTON", "province": "SK", "country": "CA", "postalCode": "S0P0A0", "twitter": "None", "instagram": "None", "facebook": "None", "youtube": "None", "website": "None", "summary": "None", "logo": "None", "latitude": 54.7497736480238, "longitude": -101.90547825987106}, "820216745RR0001": {"name": "FLORADALE MENNONITE CHURCH INC.", "designationCode": "C", "categoryCode": "34", "address": "22 FLORAPINE ROAD", "city": "FLORADALE", "province": "ON", "country": "CA", "postalCode": "N0B1V0", "twitter": "None", "instagram": "None", "facebook": "None", "youtube": "None", "website": "None", "summary": "None", "logo": "None", "latitude": 43.63642500000006, "longitude": -80.57986099999994}, "870145638RR0001": {"name": "FLORENCE E TAYLOR CHARITABLE FOUNDATION", "designationCode": "B", "categoryCode": "21", "address": "202-10060 JASPER AVENUE", "city": "EDMONTON", "province": "AB", "country": "CA", "postalCode": "T5J3R8", "twitter": "None", "instagram": "None", "facebook": "None", "youtube": "None", "website": "None", "summary": "None", "logo": "None", "latitude": 53.541084453834316, "longitude": -113.49278554108712}, "118920149RR0001": {"name": "FLORENCE MUNDAY & OTIS MUNDAY FOUNDATION", "designationCode": "B", "categoryCode": "53", "address": "206-4400 DOMINION STREET", "city": "BURNABY", "province": "BC", "country": "CA", "postalCode": "V5G4G3", "twitter": "None", "instagram": "None", "facebook": "None", "youtube": "None", "website": "None", "summary": "None", "logo": "None", "latitude": 49.25629954284747, "longitude": -123.00519247446476}, "118920156RR0001": {"name": "FLORENCE UNIVERSAL CHURCH", "designationCode": "C", "categoryCode": "39", "address": "P.O. BOX 176", "city": "POINTE AU BARIL", "province": "ON", "country": "CA", "postalCode": "P0G1K0", "twitter": "None", "instagram": "None", "facebook": "None", "youtube": "None", "website": "None", "summary": "None", "logo": "None", "latitude": 45.59630000000004, "longitude": -80.37365999999997}, "118920164RR0001": {"name": "FLORENCEVILLE HOUSING INC.", "designationCode": "C", "categoryCode": "01", "address": "20-8694 MAIN STREET", "city": "FLORENCEVILLE-BRISTOL", "province": "NB", "country": "CA", "postalCode": "E7L4K1", "twitter": "None", "instagram": "None", "facebook": "None", "youtube": "None", "website": "None", "summary": "None", "logo": "None", "latitude": 46.43926057031541, "longitude": -67.61974313105439}, "872228705RR0001": {"name": "FLUCS/FLCS ALUMNI ENDOWMENT FUND INC.", "designationCode": "C", "categoryCode": "21", "address": "P.O. BOX 321", "city": "FOAM LAKE", "province": "SK", "country": "CA", "postalCode": "S0A1A0", "twitter": "None", "instagram": "None", "facebook": "None", "youtube": "None", "website": "None", "summary": "None", "logo": "None", "latitude": 51.63984000000005, "longitude": -103.53940999999998}, "826878829RR0001": {"name": "FLYING DOCTORS OF CANADA", "designationCode": "C", "categoryCode": "11", "address": "103 - 1820 9 ST SW", "city": "CALGARY", "province": "AB", "country": "CA", "postalCode": "T2T3C3", "twitter": "None", "instagram": "None", "facebook": "None", "youtube": "None", "website": "None", "summary": "None", "logo": "None", "latitude": 51.03620245628716, "longitude": -114.08426743516667}, "886059393RR0001": {"name": "FLYING DUST FULL-GOSPEL NATIVE CHURCH", "designationCode": "C", "categoryCode": "49", "address": "BOX 2738", "city": "MEADOW LAKE", "province": "SK", "country": "CA", "postalCode": "S9X1Z6", "twitter": "None", "instagram": "None", "facebook": "None", "youtube": "None", "website": "None", "summary": "None", "logo": "None", "latitude": 54.13326000000005, "longitude": -108.45203299999993}, "867083248RR0001": {"name": "FMC Fair Mining Collaborative Society", "designationCode": "C", "categoryCode": "21", "address": "401-2202 LAMBERT DRIVE", "city": "COURTENAY", "province": "BC", "country": "CA", "postalCode": "V9N1Z8", "twitter": "None", "instagram": "None", "facebook": "None", "youtube": "None", "website": "None", "summary": "None", "logo": "None", "latitude": 49.668594944662274, "longitude": -125.00543165557089}, "886225655RR0001": {"name": "FNDC FAMILY NETWORK FOR DEAF CHILDREN", "designationCode": "C", "categoryCode": "21", "address": "PO BOX 50075, SOUTH SLOPE RPO", "city": "BURNABY", "province": "BC", "country": "CA", "postalCode": "V5J5G3", "twitter": "None", "instagram": "None", "facebook": "None", "youtube": "None", "website": "None", "summary": "None", "logo": "None", "latitude": 49.21896000000004, "longitude": -122.99946999999997}, "833496532RR0001": {"name": "FOA Families of Abuse Society", "designationCode": "C", "categoryCode": "09", "address": "#303-9940 LOUGHEED HWY", "city": "BURNABY", "province": "BC", "country": "CA", "postalCode": "V3J1N3", "twitter": "None", "instagram": "None", "facebook": "None", "youtube": "None", "website": "None", "summary": "None", "logo": "None", "latitude": 49.2459832057494, "longitude": -122.89318990774613}, "118920206RR0001": {"name": "FOAM LAKE AND DISTRICT DONOR'S CHOICE", "designationCode": "A", "categoryCode": "05", "address": "BOX 195", "city": "FOAM LAKE", "province": "SK", "country": "CA", "postalCode": "S0A1A0", "twitter": "None", "instagram": "None", "facebook": "None", "youtube": "None", "website": "None", "summary": "None", "logo": "None", "latitude": 51.637590000000046, "longitude": -103.53518999999994}, "118920214RR0001": {"name": "FOAM LAKE COMMUNITY HALL COMMITTEE", "designationCode": "C", "categoryCode": "56", "address": "BOX 195", "city": "FOAM LAKE", "province": "SK", "country": "CA", "postalCode": "S0A1A0", "twitter": "None", "instagram": "None", "facebook": "None", "youtube": "None", "website": "None", "summary": "None", "logo": "None", "latitude": 51.637590000000046, "longitude": -103.53518999999994}, "118920248RR0001": {"name": "FOAM LAKE SENIOR CITIZEN'S CENTRE INCORPORATED", "designationCode": "C", "categoryCode": "09", "address": "BOX 158", "city": "FOAM LAKE", "province": "SK", "country": "CA", "postalCode": "S0A1A0", "twitter": "None", "instagram": "None", "facebook": "None", "youtube": "None", "website": "None", "summary": "None", "logo": "None", "latitude": 51.637590000000046, "longitude": -103.53518999999994}, "118920255RR0001": {"name": "FOAM LAKE UKRAINIAN CATHOLIC PARISH OF HOLY EUCHARIST INC.", "designationCode": "C", "categoryCode": "38", "address": "PO BOX 983", "city": "FOAM LAKE", "province": "SK", "country": "CA", "postalCode": "S0A1A0", "twitter": "None", "instagram": "None", "facebook": "None", "youtube": "None", "website": "None", "summary": "None", "logo": "None", "latitude": 51.63984000000005, "longitude": -103.53940999999998}, "131640708RR0001": {"name": "FOAM LAKE UNITED CHURCH,", "designationCode": "C", "categoryCode": "44", "address": "PO BOX 224", "city": "FOAM LAKE", "province": "SK", "country": "CA", "postalCode": "S0A1A0", "twitter": "None", "instagram": "None", "facebook": "None", "youtube": "None", "website": "None", "summary": "None", "logo": "None", "latitude": 51.63984000000005, "longitude": -103.53940999999998}}