{"898998521RR0001": {"name": "ASSOCIATION FRANCOPHONE DE PARENTS D'ENFANTS DYSLEXIQUES OU AYANT TOUT AUTRE TROUBLE D'APPRENTISSAGE (AFPED+)", "designationCode": "C", "categoryCode": "09", "address": "205A - 435 DONALD ST", "city": "OTTAWA", "province": "ON", "country": "CA", "postalCode": "K1K4X5", "twitter": "None", "instagram": "None", "facebook": "None", "youtube": "None", "website": "None", "summary": "None", "logo": "None", "latitude": 45.42786108506212, "longitude": -75.6548809824704}, "134537802RR0001": {"name": "ASSOCIATION GARAGONA INC", "designationCode": "C", "categoryCode": "11", "address": "23 CHEMIN GARAGONA", "city": "FRELIGHSBURG", "province": "QC", "country": "CA", "postalCode": "J0J1C0", "twitter": "None", "instagram": "None", "facebook": "None", "youtube": "None", "website": "None", "summary": "None", "logo": "None", "latitude": 45.06016182394905, "longitude": -72.83795898007124}, "888786043RR0001": {"name": "ASSOCIATION GENERALE DES INSUFFISANTS RENAUX AGIR", "designationCode": "C", "categoryCode": "11", "address": "4865 BOUL GOUIN EST", "city": "MONTR\u00c9AL", "province": "QC", "country": "CA", "postalCode": "H1G1A1", "twitter": "None", "instagram": "None", "facebook": "None", "youtube": "None", "website": "None", "summary": "None", "logo": "None", "latitude": 45.606226840412035, "longitude": -73.63872057995255}, "118794114RR0001": {"name": "ASSOCIATION GNOSTIQUE INTERNATIONALE DE RECHERCHES ANTHROPOLOGIQUES", "designationCode": "C", "categoryCode": "59", "address": "2185, 89E RUE,", "city": "SAINT-GEORGES", "province": "QC", "country": "CA", "postalCode": "G6A1B7", "twitter": "None", "instagram": "None", "facebook": "None", "youtube": "None", "website": "None", "summary": "None", "logo": "None", "latitude": 46.14308194200464, "longitude": -70.67965071331282}, "886432194RR0001": {"name": "ASSOCIATION GRANBY POUR LA DEFICIENCE INTELLECTUELLE", "designationCode": "C", "categoryCode": "56", "address": "170 RUE ST-ANTOINE NORD       LOCAL T", "city": "GRANBY", "province": "QC", "country": "CA", "postalCode": "J2G5K8", "twitter": "None", "instagram": "None", "facebook": "None", "youtube": "None", "website": "None", "summary": "None", "logo": "None", "latitude": 45.406137226758595, "longitude": -72.7272702524667}, "891465973RR0001": {"name": "ASSOCIATION GRANDIR", "designationCode": "C", "categoryCode": "01", "address": "160 RUE SAINT-JOSEPH E", "city": "QUEBEC", "province": "QC", "country": "CA", "postalCode": "G1K3A7", "twitter": "None", "instagram": "None", "facebook": "None", "youtube": "None", "website": "None", "summary": "None", "logo": "None", "latitude": 46.81281488816426, "longitude": -71.22906913004205}, "888990454RR0001": {"name": "ASSOCIATION GURDWARA GURU NANAK DARBAR INC./ GURDWARA GURU NANAK DARBAR INC.", "designationCode": "C", "categoryCode": "62", "address": "7801 CORDNER", "city": "LASALLE", "province": "QC", "country": "CA", "postalCode": "H8N2X2", "twitter": "None", "instagram": "None", "facebook": "None", "youtube": "None", "website": "None", "summary": "None", "logo": "None", "latitude": 45.44007712603135, "longitude": -73.63205986043597}, "100304344RR0001": {"name": "ASSOCIATION HAITIANO-CANADO-QUEBECOISE D'AIDE AUX DEMUNIS", "designationCode": "C", "categoryCode": "03", "address": "4869 JARRY EST BUREAU:214", "city": "SAINT-LEONARD", "province": "QC", "country": "CA", "postalCode": "H1R1Y1", "twitter": "None", "instagram": "None", "facebook": "None", "youtube": "None", "website": "None", "summary": "None", "logo": "None", "latitude": 45.57930892841467, "longitude": -73.59580573304832}, "118952233RR0001": {"name": "ASSOCIATION HANDAMI POUR PERSONNES HANDICAPEES ET LEUR FAMILLE", "designationCode": "C", "categoryCode": "09", "address": "460 RUE DU PARC", "city": "SAINT-LIN-LAURENTIDES", "province": "QC", "country": "CA", "postalCode": "J5M3A2", "twitter": "None", "instagram": "None", "facebook": "None", "youtube": "None", "website": "None", "summary": "None", "logo": "None", "latitude": 45.85139821925678, "longitude": -73.75329985010687}, "874248347RR0001": {"name": "ASSOCIATION HISTORIQUE DE MORIN HEIGHTS", "designationCode": "C", "categoryCode": "50", "address": "P.O. BOX 2693", "city": "MORIN HEIGHTS", "province": "QC", "country": "CA", "postalCode": "J0R1H0", "twitter": "None", "instagram": "None", "facebook": "None", "youtube": "None", "website": "None", "summary": "None", "logo": "None", "latitude": 45.874004321786714, "longitude": -74.0838300431479}, "891715047RR0001": {"name": "ASSOCIATION HISTORIQUE DE WESTMOUNT / WESTMOUNT HISTORICAL ASSOCIATION", "designationCode": "C", "categoryCode": "52", "address": "P.O. BOX 23037 CP VENDOME", "city": "MONTREAL", "province": "QC", "country": "CA", "postalCode": "H4A3V4", "twitter": "None", "instagram": "None", "facebook": "None", "youtube": "None", "website": "None", "summary": "None", "logo": "None", "latitude": 45.47721914779303, "longitude": -73.61011508123565}, "118963479RR0001": {"name": "ASSOCIATION HORIZON SOLEIL", "designationCode": "C", "categoryCode": "09", "address": "35 AV. DE GASPE OUEST", "city": "ST-JEAN-PORT-JOLI", "province": "QC", "country": "CA", "postalCode": "G0R3G0", "twitter": "None", "instagram": "None", "facebook": "None", "youtube": "None", "website": "None", "summary": "None", "logo": "None", "latitude": 47.21215371135091, "longitude": -70.2698521930004}, "829843473RR0001": {"name": "ASSOCIATION HUMANISTE DU QUEBEC/HUMANIST ASSOCIATION OF QUEBEC", "designationCode": "C", "categoryCode": "21", "address": "101 - 1225 BOUL SAINT-JOSEPH E", "city": "MONTREAL", "province": "QC", "country": "CA", "postalCode": "H2J1L7", "twitter": "None", "instagram": "None", "facebook": "None", "youtube": "None", "website": "None", "summary": "None", "logo": "None", "latitude": 45.53132509947534, "longitude": -73.58327109424187}, "136567054RR0001": {"name": "ASSOCIATION I V O W ASSOCIATION", "designationCode": "C", "categoryCode": "01", "address": "190 - 8200 BOUL DECARIE", "city": "MONTREAL", "province": "QC", "country": "CA", "postalCode": "H4P2P5", "twitter": "None", "instagram": "None", "facebook": "None", "youtube": "None", "website": "None", "summary": "None", "logo": "None", "latitude": 45.4990347909577, "longitude": -73.66112978524394}, "145049821RR0001": {"name": "ASSOCIATION IMMOBILIERE BCS / BCS BUILDING ASSOCIATION", "designationCode": "C", "categoryCode": "23", "address": "80 MOULTON HILL - PO BOX 5001 LENNOXVILLE STATION", "city": "SHERBROOKE", "province": "QC", "country": "CA", "postalCode": "J1M1Z8", "twitter": "None", "instagram": "None", "facebook": "None", "youtube": "None", "website": "None", "summary": "None", "logo": "None", "latitude": 45.3722631135092, "longitude": -71.8435007247967}, "118851856RR0001": {"name": "ASSOCIATION INTERNATIONALE DE L'EVANGELISATION DES ENFANTS (QUEBEC) INC./INTERNATIONAL CHILD EVANGELISM FELLOWSHIP (QUEBEC) INC.", "designationCode": "C", "categoryCode": "47", "address": "3325 RUE MISTRAL", "city": "BROSSARD", "province": "QC", "country": "CA", "postalCode": "J4Y2T3", "twitter": "None", "instagram": "None", "facebook": "None", "youtube": "None", "website": "None", "summary": "None", "logo": "None", "latitude": 45.44932876048813, "longitude": -73.45220422064175}, "885910430RR0001": {"name": "ASSOCIATION INTERNATIONALE DES ETUDES QUEBECOISES/INTERNATIONAL ASSOCIATION OF QUEBEC STUDIES", "designationCode": "C", "categoryCode": "23", "address": "900, BOUL.RENE-LEVESQUE EST   8E ETAGE BUREAU 830", "city": "QUEBEC", "province": "QC", "country": "CA", "postalCode": "G1R2B5", "twitter": "None", "instagram": "None", "facebook": "None", "youtube": "None", "website": "None", "summary": "None", "logo": "None", "latitude": 46.80963334139298, "longitude": -71.21594556370816}, "106733884RR0001": {"name": "ASSOCIATION INTERNATIONALE FRANCOPHONE DES AINES", "designationCode": "C", "categoryCode": "09", "address": "25 RUE DU COUVENT", "city": "BEAUPORT", "province": "QC", "country": "CA", "postalCode": "G1E6R9", "twitter": "None", "instagram": "None", "facebook": "None", "youtube": "None", "website": "None", "summary": "None", "logo": "None", "latitude": 48.60092296696296, "longitude": -68.12523954858895}, "888032950RR0001": {"name": "ASSOCIATION INTERNATIONALE LUMIERE DU BOUDDHA DE MONTREAL", "designationCode": "C", "categoryCode": "35", "address": "3831, RUE JEAN-TALON EST", "city": "MONTREAL", "province": "QC", "country": "CA", "postalCode": "H2A1Y3", "twitter": "None", "instagram": "None", "facebook": "None", "youtube": "None", "website": "None", "summary": "None", "logo": "None", "latitude": 45.564196891770926, "longitude": -73.59358621804466}, "100304518RR0001": {"name": "ASSOCIATION INUKSIUTIIT KATIMAJIIT", "designationCode": "C", "categoryCode": "21", "address": "UNIVERSIT\u00c9 LAVAL 0450-DKN     1030 AVE DES SCIENCES-HUMAINES", "city": "QU\u00c9BEC", "province": "QC", "country": "CA", "postalCode": "G1V0A6", "twitter": "None", "instagram": "None", "facebook": "None", "youtube": "None", "website": "None", "summary": "None", "logo": "None", "latitude": 46.77923643390722, "longitude": -71.27124398012351}, "899223739RR0001": {"name": "ASSOCIATION KAMOURASKOISE EN SANTE MENTALE LA TRAVERSEE", "designationCode": "C", "categoryCode": "09", "address": "1202 4IEME AVENUE PAINCHAUD", "city": "LA POCATIERE", "province": "QC", "country": "CA", "postalCode": "G0R1Z0", "twitter": "None", "instagram": "None", "facebook": "None", "youtube": "None", "website": "None", "summary": "None", "logo": "None", "latitude": 47.37316087067912, "longitude": -70.0291020882911}, "118794171RR0001": {"name": "ASSOCIATION L'AIDE AUX VIEUX AMIS INC.", "designationCode": "C", "categoryCode": "09", "address": "1594 RUE DANIEL", "city": "LONGUEIL", "province": "QC", "country": "CA", "postalCode": "J4J3M9", "twitter": "None", "instagram": "None", "facebook": "None", "youtube": "None", "website": "None", "summary": "None", "logo": "None", "latitude": 45.52748924672523, "longitude": -73.48793921677527}, "894805712RR0001": {"name": "ASSOCIATION LA CROISEE", "designationCode": "C", "categoryCode": "09", "address": "230, ROUTE DE PARC            BUREAU E-309", "city": "SAINT ANNE DES MONTS", "province": "QC", "country": "CA", "postalCode": "G4V2C4", "twitter": "None", "instagram": "None", "facebook": "None", "youtube": "None", "website": "None", "summary": "None", "logo": "None", "latitude": 49.11972667502432, "longitude": -66.47925420584059}, "141190017RR0001": {"name": "ASSOCIATION LAURENTIENNE DES PROCHES DE LA PERSONNE ATTEINTEDE MALADIE MENTALE INC.", "designationCode": "C", "categoryCode": "11", "address": "373, RUE PARENT", "city": "ST-JEROME", "province": "QC", "country": "CA", "postalCode": "J7Z2A1", "twitter": "None", "instagram": "None", "facebook": "None", "youtube": "None", "website": "None", "summary": "None", "logo": "None", "latitude": 45.77708937665171, "longitude": -73.99884785483874}, "124899154RR0001": {"name": "ASSOCIATION LAVALLOISE DE PARENTS ET AMIS POUR LE BIEN-\u00caTRE MENTAL INC.", "designationCode": "C", "categoryCode": "09", "address": "1772 BOUL DES LAURENTIDES", "city": "LAVAL", "province": "QC", "country": "CA", "postalCode": "H7M2P6", "twitter": "None", "instagram": "None", "facebook": "None", "youtube": "None", "website": "None", "summary": "None", "logo": "None", "latitude": 45.59892697140636, "longitude": -73.7241525564948}, "138362025RR0001": {"name": "ASSOCIATION LE P A S", "designationCode": "C", "categoryCode": "59", "address": "59, RUE MONFETTE, PORTE 110", "city": "VICTORIAVILLE", "province": "QC", "country": "CA", "postalCode": "G6P1J8", "twitter": "None", "instagram": "None", "facebook": "None", "youtube": "None", "website": "None", "summary": "None", "logo": "None", "latitude": 46.06164779188039, "longitude": -71.9668892342031}, "132823964RR0001": {"name": "ASSOCIATION LE VAISSEAU D'OR", "designationCode": "C", "categoryCode": "09", "address": "213 RUE ROBILLARD", "city": "SOREL-TRACY", "province": "QC", "country": "CA", "postalCode": "J3P8C7", "twitter": "None", "instagram": "None", "facebook": "None", "youtube": "None", "website": "None", "summary": "None", "logo": "None"}, "106729890RR0001": {"name": "ASSOCIATION LES CHEMINS DU SOLEIL", "designationCode": "C", "categoryCode": "56", "address": "1188, RUE DE CHAMPLAIN", "city": "MONTREAL", "province": "QC", "country": "CA", "postalCode": "H2L2R8", "twitter": "None", "instagram": "None", "facebook": "None", "youtube": "None", "website": "None", "summary": "None", "logo": "None", "latitude": 45.52095286952526, "longitude": -73.55120327479928}, "855541991RR0001": {"name": "ASSOCIATION LES GOELANDS DE LONGUEUIL", "designationCode": "C", "categoryCode": "56", "address": "104 - 365 BOUL CURE-POIRIER O", "city": "LONGUEUIL", "province": "QC", "country": "CA", "postalCode": "J4J2G9", "twitter": "None", "instagram": "None", "facebook": "None", "youtube": "None", "website": "None", "summary": "None", "logo": "None", "latitude": 45.52645372107444, "longitude": -73.48347933821897}, "137820411RR0001": {"name": "ASSOCIATION LOCALE DES PERSONNES HANDICAPEES DE CHAMBLY ET LA REGION-ALPHA", "designationCode": "C", "categoryCode": "09", "address": "608 12E AVENUE", "city": "RICHELIEU", "province": "QC", "country": "CA", "postalCode": "J3L5J9", "twitter": "None", "instagram": "None", "facebook": "None", "youtube": "None", "website": "None", "summary": "None", "logo": "None", "latitude": 45.44221631836791, "longitude": -73.24502447613821}, "887479897RR0001": {"name": "ASSOCIATION MANGER SANTE BIO", "designationCode": "C", "categoryCode": "11", "address": "1720 RUE SAINT-DENIS", "city": "MONTREAL", "province": "QC", "country": "CA", "postalCode": "H2X3K6", "twitter": "None", "instagram": "None", "facebook": "None", "youtube": "None", "website": "None", "summary": "None", "logo": "None", "latitude": 45.51559282956333, "longitude": -73.5645830377689}, "125775858RR0001": {"name": "ASSOCIATION MATHEMATIQUE DU QUEBEC", "designationCode": "C", "categoryCode": "20", "address": "D\u00c9PT. DIDACTIQUE, UNI. DE MTL.CP 6128 SUCC. CENTRE VILLE", "city": "MONTREAL", "province": "QC", "country": "CA", "postalCode": "H3C3J7", "twitter": "None", "instagram": "None", "facebook": "None", "youtube": "None", "website": "None", "summary": "None", "logo": "None", "latitude": 45.49833600000005, "longitude": -73.55148649999994}, "140795923RR0001": {"name": "ASSOCIATION MULTI-DEFIS", "designationCode": "C", "categoryCode": "09", "address": "26, RUE JOLY", "city": "RIVIERE-DU-LOUP", "province": "QC", "country": "CA", "postalCode": "G5R3H2", "twitter": "None", "instagram": "None", "facebook": "None", "youtube": "None", "website": "None", "summary": "None", "logo": "None", "latitude": 47.835144817646764, "longitude": -69.54243731585774}, "132767997RR0001": {"name": "ASSOCIATION MULTI-ETHNIQUE POUR L'INTEGRATION DES PERSONNES HANDICAPEES DU QUEBEC", "designationCode": "C", "categoryCode": "09", "address": "6462 BOUL SAINT-LAURENT", "city": "MONTREAL", "province": "QC", "country": "CA", "postalCode": "H2S3C4", "twitter": "None", "instagram": "None", "facebook": "None", "youtube": "None", "website": "None", "summary": "None", "logo": "None", "latitude": 45.530390840671814, "longitude": -73.6089420266604}, "853585487RR0001": {"name": "ASSOCIATION NATIONALE D'INTERVENTION POUR LE MIEUX-ETRE DES ANIMAUX (ANIMA-QUEBEC) INC.", "designationCode": "C", "categoryCode": "54", "address": "2300, 54I\u00c8M AVENUE", "city": "LACHINE MONTR\u00c9AL", "province": "QC", "country": "CA", "postalCode": "H8T3R2", "twitter": "None", "instagram": "None", "facebook": "None", "youtube": "None", "website": "None", "summary": "None", "logo": "None", "latitude": 45.459283913411, "longitude": -73.72317513832327}, "866752736RR0001": {"name": "ASSOCIATION O L O DES MOULINS", "designationCode": "C", "categoryCode": "09", "address": "1317 BOUL DES SEIGNEURS", "city": "TERREBONNE", "province": "QC", "country": "CA", "postalCode": "J6W5B1", "twitter": "None", "instagram": "None", "facebook": "None", "youtube": "None", "website": "None", "summary": "None", "logo": "None", "latitude": 45.69930944662095, "longitude": -73.65846285651217}, "889507661RR0001": {"name": "ASSOCIATION OF ALBERTA SEXUAL ASSAULT SERVICES", "designationCode": "C", "categoryCode": "09", "address": "SUITE 700-910 7 AVE SW", "city": "CALGARY", "province": "AB", "country": "CA", "postalCode": "T2P3N8", "twitter": "None", "instagram": "None", "facebook": "None", "youtube": "None", "website": "None", "summary": "None", "logo": "None", "latitude": 51.04707150043269, "longitude": -114.08207019164406}, "106777063RR0001": {"name": "ASSOCIATION OF BAYSIDE CAMP AND RETREAT CENTRE", "designationCode": "C", "categoryCode": "56", "address": "1503 KETCH HARBOUR ROAD", "city": "SAMBRO HEAD", "province": "NS", "country": "CA", "postalCode": "B3V1L3", "twitter": "None", "instagram": "None", "facebook": "None", "youtube": "None", "website": "None", "summary": "None", "logo": "None", "latitude": 44.48564633086138, "longitude": -63.5851297421376}, "863370029RR0001": {"name": "ASSOCIATION OF BC PROFESSIONAL FORESTERS (ABCPF) FORESTRUST", "designationCode": "C", "categoryCode": "21", "address": "602-1281 WEST GEORGIA ST", "city": "VANCOUVER", "province": "BC", "country": "CA", "postalCode": "V6E3J7", "twitter": "None", "instagram": "None", "facebook": "None", "youtube": "None", "website": "None", "summary": "None", "logo": "None", "latitude": 49.2878903139245, "longitude": -123.12647512528152}, "863030979RR0001": {"name": "ASSOCIATION OF CANADA LANDS SURVEYORS FOUNDATION INC. / FOUNDATION ASSOCIATION DES ARPENTEURS DES TERRES DU CANADA INC.", "designationCode": "C", "categoryCode": "21", "address": "900 DYNES ROAD, SUITE 100E", "city": "OTTAWA", "province": "ON", "country": "CA", "postalCode": "K2C3L6", "twitter": "None", "instagram": "None", "facebook": "None", "youtube": "None", "website": "None", "summary": "None", "logo": "None", "latitude": 45.37000099604756, "longitude": -75.70517115563553}, "804138477RR0001": {"name": "ASSOCIATION OF CANADIAN ARCHIVISTS FOUNDATION/FONDATION D'ASSOCIATION DES ARCHIVISTES CANADIENNES", "designationCode": "A", "categoryCode": "23", "address": "75 ALBERT STREET              SUITE 911", "city": "OTTAWA", "province": "ON", "country": "CA", "postalCode": "K1P5E7", "twitter": "None", "instagram": "None", "facebook": "None", "youtube": "None", "website": "None", "summary": "None", "logo": "None", "latitude": 45.42209635250147, "longitude": -75.69529427228912}, "850619149RR0001": {"name": "ASSOCIATION OF CANADIAN CHINESE THEOLOGICAL EDUCATION", "designationCode": "C", "categoryCode": "23", "address": "PO BOX 76735                  1661 DENISON ST", "city": "MARKHAM", "province": "ON", "country": "CA", "postalCode": "L3R0N5", "twitter": "None", "instagram": "None", "facebook": "None", "youtube": "None", "website": "None", "summary": "None", "logo": "None", "latitude": 43.834708597973886, "longitude": -79.30615967395362}, "889069043RR0001": {"name": "ASSOCIATION OF CANADIAN UNIVERSITIES FOR NORTHERN STUDIES-ASSOCIATION UNIV CANADIENNE D ET", "designationCode": "C", "categoryCode": "59", "address": "200 - 32 COLONNADE RD", "city": "NEPEAN", "province": "ON", "country": "CA", "postalCode": "K2E7J6", "twitter": "None", "instagram": "None", "facebook": "None", "youtube": "None", "website": "None", "summary": "None", "logo": "None", "latitude": 45.34232838431932, "longitude": -75.72112393085615}, "836856567RR0001": {"name": "ASSOCIATION OF CENTRAL ALBERTA YOUTH FOR CHRIST", "designationCode": "C", "categoryCode": "49", "address": "5025 50 ST", "city": "LACOMBE", "province": "AB", "country": "CA", "postalCode": "T4L1X9", "twitter": "None", "instagram": "None", "facebook": "None", "youtube": "None", "website": "None", "summary": "None", "logo": "None", "latitude": 52.46400549708582, "longitude": -113.73059541531559}, "124833245RR0001": {"name": "ASSOCIATION OF CHRISTIAN SCHOOLS INTERNATIONAL - WESTERN CANADA", "designationCode": "C", "categoryCode": "21", "address": "44 WILLOW BROOK DR NW", "city": "AIRDRIE", "province": "AB", "country": "CA", "postalCode": "T4B2J5", "twitter": "None", "instagram": "None", "facebook": "None", "youtube": "None", "website": "None", "summary": "None", "logo": "None", "latitude": 51.294798586733236, "longitude": -114.02320008878203}, "131788580RR0001": {"name": "ASSOCIATION OF COMMUNITIES AGAINST ABUSE", "designationCode": "C", "categoryCode": "09", "address": "BOX 2132", "city": "STETTLER", "province": "AB", "country": "CA", "postalCode": "T0C2L0", "twitter": "None", "instagram": "None", "facebook": "None", "youtube": "None", "website": "None", "summary": "None", "logo": "None", "latitude": 52.32597900000006, "longitude": -112.70698099999993}, "136436862RR0001": {"name": "ASSOCIATION OF COMMUNITY THEATRES OF MANITOBA, INC", "designationCode": "C", "categoryCode": "22", "address": "BOX 434                       54 3RD AVENUE", "city": "GIMLI MB", "province": "MB", "country": "CA", "postalCode": "R0C1B0", "twitter": "None", "instagram": "None", "facebook": "None", "youtube": "None", "website": "None", "summary": "None", "logo": "None", "latitude": 50.63467474854292, "longitude": -96.98872532390781}, "118794395RR0001": {"name": "ASSOCIATION OF CONCERN FOR ULTIMATE REALITY AND MEANING", "designationCode": "C", "categoryCode": "59", "address": "43 QUEEN'S PARK CRES E", "city": "TORONTO", "province": "ON", "country": "CA", "postalCode": "M5S2C3", "twitter": "None", "instagram": "None", "facebook": "None", "youtube": "None", "website": "None", "summary": "None", "logo": "None", "latitude": 43.66441275021635, "longitude": -79.39092008350191}, "106732001RR0001": {"name": "ASSOCIATION OF EARLY CHILDHOOD EDUCATORS, ONTARIO", "designationCode": "C", "categoryCode": "20", "address": "206 - 489 COLLEGE ST", "city": "TORONTO", "province": "ON", "country": "CA", "postalCode": "M6G1H5", "twitter": "None", "instagram": "None", "facebook": "None", "youtube": "None", "website": "None", "summary": "None", "logo": "None", "latitude": 43.65612194030255, "longitude": -79.40932477226045}, "118794403RR0001": {"name": "ASSOCIATION OF FAITH CHURCHES AND MINISTRIES (CANADA)", "designationCode": "C", "categoryCode": "39", "address": "PO BOX 3253", "city": "LANGLEY", "province": "BC", "country": "CA", "postalCode": "V3A4R6", "twitter": "None", "instagram": "None", "facebook": "None", "youtube": "None", "website": "None", "summary": "None", "logo": "None", "latitude": 49.10435700000005, "longitude": -122.65652149999994}, "118794411RR0001": {"name": "ASSOCIATION OF FREE LUTHERAN CONGREGATIONS INC.", "designationCode": "C", "categoryCode": "32", "address": "POST OFFICE BOX 1471", "city": "OUTLOOK", "province": "SK", "country": "CA", "postalCode": "S0L2N0", "twitter": "None", "instagram": "None", "facebook": "None", "youtube": "None", "website": "None", "summary": "None", "logo": "None", "latitude": 51.5306764246367, "longitude": -107.23731016398128}, "866961212RR0001": {"name": "ASSOCIATION OF FRIENDS IN SONG", "designationCode": "C", "categoryCode": "22", "address": "473 HENNESSY STREET", "city": "BATHURST", "province": "NB", "country": "CA", "postalCode": "E2A2N9", "twitter": "None", "instagram": "None", "facebook": "None", "youtube": "None", "website": "None", "summary": "None", "logo": "None", "latitude": 47.62711858728149, "longitude": -65.66835085053957}, "803836147RR0001": {"name": "ASSOCIATION OF FRIENDS OF ST. MARY'S PLACE OF SOLITUDE AND PRAYER INC.", "designationCode": "C", "categoryCode": "49", "address": "690 CROIS WRIGHT", "city": "DORVAL", "province": "QC", "country": "CA", "postalCode": "H9P2C5", "twitter": "None", "instagram": "None", "facebook": "None", "youtube": "None", "website": "None", "summary": "None", "logo": "None", "latitude": 45.454482360594774, "longitude": -73.77051460424701}, "891525362RR0001": {"name": "ASSOCIATION OF HAITIAN EDUCATION FOR ADVANCEMENT AND DEVELOPMENT", "designationCode": "C", "categoryCode": "21", "address": "188 MILLER DRIVE", "city": "ANCASTER", "province": "ON", "country": "CA", "postalCode": "L9G4T4", "twitter": "None", "instagram": "None", "facebook": "None", "youtube": "None", "website": "None", "summary": "None", "logo": "None", "latitude": 43.20481309325411, "longitude": -79.97529032947641}, "141093161RR0001": {"name": "ASSOCIATION OF HIGH PRAIRIE AND DISTRICT CHILDRENS' RESOURCECOUNCIL", "designationCode": "C", "categoryCode": "09", "address": "P.O. BOX 888", "city": "HIGH PRAIRIE", "province": "AB", "country": "CA", "postalCode": "T0G1E0", "twitter": "None", "instagram": "None", "facebook": "None", "youtube": "None", "website": "None", "summary": "None", "logo": "None", "latitude": 55.43123005496565, "longitude": -116.49809993060764}, "132204561RR0001": {"name": "ASSOCIATION OF HOSPITAL VOLUNTEERS - BOWMANVILLE", "designationCode": "C", "categoryCode": "19", "address": "103 - 95 WELLINGTON ST", "city": "BOWMANVILLE", "province": "ON", "country": "CA", "postalCode": "L1C5A1", "twitter": "None", "instagram": "None", "facebook": "None", "youtube": "None", "website": "None", "summary": "None", "logo": "None", "latitude": 43.91408790365883, "longitude": -78.68764630143102}, "896784535RR0001": {"name": "ASSOCIATION OF ISLAMIC CHARITABLE PROJECTS/ASSOCIATION ISLAMIQUE DES PROJETS CHARITABLES", "designationCode": "C", "categoryCode": "49", "address": "1075 RUE SAINT-LOUIS", "city": "LAVAL", "province": "QC", "country": "CA", "postalCode": "H7V2Z1", "twitter": "None", "instagram": "None", "facebook": "None", "youtube": "None", "website": "None", "summary": "None", "logo": "None", "latitude": 45.54719884652886, "longitude": -73.7448111115473}, "118794445RR0001": {"name": "ASSOCIATION OF MANITOBA MUSEUMS (1972) INC./ ASSOCIATION DES MUSEES DU MANITOBA (1972) INC.", "designationCode": "C", "categoryCode": "50", "address": "1040-555 MAIN STREET", "city": "WINNIPEG", "province": "MB", "country": "CA", "postalCode": "R3B1C3", "twitter": "None", "instagram": "None", "facebook": "None", "youtube": "None", "website": "None", "summary": "None", "logo": "None", "latitude": 49.90007376516268, "longitude": -97.13779693190669}, "106732969RR0001": {"name": "ASSOCIATION OF NEIGHBOURHOOD HOUSES OF BRITISH COLUMBIA", "designationCode": "C", "categoryCode": "09", "address": "203-3102 MAIN ST", "city": "VANCOUVER", "province": "BC", "country": "CA", "postalCode": "V5T3G7", "twitter": "None", "instagram": "None", "facebook": "None", "youtube": "None", "website": "None", "summary": "None", "logo": "None", "latitude": 49.257205292255776, "longitude": -123.10116061876066}, "118913987RR0001": {"name": "ASSOCIATION OF NOVA SCOTIA MUSEUMS", "designationCode": "C", "categoryCode": "22", "address": "1113 MARGINAL ROAD", "city": "HALIFAX", "province": "NS", "country": "CA", "postalCode": "B3H4P7", "twitter": "None", "instagram": "None", "facebook": "None", "youtube": "None", "website": "None", "summary": "None", "logo": "None", "latitude": 44.639260983351576, "longitude": -63.56640067941039}, "107796732RR0001": {"name": "ASSOCIATION OF ONTARIO HEALTH CENTRES", "designationCode": "C", "categoryCode": "19", "address": "970 LAWRENCE AVENUE WEST      SUITE 500", "city": "TORONTO", "province": "ON", "country": "CA", "postalCode": "M6A3B6", "twitter": "None", "instagram": "None", "facebook": "None", "youtube": "None", "website": "None", "summary": "None", "logo": "None", "latitude": 43.713688525679444, "longitude": -79.4586771542792}, "897875894RR0001": {"name": "ASSOCIATION OF PARENTS AND PROFESSIONALS FOR LITERACY EDUCATION", "designationCode": "C", "categoryCode": "21", "address": "BOX 2438", "city": "VIRDEN", "province": "MB", "country": "CA", "postalCode": "R0M2C0", "twitter": "None", "instagram": "None", "facebook": "None", "youtube": "None", "website": "None", "summary": "None", "logo": "None", "latitude": 49.85688000000005, "longitude": -100.92262999999997}, "871041646RR0001": {"name": "ASSOCIATION OF PROFESSIONAL ENGINEERS & GEOSCIENTISTS OF NEWFOUNDLAND ENDOWMENT FUND (APEGN ENDOWMENT FUND", "designationCode": "C", "categoryCode": "21", "address": "10 FORT WILLIAM PLACE, STE 203BAINE JOHNSTON CENTRE", "city": "ST JOHN'S", "province": "NL", "country": "CA", "postalCode": "A1A5B2", "twitter": "None", "instagram": "None", "facebook": "None", "youtube": "None", "website": "None", "summary": "None", "logo": "None"}, "887384865RR0001": {"name": "ASSOCIATION OF PROFESSORS OF THE UNIVERSITY OF OTTAWA, STUDENT AWARDS PROGRAMME", "designationCode": "C", "categoryCode": "21", "address": "170 WALLER", "city": "OTTAWA", "province": "ON", "country": "CA", "postalCode": "K1N9B9", "twitter": "None", "instagram": "None", "facebook": "None", "youtube": "None", "website": "None", "summary": "None", "logo": "None", "latitude": 45.42332521986846, "longitude": -75.68649161254552}, "894254499RR0001": {"name": "ASSOCIATION OF PROGRESSIVE DAWOODI BOHRAS OF ONTARIO", "designationCode": "C", "categoryCode": "39", "address": "111 NYMARK AVENUE", "city": "TORONTO", "province": "ON", "country": "CA", "postalCode": "M2J2H3", "twitter": "None", "instagram": "None", "facebook": "None", "youtube": "None", "website": "None", "summary": "None", "logo": "None", "latitude": 43.781572583386335, "longitude": -79.35664311379765}, "118794478RR0001": {"name": "ASSOCIATION OF REGINA MUNDI OLD BOYS BURSARY", "designationCode": "C", "categoryCode": "21", "address": "49 NORFOLK ST N", "city": "SIMCOE", "province": "ON", "country": "CA", "postalCode": "N3Y3N6", "twitter": "None", "instagram": "None", "facebook": "None", "youtube": "None", "website": "None", "summary": "None", "logo": "None", "latitude": 42.838287778521526, "longitude": -80.30435758935896}, "118794486RR0001": {"name": "ASSOCIATION OF REGISTERED NURSES OF NEWFOUNDLAND AND LABRADOR EDUCATION AND RESEARCH TRUST", "designationCode": "A", "categoryCode": "21", "address": "55 MILITARY ROAD", "city": "ST. JOHN'S", "province": "NL", "country": "CA", "postalCode": "A1C2C5", "twitter": "None", "instagram": "None", "facebook": "None", "youtube": "None", "website": "None", "summary": "None", "logo": "None", "latitude": 47.571179627243424, "longitude": -52.70495960046746}, "888553641RR0001": {"name": "ASSOCIATION OF ROMAN CATHOLIC COMMUNICATORS OF CANADA", "designationCode": "C", "categoryCode": "47", "address": "8 MACDONALD AVENUE", "city": "HAMILTON", "province": "ON", "country": "CA", "postalCode": "L8P4N5", "twitter": "None", "instagram": "None", "facebook": "None", "youtube": "None", "website": "None", "summary": "None", "logo": "None", "latitude": 43.2541811626464, "longitude": -79.89537098516925}, "139724892RR0001": {"name": "ASSOCIATION OF SASKATCHEWAN URBAN PARKS AND CONSERVATION AGE", "designationCode": "C", "categoryCode": "52", "address": "6 LLOYD BAY", "city": "REGINA", "province": "SK", "country": "CA", "postalCode": "S4R5T6", "twitter": "None", "instagram": "None", "facebook": "None", "youtube": "None", "website": "None", "summary": "None", "logo": "None", "latitude": 50.49276408964741, "longitude": -104.60361416406005}, "106733132RR0001": {"name": "ASSOCIATION OF SOVIET JEWRY IN CANADA INC.", "designationCode": "C", "categoryCode": "09", "address": "99 RIVERMILL CRESCENT", "city": "MAPLE", "province": "ON", "country": "CA", "postalCode": "L6A0H4", "twitter": "None", "instagram": "None", "facebook": "None", "youtube": "None", "website": "None", "summary": "None", "logo": "None", "latitude": 43.8748247365977, "longitude": -79.46790856910386}, "888029931RR0001": {"name": "ASSOCIATION OF SPIRITUAL HEALERS OF ALBERTA", "designationCode": "C", "categoryCode": "11", "address": "1603-6TH AVE N.W.", "city": "CALGARY", "province": "AB", "country": "CA", "postalCode": "T2N0W1", "twitter": "None", "instagram": "None", "facebook": "None", "youtube": "None", "website": "None", "summary": "None", "logo": "None", "latitude": 51.05752251952434, "longitude": -114.09640047278232}, "886383397RR0001": {"name": "ASSOCIATION OF TORONTO CHINESE EVANGELICAL CHURCH MUSICIANS", "designationCode": "C", "categoryCode": "49", "address": "PO BOX 76653                  1661 DENISON ST", "city": "MARKHAM", "province": "ON", "country": "CA", "postalCode": "L3R0N5", "twitter": "None", "instagram": "None", "facebook": "None", "youtube": "None", "website": "None", "summary": "None", "logo": "None", "latitude": 43.834708597973886, "longitude": -79.30615967395362}, "825610181RR0001": {"name": "ASSOCIATION OF TREASURERS OF RELIGIOUS INSTITUTES", "designationCode": "C", "categoryCode": "49", "address": "151-101 THORNCLIFFE PARK DR", "city": "TORONTO", "province": "ON", "country": "CA", "postalCode": "M4H1M2", "twitter": "None", "instagram": "None", "facebook": "None", "youtube": "None", "website": "None", "summary": "None", "logo": "None", "latitude": 43.70847745213221, "longitude": -79.34405100121208}, "893369264RR0001": {"name": "ASSOCIATION OF TRIFYLION (ARKADIA) OF TORONTO AND DISTRICT INC.", "designationCode": "C", "categoryCode": "21", "address": "185 WYCHWOOD AVE", "city": "TORONTO", "province": "ON", "country": "CA", "postalCode": "M6C2T4", "twitter": "None", "instagram": "None", "facebook": "None", "youtube": "None", "website": "None", "summary": "None", "logo": "None", "latitude": 43.68355791923939, "longitude": -79.4236974751286}, "118794544RR0001": {"name": "ASSOCIATION OF UNITY CHURCHES (CANADA)", "designationCode": "C", "categoryCode": "49", "address": "2631 KINGSWAY DR", "city": "KITCHENER", "province": "ON", "country": "CA", "postalCode": "N2C1A7", "twitter": "None", "instagram": "None", "facebook": "None", "youtube": "None", "website": "None", "summary": "None", "logo": "None", "latitude": 43.43217218454629, "longitude": -80.44515145519063}, "108219650RR0001": {"name": "ASSOCIATION OF VOLUNTEERS WOMENS COLLEGE HOSPITAL", "designationCode": "C", "categoryCode": "19", "address": "76 GRENVILLE ST", "city": "TORONTO", "province": "ON", "country": "CA", "postalCode": "M5S1B2", "twitter": "None", "instagram": "None", "facebook": "None", "youtube": "None", "website": "None", "summary": "None", "logo": "None", "latitude": 43.6613191906918, "longitude": -79.38724995504639}, "811790096RR0001": {"name": "ASSOCIATION OF WETLAND STEWARDS FOR CLAYOQUOT AND BARKLEY SOUNDS", "designationCode": "C", "categoryCode": "54", "address": "PO 927", "city": "UCLUELET", "province": "BC", "country": "CA", "postalCode": "V0R3A0", "twitter": "None", "instagram": "None", "facebook": "None", "youtube": "None", "website": "None", "summary": "None", "logo": "None", "latitude": 48.938210000000026, "longitude": -125.54276999999996}, "140717265RR0001": {"name": "ASSOCIATION PARENTS ET AMIS DU MALADE \u00c9MOTIONNEL DE L'EST DE LA C\u00d4TE-NORD INC.", "designationCode": "C", "categoryCode": "09", "address": "652 DEQUEN", "city": "SEPT-ILES", "province": "QC", "country": "CA", "postalCode": "G4R2R5", "twitter": "None", "instagram": "None", "facebook": "None", "youtube": "None", "website": "None", "summary": "None", "logo": "None", "latitude": 50.212464000000054, "longitude": -66.38965549999993}, "864793732RR0001": {"name": "ASSOCIATION PARENTS-ECOLE", "designationCode": "C", "categoryCode": "21", "address": "4368 MICHIGAN AVE.", "city": "POWELL RIVER", "province": "BC", "country": "CA", "postalCode": "V8A2S1", "twitter": "None", "instagram": "None", "facebook": "None", "youtube": "None", "website": "None", "summary": "None", "logo": "None", "latitude": 49.83424200000002, "longitude": -124.52384135659909}, "135600021RR0001": {"name": "ASSOCIATION PARENTS-RESSOURCES DES BOIS-FRANCS", "designationCode": "C", "categoryCode": "09", "address": "86 RUE SAINT-PAUL", "city": "VICTORIAVILLE", "province": "QC", "country": "CA", "postalCode": "G6P9C8", "twitter": "None", "instagram": "None", "facebook": "None", "youtube": "None", "website": "None", "summary": "None", "logo": "None", "latitude": 46.06330104968548, "longitude": -71.96328026925936}, "892035825RR0001": {"name": "ASSOCIATION PARITAIRE POUR LA SANT\u00c9 ET LA S\u00c9CURIT\u00c9 DU TRAVAIL DU SECTEUR FABRICATION D'\u00c9QUIPEMENT DE TRANSPORT ET DE MACHINES", "designationCode": "C", "categoryCode": "11", "address": "202-3565 RUE JARRY E.", "city": "MONTREAL", "province": "QC", "country": "CA", "postalCode": "H1Z4K6", "twitter": "None", "instagram": "None", "facebook": "None", "youtube": "None", "website": "None", "summary": "None", "logo": "None", "latitude": 45.565346524505784, "longitude": -73.60817675599486}, "129502084RR0001": {"name": "ASSOCIATION PARITAIRE POUR LA SANTE ET LA SECURITE DU TRAVA IL DU SECTEUR AFFAIRES SOCIALES", "designationCode": "C", "categoryCode": "11", "address": "5100 RUE SHERBROOKE EST       BUREAU 950", "city": "MONTREAL", "province": "QC", "country": "CA", "postalCode": "H1V3R9", "twitter": "None", "instagram": "None", "facebook": "None", "youtube": "None", "website": "None", "summary": "None", "logo": "None", "latitude": 45.56703812903243, "longitude": -73.55323294093772}, "106734056RR0001": {"name": "ASSOCIATION PARITAIRE POUR LA SANTE ET LA SECURITE DU TRAVAIL DU SECTEUR CONSTRUCTION", "designationCode": "C", "categoryCode": "59", "address": "7905 BOUL LOUIS-H-LAFONTAINE  PORTE 301", "city": "ANJOU", "province": "QC", "country": "CA", "postalCode": "H1K4E4", "twitter": "None", "instagram": "None", "facebook": "None", "youtube": "None", "website": "None", "summary": "None", "logo": "None", "latitude": 45.6050294937676, "longitude": -73.5637022475333}, "892817156RR0001": {"name": "ASSOCIATION PATRIMONIALE DE SAINT-DENIS-DE-LA-BOUTEILLERIE", "designationCode": "C", "categoryCode": "50", "address": "2, ROUTE 132 EST", "city": "SAINT-DENIS", "province": "QC", "country": "CA", "postalCode": "G0L2R0", "twitter": "None", "instagram": "None", "facebook": "None", "youtube": "None", "website": "None", "summary": "None", "logo": "None", "latitude": 47.50487585882289, "longitude": -69.9362700818368}, "872781729RR0001": {"name": "ASSOCIATION PFANNER DE MISSIONNAIRES LA\u00cfQUES/PFANNER LAY MISSION COMPANIONS", "designationCode": "C", "categoryCode": "47", "address": "2075 CH. DE SAINTE-CATHERINE", "city": "SHERBROOKE", "province": "QC", "country": "CA", "postalCode": "J1N1E7", "twitter": "None", "instagram": "None", "facebook": "None", "youtube": "None", "website": "None", "summary": "None", "logo": "None", "latitude": 45.349892964121274, "longitude": -71.953714268044}, "853971547RR0001": {"name": "ASSOCIATION PLACE AU SOLEIL/PLACE IN THE SUN ASSOCIATION", "designationCode": "C", "categoryCode": "09", "address": "316 CHEMIN KIPAWA             C.P.541", "city": "TEMISCAMING", "province": "QC", "country": "CA", "postalCode": "J0Z3R0", "twitter": "None", "instagram": "None", "facebook": "None", "youtube": "None", "website": "None", "summary": "None", "logo": "None", "latitude": 46.718588304200985, "longitude": -79.09895930878861}, "898886874RR0001": {"name": "ASSOCIATION POCATOISE DES PERSONNES HANDICAPEES INC.", "designationCode": "C", "categoryCode": "09", "address": "901, 5E RUE ROULEAU #300", "city": "LA POCATIERE", "province": "QC", "country": "CA", "postalCode": "G0R1Z0", "twitter": "None", "instagram": "None", "facebook": "None", "youtube": "None", "website": "None", "summary": "None", "logo": "None", "latitude": 47.36576713791924, "longitude": -70.03258831504968}, "814798922RR0001": {"name": "ASSOCIATION POLIO QU\u00c9BEC", "designationCode": "C", "categoryCode": "13", "address": "219A-3500 BOUL.DECARIE", "city": "MONTREAL", "province": "QC", "country": "CA", "postalCode": "H4A3J5", "twitter": "None", "instagram": "None", "facebook": "None", "youtube": "None", "website": "None", "summary": "None", "logo": "None", "latitude": 45.475505792919584, "longitude": -73.61156479742031}, "132868498RR0001": {"name": "ASSOCIATION POUR AINES RESIDANT A LAVAL", "designationCode": "C", "categoryCode": "56", "address": "4901, ST-JOSEPH", "city": "LAVAL", "province": "QC", "country": "CA", "postalCode": "H7C1H6", "twitter": "None", "instagram": "None", "facebook": "None", "youtube": "None", "website": "None", "summary": "None", "logo": "None", "latitude": 45.611312678054084, "longitude": -73.64850496892485}, "864534482RR0001": {"name": "ASSOCIATION POUR L'AIDE A L'\u00c9DUCATION ET AU D\u00c9VELOPPEMENT (AAED)", "designationCode": "C", "categoryCode": "09", "address": "4 RUE DE LA SAPINI\u00c8RE", "city": "GATINEAU", "province": "QC", "country": "CA", "postalCode": "J9A2V9", "twitter": "None", "instagram": "None", "facebook": "None", "youtube": "None", "website": "None", "summary": "None", "logo": "None", "latitude": 45.43957002746847, "longitude": -75.77389260641141}, "864505482RR0001": {"name": "ASSOCIATION POUR L'ETUDE & LA MEDITATION DU BOUDDHISME VIETNAMIEN-CENTRE DE MEDITATION \"DAO VIEN\"", "designationCode": "C", "categoryCode": "35", "address": "435 CH DE LA SABLIERE", "city": "LANTHIER", "province": "QC", "country": "CA", "postalCode": "J0T1V0", "twitter": "None", "instagram": "None", "facebook": "None", "youtube": "None", "website": "None", "summary": "None", "logo": "None", "latitude": 46.14559404137558, "longitude": -74.21172081447277}, "118794825RR0001": {"name": "ASSOCIATION POUR L'INTEGRATION COMMUNAUTAIRE DE L'OUTAOUAIS", "designationCode": "C", "categoryCode": "11", "address": "405 BLVD MALONEY EST", "city": "GATINEAU", "province": "QC", "country": "CA", "postalCode": "J8P6Z8", "twitter": "None", "instagram": "None", "facebook": "None", "youtube": "None", "website": "None", "summary": "None", "logo": "None", "latitude": 45.48476247157926, "longitude": -75.63931423524136}, "138129515RR0001": {"name": "ASSOCIATION POUR L'INTEGRATION COMMUNAUTAIRE DE LA VALLEE DE LA GATINEAU \"LA LANTERNE\"", "designationCode": "C", "categoryCode": "09", "address": "20 CHEMIN RAPHAEL", "city": "LA P\u00caCHE", "province": "QC", "country": "CA", "postalCode": "J0X2W0", "twitter": "None", "instagram": "None", "facebook": "None", "youtube": "None", "website": "None", "summary": "None", "logo": "None", "latitude": 45.644831768439936, "longitude": -76.03346023707996}, "119008498RR0001": {"name": "ASSOCIATION POUR L'INTEGRATION COMMUNAUTAIRE DE PETIT-ROCHER", "designationCode": "C", "categoryCode": "11", "address": "323 ROUTE 134", "city": "PETIT ROCHER NORD", "province": "NB", "country": "CA", "postalCode": "E8J2E2", "twitter": "None", "instagram": "None", "facebook": "None", "youtube": "None", "website": "None", "summary": "None", "logo": "None", "latitude": 47.80335092451206, "longitude": -65.72940396692488}, "885767335RR0001": {"name": "ASSOCIATION POUR L'INTEGRATION COMMUNAUTAIRE DE TRACADIE INC", "designationCode": "C", "categoryCode": "11", "address": "CP 3303, SUCC. BUREAU-CHEF", "city": "TRACADIE-SHEILA", "province": "NB", "country": "CA", "postalCode": "E1X1G5", "twitter": "None", "instagram": "None", "facebook": "None", "youtube": "None", "website": "None", "summary": "None", "logo": "None", "latitude": 47.52130200000006, "longitude": -64.91063149999994}, "136545597RR0001": {"name": "ASSOCIATION POUR L'INTEGRATION EN RESIDENCE DE L'ESTRIE (AIRE) INC", "designationCode": "C", "categoryCode": "09", "address": "3232, RUE DELORME", "city": "SHERBROOKE", "province": "QC", "country": "CA", "postalCode": "J1K2Z5", "twitter": "None", "instagram": "None", "facebook": "None", "youtube": "None", "website": "None", "summary": "None", "logo": "None", "latitude": 45.38737780209485, "longitude": -71.95040742838599}, "869202382RR0001": {"name": "ASSOCIATION POUR L'INTEGRATION ET LE D\u00c9VELOPPEMENT DE L'AIDENATURELLE ET TH\u00c9RAPEUTIQUE (A.I.D.A.N.T.)", "designationCode": "C", "categoryCode": "09", "address": "2301, 1IERE AVENUE            2IEME ETAGE, LOCAL 230", "city": "QUEBEC", "province": "QC", "country": "CA", "postalCode": "G1L3M9", "twitter": "None", "instagram": "None", "facebook": "None", "youtube": "None", "website": "None", "summary": "None", "logo": "None", "latitude": 46.83399000000006, "longitude": -71.24192899999993}, "892541160RR0001": {"name": "ASSOCIATION POUR L'INTEGRATION SOCIAL (REGION BEAUCE-SARTIGAN)", "designationCode": "C", "categoryCode": "09", "address": "355 138 E RUE", "city": "SAINT-GEORGES", "province": "QC", "country": "CA", "postalCode": "G5Y2M8", "twitter": "None", "instagram": "None", "facebook": "None", "youtube": "None", "website": "None", "summary": "None", "logo": "None", "latitude": 46.114482781579945, "longitude": -70.6599003655432}, "131849515RR0001": {"name": "ASSOCIATION POUR L'INTEGRATION SOCIALE D'OTTAWA", "designationCode": "C", "categoryCode": "09", "address": "150-235 RUE DONALD", "city": "OTTAWA", "province": "ON", "country": "CA", "postalCode": "K1K1N1", "twitter": "None", "instagram": "None", "facebook": "None", "youtube": "None", "website": "None", "summary": "None", "logo": "None", "latitude": 45.427624473310004, "longitude": -75.65873447558997}, "130858863RR0001": {"name": "ASSOCIATION POUR LA CONSERVATION DU BOISE PAPINEAU A.C.B.P.", "designationCode": "C", "categoryCode": "52", "address": "3235 BLVD SAINT-MARTIN EST", "city": "LAVAL", "province": "QC", "country": "CA", "postalCode": "H7E5G8", "twitter": "None", "instagram": "None", "facebook": "None", "youtube": "None", "website": "None", "summary": "None", "logo": "None", "latitude": 45.604743588695136, "longitude": -73.67758055987034}}