{"119150928RR0001": {"name": "SIR OLIVER MOWAT COLLEGIATE INSTITUTE", "designationCode": "C", "categoryCode": "20", "address": "5400 LAWRENCE AVE E", "city": "SCARBOROUGH", "province": "ON", "country": "CA", "postalCode": "M1C2C6", "twitter": "None", "instagram": "None", "facebook": "None", "youtube": "None", "website": "None", "summary": "None", "logo": "None", "latitude": 43.77844114135209, "longitude": -79.14181836029175}, "882831142RR0001": {"name": "SIR THOMAS CROPO FOUNDATION INC.", "designationCode": "B", "categoryCode": "03", "address": "359 - 1235 FAIRVIEW ST", "city": "BURLINGTON", "province": "ON", "country": "CA", "postalCode": "L7S2K9", "twitter": "None", "instagram": "None", "facebook": "None", "youtube": "None", "website": "None", "summary": "None", "logo": "None", "latitude": 43.33016844162928, "longitude": -79.81836180913439}, "119150951RR0001": {"name": "SIR WILFRED THOMASON GRENFELL HISTORICAL SOCIETY", "designationCode": "C", "categoryCode": "50", "address": "P.O. BOX 93", "city": "ST ANTHONY", "province": "NL", "country": "CA", "postalCode": "A0K4S0", "twitter": "None", "instagram": "None", "facebook": "None", "youtube": "None", "website": "None", "summary": "None", "logo": "None", "latitude": 51.372690000000034, "longitude": -55.597039999999936}, "119150977RR0001": {"name": "SIR WILLIAM CAMPBELL FOUNDATION", "designationCode": "C", "categoryCode": "52", "address": "160 QUEEN ST WEST", "city": "TORONTO", "province": "ON", "country": "CA", "postalCode": "M5H3H3", "twitter": "None", "instagram": "None", "facebook": "None", "youtube": "None", "website": "None", "summary": "None", "logo": "None", "latitude": 43.6507570885509, "longitude": -79.38703623925207}, "888229853RR0001": {"name": "SIR WILLIAM F. COAKER HERITAGE FOUNDATION INC.", "designationCode": "C", "categoryCode": "52", "address": "PO BOX 40", "city": "PORT UNION", "province": "NL", "country": "CA", "postalCode": "A0C2J0", "twitter": "None", "instagram": "None", "facebook": "None", "youtube": "None", "website": "None", "summary": "None", "logo": "None", "latitude": 48.49989000000005, "longitude": -53.081349999999986}, "891400848RR0001": {"name": "SIRI GURU SINGH SABHA", "designationCode": "C", "categoryCode": "62", "address": "1070 TOWNLINE ROAD", "city": "CAMBRIDGE", "province": "ON", "country": "CA", "postalCode": "N0B2J0", "twitter": "None", "instagram": "None", "facebook": "None", "youtube": "None", "website": "None", "summary": "None", "logo": "None", "latitude": 43.40055430417233, "longitude": -80.27492634494139}, "107982969RR0001": {"name": "SISEM (DAYCARE) CENTRE SOCIETY", "designationCode": "C", "categoryCode": "20", "address": "11435-106 STREET", "city": "EDMONTON", "province": "AB", "country": "CA", "postalCode": "T5G2P8", "twitter": "None", "instagram": "None", "facebook": "None", "youtube": "None", "website": "None", "summary": "None", "logo": "None", "latitude": 53.56572451956261, "longitude": -113.50286114524816}, "887933463RR0001": {"name": "SISSON RIDGE UNITED BAPTIST CHURCH,", "designationCode": "C", "categoryCode": "31", "address": "344 SISSON RIDGE RD", "city": "SISSON RIDGE", "province": "NB", "country": "CA", "postalCode": "E7G3L7", "twitter": "None", "instagram": "None", "facebook": "None", "youtube": "None", "website": "None", "summary": "None", "logo": "None", "latitude": 46.918353949766264, "longitude": -67.43922833415095}, "828432542RR0001": {"name": "SISTARS COMMUNITY ECONOMIC DEVELOPMENT CO-OP INC.", "designationCode": "C", "categoryCode": "21", "address": "99 EUCLID AVE", "city": "WINNIPEG", "province": "MB", "country": "CA", "postalCode": "R2W2W5", "twitter": "None", "instagram": "None", "facebook": "None", "youtube": "None", "website": "None", "summary": "None", "logo": "None", "latitude": 49.906784701656065, "longitude": -97.12819326724014}, "842157125RR0001": {"name": "SISTER ANN CATHERINE EDUCATIONAL SOCIETY", "designationCode": "C", "categoryCode": "21", "address": "P.O. BOX 27112 RPO            5595 FENWICK STREET", "city": "HALIFAX", "province": "NS", "country": "CA", "postalCode": "B3H4M2", "twitter": "None", "instagram": "None", "facebook": "None", "youtube": "None", "website": "None", "summary": "None", "logo": "None", "latitude": 44.63779507080594, "longitude": -63.5744677460614}, "122521917RR0001": {"name": "SISTER MACNAMARA PRESCHOOL AND INFANT DAYCARE INC", "designationCode": "C", "categoryCode": "20", "address": "126 - 460 SARGENT AVENUE", "city": "WINNIPEG", "province": "MB", "country": "CA", "postalCode": "R3B1V5", "twitter": "None", "instagram": "None", "facebook": "None", "youtube": "None", "website": "None", "summary": "None", "logo": "None", "latitude": 49.89634560959711, "longitude": -97.15394624755577}, "884728619RR0001": {"name": "SISTER TRIANGLE INC", "designationCode": "C", "categoryCode": "49", "address": "4215 HILLSDALE ST.", "city": "REGINA", "province": "SK", "country": "CA", "postalCode": "S4S3Y9", "twitter": "None", "instagram": "None", "facebook": "None", "youtube": "None", "website": "None", "summary": "None", "logo": "None", "latitude": 50.41222099417163, "longitude": -104.60151739422376}, "892873761RR0001": {"name": "SISTERHOOD OF SOLEL CONGREGATION", "designationCode": "C", "categoryCode": "49", "address": "2399 FOLKWAY DRIVE", "city": "MISSISSAUGA", "province": "ON", "country": "CA", "postalCode": "L5L2M6", "twitter": "None", "instagram": "None", "facebook": "None", "youtube": "None", "website": "None", "summary": "None", "logo": "None", "latitude": 43.54976742498087, "longitude": -79.69136543464705}, "107983009RR0001": {"name": "SISTERING-A WOMAN'S PLACE", "designationCode": "C", "categoryCode": "01", "address": "962 BLOOR ST. WEST", "city": "TORONTO", "province": "ON", "country": "CA", "postalCode": "M6H1L6", "twitter": "None", "instagram": "None", "facebook": "None", "youtube": "None", "website": "None", "summary": "None", "logo": "None", "latitude": 43.661319169051716, "longitude": -79.42873916362736}, "119151108RR0001": {"name": "SISTERS OF CHARITY MOUNT SAINT VINCENT", "designationCode": "C", "categoryCode": "46", "address": "215 SETON RD", "city": "HALIFAX", "province": "NS", "country": "CA", "postalCode": "B3M0C9", "twitter": "None", "instagram": "None", "facebook": "None", "youtube": "None", "website": "None", "summary": "None", "logo": "None", "latitude": 44.66916954180828, "longitude": -63.648298608372365}, "107991192RR0001": {"name": "SISTERS OF CHARITY OF OTTAWA/SOEURS DE LA CHARITE D'OTTAWA", "designationCode": "C", "categoryCode": "46", "address": "27 RUE BRUYERE", "city": "OTTAWA", "province": "ON", "country": "CA", "postalCode": "K1N5C9", "twitter": "None", "instagram": "None", "facebook": "None", "youtube": "None", "website": "None", "summary": "None", "logo": "None", "latitude": 45.431560924964096, "longitude": -75.69739439912266}, "891704645RR0001": {"name": "SISTERS OF CHARITY OF PROVIDENCE - MISSIONS", "designationCode": "C", "categoryCode": "46", "address": "3005-119 STREET", "city": "EDMONTON", "province": "AB", "country": "CA", "postalCode": "T6J5R5", "twitter": "None", "instagram": "None", "facebook": "None", "youtube": "None", "website": "None", "summary": "None", "logo": "None", "latitude": 53.46215250021689, "longitude": -113.53871263127581}, "119151116RR0001": {"name": "SISTERS OF CHARITY OF PROVIDENCE OF CALGARY", "designationCode": "C", "categoryCode": "46", "address": "3005 119 ST NW", "city": "EDMONTON", "province": "AB", "country": "CA", "postalCode": "T6J5R5", "twitter": "None", "instagram": "None", "facebook": "None", "youtube": "None", "website": "None", "summary": "None", "logo": "None", "latitude": 53.46215250021689, "longitude": -113.53871263127581}, "119151157RR0001": {"name": "SISTERS OF CHARITY OF ST. LOUIS (SACRED HEART PROVINCE - WESTERN CANADA)", "designationCode": "C", "categoryCode": "46", "address": "3723 - 40 ST. S.W.", "city": "CALGARY", "province": "AB", "country": "CA", "postalCode": "T3E3K4", "twitter": "None", "instagram": "None", "facebook": "None", "youtube": "None", "website": "None", "summary": "None", "logo": "None", "latitude": 51.022008081610224, "longitude": -114.14546187656893}, "119151132RR0001": {"name": "SISTERS OF CHARITY OF ST. LOUIS OF CALGARY", "designationCode": "C", "categoryCode": "46", "address": "3723 - 40 ST. S.W.", "city": "CALGARY", "province": "AB", "country": "CA", "postalCode": "T3E3K4", "twitter": "None", "instagram": "None", "facebook": "None", "youtube": "None", "website": "None", "summary": "None", "logo": "None", "latitude": 51.022008081610224, "longitude": -114.14546187656893}, "129535720RR0001": {"name": "SISTERS OF CHARITY OF THE IMMACULATE CONCEPTION", "designationCode": "C", "categoryCode": "46", "address": "PO BOX 2266  STN MAIN", "city": "SAINT JOHN", "province": "NB", "country": "CA", "postalCode": "E2L3V1", "twitter": "None", "instagram": "None", "facebook": "None", "youtube": "None", "website": "None", "summary": "None", "logo": "None", "latitude": 45.274774384642015, "longitude": -66.0653109102771}, "119151207RR0001": {"name": "SISTERS OF HOLY CROSS OF ST. JOSEPH'S PROVINCE", "designationCode": "C", "categoryCode": "09", "address": "1230 DAPRAT AVE", "city": "CORNWALL", "province": "ON", "country": "CA", "postalCode": "K6H6N9", "twitter": "None", "instagram": "None", "facebook": "None", "youtube": "None", "website": "None", "summary": "None", "logo": "None", "latitude": 45.038652789889845, "longitude": -74.72629522719129}, "119151223RR0001": {"name": "SISTERS OF MISSION SERVICE", "designationCode": "C", "categoryCode": "46", "address": "1125 11TH ST E", "city": "SASKATOON", "province": "SK", "country": "CA", "postalCode": "S7H0G1", "twitter": "None", "instagram": "None", "facebook": "None", "youtube": "None", "website": "None", "summary": "None", "logo": "None", "latitude": 52.1188194532574, "longitude": -106.64236341618097}, "119151223RR0002": {"name": "SISTERS OF MISSION SERVICE - CHARITY FUND", "designationCode": "C", "categoryCode": "38", "address": "1125 11TH ST E", "city": "SASKATOON", "province": "SK", "country": "CA", "postalCode": "S7H0G1", "twitter": "None", "instagram": "None", "facebook": "None", "youtube": "None", "website": "None", "summary": "None", "logo": "None", "latitude": 52.1188194532574, "longitude": -106.64236341618097}, "119151256RR0001": {"name": "SISTERS OF OUR LADY OF MOUNT CARMEL (CANADA)", "designationCode": "C", "categoryCode": "46", "address": "2700 JANE STREET", "city": "NORTH YORK", "province": "ON", "country": "CA", "postalCode": "M3L1S4", "twitter": "None", "instagram": "None", "facebook": "None", "youtube": "None", "website": "None", "summary": "None", "logo": "None", "latitude": 43.7417085972648, "longitude": -79.5138197702403}, "129471991RR0001": {"name": "SISTERS OF OUR LADY OF THE CROSS", "designationCode": "C", "categoryCode": "46", "address": "331 CORNISH ROAD              BOX A36", "city": "SASKATOON", "province": "SK", "country": "CA", "postalCode": "S7T0T9", "twitter": "None", "instagram": "None", "facebook": "None", "youtube": "None", "website": "None", "summary": "None", "logo": "None", "latitude": 52.08652547994646, "longitude": -106.63019180682672}, "119020352RR0001": {"name": "SISTERS OF OUR LADY OF THE MISSIONS INC.", "designationCode": "C", "categoryCode": "09", "address": "601 AULNEAU ST", "city": "WINNIPEG", "province": "MB", "country": "CA", "postalCode": "R2H2V5", "twitter": "None", "instagram": "None", "facebook": "None", "youtube": "None", "website": "None", "summary": "None", "logo": "None", "latitude": 49.890557107392354, "longitude": -97.11952140210002}, "118969195RR0001": {"name": "SISTERS OF OUR LADY OF THE MISSIONS, SACRED HEART ACADEMY", "designationCode": "C", "categoryCode": "20", "address": "2710 22ND AVE", "city": "REGINA", "province": "SK", "country": "CA", "postalCode": "S4S6K5", "twitter": "None", "instagram": "None", "facebook": "None", "youtube": "None", "website": "None", "summary": "None", "logo": "None", "latitude": 50.42673345657562, "longitude": -104.62000444463038}, "119151280RR0001": {"name": "SISTERS OF PROVIDENCE OF ST. VINCENT DE PAUL", "designationCode": "C", "categoryCode": "46", "address": "1200 PRINCESS STREET BOX 427", "city": "KINGSTON", "province": "ON", "country": "CA", "postalCode": "K7L4W4", "twitter": "None", "instagram": "None", "facebook": "None", "youtube": "None", "website": "None", "summary": "None", "logo": "None", "latitude": 44.24441489552564, "longitude": -76.5190125283594}, "106984396RR0001": {"name": "SISTERS OF SAINT MARTHA", "designationCode": "C", "categoryCode": "46", "address": "BETHANY", "city": "ANTIGONISH", "province": "NS", "country": "CA", "postalCode": "B2G2G6", "twitter": "None", "instagram": "None", "facebook": "None", "youtube": "None", "website": "None", "summary": "None", "logo": "None", "latitude": 45.62844900000006, "longitude": -61.979452999999936}, "130977531RR0001": {"name": "SISTERS OF SERVICE OF CANADA,", "designationCode": "C", "categoryCode": "46", "address": "12 MONTCREST BLVD", "city": "TORONTO", "province": "ON", "country": "CA", "postalCode": "M4K1J7", "twitter": "None", "instagram": "None", "facebook": "None", "youtube": "None", "website": "None", "summary": "None", "logo": "None", "latitude": 43.67307912129948, "longitude": -79.35693654607878}, "130511561RR0001": {"name": "SISTERS OF ST. JOSEPH (UKRAINIAN) OF WINNIPEG, INC.", "designationCode": "C", "categoryCode": "46", "address": "275 RAMBLEWOOD ROAD NORTH", "city": "WINNIPEG", "province": "MB", "country": "CA", "postalCode": "R3X0A2", "twitter": "None", "instagram": "None", "facebook": "None", "youtube": "None", "website": "None", "summary": "None", "logo": "None", "latitude": 49.81058975292898, "longitude": -97.05112302841982}, "119151330RR0001": {"name": "SISTERS OF ST. JOSEPH FOR THE DIOCESE OF TORONTO IN UPPER CANADA", "designationCode": "C", "categoryCode": "46", "address": "101 THORNCLIFFE PARK DRIVE", "city": "TORONTO", "province": "ON", "country": "CA", "postalCode": "M4H1M2", "twitter": "None", "instagram": "None", "facebook": "None", "youtube": "None", "website": "None", "summary": "None", "logo": "None", "latitude": 43.70847745213221, "longitude": -79.34405100121208}, "119151355RR0001": {"name": "SISTERS OF ST. JOSEPH OF SAULT STE. MARIE", "designationCode": "C", "categoryCode": "46", "address": "2025 MAIN STREET WEST", "city": "NORTH BAY", "province": "ON", "country": "CA", "postalCode": "P1B2X6", "twitter": "None", "instagram": "None", "facebook": "None", "youtube": "None", "website": "None", "summary": "None", "logo": "None", "latitude": 46.32472054833007, "longitude": -79.49626561962603}, "119151389RR0001": {"name": "SISTERS OF ST. MARTHA, PRINCE EDWARD ISLAND (MOTHERHOUSE-MOUNT ST. MARY'S)", "designationCode": "C", "categoryCode": "46", "address": "PO BOX 1147  STN CENTRAL", "city": "CHARLOTTETOWN", "province": "PE", "country": "CA", "postalCode": "C1A7M8", "twitter": "None", "instagram": "None", "facebook": "None", "youtube": "None", "website": "None", "summary": "None", "logo": "None", "latitude": 46.23659700000006, "longitude": -63.12815449999994}, "864516018RR0001": {"name": "SISTERS OF THE EUCHARISTIC HEART OF JESUS OF CANADA", "designationCode": "C", "categoryCode": "46", "address": "10 SEAVIEW AVENUE", "city": "HALIFAX", "province": "NS", "country": "CA", "postalCode": "B3P2A6", "twitter": "None", "instagram": "None", "facebook": "None", "youtube": "None", "website": "None", "summary": "None", "logo": "None", "latitude": 44.62351441993189, "longitude": -63.615535458047496}, "119151405RR0001": {"name": "SISTERS OF THE GOOD SHEPHERD", "designationCode": "C", "categoryCode": "01", "address": "490 RATHBURN RD", "city": "ETOBICOKE", "province": "ON", "country": "CA", "postalCode": "M9C3S8", "twitter": "None", "instagram": "None", "facebook": "None", "youtube": "None", "website": "None", "summary": "None", "logo": "None", "latitude": 43.652029074124165, "longitude": -79.57691989967677}, "129941753RR0001": {"name": "SISTERS OF THE GOOD SHEPHERD PROVINCIALATE", "designationCode": "C", "categoryCode": "46", "address": "490 RATHBURN RD", "city": "ETOBICOKE", "province": "ON", "country": "CA", "postalCode": "M9C3S8", "twitter": "None", "instagram": "None", "facebook": "None", "youtube": "None", "website": "None", "summary": "None", "logo": "None", "latitude": 43.652029074124165, "longitude": -79.57691989967677}, "135437499RR0001": {"name": "SISTERS OF THE IMMACULATE HEART OF MARY SOCIETY", "designationCode": "C", "categoryCode": "46", "address": "747 ALDERSON AVE", "city": "COQUITLAM", "province": "BC", "country": "CA", "postalCode": "V3K1T9", "twitter": "None", "instagram": "None", "facebook": "None", "youtube": "None", "website": "None", "summary": "None", "logo": "None", "latitude": 49.23974952264969, "longitude": -122.87751380682671}, "107983587RR0001": {"name": "SISTERS OF THE ORDER OF ST. BENEDICT", "designationCode": "C", "categoryCode": "46", "address": "225 MASTERS AVENUE", "city": "WINNIPEG", "province": "MB", "country": "CA", "postalCode": "R3C4A3", "twitter": "None", "instagram": "None", "facebook": "None", "youtube": "None", "website": "None", "summary": "None", "logo": "None", "latitude": 49.994993370488444, "longitude": -97.04900072304771}, "119151439RR0001": {"name": "SISTERS OF THE PRECIOUS BLOOD OF EDMONTON", "designationCode": "C", "categoryCode": "46", "address": "2701 YAWL LANE", "city": "PENDER ISLAND", "province": "BC", "country": "CA", "postalCode": "V0N2M2", "twitter": "None", "instagram": "None", "facebook": "None", "youtube": "None", "website": "None", "summary": "None", "logo": "None", "latitude": 48.76758002677463, "longitude": -123.30404260101527}, "119151447RR0001": {"name": "SISTERS OF THE SACRED HEART OF THE INCARNATE WORD (ONTARIO)", "designationCode": "C", "categoryCode": "46", "address": "7784 MARTIN GROVE RD NORTH", "city": "WOODBRIDGE", "province": "ON", "country": "CA", "postalCode": "L4L2C6", "twitter": "None", "instagram": "None", "facebook": "None", "youtube": "None", "website": "None", "summary": "None", "logo": "None", "latitude": 43.77784377462639, "longitude": -79.61003881701158}, "132331661RR0001": {"name": "SISTERS SERVANTS OF MARY IMMACULATE (POLISH) OF ALBERTA", "designationCode": "C", "categoryCode": "46", "address": "11435-106 STREET", "city": "EDMONTON", "province": "AB", "country": "CA", "postalCode": "T5G2P8", "twitter": "None", "instagram": "None", "facebook": "None", "youtube": "None", "website": "None", "summary": "None", "logo": "None", "latitude": 53.56572451956261, "longitude": -113.50286114524816}, "119151454RR0001": {"name": "SISTERS SERVANTS OF MARY IMMACULATE PROVINCIAL HOME", "designationCode": "C", "categoryCode": "46", "address": "5 AUSTIN TERRACE", "city": "TORONTO", "province": "ON", "country": "CA", "postalCode": "M5R1Y1", "twitter": "None", "instagram": "None", "facebook": "None", "youtube": "None", "website": "None", "summary": "None", "logo": "None", "latitude": 43.67833163445679, "longitude": -79.41167817652486}, "876493610RR0001": {"name": "SISTERSHIP DRAGON BOAT ASSOCIATION", "designationCode": "C", "categoryCode": "57", "address": "5308 - 16969 24 ST SW", "city": "CALGARY", "province": "AB", "country": "CA", "postalCode": "T2Y0J8", "twitter": "None", "instagram": "None", "facebook": "None", "youtube": "None", "website": "None", "summary": "None", "logo": "None", "latitude": 50.89984216763807, "longitude": -114.11715702876653}, "130099369RR0001": {"name": "SITE HISTORIQUE DU BANC-DE-PASPEBIAC INC", "designationCode": "C", "categoryCode": "50", "address": "76, RUE DU BANC               C.P. 430", "city": "PASPEBIAC", "province": "QC", "country": "CA", "postalCode": "G0C2K0", "twitter": "None", "instagram": "None", "facebook": "None", "youtube": "None", "website": "None", "summary": "None", "logo": "None", "latitude": 48.022394892544405, "longitude": -65.25522380302642}, "119013258RR0001": {"name": "SITE HISTORIQUE MARITIME DE LA POINTE-AU-P\u00c8RE", "designationCode": "C", "categoryCode": "50", "address": "1000, RUE DU PHARE", "city": "RIMOUSKI", "province": "QC", "country": "CA", "postalCode": "G5M1L8", "twitter": "None", "instagram": "None", "facebook": "None", "youtube": "None", "website": "None", "summary": "None", "logo": "None", "latitude": 48.517223457960576, "longitude": -68.46963309354254}, "892708645RR0001": {"name": "SIUDIAC AIR AN URLAR HISTORICAL CULTURAL SOCIETY", "designationCode": "C", "categoryCode": "50", "address": "5764 HIGHWAY 19", "city": "JUDIQUE", "province": "NS", "country": "CA", "postalCode": "B0E1P0", "twitter": "None", "instagram": "None", "facebook": "None", "youtube": "None", "website": "None", "summary": "None", "logo": "None", "latitude": 45.890343697008454, "longitude": -61.4880221133392}, "875933822RR0001": {"name": "SIVA VISHNU TEMPLE", "designationCode": "C", "categoryCode": "48", "address": "177 THISTLE DOWN BLVD", "city": "ETOBICOKE", "province": "ON", "country": "CA", "postalCode": "M9V1K2", "twitter": "None", "instagram": "None", "facebook": "None", "youtube": "None", "website": "None", "summary": "None", "logo": "None", "latitude": 43.74157366861903, "longitude": -79.5506974176815}, "104873716RR0001": {"name": "SIVANANDA YOGA VEDANTA CENTRE", "designationCode": "C", "categoryCode": "49", "address": "673 8TH AVENUE", "city": "VAL MORIN", "province": "QC", "country": "CA", "postalCode": "J0T2R0", "twitter": "None", "instagram": "None", "facebook": "None", "youtube": "None", "website": "None", "summary": "None", "logo": "None", "latitude": 45.99948904186652, "longitude": -74.18469374421507}, "129993929RR0001": {"name": "SIVANANDA YOGA VEDANTA CENTRE (ONTARIO) INC", "designationCode": "C", "categoryCode": "49", "address": "29 ARLINGTON AVENUE", "city": "TORONTO", "province": "ON", "country": "CA", "postalCode": "M6G3K7", "twitter": "None", "instagram": "None", "facebook": "None", "youtube": "None", "website": "None", "summary": "None", "logo": "None", "latitude": 43.6783387574297, "longitude": -79.42773058018369}, "814507075RR0002": {"name": "SIX NATIONS HEALTH FOUNDATION INC.", "designationCode": "B", "categoryCode": "11", "address": "P.O. BOX 853", "city": "OHSWEKEN", "province": "ON", "country": "CA", "postalCode": "N0A1M0", "twitter": "None", "instagram": "None", "facebook": "None", "youtube": "None", "website": "None", "summary": "None", "logo": "None", "latitude": 43.06907000000007, "longitude": -80.11879999999996}, "893683524RR0001": {"name": "SIX NATIONS PENTECOSTAL CHURCH", "designationCode": "C", "categoryCode": "36", "address": "R.R.#2 2492 TUSCARORA RD", "city": "OHSWEKEN", "province": "ON", "country": "CA", "postalCode": "N0A1M0", "twitter": "None", "instagram": "None", "facebook": "None", "youtube": "None", "website": "None", "summary": "None", "logo": "None", "latitude": 43.09344265973126, "longitude": -80.0683081446716}, "107797383RR0128": {"name": "SIX NATIONS SEVENTH-DAY ADVENTIST CHURCH", "designationCode": "C", "categoryCode": "41", "address": "PO BOX 601", "city": "OHSWEKEN", "province": "ON", "country": "CA", "postalCode": "N0A1M0", "twitter": "None", "instagram": "None", "facebook": "None", "youtube": "None", "website": "None", "summary": "None", "logo": "None", "latitude": 43.06907000000007, "longitude": -80.11879999999996}, "891129280RR0001": {"name": "SIXTEEN ISLAND LAKE UNION CHURCH,", "designationCode": "C", "categoryCode": "39", "address": "244 AVENUE MAPLE", "city": "SAINT-LAMBERT", "province": "QC", "country": "CA", "postalCode": "J4P2R9", "twitter": "None", "instagram": "None", "facebook": "None", "youtube": "None", "website": "None", "summary": "None", "logo": "None", "latitude": 45.5076846766691, "longitude": -73.51463302455426}, "890795974RR0001": {"name": "SIXTEENTH AVENUE GOSPEL CHAPEL", "designationCode": "C", "categoryCode": "39", "address": "2756 WEST 16TH AVE", "city": "VANCOUVER", "province": "BC", "country": "CA", "postalCode": "V6K3C4", "twitter": "None", "instagram": "None", "facebook": "None", "youtube": "None", "website": "None", "summary": "None", "logo": "None", "latitude": 49.25754054674263, "longitude": -123.1666814701656}, "889442372RR0001": {"name": "SJHS ALUMNI FUND INCORPORATED", "designationCode": "C", "categoryCode": "21", "address": "951 DEVER ROAD", "city": "SAINT JOHN", "province": "NB", "country": "CA", "postalCode": "E2M4J5", "twitter": "None", "instagram": "None", "facebook": "None", "youtube": "None", "website": "None", "summary": "None", "logo": "None", "latitude": 45.253827985284815, "longitude": -66.11712590285076}, "136378148RR0001": {"name": "SJS ST JOHN'S SCHOOL SOCIETY", "designationCode": "C", "categoryCode": "20", "address": "2215 WEST 10TH AVENUE", "city": "VANCOUVER", "province": "BC", "country": "CA", "postalCode": "V6K2J1", "twitter": "None", "instagram": "None", "facebook": "None", "youtube": "None", "website": "None", "summary": "None", "logo": "None", "latitude": 49.26290150432782, "longitude": -123.15617966472388}, "890742703RR0001": {"name": "SKA:NA FAMILY LEARNING CENTRE", "designationCode": "C", "categoryCode": "01", "address": "1684 ELLROSE AVE", "city": "WINDSOR", "province": "ON", "country": "CA", "postalCode": "N8Y3X7", "twitter": "None", "instagram": "None", "facebook": "None", "youtube": "None", "website": "None", "summary": "None", "logo": "None", "latitude": 42.31426296670316, "longitude": -82.97474238340372}, "119151611RR0001": {"name": "SKAGIT ENVIRONMENTAL ENDOWMENT FUND AND COMMISSION", "designationCode": "C", "categoryCode": "52", "address": "1610 MOUNT SEYMOUR RD", "city": "NORTH VANCOUVER", "province": "BC", "country": "CA", "postalCode": "V7G2R9", "twitter": "None", "instagram": "None", "facebook": "None", "youtube": "None", "website": "None", "summary": "None", "logo": "None", "latitude": 49.32150108861505, "longitude": -122.96899651944295}, "869967471RR0001": {"name": "SKEENA GURSIKH SOCIETY", "designationCode": "C", "categoryCode": "62", "address": "P O BOX 171", "city": "TERRACE", "province": "BC", "country": "CA", "postalCode": "V8G4A6", "twitter": "None", "instagram": "None", "facebook": "None", "youtube": "None", "website": "None", "summary": "None", "logo": "None", "latitude": 54.51590400000006, "longitude": -128.60321299999993}, "140696071RR0001": {"name": "SKEENA VALLEY BAPTIST CHURCH", "designationCode": "C", "categoryCode": "31", "address": "3306 GRIFFITH ST", "city": "TERRACE", "province": "BC", "country": "CA", "postalCode": "V8G0C6", "twitter": "None", "instagram": "None", "facebook": "None", "youtube": "None", "website": "None", "summary": "None", "logo": "None", "latitude": 54.520194552311196, "longitude": -128.646160642738}, "892352162RR0001": {"name": "SKEENA VALLEY GURU NANAK BROTHERHOOD-TERRACE BC", "designationCode": "C", "categoryCode": "62", "address": "P.O. BOX 242", "city": "TERRACE", "province": "BC", "country": "CA", "postalCode": "V8G4A6", "twitter": "None", "instagram": "None", "facebook": "None", "youtube": "None", "website": "None", "summary": "None", "logo": "None", "latitude": 54.51590400000006, "longitude": -128.60321299999993}, "138123518RR0001": {"name": "SKEENA-KALUM HOUSING SOCIETY", "designationCode": "C", "categoryCode": "01", "address": "4838 LAZELLE AVE", "city": "TERRACE", "province": "BC", "country": "CA", "postalCode": "V8G1T4", "twitter": "None", "instagram": "None", "facebook": "None", "youtube": "None", "website": "None", "summary": "None", "logo": "None", "latitude": 54.51788551933147, "longitude": -128.60355222300768}, "859128332RR0001": {"name": "SKETCH WORKING ARTS FOR STREET INVOLVED AND HOMELESS YOUTH", "designationCode": "C", "categoryCode": "09", "address": "180 SHAW STREET               SUITE 201", "city": "TORONTO", "province": "ON", "country": "CA", "postalCode": "M6J2W5", "twitter": "None", "instagram": "None", "facebook": "None", "youtube": "None", "website": "None", "summary": "None", "logo": "None", "latitude": 43.64695199694158, "longitude": -79.41723599933617}, "119151645RR0001": {"name": "SKI FOR LIGHT (CANADA) INC. L'INCORPORATION DU SKI POUR LA LUMIERE (CANADA)", "designationCode": "C", "categoryCode": "56", "address": "1921 6 STREET SE", "city": "CALGARY", "province": "AB", "country": "CA", "postalCode": "T2G2Y3", "twitter": "None", "instagram": "None", "facebook": "None", "youtube": "None", "website": "None", "summary": "None", "logo": "None", "latitude": 51.035049000000015, "longitude": -114.0483947102544}, "899680961RR0001": {"name": "SKI HAWKS OTTAWA INC.", "designationCode": "C", "categoryCode": "56", "address": "496 BLOOR AVE", "city": "OTTAWA", "province": "ON", "country": "CA", "postalCode": "K1G0V3", "twitter": "None", "instagram": "None", "facebook": "None", "youtube": "None", "website": "None", "summary": "None", "logo": "None", "latitude": 45.40975650678069, "longitude": -75.64828402553522}, "898013461RR0001": {"name": "SKILLS CANADA - BRITISH COLUMBIA CHAPTER", "designationCode": "C", "categoryCode": "21", "address": "3777 KINGSWAY", "city": "BURNABY", "province": "BC", "country": "CA", "postalCode": "V5H3Z7", "twitter": "None", "instagram": "None", "facebook": "None", "youtube": "None", "website": "None", "summary": "None", "logo": "None", "latitude": 49.2326123244058, "longitude": -123.02035777104824}, "140171729RR0001": {"name": "SKILLS CANADA ALBERTA ASSOCIATION", "designationCode": "C", "categoryCode": "20", "address": "700, 10242-105 STREET", "city": "EDMONTON", "province": "AB", "country": "CA", "postalCode": "T5J3L5", "twitter": "None", "instagram": "None", "facebook": "None", "youtube": "None", "website": "None", "summary": "None", "logo": "None", "latitude": 53.54390773327946, "longitude": -113.50113952891076}, "870296399RR0001": {"name": "SKILLS CANADA MANITOBA ASSOCIATION INC.", "designationCode": "C", "categoryCode": "21", "address": "31-1313 BORDER ST", "city": "WINNIPEG", "province": "MB", "country": "CA", "postalCode": "R3H0X4", "twitter": "None", "instagram": "None", "facebook": "None", "youtube": "None", "website": "None", "summary": "None", "logo": "None", "latitude": 49.90984967998731, "longitude": -97.20165768076671}, "866561822RR0001": {"name": "SKILLS CANADA NORTHWEST TERRITORIES", "designationCode": "C", "categoryCode": "21", "address": "5013-44 STREET                PO BOX 1403", "city": "YELLOWKNIFE", "province": "NT", "country": "CA", "postalCode": "X1A2P1", "twitter": "None", "instagram": "None", "facebook": "None", "youtube": "None", "website": "None", "summary": "None", "logo": "None", "latitude": 62.45691132064352, "longitude": -114.36387655385084}, "885157222RR0001": {"name": "SKILLS CANADA NOVA SCOTIA ASSOCIATION", "designationCode": "C", "categoryCode": "21", "address": "7B - 800A WINDMILL ROAD", "city": "DARTMOUTH", "province": "NS", "country": "CA", "postalCode": "B3B1L1", "twitter": "None", "instagram": "None", "facebook": "None", "youtube": "None", "website": "None", "summary": "None", "logo": "None", "latitude": 44.71410671629573, "longitude": -63.630533927719505}, "870910684RR0001": {"name": "SKILLS CANADA PEI INC", "designationCode": "C", "categoryCode": "21", "address": "40 ENMAN CRES", "city": "CHARLOTTETOWN", "province": "PE", "country": "CA", "postalCode": "C1E1E6", "twitter": "None", "instagram": "None", "facebook": "None", "youtube": "None", "website": "None", "summary": "None", "logo": "None", "latitude": 46.26020892990774, "longitude": -63.147127340887}, "867739393RR0001": {"name": "SKILLS CANADA SASKATCHEWAN INC", "designationCode": "C", "categoryCode": "21", "address": "2911D CLEVELAND AVE", "city": "SASKATOON", "province": "SK", "country": "CA", "postalCode": "S7K8A9", "twitter": "None", "instagram": "None", "facebook": "None", "youtube": "None", "website": "None", "summary": "None", "logo": "None", "latitude": 52.17531333211204, "longitude": -106.6508559048179}, "882330426RR0001": {"name": "SKILLS CANADA-NEWFOUNDLAND AND LABRADOR INCORPORATED", "designationCode": "C", "categoryCode": "21", "address": "75 BARBOUR DRIVE              2ND FLOOR", "city": "MOUNT PEARL", "province": "NL", "country": "CA", "postalCode": "A1N2X3", "twitter": "None", "instagram": "None", "facebook": "None", "youtube": "None", "website": "None", "summary": "None", "logo": "None", "latitude": 47.50670906976325, "longitude": -52.80227947262455}, "894205491RR0001": {"name": "SKILLS CANADA-ONTARIO COMPETENCES CANADA-ONTARIO", "designationCode": "C", "categoryCode": "21", "address": "7A - 60 NORTHLAND RD", "city": "WATERLOO", "province": "ON", "country": "CA", "postalCode": "N2V2B8", "twitter": "None", "instagram": "None", "facebook": "None", "youtube": "None", "website": "None", "summary": "None", "logo": "None", "latitude": 43.508086655605936, "longitude": -80.5310792317789}, "121471858RR0001": {"name": "SKILLS FOR CHANGE OF METRO TORONTO", "designationCode": "C", "categoryCode": "20", "address": "791 ST. CLAIR AVENUE WEST", "city": "TORONTO", "province": "ON", "country": "CA", "postalCode": "M6C1B7", "twitter": "None", "instagram": "None", "facebook": "None", "youtube": "None", "website": "None", "summary": "None", "logo": "None", "latitude": 43.68082181652158, "longitude": -79.42943808177021}, "107984403RR0001": {"name": "SKILLS Society - Supporting the Citizenship of People with Disabilities", "designationCode": "C", "categoryCode": "09", "address": "203 10408 124 ST", "city": "EDMONTON", "province": "AB", "country": "CA", "postalCode": "T5N1R5", "twitter": "None", "instagram": "None", "facebook": "None", "youtube": "None", "website": "None", "summary": "None", "logo": "None", "latitude": 53.546470994171614, "longitude": -113.53595872872049}, "119151660RR0001": {"name": "SKILLS UNLIMITED", "designationCode": "C", "categoryCode": "09", "address": "1 - 201 SCOTT ST", "city": "WINNIPEG", "province": "MB", "country": "CA", "postalCode": "R3L0L4", "twitter": "None", "instagram": "None", "facebook": "None", "youtube": "None", "website": "None", "summary": "None", "logo": "None", "latitude": 49.876964999999984, "longitude": -97.13961}, "130320559RR0001": {"name": "SKILLS/COMP\u00c9TENCE CANADA CORPORATION", "designationCode": "C", "categoryCode": "20", "address": "201-294 ALBERT ST", "city": "OTTAWA", "province": "ON", "country": "CA", "postalCode": "K1P6E6", "twitter": "None", "instagram": "None", "facebook": "None", "youtube": "None", "website": "None", "summary": "None", "logo": "None", "latitude": 45.41918279681473, "longitude": -75.70200919594325}, "119151686RR0001": {"name": "SKOOKUM JIM FRIENDSHIP CENTRE", "designationCode": "C", "categoryCode": "56", "address": "3159-3RD AVENUE", "city": "WHITEHORSE", "province": "YT", "country": "CA", "postalCode": "Y1A1G1", "twitter": "None", "instagram": "None", "facebook": "None", "youtube": "None", "website": "None", "summary": "None", "logo": "None", "latitude": 60.72290947768678, "longitude": -135.0569927799834}, "132700782RR0001": {"name": "SKUDESNESS LUTHERAN CHURCH,", "designationCode": "C", "categoryCode": "32", "address": "PO BOX 26", "city": "BAWLF", "province": "AB", "country": "CA", "postalCode": "T0B0J0", "twitter": "None", "instagram": "None", "facebook": "None", "youtube": "None", "website": "None", "summary": "None", "logo": "None", "latitude": 52.92010000000005, "longitude": -112.46667999999994}, "857579742RR0001": {"name": "SKY'S THE LIMIT YOUTH ORGANIZATION", "designationCode": "C", "categoryCode": "21", "address": "720 BATHURST ST", "city": "TORONTO", "province": "ON", "country": "CA", "postalCode": "M5S2R4", "twitter": "None", "instagram": "None", "facebook": "None", "youtube": "None", "website": "None", "summary": "None", "logo": "None", "latitude": 43.66323143574358, "longitude": -79.41047606191914}, "832665616RR0001": {"name": "SKYE (Science for Kitikmeot Youth and Educators)", "designationCode": "C", "categoryCode": "21", "address": "PO BOX 287                    493 KUGLUKTUK DR", "city": "KULUGTUK", "province": "NU", "country": "CA", "postalCode": "X0B0E0", "twitter": "None", "instagram": "None", "facebook": "None", "youtube": "None", "website": "None", "summary": "None", "logo": "None", "latitude": 67.82427436824727, "longitude": -115.10656338466623}, "887420990RR0001": {"name": "SKYLARK CHILDREN YOUTH AND FAMILIES", "designationCode": "C", "categoryCode": "01", "address": "255 - 40 ORCHARD VIEW BLVD", "city": "TORONTO", "province": "ON", "country": "CA", "postalCode": "M4R1B9", "twitter": "None", "instagram": "None", "facebook": "None", "youtube": "None", "website": "None", "summary": "None", "logo": "None", "latitude": 43.707983110767906, "longitude": -79.39988647336826}, "890358179RR0001": {"name": "SKYLARK FOUNDATION", "designationCode": "A", "categoryCode": "01", "address": "255 - 40 ORCHARD VIEW BLVD", "city": "TORONTO", "province": "ON", "country": "CA", "postalCode": "M4R1B9", "twitter": "None", "instagram": "None", "facebook": "None", "youtube": "None", "website": "None", "summary": "None", "logo": "None", "latitude": 43.707983110767906, "longitude": -79.39988647336826}, "107984668RR0001": {"name": "SKYLINE ACRES UNITED BAPTIST CHURCH", "designationCode": "C", "categoryCode": "31", "address": "135 CANTERBURY DRIVE", "city": "FREDERICTON", "province": "NB", "country": "CA", "postalCode": "E3B4L7", "twitter": "None", "instagram": "None", "facebook": "None", "youtube": "None", "website": "None", "summary": "None", "logo": "None", "latitude": 45.936049514859405, "longitude": -66.63760194754457}, "885467951RR0001": {"name": "SKYLINE CHURCH HISTORICAL SOCIETY", "designationCode": "C", "categoryCode": "52", "address": "PO BOX 1322", "city": "PROVOST", "province": "AB", "country": "CA", "postalCode": "T0B3S0", "twitter": "None", "instagram": "None", "facebook": "None", "youtube": "None", "website": "None", "summary": "None", "logo": "None", "latitude": 52.82485171250891, "longitude": -110.88936481833932}, "133049890RR0001": {"name": "SKYVIEW ALLIANCE CHURCH", "designationCode": "C", "categoryCode": "39", "address": "PO BOX 236", "city": "WHITECOURT", "province": "AB", "country": "CA", "postalCode": "T7S1N4", "twitter": "None", "instagram": "None", "facebook": "None", "youtube": "None", "website": "None", "summary": "None", "logo": "None", "latitude": 54.12540300000006, "longitude": -115.66208149999994}, "895950434RR0001": {"name": "SKYVIEW COMMUNITY CHURCH OF THE NAZARENE", "designationCode": "C", "categoryCode": "39", "address": "4031 BRENTWOOD ROAD NW", "city": "CALGARY", "province": "AB", "country": "CA", "postalCode": "T2L1L1", "twitter": "None", "instagram": "None", "facebook": "None", "youtube": "None", "website": "None", "summary": "None", "logo": "None", "latitude": 51.088557007643736, "longitude": -114.1324261099425}, "104885223RR0001": {"name": "SKYWORKS CHARITABLE FOUNDATION", "designationCode": "C", "categoryCode": "21", "address": "566 PALMERSTON AVE", "city": "TORONTO", "province": "ON", "country": "CA", "postalCode": "M6G2P7", "twitter": "None", "instagram": "None", "facebook": "None", "youtube": "None", "website": "None", "summary": "None", "logo": "None", "latitude": 43.66525655092622, "longitude": -79.41390784903902}, "107984833RR0001": {"name": "SLATE RIVER BAPTIST CHURCH", "designationCode": "C", "categoryCode": "31", "address": "80 MCCLUSKEY DRIVE", "city": "SLATE RIVER", "province": "ON", "country": "CA", "postalCode": "P7J0A8", "twitter": "None", "instagram": "None", "facebook": "None", "youtube": "None", "website": "None", "summary": "None", "logo": "None", "latitude": 48.307567884722985, "longitude": -89.46795522608205}, "119151777RR0001": {"name": "SLAVE LAKE ADULT EDUCATION COMMITTEE", "designationCode": "C", "categoryCode": "21", "address": "1201 MAIN ST S.E.", "city": "SLAVE LAKE", "province": "AB", "country": "CA", "postalCode": "T0G2A3", "twitter": "None", "instagram": "None", "facebook": "None", "youtube": "None", "website": "None", "summary": "None", "logo": "None", "latitude": 55.2744758591558, "longitude": -114.77730257814622}, "119151785RR0001": {"name": "SLAVE LAKE ALBERTA CONGREGATION OF JEHOVAH'S WITNESSES", "designationCode": "C", "categoryCode": "61", "address": "TREAS                         BOX 41", "city": "SLAVE LAKE", "province": "AB", "country": "CA", "postalCode": "T0G2A0", "twitter": "None", "instagram": "None", "facebook": "None", "youtube": "None", "website": "None", "summary": "None", "logo": "None", "latitude": 55.28284800000006, "longitude": -114.77156299999993}, "129976098RR0001": {"name": "SLAVE LAKE ALLIANCE CHURCH", "designationCode": "C", "categoryCode": "39", "address": "500-6TH AVE NE", "city": "SLAVE LAKE", "province": "AB", "country": "CA", "postalCode": "T0G2A2", "twitter": "None", "instagram": "None", "facebook": "None", "youtube": "None", "website": "None", "summary": "None", "logo": "None", "latitude": 55.28685350432783, "longitude": -114.7633515}, "133354761RR0001": {"name": "SLAVE LAKE CHILD CARE SOCIETY", "designationCode": "C", "categoryCode": "01", "address": "102 - 400 6 AVE NE", "city": "SLAVE LAKE", "province": "AB", "country": "CA", "postalCode": "T0G2A2", "twitter": "None", "instagram": "None", "facebook": "None", "youtube": "None", "website": "None", "summary": "None", "logo": "None", "latitude": 55.2868065, "longitude": -114.75548549999999}, "890829245RR0001": {"name": "SLAVE LAKE HOSPITAL AUXILIARY MEMORIAL FUND", "designationCode": "A", "categoryCode": "19", "address": "P.O. BOX 1248", "city": "SLAVE LAKE", "province": "AB", "country": "CA", "postalCode": "T0G2A0", "twitter": "None", "instagram": "None", "facebook": "None", "youtube": "None", "website": "None", "summary": "None", "logo": "None", "latitude": 55.28284800000006, "longitude": -114.77156299999993}, "876945825RR0001": {"name": "SLAVE LAKE KOINONIA CHRISTIAN SCHOOL SOCIETY", "designationCode": "C", "categoryCode": "20", "address": "405 6 AVE SW", "city": "SLAVE LAKE", "province": "AB", "country": "CA", "postalCode": "T0G2A4", "twitter": "None", "instagram": "None", "facebook": "None", "youtube": "None", "website": "None", "summary": "None", "logo": "None", "latitude": 55.27944552452562, "longitude": -114.777774}, "890281397RR0001": {"name": "SLAVE LAKE MUSICAL THEATRE ASSOCIATION", "designationCode": "C", "categoryCode": "22", "address": "BOX 1799", "city": "SLAVE LAKE", "province": "AB", "country": "CA", "postalCode": "T0G2A0", "twitter": "None", "instagram": "None", "facebook": "None", "youtube": "None", "website": "None", "summary": "None", "logo": "None", "latitude": 55.28284800000006, "longitude": -114.77156299999993}, "890536170RR0001": {"name": "SLAVE LAKE MUSLIM SOCIETY", "designationCode": "C", "categoryCode": "60", "address": "BOX 515", "city": "SLAVE LAKE", "province": "AB", "country": "CA", "postalCode": "T0G2A0", "twitter": "None", "instagram": "None", "facebook": "None", "youtube": "None", "website": "None", "summary": "None", "logo": "None", "latitude": 55.28284800000006, "longitude": -114.77156299999993}}