{"119238707RR0001": {"name": "The Arabic and Islamic Education Foundation of Ottawa", "designationCode": "C", "categoryCode": "20", "address": "PO BOX 2364 STN D", "city": "OTTAWA", "province": "ON", "country": "CA", "postalCode": "K1P5W5", "twitter": "None", "instagram": "None", "facebook": "None", "youtube": "None", "website": "None", "summary": "None", "logo": "None", "latitude": 45.42177300000006, "longitude": -75.69115999999994}, "846211712RR0001": {"name": "The Arctic Eider Society/ Soci\u00e9t\u00e9 des Eiders de L'Arctique", "designationCode": "C", "categoryCode": "21", "address": "52 BONAVENTURE AVE", "city": "ST. JOHN'S", "province": "NL", "country": "CA", "postalCode": "A1C3Z6", "twitter": "None", "instagram": "None", "facebook": "None", "youtube": "None", "website": "None", "summary": "None", "logo": "None", "latitude": 47.57007051875457, "longitude": -52.717180887731544}, "800801870RR0001": {"name": "The Arctic Rose Foundation", "designationCode": "C", "categoryCode": "09", "address": "UNIT 1-363, 200 N SERVICE ROAD", "city": "OAKVILLE", "province": "ON", "country": "CA", "postalCode": "L6M2Y1", "twitter": "None", "instagram": "None", "facebook": "None", "youtube": "None", "website": "None", "summary": "None", "logo": "None", "latitude": 43.450640558861664, "longitude": -79.70037321440934}, "859948697RR0001": {"name": "The Ardea Foundation", "designationCode": "B", "categoryCode": "03", "address": "1409-1010 SHERBROOKE ST. WEST", "city": "MONTREAL", "province": "QC", "country": "CA", "postalCode": "H3A2R7", "twitter": "None", "instagram": "None", "facebook": "None", "youtube": "None", "website": "None", "summary": "None", "logo": "None", "latitude": 45.50228551760071, "longitude": -73.57608097316671}, "888631066RR0001": {"name": "The Ark (Canada Sri Lanka)", "designationCode": "C", "categoryCode": "01", "address": "PO BOX 29054 TORBAY RD PO", "city": "ST JOHNS", "province": "NL", "country": "CA", "postalCode": "A1A5B5", "twitter": "None", "instagram": "None", "facebook": "None", "youtube": "None", "website": "None", "summary": "None", "logo": "None", "latitude": 47.603210829155664, "longitude": -52.71677219067204}, "816372114RR0001": {"name": "The Ark Christian Ministries International of Airdrie Alberta", "designationCode": "C", "categoryCode": "39", "address": "P.O. BOX 10442", "city": "STATION MAIN", "province": "AB", "country": "CA", "postalCode": "T4A0H7", "twitter": "None", "instagram": "None", "facebook": "None", "youtube": "None", "website": "None", "summary": "None", "logo": "None", "latitude": 51.28868400000006, "longitude": -114.01344349999994}, "850592973RR0001": {"name": "The Ark Church", "designationCode": "C", "categoryCode": "39", "address": "5 ORR CRES", "city": "STONEY CREEK", "province": "ON", "country": "CA", "postalCode": "L8G5C6", "twitter": "None", "instagram": "None", "facebook": "None", "youtube": "None", "website": "None", "summary": "None", "logo": "None", "latitude": 43.207059351116506, "longitude": -79.71024815875126}, "857297782RR0001": {"name": "The Ark Kids Ministries", "designationCode": "C", "categoryCode": "01", "address": "131 - 715 BEAVER LAKE RD", "city": "KELOWNA", "province": "BC", "country": "CA", "postalCode": "V4V1E6", "twitter": "None", "instagram": "None", "facebook": "None", "youtube": "None", "website": "None", "summary": "None", "logo": "None", "latitude": 50.02003010128718, "longitude": -119.3990718316676}, "841516685RR0001": {"name": "The Arnold and Anita Silber Family Foundation", "designationCode": "B", "categoryCode": "05", "address": "400-1245 WEST BROADWAY", "city": "VANCOUVER", "province": "BC", "country": "CA", "postalCode": "V6H1G7", "twitter": "None", "instagram": "None", "facebook": "None", "youtube": "None", "website": "None", "summary": "None", "logo": "None", "latitude": 49.26349452986306, "longitude": -123.13266338773155}, "857161020RR0001": {"name": "The Art for Healing Foundation / La Fondation de l'art pour la gu\u00e9rison", "designationCode": "C", "categoryCode": "11", "address": "90 VINET STREET               # 105", "city": "MONTREAL", "province": "QC", "country": "CA", "postalCode": "H3J2C9", "twitter": "None", "instagram": "None", "facebook": "None", "youtube": "None", "website": "None", "summary": "None", "logo": "None", "latitude": 45.481823963298964, "longitude": -73.57252092258626}, "805698511RR0001": {"name": "The Art Gallery of Saskatchewan Inc.", "designationCode": "C", "categoryCode": "50", "address": "950 SPADINA CRESCENT EAST     PO BOX 569", "city": "SASKATOON", "province": "SK", "country": "CA", "postalCode": "S7K3L6", "twitter": "None", "instagram": "None", "facebook": "None", "youtube": "None", "website": "None", "summary": "None", "logo": "None", "latitude": 52.135133671071856, "longitude": -106.64937349451833}, "870758547RR0001": {"name": "The Arthritis Research Centre Society of Canada / Arthrite-recherche Canada", "designationCode": "C", "categoryCode": "11", "address": "5591 NO. 3 RD                 2ND FLOOR", "city": "RICHMOND", "province": "BC", "country": "CA", "postalCode": "V6X2C7", "twitter": "None", "instagram": "None", "facebook": "None", "youtube": "None", "website": "None", "summary": "None", "logo": "None", "latitude": 49.17462860401614, "longitude": -123.13689360593791}, "814248266RR0001": {"name": "The Artists Mentoring Youth Project Inc.", "designationCode": "C", "categoryCode": "22", "address": "201 - 192 SPADINA AVE", "city": "TORONTO", "province": "ON", "country": "CA", "postalCode": "M5T2C2", "twitter": "None", "instagram": "None", "facebook": "None", "youtube": "None", "website": "None", "summary": "None", "logo": "None", "latitude": 43.65006348291888, "longitude": -79.397016124675}, "823741814RR0001": {"name": "The Arts & Cookery Bank...A Community Heritage Centre", "designationCode": "C", "categoryCode": "22", "address": "242 GRAHAM RD", "city": "WEST LORNE", "province": "ON", "country": "CA", "postalCode": "N0L2P0", "twitter": "None", "instagram": "None", "facebook": "None", "youtube": "None", "website": "None", "summary": "None", "logo": "None", "latitude": 42.60021714942766, "longitude": -81.60217020861752}, "821120730RR0001": {"name": "The Arts and Letters Club of Toronto Foundation", "designationCode": "C", "categoryCode": "21", "address": "14 ELM ST", "city": "TORONTO", "province": "ON", "country": "CA", "postalCode": "M5G1G7", "twitter": "None", "instagram": "None", "facebook": "None", "youtube": "None", "website": "None", "summary": "None", "logo": "None", "latitude": 43.65774714351647, "longitude": -79.382377864014}, "836860726RR0001": {"name": "The Arts Access Fund", "designationCode": "C", "categoryCode": "21", "address": "460 AVENUE ROAD", "city": "TORONTO", "province": "ON", "country": "CA", "postalCode": "M4V2J1", "twitter": "None", "instagram": "None", "facebook": "None", "youtube": "None", "website": "None", "summary": "None", "logo": "None", "latitude": 43.68537026227714, "longitude": -79.40099363990979}, "883902645RR0001": {"name": "The Asper Family Foundation", "designationCode": "B", "categoryCode": "05", "address": "1504-201 PORTAGE AVE", "city": "WINNIPEG", "province": "MB", "country": "CA", "postalCode": "R3B3K6", "twitter": "None", "instagram": "None", "facebook": "None", "youtube": "None", "website": "None", "summary": "None", "logo": "None", "latitude": 49.895359615067065, "longitude": -97.13919299627776}, "830437265RR0001": {"name": "The Association for the Aninga Project", "designationCode": "C", "categoryCode": "21", "address": "1300-1969 UPPER WATER STREET  PO BOX 730", "city": "HALIFAX", "province": "NS", "country": "CA", "postalCode": "B3J2V1", "twitter": "None", "instagram": "None", "facebook": "None", "youtube": "None", "website": "None", "summary": "None", "logo": "None", "latitude": 44.65169631884151, "longitude": -63.5755527770601}, "807694559RR0001": {"name": "The Association for the Christian Reformed Campus Ministry in British Columbia", "designationCode": "C", "categoryCode": "39", "address": "PO BOX 1906", "city": "PRINCE GEORGE", "province": "BC", "country": "CA", "postalCode": "V2L5E3", "twitter": "None", "instagram": "None", "facebook": "None", "youtube": "None", "website": "None", "summary": "None", "logo": "None", "latitude": 53.91241800000006, "longitude": -122.74463149999994}, "108071853RR0001": {"name": "The Association for Christian Evangelism (Qu\u00e9bec) - L'Association pour l'\u00e9vang\u00e9lisation chr\u00e9tienne (Qu\u00e9bec)", "designationCode": "C", "categoryCode": "49", "address": "747, 81E AVENUE", "city": "LAVAL", "province": "QC", "country": "CA", "postalCode": "H7V3M5", "twitter": "None", "instagram": "None", "facebook": "None", "youtube": "None", "website": "None", "summary": "None", "logo": "None", "latitude": 45.54044909798597, "longitude": -73.74565116553192}, "854728052RR0001": {"name": "The Association for Media Literacy", "designationCode": "C", "categoryCode": "29", "address": "26 MACAULEY DR", "city": "THORNHILL", "province": "ON", "country": "CA", "postalCode": "L3T5S5", "twitter": "None", "instagram": "None", "facebook": "None", "youtube": "None", "website": "None", "summary": "None", "logo": "None", "latitude": 43.82367739912853, "longitude": -79.3820334884588}, "801689696RR0001": {"name": "The Association for Special Needs Recreation", "designationCode": "C", "categoryCode": "56", "address": "2131 GOTTINGEN STREET         SUITE 101", "city": "HALIFAX", "province": "NS", "country": "CA", "postalCode": "B3K5Z7", "twitter": "None", "instagram": "None", "facebook": "None", "youtube": "None", "website": "None", "summary": "None", "logo": "None", "latitude": 44.652220741618, "longitude": -63.583646984159635}, "871875365RR0001": {"name": "The Association of Black Social Workers", "designationCode": "C", "categoryCode": "21", "address": "1018 MAIN ST", "city": "DARTMOUTH", "province": "NS", "country": "CA", "postalCode": "B2W4X9", "twitter": "None", "instagram": "None", "facebook": "None", "youtube": "None", "website": "None", "summary": "None", "logo": "None", "latitude": 44.701460761556, "longitude": -63.47814630653825}, "108072026RR0001": {"name": "The Association of Metro Edmonton Japanese Community School", "designationCode": "C", "categoryCode": "20", "address": "4806 159 AVE NW", "city": "EDMONTON", "province": "AB", "country": "CA", "postalCode": "T5Y0C3", "twitter": "None", "instagram": "None", "facebook": "None", "youtube": "None", "website": "None", "summary": "None", "logo": "None", "latitude": 53.62002373884804, "longitude": -113.41453236161941}, "821138393RR0001": {"name": "The Association of Professional Engineers and Geoscientists Foundation", "designationCode": "C", "categoryCode": "21", "address": "200 - 4010 REGENT ST", "city": "BURNABY", "province": "BC", "country": "CA", "postalCode": "V5C6N2", "twitter": "None", "instagram": "None", "facebook": "None", "youtube": "None", "website": "None", "summary": "None", "logo": "None", "latitude": 49.25905254674262, "longitude": -123.0151084538343}, "877198093RR0001": {"name": "The Association of Volunteer Centres and Volunteer Engaging Organizations of Alberta", "designationCode": "C", "categoryCode": "59", "address": "609 - 10080 JASPER AVE NW", "city": "EDMONTON", "province": "AB", "country": "CA", "postalCode": "T5J1V9", "twitter": "None", "instagram": "None", "facebook": "None", "youtube": "None", "website": "None", "summary": "None", "logo": "None", "latitude": 53.541053453257376, "longitude": -113.49320496878062}, "132003377RR0001": {"name": "The Association of 8th Canadian Hussars (Princess Louise's) Inc.", "designationCode": "C", "categoryCode": "51", "address": "PO BOX 1695                   STN MAIN", "city": "MONCTON", "province": "NB", "country": "CA", "postalCode": "E1C9X5", "twitter": "None", "instagram": "None", "facebook": "None", "youtube": "None", "website": "None", "summary": "None", "logo": "None", "latitude": 46.08872243840578, "longitude": -64.77642630797114}, "887521714RR0001": {"name": "The Assyrian Church of the East-Diocese of Canada-Windsor Parish", "designationCode": "C", "categoryCode": "39", "address": "5800-40 KING STREET WEST      SCOTIA PLAZA", "city": "TORONTO", "province": "ON", "country": "CA", "postalCode": "M5H3S1", "twitter": "None", "instagram": "None", "facebook": "None", "youtube": "None", "website": "None", "summary": "None", "logo": "None", "latitude": 43.648870023370904, "longitude": -79.37924004443396}, "872761671RR0001": {"name": "The Atlantic Canada Conservation Data Centre / Centre de donn\u00e9es sur la conservation du Canada Atlantique", "designationCode": "C", "categoryCode": "21", "address": "PO BOX 6416", "city": "SACKVILLE", "province": "NB", "country": "CA", "postalCode": "E4L1G6", "twitter": "None", "instagram": "None", "facebook": "None", "youtube": "None", "website": "None", "summary": "None", "logo": "None", "latitude": 45.89997900000006, "longitude": -64.37448349999994}, "813814878RR0001": {"name": "The Atlantic Salmon Conservation Foundation (ASCF) / La fondation pour la conservation du saumon Atlantique (FCSA)", "designationCode": "C", "categoryCode": "54", "address": "200-480 QUEEN ST", "city": "FREDERICTON", "province": "NB", "country": "CA", "postalCode": "E3B1B6", "twitter": "None", "instagram": "None", "facebook": "None", "youtube": "None", "website": "None", "summary": "None", "logo": "None", "latitude": 45.962271000000015, "longitude": -66.64142475}, "846874352RR0001": {"name": "The Atonement Fire Baptized Holiness Church of God of Canada", "designationCode": "C", "categoryCode": "39", "address": "103 VAUXHALL ST", "city": "LONDON", "province": "ON", "country": "CA", "postalCode": "N5Z1B5", "twitter": "None", "instagram": "None", "facebook": "None", "youtube": "None", "website": "None", "summary": "None", "logo": "None", "latitude": 42.97739801359, "longitude": -81.21035580598999}, "835318494RR0001": {"name": "The Attachment Network of Manitoba Inc.", "designationCode": "C", "categoryCode": "29", "address": "86 BERGMAN CRESCENT", "city": "WINNIPEG", "province": "MB", "country": "CA", "postalCode": "R3R1Z7", "twitter": "None", "instagram": "None", "facebook": "None", "youtube": "None", "website": "None", "summary": "None", "logo": "None", "latitude": 49.84787447735032, "longitude": -97.31364188926077}, "765294525RR0001": {"name": "The Audrey Loeb and David Ross Foundation", "designationCode": "B", "categoryCode": "05", "address": "12 SHORNCLIFFE AVE", "city": "TORONTO", "province": "ON", "country": "CA", "postalCode": "M4V1T1", "twitter": "None", "instagram": "None", "facebook": "None", "youtube": "None", "website": "None", "summary": "None", "logo": "None", "latitude": 43.68585124176224, "longitude": -79.41087878449413}, "853212587RR0001": {"name": "The Aulis Charitable Foundation", "designationCode": "B", "categoryCode": "03", "address": "345 HILLHURST BOULEVARD", "city": "TORONTO", "province": "ON", "country": "CA", "postalCode": "M6B1M9", "twitter": "None", "instagram": "None", "facebook": "None", "youtube": "None", "website": "None", "summary": "None", "logo": "None", "latitude": 43.707105860378654, "longitude": -79.43456459602405}, "835968249RR0001": {"name": "The Aura Foundation", "designationCode": "B", "categoryCode": "03", "address": "201 BRIDGELAND AVENUE,", "city": "TORONTO", "province": "ON", "country": "CA", "postalCode": "M6A1Y7", "twitter": "None", "instagram": "None", "facebook": "None", "youtube": "None", "website": "None", "summary": "None", "logo": "None", "latitude": 43.724679896445465, "longitude": -79.46720435899367}, "890149024RR0001": {"name": "The Austin-Magdalen Foundation", "designationCode": "A", "categoryCode": "43", "address": "1555 MONAGHAN ROAD, BOX 566", "city": "PETERBOROUGH", "province": "ON", "country": "CA", "postalCode": "K9J6Z6", "twitter": "None", "instagram": "None", "facebook": "None", "youtube": "None", "website": "None", "summary": "None", "logo": "None", "latitude": 44.308311954212634, "longitude": -78.33953812413324}, "839242799RR0001": {"name": "The Avason Foundation", "designationCode": "B", "categoryCode": "09", "address": "11 DUVAL CRESCENT", "city": "RED DEER", "province": "AB", "country": "CA", "postalCode": "T4R2Y7", "twitter": "None", "instagram": "None", "facebook": "None", "youtube": "None", "website": "None", "summary": "None", "logo": "None", "latitude": 52.26517840827511, "longitude": -113.75174526876935}, "764441499RR0001": {"name": "The ABC Charity Foundation", "designationCode": "B", "categoryCode": "05", "address": "10 - 95 ROYAL CREST CRT", "city": "MARKHAM", "province": "ON", "country": "CA", "postalCode": "L3R9X5", "twitter": "None", "instagram": "None", "facebook": "None", "youtube": "None", "website": "None", "summary": "None", "logo": "None", "latitude": 43.840872800941014, "longitude": -79.32669733969085}, "854896693RR0001": {"name": "The ARC Foundation", "designationCode": "B", "categoryCode": "05", "address": "725-666 LEG IN BOOT SQ", "city": "VANCOUVER", "province": "BC", "country": "CA", "postalCode": "V5Z4B3", "twitter": "None", "instagram": "None", "facebook": "None", "youtube": "None", "website": "None", "summary": "None", "logo": "None", "latitude": 49.267335438773344, "longitude": -123.11940792948252}, "874310097RR0001": {"name": "The ARK", "designationCode": "C", "categoryCode": "39", "address": "216 SEVENTH AVE. NORTH", "city": "YORKTON", "province": "SK", "country": "CA", "postalCode": "S3N3Z2", "twitter": "None", "instagram": "None", "facebook": "None", "youtube": "None", "website": "None", "summary": "None", "logo": "None", "latitude": 51.21822574854292, "longitude": -102.45446686678396}, "758776322RR0001": {"name": "The B.A.S. Charitable Foundation", "designationCode": "A", "categoryCode": "23", "address": "155 WELLINGTON ST W", "city": "TORONTO", "province": "ON", "country": "CA", "postalCode": "M5V3J7", "twitter": "None", "instagram": "None", "facebook": "None", "youtube": "None", "website": "None", "summary": "None", "logo": "None", "latitude": 43.64596585316531, "longitude": -79.38574575644876}, "832524466RR0001": {"name": "The Baal Shem Tov Organization / Organisation Baal Shem Tov", "designationCode": "C", "categoryCode": "49", "address": "106 CARRE ANDRE-OUELLET", "city": "BOISBRIAND", "province": "QC", "country": "CA", "postalCode": "J7E4H4", "twitter": "None", "instagram": "None", "facebook": "None", "youtube": "None", "website": "None", "summary": "None", "logo": "None", "latitude": 45.613577534018006, "longitude": -73.87006022635455}, "817629520RR0001": {"name": "The Baby Depot", "designationCode": "C", "categoryCode": "09", "address": "51 SHOWCASE DR", "city": "HANNON", "province": "ON", "country": "CA", "postalCode": "L0R1P0", "twitter": "None", "instagram": "None", "facebook": "None", "youtube": "None", "website": "None", "summary": "None", "logo": "None", "latitude": 43.175460121299494, "longitude": -79.8051778956374}, "843013251RR0001": {"name": "The Backloop Institute", "designationCode": "C", "categoryCode": "59", "address": "99 HILLCREST AVENUE", "city": "HAMILTON", "province": "ON", "country": "CA", "postalCode": "L8P2X1", "twitter": "None", "instagram": "None", "facebook": "None", "youtube": "None", "website": "None", "summary": "None", "logo": "None", "latitude": 43.2466929441977, "longitude": -79.89356918388246}, "842105280RR0001": {"name": "The Backman Family (In Honour of Dr. Charlotte Whitehead Ross) Foundation", "designationCode": "B", "categoryCode": "03", "address": "301 STEWARDSON WAY", "city": "NEW WESTMINSTER", "province": "BC", "country": "CA", "postalCode": "V3M2A5", "twitter": "None", "instagram": "None", "facebook": "None", "youtube": "None", "website": "None", "summary": "None", "logo": "None", "latitude": 49.20237964847107, "longitude": -122.92635336215562}, "838116598RR0001": {"name": "The Baeumler Family Foundation", "designationCode": "B", "categoryCode": "05", "address": "3416 FAIRVIEW ST", "city": "BURLINGTON", "province": "ON", "country": "CA", "postalCode": "L7N2R5", "twitter": "None", "instagram": "None", "facebook": "None", "youtube": "None", "website": "None", "summary": "None", "logo": "None", "latitude": 43.35617076712456, "longitude": -79.78305371853563}, "764143293RR0001": {"name": "The Balinda Children's Foundation Canada", "designationCode": "C", "categoryCode": "01", "address": "PO BOX 71506 RPO OXFORD PARK", "city": "EDMONTON", "province": "AB", "country": "CA", "postalCode": "T6V0E3", "twitter": "None", "instagram": "None", "facebook": "None", "youtube": "None", "website": "None", "summary": "None", "logo": "None", "latitude": 53.61766000000006, "longitude": -113.54731999999996}, "804212421RR0001": {"name": "The Balsillie Family Foundation", "designationCode": "B", "categoryCode": "03", "address": "201 BRIDGELAND AVENUE", "city": "TORONTO", "province": "ON", "country": "CA", "postalCode": "M6A1Y7", "twitter": "None", "instagram": "None", "facebook": "None", "youtube": "None", "website": "None", "summary": "None", "logo": "None", "latitude": 43.724679896445465, "longitude": -79.46720435899367}, "821741097RR0001": {"name": "The Banff Centre Foundation", "designationCode": "A", "categoryCode": "23", "address": "BOX 1020, STATION 6           107 TUNNEL MOUNTAIN", "city": "BANFF", "province": "AB", "country": "CA", "postalCode": "T1L1H5", "twitter": "None", "instagram": "None", "facebook": "None", "youtube": "None", "website": "None", "summary": "None", "logo": "None", "latitude": 51.173884381056396, "longitude": -115.55975854863243}, "810611400RR0001": {"name": "The Banro Congo Charity", "designationCode": "B", "categoryCode": "09", "address": "1 FIRST CANADIAN PLACE        100 KING ST W SUITE-700 PO419", "city": "TORONTO", "province": "ON", "country": "CA", "postalCode": "M5X1E3", "twitter": "None", "instagram": "None", "facebook": "None", "youtube": "None", "website": "None", "summary": "None", "logo": "None", "latitude": 43.64868300000006, "longitude": -79.38544399999994}, "826156739RR0001": {"name": "The Barbados Canada Foundation", "designationCode": "C", "categoryCode": "21", "address": "3221 DERRY ROAD 3             POST OFFICE BOX 13502", "city": "MISSISSAUGA", "province": "ON", "country": "CA", "postalCode": "L5N8G5", "twitter": "None", "instagram": "None", "facebook": "None", "youtube": "None", "website": "None", "summary": "None", "logo": "None", "latitude": 43.582808657827634, "longitude": -79.77756553269032}, "801589532RR0001": {"name": "The Barnabas Foundation", "designationCode": "B", "categoryCode": "09", "address": "58 MARY DOVER DR SW", "city": "CALGARY", "province": "AB", "country": "CA", "postalCode": "T3E7S9", "twitter": "None", "instagram": "None", "facebook": "None", "youtube": "None", "website": "None", "summary": "None", "logo": "None", "latitude": 51.01830378212821, "longitude": -114.12972690048484}, "834375354RR0001": {"name": "The Barnes Family Charitable Foundation", "designationCode": "B", "categoryCode": "03", "address": "11 ARLINGTON WAY", "city": "THORNHILL", "province": "ON", "country": "CA", "postalCode": "L3T7W9", "twitter": "None", "instagram": "None", "facebook": "None", "youtube": "None", "website": "None", "summary": "None", "logo": "None", "latitude": 43.803289299469135, "longitude": -79.39982523247139}, "823257530RR0001": {"name": "The Barrett Family Foundation", "designationCode": "B", "categoryCode": "03", "address": "197 NORSEMAN ST", "city": "TORONTO", "province": "ON", "country": "CA", "postalCode": "M8Z2R5", "twitter": "None", "instagram": "None", "facebook": "None", "youtube": "None", "website": "None", "summary": "None", "logo": "None", "latitude": 43.63302586975642, "longitude": -79.52388393502243}, "858332554RR0001": {"name": "The Barron Cowan Foundation", "designationCode": "B", "categoryCode": "03", "address": "1489 MONAGHAN ROAD", "city": "PETERBOROUGH", "province": "ON", "country": "CA", "postalCode": "K9J5M9", "twitter": "None", "instagram": "None", "facebook": "None", "youtube": "None", "website": "None", "summary": "None", "logo": "None", "latitude": 44.30634334609616, "longitude": -78.33861448239928}, "846937688RR0001": {"name": "The Bateman Foundation", "designationCode": "C", "categoryCode": "22", "address": "470 BELLEVILLE STREET         SUITE 300", "city": "VICTORIA", "province": "BC", "country": "CA", "postalCode": "V8V1W9", "twitter": "None", "instagram": "None", "facebook": "None", "youtube": "None", "website": "None", "summary": "None", "logo": "None", "latitude": 48.42094001194522, "longitude": -123.37147408728147}, "119215176RR0001": {"name": "The Bathurst Area School Milk Fund / Le Programme de Lait dans les \u00c9coles de la R\u00e9gion de Bathurst", "designationCode": "C", "categoryCode": "09", "address": "1425 KING AVENUE", "city": "BATHURST", "province": "NB", "country": "CA", "postalCode": "E2A1S7", "twitter": "None", "instagram": "None", "facebook": "None", "youtube": "None", "website": "None", "summary": "None", "logo": "None", "latitude": 47.604810698857435, "longitude": -65.65478574534025}, "843656968RR0001": {"name": "The Bavubuka Foundation Society", "designationCode": "C", "categoryCode": "09", "address": "8134 WEDGEWOOD ST", "city": "BURNABY", "province": "BC", "country": "CA", "postalCode": "V3N1C3", "twitter": "None", "instagram": "None", "facebook": "None", "youtube": "None", "website": "None", "summary": "None", "logo": "None", "latitude": 49.23025623423176, "longitude": -122.9304554548735}, "852468107RR0001": {"name": "The Beach House Theatre Society", "designationCode": "C", "categoryCode": "22", "address": "12275 SULLIVAN ST", "city": "SURREY", "province": "BC", "country": "CA", "postalCode": "V4A3B7", "twitter": "None", "instagram": "None", "facebook": "None", "youtube": "None", "website": "None", "summary": "None", "logo": "None", "latitude": 49.054341341392956, "longitude": -122.88182157548049}, "106779770RR0001": {"name": "The Beacon Learning Centre", "designationCode": "C", "categoryCode": "01", "address": "2379 OGILVIE RD", "city": "GLOUCESTER", "province": "ON", "country": "CA", "postalCode": "K1J7N4", "twitter": "None", "instagram": "None", "facebook": "None", "youtube": "None", "website": "None", "summary": "None", "logo": "None", "latitude": 45.454342265047096, "longitude": -75.59803307247938}, "821897212RR0001": {"name": "The Beaumier Churcott Foundation", "designationCode": "B", "categoryCode": "05", "address": "77 MAIN STREET SOUTH", "city": "BRAMPTON", "province": "ON", "country": "CA", "postalCode": "L6Y1M9", "twitter": "None", "instagram": "None", "facebook": "None", "youtube": "None", "website": "None", "summary": "None", "logo": "None", "latitude": 43.68206488507717, "longitude": -79.75483175148575}, "768723124RR0001": {"name": "The Beaumont Community Charitable Foundation", "designationCode": "B", "categoryCode": "03", "address": "5007 50 AVE", "city": "BEAUMONT", "province": "AB", "country": "CA", "postalCode": "T4X1E7", "twitter": "None", "instagram": "None", "facebook": "None", "youtube": "None", "website": "None", "summary": "None", "logo": "None"}, "757575725RR0001": {"name": "The Bee Plan", "designationCode": "C", "categoryCode": "09", "address": "PO BOX 1", "city": "STETTLER", "province": "AB", "country": "CA", "postalCode": "T0C2L0", "twitter": "None", "instagram": "None", "facebook": "None", "youtube": "None", "website": "None", "summary": "None", "logo": "None", "latitude": 52.32597900000006, "longitude": -112.70698099999993}, "841835986RR0001": {"name": "The Befair Service (Building an Elder Financial Abuse Response Team)", "designationCode": "C", "categoryCode": "59", "address": "516-1 CLARK ST", "city": "ST CATHARINES", "province": "ON", "country": "CA", "postalCode": "L2R7L5", "twitter": "None", "instagram": "None", "facebook": "None", "youtube": "None", "website": "None", "summary": "None", "logo": "None", "latitude": 43.16254021980504, "longitude": -79.24626720734021}, "849812581RR0001": {"name": "The Bel Canto Foundation for the Advancement of Italian-Canadian Heritage and Opera", "designationCode": "A", "categoryCode": "23", "address": "305 RENFREW DRIVE, SUITE 302", "city": "MARKHAM", "province": "ON", "country": "CA", "postalCode": "L3R9S7", "twitter": "None", "instagram": "None", "facebook": "None", "youtube": "None", "website": "None", "summary": "None", "logo": "None", "latitude": 43.86258771080266, "longitude": -79.36594321654506}, "810138016RR0001": {"name": "The Belinda Stronach Foundation", "designationCode": "C", "categoryCode": "21", "address": "150 BLOOR STREET WEST         SUITE 310", "city": "TORONTO", "province": "ON", "country": "CA", "postalCode": "M5S2X9", "twitter": "None", "instagram": "None", "facebook": "None", "youtube": "None", "website": "None", "summary": "None", "logo": "None", "latitude": 43.66889522012214, "longitude": -79.39337913809213}, "119215556RR0001": {"name": "The Belleville General Hospital Foundation Incorporated", "designationCode": "A", "categoryCode": "13", "address": "265 DUNDAS STREET EAST", "city": "BELLEVILLE", "province": "ON", "country": "CA", "postalCode": "K8N1E2", "twitter": "None", "instagram": "None", "facebook": "None", "youtube": "None", "website": "None", "summary": "None", "logo": "None", "latitude": 44.16384327615561, "longitude": -77.36444509686078}, "853706356RR0001": {"name": "The Belmont Foundation", "designationCode": "B", "categoryCode": "05", "address": "303-750 PENDER ST W", "city": "VANCOUVER", "province": "BC", "country": "CA", "postalCode": "V6C2T7", "twitter": "None", "instagram": "None", "facebook": "None", "youtube": "None", "website": "None", "summary": "None", "logo": "None", "latitude": 49.28504724089025, "longitude": -123.11557041748901}, "803598101RR0001": {"name": "The Benevolence Retreat Society", "designationCode": "C", "categoryCode": "35", "address": "2 LITTLE POINT LANE", "city": "HERRING COVE", "province": "NS", "country": "CA", "postalCode": "B3V1J7", "twitter": "None", "instagram": "None", "facebook": "None", "youtube": "None", "website": "None", "summary": "None", "logo": "None", "latitude": 44.55696474381106, "longitude": -63.561666263258076}, "814517843RR0001": {"name": "The Benjamin Bear Foundation / La Fondation Benjamin L'Ourson", "designationCode": "C", "categoryCode": "09", "address": "420 JUNE CRESCENT", "city": "OTTAWA", "province": "ON", "country": "CA", "postalCode": "K1W0E1", "twitter": "None", "instagram": "None", "facebook": "None", "youtube": "None", "website": "None", "summary": "None", "logo": "None", "latitude": 45.428687863177295, "longitude": -75.52386493155997}, "893233569RR0001": {"name": "The Bernard and Miriam Kohn Foundation/La fondation Bernard et Miriam Kohn", "designationCode": "B", "categoryCode": "03", "address": "5260 AV. DUROCHER", "city": "OUTREMONT", "province": "QC", "country": "CA", "postalCode": "H2V3Y1", "twitter": "None", "instagram": "None", "facebook": "None", "youtube": "None", "website": "None", "summary": "None", "logo": "None", "latitude": 45.519233764066165, "longitude": -73.59980279352517}, "839603305RR0001": {"name": "The Bernie and Jan McCaffery Foundation", "designationCode": "B", "categoryCode": "03", "address": "PO BOX 94027                  RPO", "city": "ELBOW RIVER", "province": "AB", "country": "CA", "postalCode": "T2S0S4", "twitter": "None", "instagram": "None", "facebook": "None", "youtube": "None", "website": "None", "summary": "None", "logo": "None", "latitude": 51.020315985401176, "longitude": -114.077844}, "793669524RR0001": {"name": "The Berriman Bailey Foundation La Fondation Berriman Bailey", "designationCode": "B", "categoryCode": "03", "address": "49 MELBOURNE AVENUE", "city": "TORONTO", "province": "ON", "country": "CA", "postalCode": "M6K1K6", "twitter": "None", "instagram": "None", "facebook": "None", "youtube": "None", "website": "None", "summary": "None", "logo": "None", "latitude": 43.639895809308214, "longitude": -79.43118470829249}, "856395355RR0001": {"name": "The Berry Creek Agricultural Society", "designationCode": "C", "categoryCode": "56", "address": "P.O. BOX 5, COMP.8", "city": "POLLOCKVILLE", "province": "AB", "country": "CA", "postalCode": "T0J2L0", "twitter": "None", "instagram": "None", "facebook": "None", "youtube": "None", "website": "None", "summary": "None", "logo": "None", "latitude": 51.10917000000006, "longitude": -111.59081999999995}, "763784691RR0001": {"name": "The Bertram Austin Goodman, May Easton McLaren Goodman and Dorothy Jean Goodman Foundation", "designationCode": "B", "categoryCode": "05", "address": "SCOTIATRUST                   200 PORTAGE AVE, 3RD FLOOR", "city": "WINNIPEG", "province": "MB", "country": "CA", "postalCode": "R3C3X2", "twitter": "None", "instagram": "None", "facebook": "None", "youtube": "None", "website": "None", "summary": "None", "logo": "None", "latitude": 49.895239140689206, "longitude": -97.13898320272392}, "802569962RR0001": {"name": "The Bespoke Foundation", "designationCode": "B", "categoryCode": "03", "address": "3300-181 BAY STREET", "city": "TORONTO", "province": "ON", "country": "CA", "postalCode": "M5J2T3", "twitter": "None", "instagram": "None", "facebook": "None", "youtube": "None", "website": "None", "summary": "None", "logo": "None", "latitude": 43.64715434416293, "longitude": -79.37959157588452}, "840765937RR0001": {"name": "The Bessada Family Foundation", "designationCode": "B", "categoryCode": "03", "address": "8 LAMBERT COMMON", "city": "OAKVILLE", "province": "ON", "country": "CA", "postalCode": "L6K0H6", "twitter": "None", "instagram": "None", "facebook": "None", "youtube": "None", "website": "None", "summary": "None", "logo": "None", "latitude": 43.428249681372286, "longitude": -79.68040068971084}, "834595902RR0001": {"name": "The Bethany Group (Camrose) Foundation", "designationCode": "A", "categoryCode": "13", "address": "4612 - 53 STREET", "city": "CAMROSE", "province": "AB", "country": "CA", "postalCode": "T4V1Y6", "twitter": "None", "instagram": "None", "facebook": "None", "youtube": "None", "website": "None", "summary": "None", "logo": "None", "latitude": 53.01461368924136, "longitude": -112.83121729820299}, "830205464RR0001": {"name": "The Bethel Hope Inc.", "designationCode": "C", "categoryCode": "01", "address": "2856 MCGREGOR FARM ROAD", "city": "SPRINGFIELD", "province": "MB", "country": "CA", "postalCode": "R2E1E8", "twitter": "None", "instagram": "None", "facebook": "None", "youtube": "None", "website": "None", "summary": "None", "logo": "None", "latitude": 49.94497491746152, "longitude": -96.98717783898437}, "805768389RR0001": {"name": "The Better World Foundation", "designationCode": "C", "categoryCode": "09", "address": "#414-10186 155 ST", "city": "SURREY", "province": "BC", "country": "CA", "postalCode": "V3R0R6", "twitter": "None", "instagram": "None", "facebook": "None", "youtube": "None", "website": "None", "summary": "None", "logo": "None", "latitude": 49.187248039702155, "longitude": -122.7926369780428}, "804988772RR0001": {"name": "The Betty and Joe Gray Family Foundation", "designationCode": "B", "categoryCode": "03", "address": "15 RUDEN CRESCENT", "city": "TORONTO", "province": "ON", "country": "CA", "postalCode": "M3A3H4", "twitter": "None", "instagram": "None", "facebook": "None", "youtube": "None", "website": "None", "summary": "None", "logo": "None", "latitude": 43.75780994116793, "longitude": -79.34292115456765}, "840519086RR0001": {"name": "The Beulah Baptist Cemetery Memorial", "designationCode": "C", "categoryCode": "59", "address": "30 CAMBRIDGE DRIVE", "city": "SAINT JOHN", "province": "NB", "country": "CA", "postalCode": "E2K5T1", "twitter": "None", "instagram": "None", "facebook": "None", "youtube": "None", "website": "None", "summary": "None", "logo": "None", "latitude": 45.29103647821568, "longitude": -66.10642415710647}, "832301378RR0001": {"name": "The Beyond Boundaries Network", "designationCode": "C", "categoryCode": "29", "address": "38 CH DESCHENES", "city": "CHELSEA", "province": "QC", "country": "CA", "postalCode": "J9B1N3", "twitter": "None", "instagram": "None", "facebook": "None", "youtube": "None", "website": "None", "summary": "None", "logo": "None", "latitude": 45.49856866524348, "longitude": -75.7736190706044}, "846609022RR0001": {"name": "The Bharti Charitable Foundation", "designationCode": "B", "categoryCode": "05", "address": "39 WHITNEY AVENUE", "city": "TORONTO", "province": "ON", "country": "CA", "postalCode": "M4W2E7", "twitter": "None", "instagram": "None", "facebook": "None", "youtube": "None", "website": "None", "summary": "None", "logo": "None", "latitude": 43.684009995268134, "longitude": -79.3694346711005}, "817719891RR0001": {"name": "The Bhutan Canada Foundation", "designationCode": "C", "categoryCode": "21", "address": "160 AVENUE RD", "city": "TORONTO", "province": "ON", "country": "CA", "postalCode": "M5R2H8", "twitter": "None", "instagram": "None", "facebook": "None", "youtube": "None", "website": "None", "summary": "None", "logo": "None", "latitude": 43.67517040161002, "longitude": -79.39684677243334}, "804132538RR0001": {"name": "The Bibleway Christian Tabernacle", "designationCode": "C", "categoryCode": "39", "address": "2949 GULFSTREAM WAY,", "city": "MISSISSAUGA", "province": "ON", "country": "CA", "postalCode": "L5N6J9", "twitter": "None", "instagram": "None", "facebook": "None", "youtube": "None", "website": "None", "summary": "None", "logo": "None", "latitude": 43.59641335971482, "longitude": -79.77988500251016}, "856039425RR0001": {"name": "The Big Sky Centre For Learning and Being Astonished Inc.", "designationCode": "C", "categoryCode": "09", "address": "UNIVERSITY OF REGINA          3737 WASCANA PARKWAY", "city": "REGINA", "province": "SK", "country": "CA", "postalCode": "S4S0A2", "twitter": "None", "instagram": "None", "facebook": "None", "youtube": "None", "website": "None", "summary": "None", "logo": "None", "latitude": 50.419710000000066, "longitude": -104.59363999999994}, "826865040RR0001": {"name": "The Biggar-Hedges Foundation", "designationCode": "B", "categoryCode": "05", "address": "17B-1 ST THOMAS STREET", "city": "TORONTO", "province": "ON", "country": "CA", "postalCode": "M5S3B5", "twitter": "None", "instagram": "None", "facebook": "None", "youtube": "None", "website": "None", "summary": "None", "logo": "None", "latitude": 43.668168055513846, "longitude": -79.39045679736299}, "848354254RR0001": {"name": "The Bill and Rochelle Tepperman Foundation", "designationCode": "B", "categoryCode": "05", "address": "7380 RIVERSIDE DRIVE EAST", "city": "WINDSOR", "province": "ON", "country": "CA", "postalCode": "N8S1C6", "twitter": "None", "instagram": "None", "facebook": "None", "youtube": "None", "website": "None", "summary": "None", "logo": "None", "latitude": 42.33609363174414, "longitude": -82.95152762735806}, "835241811RR0001": {"name": "The Bistricer Family Foundation / Fondation de la Famille Bistricer", "designationCode": "B", "categoryCode": "03", "address": "4545 SHERBROOKE STREET WEST", "city": "WESTMOUNT", "province": "QC", "country": "CA", "postalCode": "H3Z1E8", "twitter": "None", "instagram": "None", "facebook": "None", "youtube": "None", "website": "None", "summary": "None", "logo": "None", "latitude": 45.48281351708113, "longitude": -73.5991223869235}, "822262325RR0001": {"name": "The Black Cat Foundation", "designationCode": "B", "categoryCode": "53", "address": "5604 59 ST NW", "city": "EDMONTON", "province": "AB", "country": "CA", "postalCode": "T6B3C3", "twitter": "None", "instagram": "None", "facebook": "None", "youtube": "None", "website": "None", "summary": "None", "logo": "None", "latitude": 53.493003588377995, "longitude": -113.42402564161189}, "833381403RR0001": {"name": "The Blenheim and Area Bereavement Support Program", "designationCode": "C", "categoryCode": "09", "address": "6635 MIDDLE LINE              RR 5", "city": "MERLIN", "province": "ON", "country": "CA", "postalCode": "N0P1W0", "twitter": "None", "instagram": "None", "facebook": "None", "youtube": "None", "website": "None", "summary": "None", "logo": "None", "latitude": 42.27393453069977, "longitude": -82.18260933767071}, "823917430RR0001": {"name": "The Blessed Hope community Church", "designationCode": "C", "categoryCode": "36", "address": "64 ICELAND POPPY TRAIL", "city": "BRAMPTON", "province": "ON", "country": "CA", "postalCode": "L7A0N2", "twitter": "None", "instagram": "None", "facebook": "None", "youtube": "None", "website": "None", "summary": "None", "logo": "None", "latitude": 43.72688088175896, "longitude": -79.82891176923069}, "108021544RR0001": {"name": "The Bloom Group Community Services Society", "designationCode": "C", "categoryCode": "09", "address": "331 POWELL ST", "city": "VANCOUVER", "province": "BC", "country": "CA", "postalCode": "V6A1G5", "twitter": "None", "instagram": "None", "facebook": "None", "youtube": "None", "website": "None", "summary": "None", "logo": "None", "latitude": 49.28322102073026, "longitude": -123.09696387985333}, "781185723RR0001": {"name": "The Bloom Group Nicholson Housing Society", "designationCode": "C", "categoryCode": "09", "address": "391 POWELL ST", "city": "VANCOUVER", "province": "BC", "country": "CA", "postalCode": "V6A1G5", "twitter": "None", "instagram": "None", "facebook": "None", "youtube": "None", "website": "None", "summary": "None", "logo": "None", "latitude": 49.28320056801437, "longitude": -123.09558332153117}, "809093628RR0001": {"name": "The Blue Beach Fossil Museum Society", "designationCode": "C", "categoryCode": "50", "address": "127 BLUE BEACH ROAD           RR-1", "city": "HANTSPORT", "province": "NS", "country": "CA", "postalCode": "B0P1P0", "twitter": "None", "instagram": "None", "facebook": "None", "youtube": "None", "website": "None", "summary": "None", "logo": "None", "latitude": 45.09781511581687, "longitude": -64.21577611417302}, "841417736RR0001": {"name": "The Blue Mountains Animal Shelter Inc.", "designationCode": "C", "categoryCode": "54", "address": "PO BOX 1001", "city": "THORNBURY", "province": "ON", "country": "CA", "postalCode": "N0H2P0", "twitter": "None", "instagram": "None", "facebook": "None", "youtube": "None", "website": "None", "summary": "None", "logo": "None", "latitude": 44.561600000000055, "longitude": -80.45108999999997}, "107960379RR0001": {"name": "The Board of Education of School District No. 10 (Arrow Lakes)", "designationCode": "C", "categoryCode": "20", "address": "PO BOX 340", "city": "NAKUSP", "province": "BC", "country": "CA", "postalCode": "V0G1R0", "twitter": "None", "instagram": "None", "facebook": "None", "youtube": "None", "website": "None", "summary": "None", "logo": "None", "latitude": 50.23888800000006, "longitude": -117.80203399999994}, "891357873RR0001": {"name": "The Board of Education of School District No. 20 (Kootenay-Columbia)", "designationCode": "C", "categoryCode": "20", "address": "2001 3RD AVE", "city": "TRAIL", "province": "BC", "country": "CA", "postalCode": "V1R1R6", "twitter": "None", "instagram": "None", "facebook": "None", "youtube": "None", "website": "None", "summary": "None", "logo": "None", "latitude": 49.097093861275944, "longitude": -117.69471503446057}, "107962300RR0001": {"name": "The Board of Education of School District No. 22 (Vernon)", "designationCode": "C", "categoryCode": "20", "address": "1401-15TH STREET", "city": "VERNON", "province": "BC", "country": "CA", "postalCode": "V1T8S8", "twitter": "None", "instagram": "None", "facebook": "None", "youtube": "None", "website": "None", "summary": "None", "logo": "None", "latitude": 50.25226610137193, "longitude": -119.25099572866031}}