{"836037127RR0001": {"name": "DIOCESE OF SASKATOON CATHOLIC FOUNDATION INC.", "designationCode": "A", "categoryCode": "43", "address": "123 NELSON ROAD", "city": "SASKATOON", "province": "SK", "country": "CA", "postalCode": "S7S1H1", "twitter": "None", "instagram": "None", "facebook": "None", "youtube": "None", "website": "None", "summary": "None", "logo": "None", "latitude": 52.14830526371943, "longitude": -106.58267235821334}, "134541879RR0001": {"name": "DIPLOMAT MINE MUSEUM SOCIETY", "designationCode": "C", "categoryCode": "50", "address": "BOX 210", "city": "FORESTBURG", "province": "AB", "country": "CA", "postalCode": "T0B1N0", "twitter": "None", "instagram": "None", "facebook": "None", "youtube": "None", "website": "None", "summary": "None", "logo": "None", "latitude": 52.58134386913628, "longitude": -112.05738493950088}, "890133978RR0001": {"name": "DIPTY CHAKRAVARTY FOUNDATION", "designationCode": "B", "categoryCode": "25", "address": "757 VICTORIA PARK AVENUE      SUITE 1109", "city": "SCARBOROUGH", "province": "ON", "country": "CA", "postalCode": "M4C5N8", "twitter": "None", "instagram": "None", "facebook": "None", "youtube": "None", "website": "None", "summary": "None", "logo": "None", "latitude": 43.692329995845064, "longitude": -79.28873650398205}, "896671989RR0001": {"name": "DIRA", "designationCode": "C", "categoryCode": "09", "address": "342 RUE DE LA CORNICHE", "city": "LEVIS", "province": "QC", "country": "CA", "postalCode": "G7A2Y4", "twitter": "None", "instagram": "None", "facebook": "None", "youtube": "None", "website": "None", "summary": "None", "logo": "None", "latitude": 46.73483287373754, "longitude": -71.3124823713716}, "825625882RR0001": {"name": "DIRA - Joliette", "designationCode": "C", "categoryCode": "09", "address": "97 AV DES PLAINES", "city": "NOTRE-DAME-DES-PRAIRIES", "province": "QC", "country": "CA", "postalCode": "J6E8W9", "twitter": "None", "instagram": "None", "facebook": "None", "youtube": "None", "website": "None", "summary": "None", "logo": "None", "latitude": 46.05530352735288, "longitude": -73.42988049959597}, "891852667RR0001": {"name": "DIRA-Estrie", "designationCode": "C", "categoryCode": "09", "address": "300, RUE DU CONSEIL, PORTE 337", "city": "SHERBROOKE", "province": "QC", "country": "CA", "postalCode": "J1G1J4", "twitter": "None", "instagram": "None", "facebook": "None", "youtube": "None", "website": "None", "summary": "None", "logo": "None", "latitude": 45.403349629984746, "longitude": -71.87979665055694}, "875699605RR0001": {"name": "DIRA-LAVAL INC.", "designationCode": "C", "categoryCode": "09", "address": "1450, BOULEVARD PIE X         BUREAU 217", "city": "LAVAL", "province": "QC", "country": "CA", "postalCode": "H7V3C1", "twitter": "None", "instagram": "None", "facebook": "None", "youtube": "None", "website": "None", "summary": "None", "logo": "None", "latitude": 45.550369488747265, "longitude": -73.7492840079345}, "101397644RR0001": {"name": "DIRECT ACTION IN SUPPORT OF COMMUNITY HOMES INCORPORATED", "designationCode": "C", "categoryCode": "01", "address": "117 VICTOR LEWIS DRIVE", "city": "WINNIPEG", "province": "MB", "country": "CA", "postalCode": "R3P1J6", "twitter": "None", "instagram": "None", "facebook": "None", "youtube": "None", "website": "None", "summary": "None", "logo": "None", "latitude": 49.84338918293016, "longitude": -97.18285302354467}, "868267568RR0001": {"name": "DIRECT-MS", "designationCode": "C", "categoryCode": "11", "address": "5119 BROCKINGTON RD NW", "city": "CALGARY", "province": "AB", "country": "CA", "postalCode": "T2L1R7", "twitter": "None", "instagram": "None", "facebook": "None", "youtube": "None", "website": "None", "summary": "None", "logo": "None", "latitude": 51.098130429915194, "longitude": -114.12909121968946}, "828109819RR0001": {"name": "DIRSHU CHARITABLE ORGANIZATION", "designationCode": "C", "categoryCode": "49", "address": "3625 DUFFERIN STREET, 500", "city": "TORONTO", "province": "ON", "country": "CA", "postalCode": "M3K1N4", "twitter": "None", "instagram": "None", "facebook": "None", "youtube": "None", "website": "None", "summary": "None", "logo": "None", "latitude": 43.73098330919264, "longitude": -79.45857671963213}, "106777758RR0001": {"name": "DISABILITY ALLIANCE BC SOCIETY", "designationCode": "C", "categoryCode": "11", "address": "204 - 456 WEST BROADWAY", "city": "VANCOUVER", "province": "BC", "country": "CA", "postalCode": "V5Y1R3", "twitter": "None", "instagram": "None", "facebook": "None", "youtube": "None", "website": "None", "summary": "None", "logo": "None", "latitude": 49.263168470136954, "longitude": -123.11398155107045}, "107556979RR0001": {"name": "DISABILITY RESOURCE CENTRE FOR INDEPENDENT LIVING", "designationCode": "C", "categoryCode": "59", "address": "39 BRUNELLE RD N", "city": "KAPUSKASING", "province": "ON", "country": "CA", "postalCode": "P5N2M1", "twitter": "None", "instagram": "None", "facebook": "None", "youtube": "None", "website": "None", "summary": "None", "logo": "None", "latitude": 49.413546, "longitude": -82.40332823847359}, "129945978RR0001": {"name": "DISABLED AND AGED REGIONAL TRANSIT SYSTEM", "designationCode": "C", "categoryCode": "09", "address": "235 BIRCH AVENUE", "city": "HAMILTON", "province": "ON", "country": "CA", "postalCode": "L8L0B7", "twitter": "None", "instagram": "None", "facebook": "None", "youtube": "None", "website": "None", "summary": "None", "logo": "None", "latitude": 43.26105196476992, "longitude": -79.838213673668}, "118885789RR0001": {"name": "DISABLED CONSUMERS SOCIETY OF COLCHESTER", "designationCode": "C", "categoryCode": "09", "address": "PO BOX 1794", "city": "TRURO", "province": "NS", "country": "CA", "postalCode": "B2N5Z5", "twitter": "None", "instagram": "None", "facebook": "None", "youtube": "None", "website": "None", "summary": "None", "logo": "None", "latitude": 45.36602700000006, "longitude": -63.289042999999936}, "861274157RR0001": {"name": "DISABLED INDEPENDENT GARDENERS ASSOCIATION", "designationCode": "C", "categoryCode": "56", "address": "318-425 CARRALL STREET", "city": "VANCOUVER", "province": "BC", "country": "CA", "postalCode": "V6B6E3", "twitter": "None", "instagram": "None", "facebook": "None", "youtube": "None", "website": "None", "summary": "None", "logo": "None", "latitude": 49.28107458090486, "longitude": -123.10442464770009}, "139262208RR0001": {"name": "DISABLED SAILING ASSOCIATION OF ALBERTA", "designationCode": "C", "categoryCode": "56", "address": "PO BOX 72136                  RPO GLENMORE LANDING", "city": "CALGARY", "province": "AB", "country": "CA", "postalCode": "T2V5H9", "twitter": "None", "instagram": "None", "facebook": "None", "youtube": "None", "website": "None", "summary": "None", "logo": "None", "latitude": 50.994305999999995, "longitude": -114.07152574813585}, "898096474RR0001": {"name": "DISABLED SAILING ASSOCIATION OF B.C. OKANAGAN BRANCH", "designationCode": "C", "categoryCode": "09", "address": "91 - 595 YATES RD", "city": "KELOWNA", "province": "BC", "country": "CA", "postalCode": "V1V1P8", "twitter": "None", "instagram": "None", "facebook": "None", "youtube": "None", "website": "None", "summary": "None", "logo": "None", "latitude": 49.908534177297255, "longitude": -119.4467275744674}, "130463649RR0001": {"name": "DISABLED SAILING ASSOCIATION OF BRITISH COLUMBIA", "designationCode": "C", "categoryCode": "09", "address": "318 - 425 CARRALL ST", "city": "VANCOUVER", "province": "BC", "country": "CA", "postalCode": "V6B6E3", "twitter": "None", "instagram": "None", "facebook": "None", "youtube": "None", "website": "None", "summary": "None", "logo": "None", "latitude": 49.28107458090486, "longitude": -123.10442464770009}, "869006429RR0001": {"name": "DISABLED SAILING ASSOCIATION OF ONTARIO", "designationCode": "C", "categoryCode": "56", "address": "1 STADIUM ROAD", "city": "TORONTO", "province": "ON", "country": "CA", "postalCode": "M5V3H4", "twitter": "None", "instagram": "None", "facebook": "None", "youtube": "None", "website": "None", "summary": "None", "logo": "None", "latitude": 43.63223489229053, "longitude": -79.40043509795636}, "118885813RR0001": {"name": "DISABLED SKIERS ASSOCIATION OF BRITISH COLUMBIA", "designationCode": "C", "categoryCode": "56", "address": "780 MARINE DR SW", "city": "VANCOUVER", "province": "BC", "country": "CA", "postalCode": "V6P5Y7", "twitter": "None", "instagram": "None", "facebook": "None", "youtube": "None", "website": "None", "summary": "None", "logo": "None", "latitude": 49.207299508713916, "longitude": -123.12382893141574}, "119250488RR0001": {"name": "DISABLED TRANSPORTATION SOCIETY OF GRANDE PRAIRIE", "designationCode": "C", "categoryCode": "09", "address": "89 - 704041 RANGE ROAD 72", "city": "COUNTY OF GRANDE PRAIRIE NO. 1", "province": "AB", "country": "CA", "postalCode": "T8W5G2", "twitter": "None", "instagram": "None", "facebook": "None", "youtube": "None", "website": "None", "summary": "None", "logo": "None", "latitude": 55.090132726495014, "longitude": -118.96689175530707}, "139218200RR0001": {"name": "DISABLED WOMEN'S NETWORK SASKATCHEWAN INC", "designationCode": "C", "categoryCode": "09", "address": "1940 MCINTYRE STREET", "city": "REGINA", "province": "SK", "country": "CA", "postalCode": "S4P2R3", "twitter": "None", "instagram": "None", "facebook": "None", "youtube": "None", "website": "None", "summary": "None", "logo": "None", "latitude": 50.44800599999999, "longitude": -104.61661314963332}, "131076523RR0001": {"name": "DISABLED WORKERS FOUNDATION OF CANADA", "designationCode": "C", "categoryCode": "21", "address": "4755 CHERRY CREEK ROAD", "city": "PORT ALBERNI", "province": "BC", "country": "CA", "postalCode": "V9Y0A7", "twitter": "None", "instagram": "None", "facebook": "None", "youtube": "None", "website": "None", "summary": "None", "logo": "None", "latitude": 49.262984332938544, "longitude": -124.78844198286326}, "855922704RR0001": {"name": "DISASTER AID CANADA", "designationCode": "C", "categoryCode": "09", "address": "426 WILLIAM ST", "city": "VICTORIA", "province": "BC", "country": "CA", "postalCode": "V9A3Y9", "twitter": "None", "instagram": "None", "facebook": "None", "youtube": "None", "website": "None", "summary": "None", "logo": "None", "latitude": 48.431319559524574, "longitude": -123.38868259313853}, "860054667RR0001": {"name": "DISCIPLE METHODIST CHURCH", "designationCode": "C", "categoryCode": "39", "address": "1110 KING ALBERT AVE", "city": "COQUITLAM", "province": "BC", "country": "CA", "postalCode": "V3J1X7", "twitter": "None", "instagram": "None", "facebook": "None", "youtube": "None", "website": "None", "summary": "None", "logo": "None", "latitude": 49.25139151399404, "longitude": -122.86164077699232}, "850045188RR0001": {"name": "DISCIPLES OF CHRIST FELLOWSHIP OF CHRISTIAN AND MISSIONARY ALLIANCE", "designationCode": "C", "categoryCode": "39", "address": "39 LADIN DRIVE", "city": "BRAMPTON", "province": "ON", "country": "CA", "postalCode": "L6S3V4", "twitter": "None", "instagram": "None", "facebook": "None", "youtube": "None", "website": "None", "summary": "None", "logo": "None", "latitude": 43.719650644728574, "longitude": -79.7448376608574}, "131037806RR0001": {"name": "DISCIPLES REVIVAL CHURCH", "designationCode": "C", "categoryCode": "36", "address": "30 GORDON MACKAY ROAD         UNIT 1", "city": "NORTH YORK", "province": "ON", "country": "CA", "postalCode": "M9N2V6", "twitter": "None", "instagram": "None", "facebook": "None", "youtube": "None", "website": "None", "summary": "None", "logo": "None", "latitude": 43.714977209590565, "longitude": -79.50944603984638}, "139295802RR0001": {"name": "DISCIPLESHIP INTERNATIONAL MINISTRIES SOCIETY", "designationCode": "C", "categoryCode": "47", "address": "604 COLUMBIA ST, SUITE 400", "city": "NEW WESTMINSTER", "province": "BC", "country": "CA", "postalCode": "V3M1A5", "twitter": "None", "instagram": "None", "facebook": "None", "youtube": "None", "website": "None", "summary": "None", "logo": "None", "latitude": 49.203064357849094, "longitude": -122.90797324117955}, "866382690RR0001": {"name": "DISCIPULOS DEL REINO", "designationCode": "C", "categoryCode": "39", "address": "1871 WESTON ROAD", "city": "TORONTO", "province": "ON", "country": "CA", "postalCode": "M9N1V9", "twitter": "None", "instagram": "None", "facebook": "None", "youtube": "None", "website": "None", "summary": "None", "logo": "None", "latitude": 43.699856520139534, "longitude": -79.5153306382077}, "815096540RR0001": {"name": "DISCOVER MONTESSORI SOCIETY PARENT GROUP", "designationCode": "C", "categoryCode": "21", "address": "1111 DUFFERIN CRESCENT", "city": "NANAIMO", "province": "BC", "country": "CA", "postalCode": "V9T5P4", "twitter": "None", "instagram": "None", "facebook": "None", "youtube": "None", "website": "None", "summary": "None", "logo": "None", "latitude": 49.18449138949885, "longitude": -123.96537192046888}, "107020760RR0001": {"name": "DISCOVERY BAPTIST CHURCH", "designationCode": "C", "categoryCode": "31", "address": "55 MICHENER DRIVE", "city": "REGINA", "province": "SK", "country": "CA", "postalCode": "S4V0L1", "twitter": "None", "instagram": "None", "facebook": "None", "youtube": "None", "website": "None", "summary": "None", "logo": "None", "latitude": 50.432118676351976, "longitude": -104.56006458843532}, "118885854RR0001": {"name": "DISCOVERY CHILDREN'S CENTRE INC.", "designationCode": "C", "categoryCode": "01", "address": "367 HAMPTON ST", "city": "WINNIPEG", "province": "MB", "country": "CA", "postalCode": "R3J1P7", "twitter": "None", "instagram": "None", "facebook": "None", "youtube": "None", "website": "None", "summary": "None", "logo": "None", "latitude": 49.88634181626177, "longitude": -97.21215187004486}, "805167715RR0001": {"name": "DISCOVERY CHRISTIAN REFORMED CHURCH", "designationCode": "C", "categoryCode": "39", "address": "140 QUEEN STREET", "city": "BOWMANVILLE", "province": "ON", "country": "CA", "postalCode": "L1C1M9", "twitter": "None", "instagram": "None", "facebook": "None", "youtube": "None", "website": "None", "summary": "None", "logo": "None", "latitude": 43.91174431038298, "longitude": -78.69131722483925}, "888992534RR0001": {"name": "DISCOVERY COAST GREENWAYS LAND TRUST", "designationCode": "C", "categoryCode": "56", "address": "P.O. BOX 25063 TYEE           1195-C FIR STREET", "city": "CAMPBELL RIVER", "province": "BC", "country": "CA", "postalCode": "V9W3B7", "twitter": "None", "instagram": "None", "facebook": "None", "youtube": "None", "website": "None", "summary": "None", "logo": "None", "latitude": 50.02662532944774, "longitude": -125.25084874450354}, "896523529RR0001": {"name": "DISCOVERY COAST MUSIC FESTIVAL", "designationCode": "C", "categoryCode": "22", "address": "PO BOX 858                    CLIFF STREET", "city": "BELLA COOLA", "province": "BC", "country": "CA", "postalCode": "V0T1C0", "twitter": "None", "instagram": "None", "facebook": "None", "youtube": "None", "website": "None", "summary": "None", "logo": "None", "latitude": 52.371972, "longitude": -126.75212236924565}, "843224387RR0001": {"name": "DISCOVERY COMMUNITY CHRISTIAN CHURCH", "designationCode": "C", "categoryCode": "39", "address": "7755 TENTH LINE WEST          SUITE 200", "city": "MISSISSAUGA", "province": "ON", "country": "CA", "postalCode": "L5N0C4", "twitter": "None", "instagram": "None", "facebook": "None", "youtube": "None", "website": "None", "summary": "None", "logo": "None", "latitude": 43.59747626871109, "longitude": -79.79504220309929}, "864643093RR0001": {"name": "DISCOVERY COMMUNITY CHURCH (MENNONITE BRETHREN)", "designationCode": "C", "categoryCode": "34", "address": "250 10TH AVE", "city": "CAMPBELL RIVER", "province": "BC", "country": "CA", "postalCode": "V9W4E3", "twitter": "None", "instagram": "None", "facebook": "None", "youtube": "None", "website": "None", "summary": "None", "logo": "None", "latitude": 50.025193332794615, "longitude": -125.24560675604472}, "133944868RR0001": {"name": "DISCOVERY DANCE SOCIETY", "designationCode": "C", "categoryCode": "22", "address": "608 - 865 VIEW ST", "city": "VICTORIA", "province": "BC", "country": "CA", "postalCode": "V8W3E8", "twitter": "None", "instagram": "None", "facebook": "None", "youtube": "None", "website": "None", "summary": "None", "logo": "None", "latitude": 48.42487958338636, "longitude": -123.36024333833454}, "123378820RR0001": {"name": "DISCOVERY FOUNDATION", "designationCode": "C", "categoryCode": "59", "address": "155-887 GREAT NORTHERN WAY", "city": "VANCOUVER", "province": "BC", "country": "CA", "postalCode": "V5T4T5", "twitter": "None", "instagram": "None", "facebook": "None", "youtube": "None", "website": "None", "summary": "None", "logo": "None", "latitude": 49.26586129730474, "longitude": -123.0846183353917}, "891054785RR0001": {"name": "DISCOVERY HEALTH CARE FOUNDATION INC.", "designationCode": "A", "categoryCode": "13", "address": "67 MANITOBA DRIVE", "city": "CLARENVILLE", "province": "NL", "country": "CA", "postalCode": "A5A1K3", "twitter": "None", "instagram": "None", "facebook": "None", "youtube": "None", "website": "None", "summary": "None", "logo": "None", "latitude": 48.16402863378709, "longitude": -53.984164285038396}, "118823483RR0001": {"name": "DISCOVERY HOUSE FAMILY VIOLENCE PREVENTION SOCIETY", "designationCode": "C", "categoryCode": "09", "address": "POST OFFICE BOX 85058         ALBERT PARK POST OFFICE", "city": "CALGARY", "province": "AB", "country": "CA", "postalCode": "T2A7R7", "twitter": "None", "instagram": "None", "facebook": "None", "youtube": "None", "website": "None", "summary": "None", "logo": "None", "latitude": 51.045150000000035, "longitude": -113.98388999999997}, "866237803RR0001": {"name": "DISCOVERY LEARNING FOUNDATION INC.", "designationCode": "C", "categoryCode": "20", "address": "P.O. BOX 1600", "city": "MAPLE CREEK", "province": "SK", "country": "CA", "postalCode": "S0N1N0", "twitter": "None", "instagram": "None", "facebook": "None", "youtube": "None", "website": "None", "summary": "None", "logo": "None", "latitude": 49.91416000000004, "longitude": -109.46959999999996}, "868861998RR0001": {"name": "DISCOVERY ROUTES TRAILS ORGANIZATION", "designationCode": "C", "categoryCode": "52", "address": "205 MAIN ST E", "city": "NORTH BAY", "province": "ON", "country": "CA", "postalCode": "P1B1B2", "twitter": "None", "instagram": "None", "facebook": "None", "youtube": "None", "website": "None", "summary": "None", "logo": "None", "latitude": 46.30875313627445, "longitude": -79.46257846225976}, "129057238RR0001": {"name": "DISCOVERY SCHOOL-BASED CHILD CARE PROGRAM OF KINGSVILLE INC", "designationCode": "C", "categoryCode": "01", "address": "P O BOX 421", "city": "KINGSVILLE", "province": "ON", "country": "CA", "postalCode": "N9Y2T1", "twitter": "None", "instagram": "None", "facebook": "None", "youtube": "None", "website": "None", "summary": "None", "logo": "None", "latitude": 42.036153000000056, "longitude": -82.68387649999994}, "118885904RR0001": {"name": "DISLEY CEMETERY FUND", "designationCode": "C", "categoryCode": "59", "address": "POST OFFICE BOX 242", "city": "LUMSDEN", "province": "SK", "country": "CA", "postalCode": "S0G3C0", "twitter": "None", "instagram": "None", "facebook": "None", "youtube": "None", "website": "None", "summary": "None", "logo": "None", "latitude": 50.64512000000008, "longitude": -104.86806999999999}, "118885920RR0001": {"name": "DISPENSAIRE DIETETIQUE DE MONTREAL-MONTREAL DIET DISPENSARY", "designationCode": "C", "categoryCode": "09", "address": "2182 LINCOLN AVE", "city": "MONTR\u00c9AL", "province": "QC", "country": "CA", "postalCode": "H3H1J3", "twitter": "None", "instagram": "None", "facebook": "None", "youtube": "None", "website": "None", "summary": "None", "logo": "None", "latitude": 45.49165805661038, "longitude": -73.5855136882972}, "124733676RR0001": {"name": "DISTINCTIVE EMPLOYMENT COUNSELLING SERVICES", "designationCode": "C", "categoryCode": "59", "address": "11515 71 STREET NW", "city": "EDMONTON", "province": "AB", "country": "CA", "postalCode": "T5B1W1", "twitter": "None", "instagram": "None", "facebook": "None", "youtube": "None", "website": "None", "summary": "None", "logo": "None", "latitude": 53.56774669998262, "longitude": -113.4496920686425}, "118885961RR0001": {"name": "DISTRESS CENTRE OF NIAGARA INC.", "designationCode": "C", "categoryCode": "09", "address": "P.O.BOX 25014                 PEN CENTRE (GLENDALE AVE.)", "city": "ST. CATHARINES", "province": "ON", "country": "CA", "postalCode": "L2T4C4", "twitter": "None", "instagram": "None", "facebook": "None", "youtube": "None", "website": "None", "summary": "None", "logo": "None", "latitude": 43.13345000000004, "longitude": -79.22460999999998}, "108079815RR0001": {"name": "DISTRESS CENTRE OF OTTAWA AND REGION", "designationCode": "C", "categoryCode": "03", "address": "P.O. BOX 3457                 STN C", "city": "OTTAWA", "province": "ON", "country": "CA", "postalCode": "K1Y4J6", "twitter": "None", "instagram": "None", "facebook": "None", "youtube": "None", "website": "None", "summary": "None", "logo": "None", "latitude": 45.42177300000006, "longitude": -75.69115999999994}, "107021016RR0001": {"name": "DISTRESS CENTRES", "designationCode": "C", "categoryCode": "03", "address": "10 TRINITY SQUARE", "city": "TORONTO", "province": "ON", "country": "CA", "postalCode": "M5G1B1", "twitter": "None", "instagram": "None", "facebook": "None", "youtube": "None", "website": "None", "summary": "None", "logo": "None", "latitude": 43.65441999226703, "longitude": -79.3816195990538}, "890778343RR0001": {"name": "DISTRIBUTION SOURCE DE VIE HUMANITAIRE", "designationCode": "C", "categoryCode": "09", "address": "1391 RUE MARIE-GENDRON        RR#2", "city": "CARIGNAN", "province": "QC", "country": "CA", "postalCode": "J3L3P9", "twitter": "None", "instagram": "None", "facebook": "None", "youtube": "None", "website": "None", "summary": "None", "logo": "None", "latitude": 45.43320173440465, "longitude": -73.36689485648351}, "118885995RR0001": {"name": "DISTRICT B HOSPITAL FUND", "designationCode": "C", "categoryCode": "15", "address": "11 HEWKO ST", "city": "ST CATHERINES", "province": "ON", "country": "CA", "postalCode": "L2N2E2", "twitter": "None", "instagram": "None", "facebook": "None", "youtube": "None", "website": "None", "summary": "None", "logo": "None", "latitude": 43.183926869553915, "longitude": -79.23975489353127}, "118886019RR0001": {"name": "DISTRICT C ROYAL CANADIAN LEGION VETERANS HOSPITAL FUND", "designationCode": "C", "categoryCode": "59", "address": "211 NEWPORT DR.", "city": "CAMBRIDGE", "province": "ON", "country": "CA", "postalCode": "N3H5T3", "twitter": "None", "instagram": "None", "facebook": "None", "youtube": "None", "website": "None", "summary": "None", "logo": "None", "latitude": 43.40524165536281, "longitude": -80.33622932614827}, "889153631RR0001": {"name": "DISTRICT DE SANTE ST CLAUDE HEALTH DISTRICT FOUNDATION INC", "designationCode": "A", "categoryCode": "13", "address": "33 ROY ST                     BOX 400", "city": "ST CLAUDE", "province": "MB", "country": "CA", "postalCode": "R0G1Z0", "twitter": "None", "instagram": "None", "facebook": "None", "youtube": "None", "website": "None", "summary": "None", "logo": "None", "latitude": 49.65404997883757, "longitude": -98.34351378099734}, "135462844RR0001": {"name": "DISTRICT GUIDE D'EDMUNDSTON INC", "designationCode": "C", "categoryCode": "29", "address": "629 RUE PRINCIPALE", "city": "SAINT-LEONARD", "province": "NB", "country": "CA", "postalCode": "E7E2J3", "twitter": "None", "instagram": "None", "facebook": "None", "youtube": "None", "website": "None", "summary": "None", "logo": "None", "latitude": 47.16775850730027, "longitude": -67.92691178680275}, "887485597RR0001": {"name": "DISTRICT MEDICAL CENTRE", "designationCode": "A", "categoryCode": "11", "address": "312 ISAACS HARBOUR RD", "city": "ISAAC'S HARBOUR", "province": "NS", "country": "CA", "postalCode": "B0H1S0", "twitter": "None", "instagram": "None", "facebook": "None", "youtube": "None", "website": "None", "summary": "None", "logo": "None", "latitude": 45.182830024410045, "longitude": -61.662546882768545}, "891529968RR0001": {"name": "DISTRICT NUMBER TEN VOLUNTEER FIRE DEPARTMENT", "designationCode": "C", "categoryCode": "59", "address": "SITE 8B COMP. 05              RR#1", "city": "ST. PETER'S", "province": "NS", "country": "CA", "postalCode": "B0E3B0", "twitter": "None", "instagram": "None", "facebook": "None", "youtube": "None", "website": "None", "summary": "None", "logo": "None", "latitude": 45.691080000000056, "longitude": -60.747042499999935}, "124008814RR0001": {"name": "DISTRICT OF KENORA HOME FOR THE AGED", "designationCode": "C", "categoryCode": "10", "address": "1220 VALLEY DRIVE", "city": "KENORA", "province": "ON", "country": "CA", "postalCode": "P9N2W7", "twitter": "None", "instagram": "None", "facebook": "None", "youtube": "None", "website": "None", "summary": "None", "logo": "None", "latitude": 49.779276578423335, "longitude": -94.46418079491015}, "107706426RR0001": {"name": "DISTRICT OF MISSION ARTS COUNCIL", "designationCode": "C", "categoryCode": "22", "address": "33529  1ST AVE", "city": "MISSION", "province": "BC", "country": "CA", "postalCode": "V2V1H1", "twitter": "None", "instagram": "None", "facebook": "None", "youtube": "None", "website": "None", "summary": "None", "logo": "None", "latitude": 49.13446663225252, "longitude": -122.29662738497052}, "877140715RR0001": {"name": "DISTRICT OF PARRY SOUND VICTIM CRISIS ASSISTANCE AND REFERRAL SERVICE", "designationCode": "C", "categoryCode": "59", "address": "25 CHURCH ST", "city": "PARRY SOUND", "province": "ON", "country": "CA", "postalCode": "P2A1Y2", "twitter": "None", "instagram": "None", "facebook": "None", "youtube": "None", "website": "None", "summary": "None", "logo": "None", "latitude": 45.34591429808415, "longitude": -80.03630245028587}, "870908308RR0001": {"name": "DISTRICT OF SQUAMISH MUNICIPAL LIBRARY", "designationCode": "C", "categoryCode": "50", "address": "37907 - 2ND AVENUE            P. O. BOX 1039", "city": "SQUAMISH", "province": "BC", "country": "CA", "postalCode": "V8B0A7", "twitter": "None", "instagram": "None", "facebook": "None", "youtube": "None", "website": "None", "summary": "None", "logo": "None", "latitude": 49.69732663547662, "longitude": -123.15615317464886}, "872113139RR0001": {"name": "DISTRICT SCHOOL BOARD OF NIAGARA", "designationCode": "C", "categoryCode": "20", "address": "191 CARLTON STREET", "city": "ST CATHARINES", "province": "ON", "country": "CA", "postalCode": "L2R7P4", "twitter": "None", "instagram": "None", "facebook": "None", "youtube": "None", "website": "None", "summary": "None", "logo": "None", "latitude": 43.173255698309184, "longitude": -79.24710213021493}, "862376209RR0001": {"name": "DISTRICT SCHOOLS HERITAGE ASSOCIATION INC.", "designationCode": "C", "categoryCode": "52", "address": "215 MCIVOR AVE", "city": "WINNIPEG", "province": "MB", "country": "CA", "postalCode": "R2G0Z7", "twitter": "None", "instagram": "None", "facebook": "None", "youtube": "None", "website": "None", "summary": "None", "logo": "None", "latitude": 49.95293952013954, "longitude": -97.07325004175095}, "130622285RR0001": {"name": "DISTRICT SCOUT DES LAURENTIDES", "designationCode": "C", "categoryCode": "29", "address": "13908 BOUL CURE-LABELLE       C.P. 1005 SUCC  SAINT-JANVIER", "city": "MIRABEL", "province": "QC", "country": "CA", "postalCode": "J7J1A1", "twitter": "None", "instagram": "None", "facebook": "None", "youtube": "None", "website": "None", "summary": "None", "logo": "None", "latitude": 45.70610801413828, "longitude": -73.93062797296423}, "118886092RR0001": {"name": "DISTRICT UNION OF TORONTO OF THE WOMANS CHRISTIAN TEMPERANCE", "designationCode": "C", "categoryCode": "57", "address": "53 BISHOP AVE", "city": "TORONTO", "province": "ON", "country": "CA", "postalCode": "M2M1Z4", "twitter": "None", "instagram": "None", "facebook": "None", "youtube": "None", "website": "None", "summary": "None", "logo": "None", "latitude": 43.78247186037866, "longitude": -79.41210509602405}, "130918915RR0001": {"name": "DISTRICT 4 KIN FOUNDATION", "designationCode": "A", "categoryCode": "63", "address": "PO BOX 12055", "city": "EDMONTON", "province": "AB", "country": "CA", "postalCode": "T5J3L2", "twitter": "None", "instagram": "None", "facebook": "None", "youtube": "None", "website": "None", "summary": "None", "logo": "None", "latitude": 53.54623500000005, "longitude": -113.49037249999994}, "896818838RR0001": {"name": "DISTRICT 44 BAND & STRINGS PARENTS' ASSOCIATION", "designationCode": "C", "categoryCode": "21", "address": "4558 UNDERWOOD AVE", "city": "NORTH VANCOUVER", "province": "BC", "country": "CA", "postalCode": "V7K2S2", "twitter": "None", "instagram": "None", "facebook": "None", "youtube": "None", "website": "None", "summary": "None", "logo": "None", "latitude": 49.35148116180969, "longitude": -123.02463786730355}, "867735607RR0001": {"name": "DISTRICT 5050 PIPE BAND SOCIETY", "designationCode": "C", "categoryCode": "22", "address": "12169 - 230TH STREET", "city": "MAPLE RIDGE", "province": "BC", "country": "CA", "postalCode": "V2X6R4", "twitter": "None", "instagram": "None", "facebook": "None", "youtube": "None", "website": "None", "summary": "None", "logo": "None", "latitude": 49.22304165889548, "longitude": -122.58492349448873}, "892576471RR0001": {"name": "DISTRICT 69 FAMILY RESOURCE ASSOCIATION", "designationCode": "C", "categoryCode": "09", "address": "PO BOX 965 STN MAIN           198 MORISON AVE", "city": "PARKSVILLE", "province": "BC", "country": "CA", "postalCode": "V9P2H1", "twitter": "None", "instagram": "None", "facebook": "None", "youtube": "None", "website": "None", "summary": "None", "logo": "None", "latitude": 49.32101989063498, "longitude": -124.31672284896842}, "107021537RR0001": {"name": "DISTRICT 69 SOCIETY OF ORGANIZED SERVICES", "designationCode": "C", "categoryCode": "09", "address": "PO BOX 898  STN MAIN", "city": "PARKSVILLE", "province": "BC", "country": "CA", "postalCode": "V9P2G9", "twitter": "None", "instagram": "None", "facebook": "None", "youtube": "None", "website": "None", "summary": "None", "logo": "None", "latitude": 49.31968200000006, "longitude": -124.31365099999994}, "885819623RR0001": {"name": "DISTRICT 8 PARENTS FOR STRING MUSIC", "designationCode": "C", "categoryCode": "22", "address": "P.O. BOX 1112", "city": "SAINT JOHN", "province": "NB", "country": "CA", "postalCode": "E2L4W6", "twitter": "None", "instagram": "None", "facebook": "None", "youtube": "None", "website": "None", "summary": "None", "logo": "None", "latitude": 45.27342600000006, "longitude": -66.06407149999993}, "119206589RR0001": {"name": "DIVERSEcity Community Resources Society", "designationCode": "C", "categoryCode": "09", "address": "13455 76TH AVENUE", "city": "SURREY", "province": "BC", "country": "CA", "postalCode": "V3W2W3", "twitter": "None", "instagram": "None", "facebook": "None", "youtube": "None", "website": "None", "summary": "None", "logo": "None", "latitude": 49.14097659241748, "longitude": -122.84973047009117}, "892729344RR0001": {"name": "DIVINE LIFE MINISTRIES OF GRANBY INC", "designationCode": "C", "categoryCode": "39", "address": "147 DRUMMOND, APP. 2", "city": "GRANBY", "province": "QC", "country": "CA", "postalCode": "J2G2T1", "twitter": "None", "instagram": "None", "facebook": "None", "youtube": "None", "website": "None", "summary": "None", "logo": "None", "latitude": 45.40090201278195, "longitude": -72.71129970624368}, "887042307RR0001": {"name": "DIVINE MERCY CATHOLIC SCHOOL INC.", "designationCode": "C", "categoryCode": "20", "address": "30 DOUGLAS ST", "city": "SAINT JOHN", "province": "NB", "country": "CA", "postalCode": "E2K0G5", "twitter": "None", "instagram": "None", "facebook": "None", "youtube": "None", "website": "None", "summary": "None", "logo": "None", "latitude": 45.27425412726817, "longitude": -66.08104351030921}, "860036300RR0001": {"name": "DIVINE PENTECOSTAL CHURCH OF CHRIST APOSTOLIC CENTRE INC.", "designationCode": "C", "categoryCode": "49", "address": "399 CARNWITH DR E", "city": "WHITBY", "province": "ON", "country": "CA", "postalCode": "L1M0A8", "twitter": "None", "instagram": "None", "facebook": "None", "youtube": "None", "website": "None", "summary": "None", "logo": "None", "latitude": 43.96979914399033, "longitude": -78.94071486686128}, "892874140RR0001": {"name": "DIVINE SERVANT CHARITABLE FOUNDATION", "designationCode": "A", "categoryCode": "03", "address": "P.O. BOX 785                  STATION A", "city": "TORONTO", "province": "ON", "country": "CA", "postalCode": "M5W1G3", "twitter": "None", "instagram": "None", "facebook": "None", "youtube": "None", "website": "None", "summary": "None", "logo": "None", "latitude": 43.64868300000006, "longitude": -79.38544399999994}, "107021677RR0001": {"name": "DIVINE WORD EVANGELICAL LUTHERAN CHURCH", "designationCode": "C", "categoryCode": "32", "address": "1081 GREENBANK ROAD", "city": "NEPEAN", "province": "ON", "country": "CA", "postalCode": "K2J1X8", "twitter": "None", "instagram": "None", "facebook": "None", "youtube": "None", "website": "None", "summary": "None", "logo": "None", "latitude": 45.274634977811665, "longitude": -75.74877399065186}, "101410512RR0001": {"name": "DIVISION ROAD PRE-SCHOOL (KINGSVILLE) INC.", "designationCode": "C", "categoryCode": "29", "address": "50 MAIN STREET EAST", "city": "KINGSVILLE", "province": "ON", "country": "CA", "postalCode": "N9Y1A2", "twitter": "None", "instagram": "None", "facebook": "None", "youtube": "None", "website": "None", "summary": "None", "logo": "None", "latitude": 42.03797343161731, "longitude": -82.73799216313733}, "898345756RR0001": {"name": "DIVISION SCOLAIRE FRANCO-MANITOBAINE", "designationCode": "C", "categoryCode": "21", "address": "1263, CHEM DAWSON             CP204", "city": "LORETTE", "province": "MB", "country": "CA", "postalCode": "R0A0Y0", "twitter": "None", "instagram": "None", "facebook": "None", "youtube": "None", "website": "None", "summary": "None", "logo": "None", "latitude": 49.753961910893686, "longitude": -96.89746338737162}, "866508534RR0001": {"name": "DIVISION SCOLAIRE FRANCOPHONE #310", "designationCode": "C", "categoryCode": "20", "address": "201-1440 9 AVE N", "city": "REGINA", "province": "SK", "country": "CA", "postalCode": "S4R8B1", "twitter": "None", "instagram": "None", "facebook": "None", "youtube": "None", "website": "None", "summary": "None", "logo": "None", "latitude": 50.48439249105495, "longitude": -104.60190141618097}, "895043040RR0001": {"name": "DIVYA DURGA JYOTI HINDU SOCIETY", "designationCode": "C", "categoryCode": "48", "address": "59 HULLRICK DRIVE", "city": "ETOBICOKE", "province": "ON", "country": "CA", "postalCode": "M9W6W5", "twitter": "None", "instagram": "None", "facebook": "None", "youtube": "None", "website": "None", "summary": "None", "logo": "None", "latitude": 43.72069764167016, "longitude": -79.61750915153789}, "857297931RR0001": {"name": "DIVYA JYOTI JAGRATI SANSTHAN INC.", "designationCode": "C", "categoryCode": "48", "address": "24 TABER ROAD", "city": "TORONTO", "province": "ON", "country": "CA", "postalCode": "M9W3A5", "twitter": "None", "instagram": "None", "facebook": "None", "youtube": "None", "website": "None", "summary": "None", "logo": "None", "latitude": 43.718840431617316, "longitude": -79.57493802539099}, "107021818RR0001": {"name": "DIXIE BAPTIST CHURCH", "designationCode": "C", "categoryCode": "31", "address": "40 TYRE AVE", "city": "TORONTO", "province": "ON", "country": "CA", "postalCode": "M9B1R3", "twitter": "None", "instagram": "None", "facebook": "None", "youtube": "None", "website": "None", "summary": "None", "logo": "None", "latitude": 43.64491697919664, "longitude": -79.53753787996992}, "119288918RR1086": {"name": "DIXIE CONGREGATION OF JEHOVAH'S WITNESSES", "designationCode": "C", "categoryCode": "61", "address": "4351 DIXIE ROAD", "city": "MISSISSAUGA", "province": "ON", "country": "CA", "postalCode": "L4W1M9", "twitter": "None", "instagram": "None", "facebook": "None", "youtube": "None", "website": "None", "summary": "None", "logo": "None", "latitude": 43.62960737027508, "longitude": -79.61219583856568}, "107021800RR0001": {"name": "DIXIE PRESBYTERIAN CHURCH", "designationCode": "C", "categoryCode": "37", "address": "3065 CAWTHRA RD.", "city": "MISSISSAUGA", "province": "ON", "country": "CA", "postalCode": "L5A2X4", "twitter": "None", "instagram": "None", "facebook": "None", "youtube": "None", "website": "None", "summary": "None", "logo": "None", "latitude": 43.5959872151305, "longitude": -79.60198259417773}, "863798914RR0001": {"name": "DIXON COMMUNITY SERVICES", "designationCode": "C", "categoryCode": "59", "address": "557 DIXON RD #125", "city": "TORONTO", "province": "ON", "country": "CA", "postalCode": "M9W6K1", "twitter": "None", "instagram": "None", "facebook": "None", "youtube": "None", "website": "None", "summary": "None", "logo": "None", "latitude": 43.691241770356804, "longitude": -79.57209515996335}, "119288918RR0676": {"name": "DIXON CONGREGATION OF JEHOVAH'S WITNESSES", "designationCode": "C", "categoryCode": "61", "address": "PO BOX 4100 STN MAIN", "city": "GEORGETOWN", "province": "ON", "country": "CA", "postalCode": "L7G4Y4", "twitter": "None", "instagram": "None", "facebook": "None", "youtube": "None", "website": "None", "summary": "None", "logo": "None", "latitude": 43.676964428204535, "longitude": -79.92917582331788}, "865578496RR0001": {"name": "DIXON ENTRANCE MARITIME MUSEUM SOCIETY", "designationCode": "C", "categoryCode": "50", "address": "PO BOX 183", "city": "MASSET", "province": "BC", "country": "CA", "postalCode": "V0T1M0", "twitter": "None", "instagram": "None", "facebook": "None", "youtube": "None", "website": "None", "summary": "None", "logo": "None", "latitude": 54.01182000000006, "longitude": -132.14781}, "118886308RR0001": {"name": "DIXON HALL", "designationCode": "C", "categoryCode": "01", "address": "58 SUMACH ST", "city": "TORONTO", "province": "ON", "country": "CA", "postalCode": "M5A3J7", "twitter": "None", "instagram": "None", "facebook": "None", "youtube": "None", "website": "None", "summary": "None", "logo": "None", "latitude": 43.65622046710718, "longitude": -79.35871431239529}, "118886316RR0001": {"name": "DIXONS UNION CEMETERY", "designationCode": "C", "categoryCode": "59", "address": "3726 OLD SCHOOL RD", "city": "INGLEWOOD", "province": "ON", "country": "CA", "postalCode": "L7C0W2", "twitter": "None", "instagram": "None", "facebook": "None", "youtube": "None", "website": "None", "summary": "None", "logo": "None", "latitude": 43.76770430939326, "longitude": -79.83641924727068}, "133465450RR0001": {"name": "DIXVILLE HOME FOUNDATION - LA FONDATION DU DIXVILLE HOME", "designationCode": "C", "categoryCode": "13", "address": "34, RUE QUEEN", "city": "SHERBROOKE", "province": "QC", "country": "CA", "postalCode": "J1M1H9", "twitter": "None", "instagram": "None", "facebook": "None", "youtube": "None", "website": "None", "summary": "None", "logo": "None", "latitude": 45.35989925116863, "longitude": -71.85820741918207}, "869896506RR0001": {"name": "DJAVAD MOWAFAGHIAN FOUNDATION", "designationCode": "B", "categoryCode": "13", "address": "404-1111 LONSDALE AVE", "city": "NORTH VANCOUVER", "province": "BC", "country": "CA", "postalCode": "V7M2H4", "twitter": "None", "instagram": "None", "facebook": "None", "youtube": "None", "website": "None", "summary": "None", "logo": "None", "latitude": 49.31806020237673, "longitude": -123.07256528450614}, "809092505RR0001": {"name": "DKE University and College Funding Inc.", "designationCode": "C", "categoryCode": "29", "address": "9-1465 WEST 15TH AVE", "city": "VANCOUVER", "province": "BC", "country": "CA", "postalCode": "V6H1S4", "twitter": "None", "instagram": "None", "facebook": "None", "youtube": "None", "website": "None", "summary": "None", "logo": "None", "latitude": 49.25799148600598, "longitude": -123.1378292200935}, "859673279RR0001": {"name": "DMI MINISTRIES", "designationCode": "C", "categoryCode": "39", "address": "29 - 11757 236 ST", "city": "MAPLE RIDGE", "province": "BC", "country": "CA", "postalCode": "V4R2E4", "twitter": "None", "instagram": "None", "facebook": "None", "youtube": "None", "website": "None", "summary": "None", "logo": "None", "latitude": 49.21638302109182, "longitude": -122.56810497789765}, "118886365RR0001": {"name": "DNIPRO/VESELKA CULTURAL & EDUCATIONAL SOCIETY", "designationCode": "C", "categoryCode": "22", "address": "130 FROOD RD", "city": "SUDBURY", "province": "ON", "country": "CA", "postalCode": "P3C4Z4", "twitter": "None", "instagram": "None", "facebook": "None", "youtube": "None", "website": "None", "summary": "None", "logo": "None", "latitude": 46.49609436039622, "longitude": -81.00217033041076}, "888813573RR0001": {"name": "DNS RELIEF FELLOWSHIP", "designationCode": "C", "categoryCode": "09", "address": "24 SCARFAIR PATHWAY", "city": "TORONTO", "province": "ON", "country": "CA", "postalCode": "M1B4E8", "twitter": "None", "instagram": "None", "facebook": "None", "youtube": "None", "website": "None", "summary": "None", "logo": "None", "latitude": 43.80784342437529, "longitude": -79.21195951584036}, "899172894RR0001": {"name": "DO IT WITH CLASS YOUNG PEOPLE'S THEATRE INC.", "designationCode": "C", "categoryCode": "22", "address": "PO BOX 24015 RPO BROAD ST", "city": "REGINA", "province": "SK", "country": "CA", "postalCode": "S4P4J8", "twitter": "None", "instagram": "None", "facebook": "None", "youtube": "None", "website": "None", "summary": "None", "logo": "None", "latitude": 50.43119439121853, "longitude": -104.60422623418226}, "800578874RR0001": {"name": "DOAKTOWN ABUNDANT LIFE CHURCH INC.", "designationCode": "C", "categoryCode": "39", "address": "585 MAIN ST", "city": "DOAKTOWN", "province": "NB", "country": "CA", "postalCode": "E9C1Y3", "twitter": "None", "instagram": "None", "facebook": "None", "youtube": "None", "website": "None", "summary": "None", "logo": "None", "latitude": 46.569312007576364, "longitude": -66.10446986518768}, "867534356RR0001": {"name": "DOAKTOWN COMMUNITY-SCHOOL LIBRARY BOARD", "designationCode": "C", "categoryCode": "50", "address": "430 MAIN STREET", "city": "DOAKTOWN", "province": "NB", "country": "CA", "postalCode": "E9C1E8", "twitter": "None", "instagram": "None", "facebook": "None", "youtube": "None", "website": "None", "summary": "None", "logo": "None", "latitude": 46.55658415399631, "longitude": -66.12599622721358}, "130508856RR0001": {"name": "DOAKTOWN PASTORAL CHARGE,", "designationCode": "C", "categoryCode": "44", "address": "ST THOMAS UNITED CHURCH       367 MAIN STREET", "city": "DOAKTOWN", "province": "NB", "country": "CA", "postalCode": "E9C1E1", "twitter": "None", "instagram": "None", "facebook": "None", "youtube": "None", "website": "None", "summary": "None", "logo": "None", "latitude": 46.554909723953685, "longitude": -66.1328269423589}}