{"119288918RR1032": {"name": "Westview Congregation of Jehovah's Witnesses, Saskatoon, Saskatchewan", "designationCode": "C", "categoryCode": "61", "address": "118 CALDWELL CRES", "city": "SASKATOON", "province": "SK", "country": "CA", "postalCode": "S7M5E2", "twitter": "None", "instagram": "None", "facebook": "None", "youtube": "None", "website": "None", "summary": "None", "logo": "None", "latitude": 52.12106654232789, "longitude": -106.75327045542177}, "107392482RR0001": {"name": "Westwinds Communities", "designationCode": "C", "categoryCode": "01", "address": "833 9TH ST.SW", "city": "HIGH RIVER", "province": "AB", "country": "CA", "postalCode": "T1V1C3", "twitter": "None", "instagram": "None", "facebook": "None", "youtube": "None", "website": "None", "summary": "None", "logo": "None", "latitude": 50.57611458018295, "longitude": -113.88507322044244}, "805423241RR0001": {"name": "Westwold Christian Fellowship Society", "designationCode": "C", "categoryCode": "39", "address": "6775 DOUGLAS LAKE ROAD", "city": "WESTWOLD", "province": "BC", "country": "CA", "postalCode": "V0E3B1", "twitter": "None", "instagram": "None", "facebook": "None", "youtube": "None", "website": "None", "summary": "None", "logo": "None", "latitude": 50.45685080764447, "longitude": -119.78672228739693}, "867256653RR0001": {"name": "Westwood Regular Baptist Church", "designationCode": "C", "categoryCode": "31", "address": "10212 121 AVENUE", "city": "EDMONTON", "province": "AB", "country": "CA", "postalCode": "T5G0S9", "twitter": "None", "instagram": "None", "facebook": "None", "youtube": "None", "website": "None", "summary": "None", "logo": "None", "latitude": 53.575157482110825, "longitude": -113.4962415}, "804782134RR0001": {"name": "WestMOUNT Church Association", "designationCode": "C", "categoryCode": "39", "address": "430 - 1632 DICKSON AVE", "city": "KELOWNA", "province": "BC", "country": "CA", "postalCode": "V1Y7T2", "twitter": "None", "instagram": "None", "facebook": "None", "youtube": "None", "website": "None", "summary": "None", "logo": "None", "latitude": 49.880711055031625, "longitude": -119.4622902193161}, "743309924RR0001": {"name": "WestVillage Church Incorporated", "designationCode": "C", "categoryCode": "39", "address": "700 - 100 QUEEN ST", "city": "OTTAWA", "province": "ON", "country": "CA", "postalCode": "K1P1J9", "twitter": "None", "instagram": "None", "facebook": "None", "youtube": "None", "website": "None", "summary": "None", "logo": "None", "latitude": 45.42179783677668, "longitude": -75.69784066261774}, "849503842RR0001": {"name": "Wet'suwet'en Elders and Youth Education Society", "designationCode": "C", "categoryCode": "21", "address": "22 TOM DRIVE", "city": "BURNS LAKE", "province": "BC", "country": "CA", "postalCode": "V0J1E1", "twitter": "None", "instagram": "None", "facebook": "None", "youtube": "None", "website": "None", "summary": "None", "logo": "None"}, "108204777RR0001": {"name": "Wetaskiwin and District Museum Society", "designationCode": "C", "categoryCode": "50", "address": "5007-50 AVE", "city": "WETASKIWIN", "province": "AB", "country": "CA", "postalCode": "T9A0S3", "twitter": "None", "instagram": "None", "facebook": "None", "youtube": "None", "website": "None", "summary": "None", "logo": "None", "latitude": 52.96964153952927, "longitude": -113.37505588649081}, "769235490RR0001": {"name": "Wetaskiwin Medi Lend Society", "designationCode": "C", "categoryCode": "11", "address": "135 SPATINOW DR", "city": "WETASKIWIN", "province": "AB", "country": "CA", "postalCode": "T9A1W3", "twitter": "None", "instagram": "None", "facebook": "None", "youtube": "None", "website": "None", "summary": "None", "logo": "None", "latitude": 52.962288836578985, "longitude": -113.38610008558578}, "876343674RR0001": {"name": "Wetaskiwin Society for the Promotion of the English Language and Literacy", "designationCode": "C", "categoryCode": "21", "address": "PO BOX 6265", "city": "WETASKIWIN", "province": "AB", "country": "CA", "postalCode": "T9A2E9", "twitter": "None", "instagram": "None", "facebook": "None", "youtube": "None", "website": "None", "summary": "None", "logo": "None", "latitude": 52.96987500000006, "longitude": -113.37725149999994}, "857986590RR0001": {"name": "Wetlands Canada Foundation", "designationCode": "A", "categoryCode": "03", "address": "PO BOX 1160", "city": "OAK HAMMOCK", "province": "MB", "country": "CA", "postalCode": "R0C2Z0", "twitter": "None", "instagram": "None", "facebook": "None", "youtube": "None", "website": "None", "summary": "None", "logo": "None", "latitude": 50.12257313141207, "longitude": -97.09421358497096}, "810886028RR0001": {"name": "Weyburn & District Hospital Foundation Inc.", "designationCode": "A", "categoryCode": "13", "address": "BOX 1416", "city": "WEYBURN", "province": "SK", "country": "CA", "postalCode": "S4H3J9", "twitter": "None", "instagram": "None", "facebook": "None", "youtube": "None", "website": "None", "summary": "None", "logo": "None", "latitude": 49.66802700000005, "longitude": -103.85818999999994}, "119288918RR0318": {"name": "Weyburn Congregation of Jehovah's Witnesses, Weyburn, Saskatchewan", "designationCode": "C", "categoryCode": "61", "address": "83 10TH ST", "city": "WEYBURN", "province": "SK", "country": "CA", "postalCode": "S4H1G8", "twitter": "None", "instagram": "None", "facebook": "None", "youtube": "None", "website": "None", "summary": "None", "logo": "None", "latitude": 49.66053283236195, "longitude": -103.84432440911183}, "807121488RR0001": {"name": "Weyburn Public Library Branch", "designationCode": "C", "categoryCode": "50", "address": "49 BISON AVE", "city": "WEYBURN", "province": "SK", "country": "CA", "postalCode": "S4H0H9", "twitter": "None", "instagram": "None", "facebook": "None", "youtube": "None", "website": "None", "summary": "None", "logo": "None", "latitude": 49.66522236118433, "longitude": -103.85537345467961}, "108205204RR0001": {"name": "Weyburn Wor-Kin Shop Corp.", "designationCode": "C", "categoryCode": "11", "address": "1800 EBEL RD", "city": "WEYBURN", "province": "SK", "country": "CA", "postalCode": "S4H1V3", "twitter": "None", "instagram": "None", "facebook": "None", "youtube": "None", "website": "None", "summary": "None", "logo": "None", "latitude": 49.653873, "longitude": -103.82930953323051}, "119288918RR0295": {"name": "Weymouth Congregation of Jehovah's Witnesses, Weymouth, Nova Scotia", "designationCode": "C", "categoryCode": "61", "address": "PO BOX 36", "city": "WEYMOUTH", "province": "NS", "country": "CA", "postalCode": "B0W3T0", "twitter": "None", "instagram": "None", "facebook": "None", "youtube": "None", "website": "None", "summary": "None", "logo": "None", "latitude": 44.405940000000044, "longitude": -66.00887999999998}, "805838307RR0001": {"name": "WeAreHis Ministries", "designationCode": "C", "categoryCode": "39", "address": "315 - 9000 BIRCH ST", "city": "CHILLIWACK", "province": "BC", "country": "CA", "postalCode": "V2P8G2", "twitter": "None", "instagram": "None", "facebook": "None", "youtube": "None", "website": "None", "summary": "None", "logo": "None", "latitude": 49.16510530613422, "longitude": -121.95563958560804}, "725556526RR0001": {"name": "WeHaveAFace.org Canada", "designationCode": "C", "categoryCode": "11", "address": "51, SOPHIA STREET", "city": "BROCKVILLE", "province": "ON", "country": "CA", "postalCode": "K6V1V5", "twitter": "None", "instagram": "None", "facebook": "None", "youtube": "None", "website": "None", "summary": "None", "logo": "None", "latitude": 44.59999177378966, "longitude": -75.68284558782973}, "824005995RR0001": {"name": "What If Foundation", "designationCode": "A", "categoryCode": "03", "address": "1250-1500 GEORGIA W ST        PO BOX 62", "city": "VANCOUVER", "province": "BC", "country": "CA", "postalCode": "V6G2Z6", "twitter": "None", "instagram": "None", "facebook": "None", "youtube": "None", "website": "None", "summary": "None", "logo": "None", "latitude": 49.29013479542975, "longitude": -123.1300069287031}, "830835039RR0001": {"name": "What Kids Need Moncton Inc.", "designationCode": "C", "categoryCode": "09", "address": "177 WEST LANE", "city": "MONCTON", "province": "NB", "country": "CA", "postalCode": "E1C6V1", "twitter": "None", "instagram": "None", "facebook": "None", "youtube": "None", "website": "None", "summary": "None", "logo": "None", "latitude": 46.10460612545443, "longitude": -64.80298897610956}, "785183120RR0001": {"name": "What Would Adam Do", "designationCode": "C", "categoryCode": "21", "address": "PO BOX 434", "city": "DENARE BEACH", "province": "SK", "country": "CA", "postalCode": "S0P0B0", "twitter": "None", "instagram": "None", "facebook": "None", "youtube": "None", "website": "None", "summary": "None", "logo": "None", "latitude": 54.65890500000006, "longitude": -102.07980349999994}, "831041090RR0001": {"name": "Wheatland (Alberta) Charitable Trust", "designationCode": "B", "categoryCode": "45", "address": "3425 2ND AVE SOUTH", "city": "LETHBRIDGE", "province": "AB", "country": "CA", "postalCode": "T1J4V1", "twitter": "None", "instagram": "None", "facebook": "None", "youtube": "None", "website": "None", "summary": "None", "logo": "None", "latitude": 49.696839530439966, "longitude": -112.78914308381903}, "751608928RR0001": {"name": "Wheatland and Area Hospice Society", "designationCode": "C", "categoryCode": "10", "address": "POST OFFICE BOX 2370          225A WHEATLAND TRAIL", "city": "STRATHMORE", "province": "AB", "country": "CA", "postalCode": "T1P1K3", "twitter": "None", "instagram": "None", "facebook": "None", "youtube": "None", "website": "None", "summary": "None", "logo": "None", "latitude": 51.04162354406439, "longitude": -113.40022743002095}, "137422135RR0001": {"name": "Wheatland Crisis Society", "designationCode": "C", "categoryCode": "01", "address": "PO BOX 2162 STN MAIN", "city": "STRATHMORE", "province": "AB", "country": "CA", "postalCode": "T1P1K2", "twitter": "None", "instagram": "None", "facebook": "None", "youtube": "None", "website": "None", "summary": "None", "logo": "None", "latitude": 51.041247000000055, "longitude": -113.40029149999994}, "131434532RR0001": {"name": "Wheatley Pastoral Charge", "designationCode": "C", "categoryCode": "44", "address": "PO BOX 207", "city": "WHEATLEY", "province": "ON", "country": "CA", "postalCode": "N0P2P0", "twitter": "None", "instagram": "None", "facebook": "None", "youtube": "None", "website": "None", "summary": "None", "logo": "None", "latitude": 42.1475991071054, "longitude": -82.45917754061918}, "888887106RR0001": {"name": "Wheatley Two Creeks Association", "designationCode": "C", "categoryCode": "59", "address": "P O BOX 1011", "city": "WHEATLEY", "province": "ON", "country": "CA", "postalCode": "N0P2P0", "twitter": "None", "instagram": "None", "facebook": "None", "youtube": "None", "website": "None", "summary": "None", "logo": "None", "latitude": 42.1475991071054, "longitude": -82.45917754061918}, "857466627RR0001": {"name": "Wheaton Family Foundation", "designationCode": "B", "categoryCode": "03", "address": "2102 MILLAR AVENUE", "city": "SASKATCHEWAN", "province": "SK", "country": "CA", "postalCode": "S7K6P4", "twitter": "None", "instagram": "None", "facebook": "None", "youtube": "None", "website": "None", "summary": "None", "logo": "None", "latitude": 52.15905932555261, "longitude": -106.64948348617979}, "119296929RR0001": {"name": "Wheaton Settlement Baptist Church", "designationCode": "C", "categoryCode": "31", "address": "530 RIVER GLADE RD.", "city": "WHEATON SETTLEMENT", "province": "NB", "country": "CA", "postalCode": "E4Z3W3", "twitter": "None", "instagram": "None", "facebook": "None", "youtube": "None", "website": "None", "summary": "None", "logo": "None", "latitude": 46.01282254835688, "longitude": -65.16152716322239}, "827185695RR0001": {"name": "Wheatwyn-Bethlehem Cemetery Care Corporation", "designationCode": "C", "categoryCode": "59", "address": "PO BOX 8", "city": "CUPAR", "province": "SK", "country": "CA", "postalCode": "S0G0Y0", "twitter": "None", "instagram": "None", "facebook": "None", "youtube": "None", "website": "None", "summary": "None", "logo": "None", "latitude": 50.95008000000007, "longitude": -104.21777999999995}, "851876888RR0001": {"name": "Wheeler Family Foundation", "designationCode": "B", "categoryCode": "03", "address": "4775 PILOT HOUSE RD", "city": "WEST VANCOUVER", "province": "BC", "country": "CA", "postalCode": "V7W1J4", "twitter": "None", "instagram": "None", "facebook": "None", "youtube": "None", "website": "None", "summary": "None", "logo": "None", "latitude": 49.33869492619295, "longitude": -123.25395857435531}, "833280035RR0001": {"name": "Wheels for Wings", "designationCode": "C", "categoryCode": "09", "address": "5300-66 WELLINGTON STREET WESTTD BANK TOWER", "city": "TORONTO", "province": "ON", "country": "CA", "postalCode": "M5K1E6", "twitter": "None", "instagram": "None", "facebook": "None", "youtube": "None", "website": "None", "summary": "None", "logo": "None"}, "725354922RR0001": {"name": "Where Angels Play Canada", "designationCode": "C", "categoryCode": "56", "address": "180 MEMORIAL AVE", "city": "ORILLIA", "province": "ON", "country": "CA", "postalCode": "L3V5X6", "twitter": "None", "instagram": "None", "facebook": "None", "youtube": "None", "website": "None", "summary": "None", "logo": "None", "latitude": 44.59881482028121, "longitude": -79.4247925248683}, "842115289RR0001": {"name": "Whinnyinginlife", "designationCode": "C", "categoryCode": "56", "address": "5134 DUPUIS DRIVE", "city": "HANMER", "province": "ON", "country": "CA", "postalCode": "P3P0B3", "twitter": "None", "instagram": "None", "facebook": "None", "youtube": "None", "website": "None", "summary": "None", "logo": "None", "latitude": 46.66478234197361, "longitude": -80.87764101239688}, "851423426RR0001": {"name": "Whisker Rescue Society of Alberta", "designationCode": "C", "categoryCode": "54", "address": "PO BOX 27138 PLAZA POST OFFICE", "city": "RED DEER", "province": "AB", "country": "CA", "postalCode": "T4N6X8", "twitter": "None", "instagram": "None", "facebook": "None", "youtube": "None", "website": "None", "summary": "None", "logo": "None", "latitude": 52.26852300000006, "longitude": -113.80901299999994}, "832175582RR0001": {"name": "Whispering Hearts Horse Rescue Centre", "designationCode": "C", "categoryCode": "54", "address": "1652 CONCESSION 10            RR 5", "city": "HAGERSVILLE", "province": "ON", "country": "CA", "postalCode": "N0A1H0", "twitter": "None", "instagram": "None", "facebook": "None", "youtube": "None", "website": "None", "summary": "None", "logo": "None", "latitude": 42.938475758323776, "longitude": -80.00101642297854}, "108205915RR0001": {"name": "Whispering Hills Day Care Society", "designationCode": "C", "categoryCode": "01", "address": "2 UNIVERSITY DRIVE", "city": "ATHABASCA", "province": "AB", "country": "CA", "postalCode": "T9S0A3", "twitter": "None", "instagram": "None", "facebook": "None", "youtube": "None", "website": "None", "summary": "None", "logo": "None", "latitude": 54.717617665969144, "longitude": -113.30822376277966}, "840630081RR0001": {"name": "Whistler Centre for Sustainability Institute Society", "designationCode": "C", "categoryCode": "59", "address": "4325 BLACKCOMB WAY", "city": "WHISTLER", "province": "BC", "country": "CA", "postalCode": "V0N1B4", "twitter": "None", "instagram": "None", "facebook": "None", "youtube": "None", "website": "None", "summary": "None", "logo": "None", "latitude": 50.1172301191256, "longitude": -122.95368009926628}, "139998181RR0001": {"name": "Whistler Interfaith Society", "designationCode": "C", "categoryCode": "39", "address": "12 - 1006 LYNHAM RD", "city": "WHISTLER", "province": "BC", "country": "CA", "postalCode": "V0N1B1", "twitter": "None", "instagram": "None", "facebook": "None", "youtube": "None", "website": "None", "summary": "None", "logo": "None", "latitude": 50.08774720901366, "longitude": -123.03525575018769}, "817957525RR0001": {"name": "Whitby Oshawa Chinese Baptist Church", "designationCode": "C", "categoryCode": "31", "address": "122 KENT STREET,", "city": "WHITBY", "province": "ON", "country": "CA", "postalCode": "L1N4X9", "twitter": "None", "instagram": "None", "facebook": "None", "youtube": "None", "website": "None", "summary": "None", "logo": "None", "latitude": 43.88035687593056, "longitude": -78.94633279742031}, "884394701RR0001": {"name": "White Buffalo Aboriginal and Metis Health Society", "designationCode": "C", "categoryCode": "59", "address": "517 A TRANQUILLE RD", "city": "KAMLOOPS", "province": "BC", "country": "CA", "postalCode": "V2B3H3", "twitter": "None", "instagram": "None", "facebook": "None", "youtube": "None", "website": "None", "summary": "None", "logo": "None", "latitude": 50.69309395836462, "longitude": -120.3596608183679}, "827794132RR0001": {"name": "White Fields Calvary Church", "designationCode": "C", "categoryCode": "39", "address": "226 REUNION COURT", "city": "AIRDRIE", "province": "AB", "country": "CA", "postalCode": "T4B0G8", "twitter": "None", "instagram": "None", "facebook": "None", "youtube": "None", "website": "None", "summary": "None", "logo": "None", "latitude": 51.302035121011016, "longitude": -114.04229014706584}, "809221120RR0001": {"name": "White Owl Residence Care & Support Services", "designationCode": "C", "categoryCode": "11", "address": "36 COTE BLVD,", "city": "HANMER", "province": "ON", "country": "CA", "postalCode": "P3P1X5", "twitter": "None", "instagram": "None", "facebook": "None", "youtube": "None", "website": "None", "summary": "None", "logo": "None", "latitude": 46.65025150100961, "longitude": -80.9428725}, "141050708RR0001": {"name": "White Ribbon", "designationCode": "C", "categoryCode": "59", "address": "603 - 36 EGLINTON AVE W", "city": "TORONTO", "province": "ON", "country": "CA", "postalCode": "M4R1A1", "twitter": "None", "instagram": "None", "facebook": "None", "youtube": "None", "website": "None", "summary": "None", "logo": "None", "latitude": 43.706429223440374, "longitude": -79.39989737552654}, "791083090RR0001": {"name": "White Rock Korean Community Church", "designationCode": "C", "categoryCode": "39", "address": "15417 ROPER AVE", "city": "WHITE ROCK", "province": "BC", "country": "CA", "postalCode": "V4B2G4", "twitter": "None", "instagram": "None", "facebook": "None", "youtube": "None", "website": "None", "summary": "None", "logo": "None", "latitude": 49.025670461047675, "longitude": -122.79523419317329}, "747455897RR0001": {"name": "White Rock Lutheran Church", "designationCode": "B", "categoryCode": "32", "address": "1480 GEORGE ST", "city": "WHITE ROCK", "province": "BC", "country": "CA", "postalCode": "V4B4A3", "twitter": "None", "instagram": "None", "facebook": "None", "youtube": "None", "website": "None", "summary": "None", "logo": "None", "latitude": 49.02885883236195, "longitude": -122.79975955658172}, "845885938RR0001": {"name": "White Rock Mennonite Church", "designationCode": "C", "categoryCode": "39", "address": "3487 KING GEORGE BLVD", "city": "SURREY", "province": "BC", "country": "CA", "postalCode": "V4P1B7", "twitter": "None", "instagram": "None", "facebook": "None", "youtube": "None", "website": "None", "summary": "None", "logo": "None", "latitude": 49.06534765194193, "longitude": -122.81811091773885}, "859704165RR0001": {"name": "White Rock Muslim Association", "designationCode": "C", "categoryCode": "60", "address": "12222 68A AVE", "city": "SURREY", "province": "BC", "country": "CA", "postalCode": "V3W0X3", "twitter": "None", "instagram": "None", "facebook": "None", "youtube": "None", "website": "None", "summary": "None", "logo": "None", "latitude": 49.1275905212074, "longitude": -122.88393185942637}, "840723175RR0001": {"name": "White Rose Foundation Inc.", "designationCode": "B", "categoryCode": "03", "address": "215 PARK BLVD N", "city": "WINNIPEG", "province": "MB", "country": "CA", "postalCode": "R3P0G6", "twitter": "None", "instagram": "None", "facebook": "None", "youtube": "None", "website": "None", "summary": "None", "logo": "None", "latitude": 49.86889051234926, "longitude": -97.22007122462381}, "888137403RR0001": {"name": "White Spot Pipe Band Society", "designationCode": "C", "categoryCode": "22", "address": "12169 230 ST", "city": "MAPLE RIDGE", "province": "BC", "country": "CA", "postalCode": "V2X6R4", "twitter": "None", "instagram": "None", "facebook": "None", "youtube": "None", "website": "None", "summary": "None", "logo": "None", "latitude": 49.22304165889548, "longitude": -122.58492349448873}, "106693047RR0056": {"name": "Whitecourt Company of the Seventh-day Adventist Church", "designationCode": "C", "categoryCode": "41", "address": "5816 HIGHWAY, 2A", "city": "LACOMBE", "province": "AB", "country": "CA", "postalCode": "T4L2G5", "twitter": "None", "instagram": "None", "facebook": "None", "youtube": "None", "website": "None", "summary": "None", "logo": "None", "latitude": 52.474063600197404, "longitude": -113.71692568401835}, "108206483RR0001": {"name": "Whitecourt Hilltop Community Church", "designationCode": "C", "categoryCode": "39", "address": "32 WHITECOURT AVENUE", "city": "WHITECOURT", "province": "AB", "country": "CA", "postalCode": "T7S1H3", "twitter": "None", "instagram": "None", "facebook": "None", "youtube": "None", "website": "None", "summary": "None", "logo": "None", "latitude": 54.12752813379296, "longitude": -115.67232692855887}, "853305704RR0001": {"name": "Whitecourt Rotary Music Festival Society", "designationCode": "C", "categoryCode": "22", "address": "P.O. BOX 2376", "city": "WHITECOURT", "province": "AB", "country": "CA", "postalCode": "T7S1W3", "twitter": "None", "instagram": "None", "facebook": "None", "youtube": "None", "website": "None", "summary": "None", "logo": "None", "latitude": 54.12540300000006, "longitude": -115.66208149999994}, "825387053RR0001": {"name": "Whitefish River First Nation Community Support Organization", "designationCode": "C", "categoryCode": "59", "address": "17A RAINBOW RIDGE ROAD", "city": "BIRCH ISLAND", "province": "ON", "country": "CA", "postalCode": "P0P1A0", "twitter": "None", "instagram": "None", "facebook": "None", "youtube": "None", "website": "None", "summary": "None", "logo": "None", "latitude": 44.21602013485209, "longitude": -78.81941867645823}, "119288918RR1075": {"name": "Whitehorn Congregation of Jehovah's Witnesses, Calgary, Alberta", "designationCode": "C", "categoryCode": "61", "address": "113 CORAL SHORES BAY NE", "city": "CALGARY", "province": "AB", "country": "CA", "postalCode": "T2E6V9", "twitter": "None", "instagram": "None", "facebook": "None", "youtube": "None", "website": "None", "summary": "None", "logo": "None", "latitude": 51.10099916680134, "longitude": -113.93191068206478}, "833494396RR0001": {"name": "Whitehorse Fire Fighters Association", "designationCode": "A", "categoryCode": "53", "address": "PO BOX 31228 RPO MAIN ST", "city": "WHITEHORSE", "province": "YT", "country": "CA", "postalCode": "Y1A5P7", "twitter": "None", "instagram": "None", "facebook": "None", "youtube": "None", "website": "None", "summary": "None", "logo": "None", "latitude": 60.71897187917898, "longitude": -135.05620969857728}, "871744546RR0001": {"name": "Whites Road Pentecostal Church", "designationCode": "C", "categoryCode": "36", "address": "9171 WELLINGTON ROAD 5        RR#2", "city": "HARRISTON", "province": "ON", "country": "CA", "postalCode": "N0G1Z0", "twitter": "None", "instagram": "None", "facebook": "None", "youtube": "None", "website": "None", "summary": "None", "logo": "None", "latitude": 43.89354587503966, "longitude": -80.85653625587773}, "798214714RR0001": {"name": "Whitesand Charitable Trust", "designationCode": "B", "categoryCode": "45", "address": "3425 2 AVE S", "city": "LETHBRIDGE", "province": "AB", "country": "CA", "postalCode": "T1J4V1", "twitter": "None", "instagram": "None", "facebook": "None", "youtube": "None", "website": "None", "summary": "None", "logo": "None", "latitude": 49.696839530439966, "longitude": -112.78914308381903}, "815218359RR0001": {"name": "Whiteshell Charitable Trust", "designationCode": "B", "categoryCode": "45", "address": "2500-201 PORTAGE AVE", "city": "WINNIPEG", "province": "MB", "country": "CA", "postalCode": "R3B3K6", "twitter": "None", "instagram": "None", "facebook": "None", "youtube": "None", "website": "None", "summary": "None", "logo": "None", "latitude": 49.895359615067065, "longitude": -97.13919299627776}, "831047196RR0001": {"name": "Whiteside Church Preservation Society (St. Patrick's)", "designationCode": "C", "categoryCode": "38", "address": "1621 WHITESIDE RD., MODULE 3  P.O. BOX 7", "city": "CLEVELAND", "province": "NS", "country": "CA", "postalCode": "B0E1J0", "twitter": "None", "instagram": "None", "facebook": "None", "youtube": "None", "website": "None", "summary": "None", "logo": "None", "latitude": 45.60476622791242, "longitude": -61.191676850799375}, "792727521RR0001": {"name": "Whitestone Foundation Inc.", "designationCode": "B", "categoryCode": "03", "address": "13 HIGHVIEW CRES", "city": "TORONTO", "province": "ON", "country": "CA", "postalCode": "M6H2Y3", "twitter": "None", "instagram": "None", "facebook": "None", "youtube": "None", "website": "None", "summary": "None", "logo": "None", "latitude": 43.67657399169012, "longitude": -79.4354896635987}, "848662631RR0001": {"name": "Whole Kids Foundation / Fondation Whole Kids", "designationCode": "B", "categoryCode": "11", "address": "1250 REN\u00c9-L\u00c9VESQUE BOULEVARD  WEST", "city": "MONTREAL", "province": "QC", "country": "CA", "postalCode": "H3B4Y1", "twitter": "None", "instagram": "None", "facebook": "None", "youtube": "None", "website": "None", "summary": "None", "logo": "None", "latitude": 45.497635797911244, "longitude": -73.57123025818045}, "816145312RR0001": {"name": "Whole Life Apostolic Ministries", "designationCode": "C", "categoryCode": "39", "address": "43 LORRAINE CRES", "city": "BRAMPTON", "province": "ON", "country": "CA", "postalCode": "L6S2R6", "twitter": "None", "instagram": "None", "facebook": "None", "youtube": "None", "website": "None", "summary": "None", "logo": "None", "latitude": 43.70988509798596, "longitude": -79.74120167112916}, "846532638RR0001": {"name": "Whole Way House Society", "designationCode": "C", "categoryCode": "01", "address": "165 PENDER ST W", "city": "VANCOUVER", "province": "BC", "country": "CA", "postalCode": "V6B1S4", "twitter": "None", "instagram": "None", "facebook": "None", "youtube": "None", "website": "None", "summary": "None", "logo": "None", "latitude": 49.28137136943835, "longitude": -123.10915846849217}, "809136203RR0001": {"name": "Whycocomagh Child Development Centre", "designationCode": "C", "categoryCode": "01", "address": "POST OFFICE BOX 329", "city": "WHYCOCOMAGH", "province": "NS", "country": "CA", "postalCode": "B0E3M0", "twitter": "None", "instagram": "None", "facebook": "None", "youtube": "None", "website": "None", "summary": "None", "logo": "None", "latitude": 45.986578959739866, "longitude": -61.09164516623389}, "832905665RR0001": {"name": "Wicha Music Foundation / Fondation de musique Wicha", "designationCode": "B", "categoryCode": "23", "address": "1400 AVENUE DES PINS OUEST PH2", "city": "MONTREAL", "province": "QC", "country": "CA", "postalCode": "H3G1B1", "twitter": "None", "instagram": "None", "facebook": "None", "youtube": "None", "website": "None", "summary": "None", "logo": "None", "latitude": 45.50061959449484, "longitude": -73.58517161639472}, "860351741RR0001": {"name": "Wide Open Theatrical Escapades Inc.", "designationCode": "C", "categoryCode": "22", "address": "162 MOUNT ALLISON CRES", "city": "SASKATOON", "province": "SK", "country": "CA", "postalCode": "S7H4A5", "twitter": "None", "instagram": "None", "facebook": "None", "youtube": "None", "website": "None", "summary": "None", "logo": "None", "latitude": 52.12017824562872, "longitude": -106.59323569833784}, "709657696RR0001": {"name": "Wiikwemkoong Fellowship", "designationCode": "C", "categoryCode": "39", "address": "P.O. BOX 40", "city": "MANITOWANING", "province": "ON", "country": "CA", "postalCode": "P0P1N0", "twitter": "None", "instagram": "None", "facebook": "None", "youtube": "None", "website": "None", "summary": "None", "logo": "None", "latitude": 45.975226935529044, "longitude": -81.92327500984123}, "822069217RR0001": {"name": "Wilcam Foundation", "designationCode": "A", "categoryCode": "03", "address": "2421 BRISTOL CIRCLE           SUITE 206", "city": "OAKVILLE", "province": "ON", "country": "CA", "postalCode": "L6H5S9", "twitter": "None", "instagram": "None", "facebook": "None", "youtube": "None", "website": "None", "summary": "None", "logo": "None", "latitude": 43.519618413555236, "longitude": -79.67967458338634}, "817000805RR0001": {"name": "Wild for Life", "designationCode": "C", "categoryCode": "54", "address": "560 TURTLE LAKE ROAD", "city": "ROSSEAU", "province": "ON", "country": "CA", "postalCode": "P0C1J0", "twitter": "None", "instagram": "None", "facebook": "None", "youtube": "None", "website": "None", "summary": "None", "logo": "None", "latitude": 45.28014684540367, "longitude": -79.70125342394259}, "804465789RR0001": {"name": "Wild Earth Refuge", "designationCode": "C", "categoryCode": "54", "address": "529 GAYLORD DRIVE", "city": "OSHAWA", "province": "ON", "country": "CA", "postalCode": "L1K1L4", "twitter": "None", "instagram": "None", "facebook": "None", "youtube": "None", "website": "None", "summary": "None", "logo": "None", "latitude": 43.91710536412958, "longitude": -78.84251673893496}, "891276230RR0001": {"name": "Wild Excursions Productions Society", "designationCode": "C", "categoryCode": "22", "address": "209 - 1610 JUBILEE AVE", "city": "VICTORIA", "province": "BC", "country": "CA", "postalCode": "V8R6P3", "twitter": "None", "instagram": "None", "facebook": "None", "youtube": "None", "website": "None", "summary": "None", "logo": "None", "latitude": 48.427830167638064, "longitude": -123.33174286721665}, "802984773RR0001": {"name": "Wild Heart Music Program Society", "designationCode": "C", "categoryCode": "22", "address": "1978 BROUGHTON BOULEVARD", "city": "PORT MCNEILL", "province": "BC", "country": "CA", "postalCode": "V0N2R0", "twitter": "None", "instagram": "None", "facebook": "None", "youtube": "None", "website": "None", "summary": "None", "logo": "None", "latitude": 50.590056059120535, "longitude": -127.08151476527824}, "864315288RR0001": {"name": "Wild Horses of Alberta Society", "designationCode": "C", "categoryCode": "54", "address": "PO BOX 4154 STN MAIN", "city": "OLDS", "province": "AB", "country": "CA", "postalCode": "T4H1P7", "twitter": "None", "instagram": "None", "facebook": "None", "youtube": "None", "website": "None", "summary": "None", "logo": "None", "latitude": 51.791613000000055, "longitude": -114.11061199999993}, "107907685RR0001": {"name": "Wild Rose School Division # 66", "designationCode": "C", "categoryCode": "20", "address": "4912-43RD ST", "city": "ROCKY MOUNTAIN HOUSE", "province": "AB", "country": "CA", "postalCode": "T4T1P4", "twitter": "None", "instagram": "None", "facebook": "None", "youtube": "None", "website": "None", "summary": "None", "logo": "None", "latitude": 52.37431216763807, "longitude": -114.90401489425241}, "840904817RR0001": {"name": "Wilderness International (Canada)", "designationCode": "C", "categoryCode": "52", "address": "SUITE 346                     108-4301B SOUTH PARK DR", "city": "STONY PLAIN", "province": "AB", "country": "CA", "postalCode": "T7Z2A9", "twitter": "None", "instagram": "None", "facebook": "None", "youtube": "None", "website": "None", "summary": "None", "logo": "None", "latitude": 53.53955675645881, "longitude": -113.97882275645881}, "846726834RR0001": {"name": "Wilderness Trail", "designationCode": "C", "categoryCode": "56", "address": "497 MOOSEHORN ROAD", "city": "SIOUX LOOKOUT", "province": "ON", "country": "CA", "postalCode": "P8T1L5", "twitter": "None", "instagram": "None", "facebook": "None", "youtube": "None", "website": "None", "summary": "None", "logo": "None", "latitude": 50.063784000000055, "longitude": -91.97722699999993}, "119030831RR0001": {"name": "Wildlife Haven Rehabilitation Centre Inc.", "designationCode": "C", "categoryCode": "54", "address": "PO BOX 165", "city": "ILE DES CHENES", "province": "MB", "country": "CA", "postalCode": "R0A0T0", "twitter": "None", "instagram": "None", "facebook": "None", "youtube": "None", "website": "None", "summary": "None", "logo": "None", "latitude": 49.71193000000005, "longitude": -96.99441999999999}, "890590540RR0001": {"name": "Wildlife Winter Feeding Program Inc.", "designationCode": "C", "categoryCode": "54", "address": "PO BOX 742 STN MAIN", "city": "PARRY SOUND", "province": "ON", "country": "CA", "postalCode": "P2A2Z1", "twitter": "None", "instagram": "None", "facebook": "None", "youtube": "None", "website": "None", "summary": "None", "logo": "None", "latitude": 45.34362600000006, "longitude": -80.03579299999993}, "849688262RR0001": {"name": "WildlifeDirect Canada", "designationCode": "C", "categoryCode": "52", "address": "12 - 233 SPEERS RD", "city": "OAKVILLE", "province": "ON", "country": "CA", "postalCode": "L6K0J5", "twitter": "None", "instagram": "None", "facebook": "None", "youtube": "None", "website": "None", "summary": "None", "logo": "None", "latitude": 43.44371156015879, "longitude": -79.6900945704879}, "853884062RR0001": {"name": "Wildwood Golden Years", "designationCode": "C", "categoryCode": "09", "address": "100 ANN STREET                P.O.BOX 2200", "city": "ST.MARYS", "province": "ON", "country": "CA", "postalCode": "N4X1A1", "twitter": "None", "instagram": "None", "facebook": "None", "youtube": "None", "website": "None", "summary": "None", "logo": "None", "latitude": 43.26136861120869, "longitude": -81.15411573701101}, "845638006RR0001": {"name": "WildResearch Society", "designationCode": "C", "categoryCode": "59", "address": "11 - 220 TENTH ST", "city": "NEW WESTMINSTER", "province": "BC", "country": "CA", "postalCode": "V3M3X9", "twitter": "None", "instagram": "None", "facebook": "None", "youtube": "None", "website": "None", "summary": "None", "logo": "None", "latitude": 49.20443754980103, "longitude": -122.92036281949308}, "815729520RR0001": {"name": "Will For Riding Foundation", "designationCode": "C", "categoryCode": "56", "address": "123 TIMBERSTONE CRT", "city": "CALGARY", "province": "AB", "country": "CA", "postalCode": "T3Z3M6", "twitter": "None", "instagram": "None", "facebook": "None", "youtube": "None", "website": "None", "summary": "None", "logo": "None", "latitude": 51.07151269354936, "longitude": -114.28171111079722}, "806350351RR0001": {"name": "William and Marion Snell Foundation Inc.", "designationCode": "B", "categoryCode": "03", "address": "2200-ONE LOMBARD PLACE", "city": "WINNIPEG", "province": "MB", "country": "CA", "postalCode": "R3B0X7", "twitter": "None", "instagram": "None", "facebook": "None", "youtube": "None", "website": "None", "summary": "None", "logo": "None", "latitude": 49.89608549999999, "longitude": -97.13498849999999}, "822508503RR0001": {"name": "William and Odna McCarlie Foundation", "designationCode": "B", "categoryCode": "15", "address": "ONE MARKET SQUARE, SUITE N402 POST OFFICE NOX 7114, STN A", "city": "SAINT JOHN", "province": "NB", "country": "CA", "postalCode": "E2L4S5", "twitter": "None", "instagram": "None", "facebook": "None", "youtube": "None", "website": "None", "summary": "None", "logo": "None", "latitude": 45.27342600000006, "longitude": -66.06407149999993}, "826265704RR0001": {"name": "William and Robin Family Foundation", "designationCode": "B", "categoryCode": "03", "address": "SUITE 813                     38 AVENUE ROAD", "city": "TORONTO", "province": "ON", "country": "CA", "postalCode": "M5R2G2", "twitter": "None", "instagram": "None", "facebook": "None", "youtube": "None", "website": "None", "summary": "None", "logo": "None", "latitude": 43.670229810433405, "longitude": -79.3948121697442}, "824053813RR0001": {"name": "William and Shirley Lightburn Evangelistic Ministries", "designationCode": "C", "categoryCode": "47", "address": "5415 BELLIVEAU", "city": "BROSSARD", "province": "QC", "country": "CA", "postalCode": "J4Z2C5", "twitter": "None", "instagram": "None", "facebook": "None", "youtube": "None", "website": "None", "summary": "None", "logo": "None", "latitude": 45.4694291673496, "longitude": -73.44056599526813}, "842386310RR0001": {"name": "William Birchall Foundation", "designationCode": "B", "categoryCode": "03", "address": "120 ADELAIDE ST. W STE 2150", "city": "TORONTO", "province": "ON", "country": "CA", "postalCode": "M5H1T1", "twitter": "None", "instagram": "None", "facebook": "None", "youtube": "None", "website": "None", "summary": "None", "logo": "None", "latitude": 43.649477136880044, "longitude": -79.38292947726339}, "808659999RR0001": {"name": "William Carey Foundation, Canada", "designationCode": "C", "categoryCode": "39", "address": "PO BOX 338                    145 JOHN ST SOUTH", "city": "OTTERVILLE", "province": "ON", "country": "CA", "postalCode": "N0J1R0", "twitter": "None", "instagram": "None", "facebook": "None", "youtube": "None", "website": "None", "summary": "None", "logo": "None", "latitude": 42.92215668304575, "longitude": -80.59928637535364}, "129965133RR0001": {"name": "William Osler Health System Foundation", "designationCode": "A", "categoryCode": "13", "address": "20 LYNCH ST", "city": "BRAMPTON", "province": "ON", "country": "CA", "postalCode": "L6W2Z8", "twitter": "None", "instagram": "None", "facebook": "None", "youtube": "None", "website": "None", "summary": "None", "logo": "None", "latitude": 43.69125935404886, "longitude": -79.75261938553038}, "844367599RR0001": {"name": "Williamsburg Community Cemetery Board", "designationCode": "C", "categoryCode": "59", "address": "P.O BOX 740                   34 OTTAWA ST", "city": "MORRISBURG", "province": "ON", "country": "CA", "postalCode": "K0C1X0", "twitter": "None", "instagram": "None", "facebook": "None", "youtube": "None", "website": "None", "summary": "None", "logo": "None", "latitude": 44.89680454700242, "longitude": -75.18232884078645}, "802772475RR0001": {"name": "Willingdon Charitable Holdings Society", "designationCode": "C", "categoryCode": "43", "address": "4812 WILLINGDON AVE", "city": "BURNABY", "province": "BC", "country": "CA", "postalCode": "V5G3H6", "twitter": "None", "instagram": "None", "facebook": "None", "youtube": "None", "website": "None", "summary": "None", "logo": "None", "latitude": 49.241006999999996, "longitude": -123.0033918988983}, "119288918RR1711": {"name": "Willistead Park Sign Language Congregation of Jehovah's Witnesses, Windsor, Ontario", "designationCode": "C", "categoryCode": "61", "address": "6870 HAWTHORNE DR", "city": "WINDSOR", "province": "ON", "country": "CA", "postalCode": "N8T1J9", "twitter": "None", "instagram": "None", "facebook": "None", "youtube": "None", "website": "None", "summary": "None", "logo": "None", "latitude": 42.30704959400391, "longitude": -82.94030296159592}, "119288918RR1576": {"name": "Willow Brook Congregation of Jehovah's Witnesses, Airdrie, Alberta", "designationCode": "C", "categoryCode": "61", "address": "25-33 STONEGATE DR NW", "city": "AIRDRIE", "province": "AB", "country": "CA", "postalCode": "T4B2V9", "twitter": "None", "instagram": "None", "facebook": "None", "youtube": "None", "website": "None", "summary": "None", "logo": "None", "latitude": 51.300385650726255, "longitude": -114.01596873014525}, "805271780RR0001": {"name": "Willow Place Inc.", "designationCode": "C", "categoryCode": "09", "address": "PO BOX 1786 STN MAIN", "city": "WINNIPEG", "province": "MB", "country": "CA", "postalCode": "R3C2Z9", "twitter": "None", "instagram": "None", "facebook": "None", "youtube": "None", "website": "None", "summary": "None", "logo": "None", "latitude": 49.886161958421624, "longitude": -97.13345310241456}, "743362121RR0001": {"name": "Willow Ridge Chapel", "designationCode": "C", "categoryCode": "36", "address": "377 WOODBRIDGE AVE", "city": "WOODBRIDGE", "province": "ON", "country": "CA", "postalCode": "L4L2V7", "twitter": "None", "instagram": "None", "facebook": "None", "youtube": "None", "website": "None", "summary": "None", "logo": "None", "latitude": 43.78371715290729, "longitude": -79.60037941921958}, "812705135RR0001": {"name": "Willow Tree Community Inc.", "designationCode": "C", "categoryCode": "09", "address": "685 CANTERBURY DRIVE", "city": "FREDERICTON", "province": "NB", "country": "CA", "postalCode": "E3B4M6", "twitter": "None", "instagram": "None", "facebook": "None", "youtube": "None", "website": "None", "summary": "None", "logo": "None", "latitude": 45.92891229641071, "longitude": -66.63631404553053}, "822736666RR0001": {"name": "Willowbrook Community Pioneers Cemetery Organization", "designationCode": "C", "categoryCode": "59", "address": "700 MCINTOSH ST", "city": "REGINA", "province": "SK", "country": "CA", "postalCode": "S4T5B2", "twitter": "None", "instagram": "None", "facebook": "None", "youtube": "None", "website": "None", "summary": "None", "logo": "None"}, "119299071RR0001": {"name": "Willowdale Emmanuel United Church", "designationCode": "C", "categoryCode": "44", "address": "349 KENNETH AVENUE", "city": "TORONTO", "province": "ON", "country": "CA", "postalCode": "M2N4V9", "twitter": "None", "instagram": "None", "facebook": "None", "youtube": "None", "website": "None", "summary": "None", "logo": "None", "latitude": 43.77566799446009, "longitude": -79.41026824003147}, "852042142RR0001": {"name": "Willowstone Academy", "designationCode": "C", "categoryCode": "20", "address": "4091 LAKESHORE RD", "city": "KELOWNA", "province": "BC", "country": "CA", "postalCode": "V1W1V7", "twitter": "None", "instagram": "None", "facebook": "None", "youtube": "None", "website": "None", "summary": "None", "logo": "None", "latitude": 49.83706888954924, "longitude": -119.48751617672735}, "892564766RR0001": {"name": "Wilmot Agricultural Society", "designationCode": "C", "categoryCode": "56", "address": "PO BOX 6008", "city": "NEW HAMBURG", "province": "ON", "country": "CA", "postalCode": "N3A2K6", "twitter": "None", "instagram": "None", "facebook": "None", "youtube": "None", "website": "None", "summary": "None", "logo": "None", "latitude": 43.37823300000005, "longitude": -80.71132399999993}}