{"831229174RR0001": {"name": "Dominion Rehab Help Foundation", "designationCode": "C", "categoryCode": "13", "address": "3140 - 3300 BLOOR ST W", "city": "ETOBICOKE", "province": "ON", "country": "CA", "postalCode": "M8X2W8", "twitter": "None", "instagram": "None", "facebook": "None", "youtube": "None", "website": "None", "summary": "None", "logo": "None", "latitude": 43.646067529972214, "longitude": -79.51725539321156}, "812206597RR0001": {"name": "Dominium Assistance Dogs", "designationCode": "C", "categoryCode": "09", "address": "780 BARCOVAN BEACH RD         RR 2", "city": "CARRYING PLACE", "province": "ON", "country": "CA", "postalCode": "K0K1L0", "twitter": "None", "instagram": "None", "facebook": "None", "youtube": "None", "website": "None", "summary": "None", "logo": "None", "latitude": 44.024384011108495, "longitude": -77.62974976146907}, "821932985RR0001": {"name": "Don & Sandi Janzen Family Foundation Inc.", "designationCode": "B", "categoryCode": "03", "address": "45 WYNDHAM ESTATE DR", "city": "STEINBACH", "province": "MB", "country": "CA", "postalCode": "R5G2K5", "twitter": "None", "instagram": "None", "facebook": "None", "youtube": "None", "website": "None", "summary": "None", "logo": "None", "latitude": 49.52823608327191, "longitude": -96.66404120725554}, "809499247RR0001": {"name": "Don and Lynn Bendickson Foundation", "designationCode": "B", "categoryCode": "03", "address": "980 ALDER ST", "city": "CAMPBELL RIVER", "province": "BC", "country": "CA", "postalCode": "V9W2P9", "twitter": "None", "instagram": "None", "facebook": "None", "youtube": "None", "website": "None", "summary": "None", "logo": "None", "latitude": 50.02505661658591, "longitude": -125.2443628148525}, "803351162RR0001": {"name": "Don Boule de Neige Qu\u00e9bec", "designationCode": "C", "categoryCode": "09", "address": "1104-205 C\u00d4TE STE-CATHERINE", "city": "OUTREMONT", "province": "QC", "country": "CA", "postalCode": "H2V2A9", "twitter": "None", "instagram": "None", "facebook": "None", "youtube": "None", "website": "None", "summary": "None", "logo": "None", "latitude": 45.51614646768412, "longitude": -73.59804389217496}, "850895111RR0001": {"name": "Don Ramsay Memorial Scholarship", "designationCode": "C", "categoryCode": "21", "address": "790 DIAMOND ST                PO 496", "city": "HARRISON HOT SPRINGS", "province": "BC", "country": "CA", "postalCode": "V0M1K0", "twitter": "None", "instagram": "None", "facebook": "None", "youtube": "None", "website": "None", "summary": "None", "logo": "None", "latitude": 49.28868841326678, "longitude": -121.77886410716121}, "119288918RR1608": {"name": "Don Valley Spanish Congregation of Jehovah`s Witnesses, Toronto, Ontario", "designationCode": "C", "categoryCode": "61", "address": "172 DONLANDS AVENUE", "city": "TORONTO", "province": "ON", "country": "CA", "postalCode": "M4J3P8", "twitter": "None", "instagram": "None", "facebook": "None", "youtube": "None", "website": "None", "summary": "None", "logo": "None", "latitude": 43.68602851956261, "longitude": -79.33963662741631}, "717409296RR0001": {"name": "Donald & Julia Leung Foundation", "designationCode": "B", "categoryCode": "03", "address": "1250-1500 WEST GEORGIA BOX 62", "city": "VANCOUVER", "province": "BC", "country": "CA", "postalCode": "V6G2Z6", "twitter": "None", "instagram": "None", "facebook": "None", "youtube": "None", "website": "None", "summary": "None", "logo": "None", "latitude": 49.290187500000016, "longitude": -123.130035}, "812092765RR0001": {"name": "Donald Bainbridge Family Foundation", "designationCode": "B", "categoryCode": "03", "address": "3000-79 WELLINGTON STREET W", "city": "TORONTO", "province": "ON", "country": "CA", "postalCode": "M5K1N2", "twitter": "None", "instagram": "None", "facebook": "None", "youtube": "None", "website": "None", "summary": "None", "logo": "None", "latitude": 43.64695776155599, "longitude": -79.38126755508115}, "889255287RR0001": {"name": "Donald Moore Community Services Inc.", "designationCode": "C", "categoryCode": "09", "address": "108 LAVENDER DR", "city": "ANCASTER", "province": "ON", "country": "CA", "postalCode": "L9K1B1", "twitter": "None", "instagram": "None", "facebook": "None", "youtube": "None", "website": "None", "summary": "None", "logo": "None", "latitude": 43.23450959504312, "longitude": -79.9319165012694}, "813784220RR0001": {"name": "Donald O. Mowat Foundation Inc.", "designationCode": "B", "categoryCode": "21", "address": "722 COX POINT ROAD", "city": "CUMBERLAND BAY", "province": "NB", "country": "CA", "postalCode": "E4A2Y5", "twitter": "None", "instagram": "None", "facebook": "None", "youtube": "None", "website": "None", "summary": "None", "logo": "None", "latitude": 46.034321910064136, "longitude": -65.97406308220292}, "892553967RR0001": {"name": "Donald R. Sobey Family Foundation", "designationCode": "B", "categoryCode": "05", "address": "115 KING STREET", "city": "STELLARTON", "province": "NS", "country": "CA", "postalCode": "B0K1S0", "twitter": "None", "instagram": "None", "facebook": "None", "youtube": "None", "website": "None", "summary": "None", "logo": "None", "latitude": 45.56046585345377, "longitude": -62.65718627710788}, "841876402RR0001": {"name": "Donation in Trust Dr. James Douglas unto the Literary Historical Society", "designationCode": "B", "categoryCode": "55", "address": "1 PLACE VILLE MARIE           ROYAL TRUST, 5TH FLOOR SOUTH", "city": "MONTREAL", "province": "QC", "country": "CA", "postalCode": "H3B2B2", "twitter": "None", "instagram": "None", "facebook": "None", "youtube": "None", "website": "None", "summary": "None", "logo": "None", "latitude": 45.49987500000006, "longitude": -73.56867649999994}, "828899666RR0001": {"name": "Donna Schmidt Lung Cancer Prevention Society", "designationCode": "C", "categoryCode": "19", "address": "235 FAIRVIEW DR", "city": "CASTLEGAR", "province": "BC", "country": "CA", "postalCode": "V1N3S8", "twitter": "None", "instagram": "None", "facebook": "None", "youtube": "None", "website": "None", "summary": "None", "logo": "None", "latitude": 49.23432378098787, "longitude": -117.67494233179424}, "820666451RR0001": {"name": "Donner un Sens / Offer Meaning", "designationCode": "B", "categoryCode": "53", "address": "4877, AVENUE WILSON, APT. 405", "city": "NOTRE-DAME-DE-GRACE", "province": "QC", "country": "CA", "postalCode": "H3X3P3", "twitter": "None", "instagram": "None", "facebook": "None", "youtube": "None", "website": "None", "summary": "None", "logo": "None", "latitude": 45.477445294217674, "longitude": -73.63221047625379}, "795059724RR0001": {"name": "Donors Anonymous Foundation", "designationCode": "A", "categoryCode": "03", "address": "3402 - 450 SAGE VALLEY DR NW", "city": "CALGARY", "province": "AB", "country": "CA", "postalCode": "T3R0V5", "twitter": "None", "instagram": "None", "facebook": "None", "youtube": "None", "website": "None", "summary": "None", "logo": "None", "latitude": 51.18021253621105, "longitude": -114.15798047155059}, "806433165RR0001": {"name": "Donovan Family Foundation Incorporated", "designationCode": "B", "categoryCode": "03", "address": "206 - 1521 GRAFTON ST", "city": "HALIFAX", "province": "NS", "country": "CA", "postalCode": "B3J2B9", "twitter": "None", "instagram": "None", "facebook": "None", "youtube": "None", "website": "None", "summary": "None", "logo": "None", "latitude": 44.64431424785042, "longitude": -63.574080324023384}, "847470465RR0001": {"name": "Door of Hope Community Church Inc.", "designationCode": "C", "categoryCode": "39", "address": "100 IRONSIDE CRESCENT UNIT 11", "city": "TORONTO", "province": "ON", "country": "CA", "postalCode": "M1X1M9", "twitter": "None", "instagram": "None", "facebook": "None", "youtube": "None", "website": "None", "summary": "None", "logo": "None", "latitude": 43.82877115520192, "longitude": -79.24667741897959}, "842442899RR0001": {"name": "Dor Yeshorim Canada", "designationCode": "C", "categoryCode": "11", "address": "CP 48074                      CP BERNARD", "city": "MONTREAL", "province": "QC", "country": "CA", "postalCode": "H2V4S8", "twitter": "None", "instagram": "None", "facebook": "None", "youtube": "None", "website": "None", "summary": "None", "logo": "None", "latitude": 45.52062593395311, "longitude": -73.6082649594422}, "819390097RR0001": {"name": "Doris Beuree Estate", "designationCode": "B", "categoryCode": "45", "address": "275 DUNDAS STREET             11TH FLOOR", "city": "LONDON", "province": "ON", "country": "CA", "postalCode": "N6B3L1", "twitter": "None", "instagram": "None", "facebook": "None", "youtube": "None", "website": "None", "summary": "None", "logo": "None", "latitude": 42.985045049656804, "longitude": -81.24474432471588}, "889337598RR0001": {"name": "Dormition of the Most Holy Mother of God Ukrainian Catholic Parish", "designationCode": "C", "categoryCode": "38", "address": "BOX 552", "city": "SEXSMITH", "province": "AB", "country": "CA", "postalCode": "T0H3C0", "twitter": "None", "instagram": "None", "facebook": "None", "youtube": "None", "website": "None", "summary": "None", "logo": "None", "latitude": 55.348520000000065, "longitude": -118.78230999999994}, "801183963RR0001": {"name": "Dormition of the Most Holy Theotokos Serbian Orthodox Churchand School Congregation of GTA", "designationCode": "C", "categoryCode": "39", "address": "2476 LAZIO LANE", "city": "OAKVILLE", "province": "ON", "country": "CA", "postalCode": "L6M4P7", "twitter": "None", "instagram": "None", "facebook": "None", "youtube": "None", "website": "None", "summary": "None", "logo": "None", "latitude": 43.45176993031923, "longitude": -79.757838532633}, "824519680RR0001": {"name": "Dorset Community Partnership Fund", "designationCode": "C", "categoryCode": "59", "address": "1088 BELLWOOD ACRES ROAD", "city": "DORSET", "province": "ON", "country": "CA", "postalCode": "P0A1E0", "twitter": "None", "instagram": "None", "facebook": "None", "youtube": "None", "website": "None", "summary": "None", "logo": "None", "latitude": 45.222558367505115, "longitude": -78.93168939866716}, "823684758RR0001": {"name": "Dosaan Foundation", "designationCode": "C", "categoryCode": "09", "address": "287 BRIDGELAND AVENUE", "city": "TORONTO", "province": "ON", "country": "CA", "postalCode": "M6A1Z6", "twitter": "None", "instagram": "None", "facebook": "None", "youtube": "None", "website": "None", "summary": "None", "logo": "None", "latitude": 43.72379186311998, "longitude": -79.47108410364145}, "826939936RR0001": {"name": "Double Grace Anointing Church Inc.", "designationCode": "C", "categoryCode": "39", "address": "14-25 DRIFTWOOD CRT", "city": "NORTH YORK", "province": "ON", "country": "CA", "postalCode": "M3N2P9", "twitter": "None", "instagram": "None", "facebook": "None", "youtube": "None", "website": "None", "summary": "None", "logo": "None", "latitude": 43.76886482347514, "longitude": -79.51489461728877}, "838942860RR0001": {"name": "Douglas and Margaret Derry Foundation", "designationCode": "B", "categoryCode": "03", "address": "20243 HEART LAKE ROAD", "city": "CALEDON", "province": "ON", "country": "CA", "postalCode": "L7K2A8", "twitter": "None", "instagram": "None", "facebook": "None", "youtube": "None", "website": "None", "summary": "None", "logo": "None", "latitude": 43.917441323676684, "longitude": -80.02562224637946}, "842155186RR0001": {"name": "Douglas A. Flett Foundation", "designationCode": "B", "categoryCode": "03", "address": "331 DELAWARE AVENUE", "city": "BURLINGTON", "province": "ON", "country": "CA", "postalCode": "L7R3B3", "twitter": "None", "instagram": "None", "facebook": "None", "youtube": "None", "website": "None", "summary": "None", "logo": "None", "latitude": 43.33233635527142, "longitude": -79.78505647403209}, "791957095RR0001": {"name": "Douglas Cardinal Foundation for Indigenous Waldorf Education", "designationCode": "C", "categoryCode": "20", "address": "140 BRUYERE STREET", "city": "OTTAWA", "province": "ON", "country": "CA", "postalCode": "K1N5E1", "twitter": "None", "instagram": "None", "facebook": "None", "youtube": "None", "website": "None", "summary": "None", "logo": "None", "latitude": 45.43299663307181, "longitude": -75.6939112971032}, "777315516RR0001": {"name": "Douglas Harold Evans Charitable Foundation", "designationCode": "B", "categoryCode": "05", "address": "PO BOX 150 STN 1ST CAN PLACE", "city": "TORONTO", "province": "ON", "country": "CA", "postalCode": "M5X1H3", "twitter": "None", "instagram": "None", "facebook": "None", "youtube": "None", "website": "None", "summary": "None", "logo": "None", "latitude": 43.64868300000006, "longitude": -79.38544399999994}, "804241644RR0001": {"name": "Douglas Kuhl School of Music Inc.", "designationCode": "C", "categoryCode": "22", "address": "252 11TH STREET", "city": "WINKLER", "province": "MB", "country": "CA", "postalCode": "R6W1X2", "twitter": "None", "instagram": "None", "facebook": "None", "youtube": "None", "website": "None", "summary": "None", "logo": "None", "latitude": 49.18066107799066, "longitude": -97.94931347284866}, "849420211RR0001": {"name": "Douglas Park Community School Society", "designationCode": "C", "categoryCode": "21", "address": "5409 206TH ST", "city": "LANGLEY", "province": "BC", "country": "CA", "postalCode": "V3A2C5", "twitter": "None", "instagram": "None", "facebook": "None", "youtube": "None", "website": "None", "summary": "None", "logo": "None", "latitude": 49.1004681607541, "longitude": -122.65195828713996}, "839789013RR0001": {"name": "Doulos Gospel Music Ministry", "designationCode": "C", "categoryCode": "47", "address": "169 HILLCREST AVE", "city": "NORTH YORK", "province": "ON", "country": "CA", "postalCode": "M2N3N9", "twitter": "None", "instagram": "None", "facebook": "None", "youtube": "None", "website": "None", "summary": "None", "logo": "None", "latitude": 43.76932885316529, "longitude": -79.40375637010217}, "837988039RR0001": {"name": "Dove Missions Canada", "designationCode": "C", "categoryCode": "09", "address": "120 CLAPPERTON ST", "city": "BARRIE", "province": "ON", "country": "CA", "postalCode": "L4M3G4", "twitter": "None", "instagram": "None", "facebook": "None", "youtube": "None", "website": "None", "summary": "None", "logo": "None", "latitude": 44.39534519455828, "longitude": -79.6924682334237}, "840192538RR0001": {"name": "Down Syndrome Association of Kingston", "designationCode": "C", "categoryCode": "11", "address": "364 CARRIE CRESCENT", "city": "KINGSTON", "province": "ON", "country": "CA", "postalCode": "K7M5X5", "twitter": "None", "instagram": "None", "facebook": "None", "youtube": "None", "website": "None", "summary": "None", "logo": "None", "latitude": 44.23023998473655, "longitude": -76.58099539783045}, "891055170RR0001": {"name": "Down Syndrome Association of Peel", "designationCode": "C", "categoryCode": "09", "address": "51 IRWIN CRES", "city": "GEORGETOWN", "province": "ON", "country": "CA", "postalCode": "L7G1E7", "twitter": "None", "instagram": "None", "facebook": "None", "youtube": "None", "website": "None", "summary": "None", "logo": "None", "latitude": 43.63947891727751, "longitude": -79.89254829848817}, "889238267RR0001": {"name": "Down Syndrome Association of Simcoe County", "designationCode": "C", "categoryCode": "09", "address": "PO BOX 22008 RPO BIG BAY POINT", "city": "BARRIE", "province": "ON", "country": "CA", "postalCode": "L4N0Z5", "twitter": "None", "instagram": "None", "facebook": "None", "youtube": "None", "website": "None", "summary": "None", "logo": "None", "latitude": 44.364101075667065, "longitude": -79.61625658219833}, "843199811RR0001": {"name": "Down Syndrome Research Institute", "designationCode": "C", "categoryCode": "20", "address": "4105 CATHERINE STREET", "city": "DORCHESTER", "province": "ON", "country": "CA", "postalCode": "N0L1G0", "twitter": "None", "instagram": "None", "facebook": "None", "youtube": "None", "website": "None", "summary": "None", "logo": "None", "latitude": 42.98957891419042, "longitude": -81.06578740325479}, "119121978RR0001": {"name": "Downsview Presbyterian Church", "designationCode": "C", "categoryCode": "37", "address": "4110 CHESSWOOD DR", "city": "NORTH YORK", "province": "ON", "country": "CA", "postalCode": "M3J2B9", "twitter": "None", "instagram": "None", "facebook": "None", "youtube": "None", "website": "None", "summary": "None", "logo": "None", "latitude": 43.75853387313195, "longitude": -79.47770737864226}, "119288918RR1482": {"name": "Downsview Spanish Congregation of Jehovah's Witnesses, Toronto, Ontario", "designationCode": "C", "categoryCode": "61", "address": "16 ARROW ROAD", "city": "TORONTO", "province": "ON", "country": "CA", "postalCode": "M9M2L7", "twitter": "None", "instagram": "None", "facebook": "None", "youtube": "None", "website": "None", "summary": "None", "logo": "None", "latitude": 43.73638723896361, "longitude": -79.52951807608606}, "858855653RR0001": {"name": "Downtown Eastside Neighbourhood House Society", "designationCode": "C", "categoryCode": "09", "address": "#408-533 EAST HASTINGS ST", "city": "VANCOUVER", "province": "BC", "country": "CA", "postalCode": "V6A1P9", "twitter": "None", "instagram": "None", "facebook": "None", "youtube": "None", "website": "None", "summary": "None", "logo": "None", "latitude": 49.28121447157925, "longitude": -123.09239288773155}, "820140937RR0001": {"name": "Downtown Outreach Bible Chapel", "designationCode": "C", "categoryCode": "39", "address": "5522 LION ST, PO BOX 353", "city": "OSGOODE", "province": "ON", "country": "CA", "postalCode": "K0A2W0", "twitter": "None", "instagram": "None", "facebook": "None", "youtube": "None", "website": "None", "summary": "None", "logo": "None", "latitude": 45.143811147094496, "longitude": -75.60872038758733}, "821577400RR0001": {"name": "Downtown Windsor Community Collaborative", "designationCode": "C", "categoryCode": "39", "address": "1005 VICTORIA AVENUE", "city": "WINDSOR", "province": "ON", "country": "CA", "postalCode": "N9A4N7", "twitter": "None", "instagram": "None", "facebook": "None", "youtube": "None", "website": "None", "summary": "None", "logo": "None", "latitude": 42.3081379494778, "longitude": -83.03543058384768}, "851034058RR0001": {"name": "Doxa Canada Ministries", "designationCode": "C", "categoryCode": "49", "address": "7115 44 AVE NW", "city": "EDMONTON", "province": "AB", "country": "CA", "postalCode": "T6K0V4", "twitter": "None", "instagram": "None", "facebook": "None", "youtube": "None", "website": "None", "summary": "None", "logo": "None", "latitude": 53.48347295556599, "longitude": -113.4484849067459}, "842713323RR0001": {"name": "Doxa Pentecostal Tabernacle Ministries", "designationCode": "C", "categoryCode": "36", "address": "658 SUNBIRD TRAIL", "city": "PICKERING", "province": "ON", "country": "CA", "postalCode": "L1X2X6", "twitter": "None", "instagram": "None", "facebook": "None", "youtube": "None", "website": "None", "summary": "None", "logo": "None", "latitude": 43.84302474887402, "longitude": -79.12916954952733}, "864989405RR0001": {"name": "Dr. Abdishakur Jowhar Foundation", "designationCode": "C", "categoryCode": "01", "address": "75 APPLE VALLEY WAY", "city": "BRAMPTON", "province": "ON", "country": "CA", "postalCode": "L6P3Z4", "twitter": "None", "instagram": "None", "facebook": "None", "youtube": "None", "website": "None", "summary": "None", "logo": "None", "latitude": 43.799249565381594, "longitude": -79.67049839229053}, "874622475RR0001": {"name": "Dr. E.P. Scarlett Parents' and Alumni Association \"Friends of Scarlett\"", "designationCode": "C", "categoryCode": "21", "address": "220 CANTERBURY DRIVE S.W.", "city": "CALGARY", "province": "AB", "country": "CA", "postalCode": "T2W1H4", "twitter": "None", "instagram": "None", "facebook": "None", "youtube": "None", "website": "None", "summary": "None", "logo": "None", "latitude": 50.94787447489747, "longitude": -114.0872900553696}, "122104623RR0001": {"name": "Dr. F.H. Wigmore Regional Hospital Auxiliary Inc.", "designationCode": "C", "categoryCode": "13", "address": "55 DIEFENBAKER DR", "city": "MOOSE JAW", "province": "SK", "country": "CA", "postalCode": "S6J0C2", "twitter": "None", "instagram": "None", "facebook": "None", "youtube": "None", "website": "None", "summary": "None", "logo": "None", "latitude": 50.41760445078033, "longitude": -105.52915463769627}, "845475458RR0001": {"name": "Dr. Fouad Tayfour Charitable Foundation", "designationCode": "A", "categoryCode": "03", "address": "2224 WALKER ROAD              UNIT # 30", "city": "WINDSOR", "province": "ON", "country": "CA", "postalCode": "N8W5L7", "twitter": "None", "instagram": "None", "facebook": "None", "youtube": "None", "website": "None", "summary": "None", "logo": "None", "latitude": 42.30113505499425, "longitude": -82.99368399045031}, "857341051RR0001": {"name": "Dr. Hans Weber Memorial Foundation", "designationCode": "C", "categoryCode": "21", "address": "926 NORTH BLACK RIVER ROAD", "city": "BLACK RIVER BRIDGE", "province": "NB", "country": "CA", "postalCode": "E1N5T3", "twitter": "None", "instagram": "None", "facebook": "None", "youtube": "None", "website": "None", "summary": "None", "logo": "None", "latitude": 47.02370992367381, "longitude": -65.24229373696596}, "807609151RR0001": {"name": "Dr. Harry Callaghan Pediatric Foundation Inc.", "designationCode": "B", "categoryCode": "13", "address": "13 LOWER GATE LANE", "city": "STRATFORD", "province": "PE", "country": "CA", "postalCode": "C1B1M9", "twitter": "None", "instagram": "None", "facebook": "None", "youtube": "None", "website": "None", "summary": "None", "logo": "None", "latitude": 46.19926766472386, "longitude": -63.115857219545234}, "802893404RR0001": {"name": "Dr. Jast Trust Foundation", "designationCode": "B", "categoryCode": "05", "address": "183 SHERATON DRIVE", "city": "MONTREAL-WEST", "province": "QC", "country": "CA", "postalCode": "H4X1N7", "twitter": "None", "instagram": "None", "facebook": "None", "youtube": "None", "website": "None", "summary": "None", "logo": "None", "latitude": 45.45446800877546, "longitude": -73.66146400349135}, "841536980RR0001": {"name": "Dr. Jay Children's Grief Centre", "designationCode": "C", "categoryCode": "09", "address": "112 - 82 LOMBARD ST", "city": "TORONTO", "province": "ON", "country": "CA", "postalCode": "M5C2S8", "twitter": "None", "instagram": "None", "facebook": "None", "youtube": "None", "website": "None", "summary": "None", "logo": "None", "latitude": 43.652053172369925, "longitude": -79.374220071614}, "816455463RR0001": {"name": "Dr. John Dougan Centre for Mental Health Promotion", "designationCode": "C", "categoryCode": "11", "address": "PO BOX 124 STN MAIN", "city": "ACTON", "province": "ON", "country": "CA", "postalCode": "L7J2M3", "twitter": "None", "instagram": "None", "facebook": "None", "youtube": "None", "website": "None", "summary": "None", "logo": "None", "latitude": 43.63596821939379, "longitude": -80.04985348673739}, "804464535RR0001": {"name": "Dr. Ken Citron Charitable Trust", "designationCode": "B", "categoryCode": "05", "address": "131 BALMORAL AVE", "city": "TORONTO", "province": "ON", "country": "CA", "postalCode": "M4V1J5", "twitter": "None", "instagram": "None", "facebook": "None", "youtube": "None", "website": "None", "summary": "None", "logo": "None", "latitude": 43.68462483484343, "longitude": -79.39894637301637}, "820313286RR0001": {"name": "Dr. L.A. Goodridge Memorial Fund Trust", "designationCode": "A", "categoryCode": "25", "address": "380 WELLINGTON ST 12TH FLOOR", "city": "LONDON", "province": "ON", "country": "CA", "postalCode": "N6A5B5", "twitter": "None", "instagram": "None", "facebook": "None", "youtube": "None", "website": "None", "summary": "None", "logo": "None", "latitude": 42.98403487844074, "longitude": -81.24475227780037}, "859445629RR0001": {"name": "Dr. Lou and Mae Lukenda Charitable Foundation", "designationCode": "B", "categoryCode": "03", "address": "747 QUEEN STREET E            PO BOX 1109", "city": "SAULT STE. MARIE", "province": "ON", "country": "CA", "postalCode": "P6A5N7", "twitter": "None", "instagram": "None", "facebook": "None", "youtube": "None", "website": "None", "summary": "None", "logo": "None", "latitude": 46.50727513737099, "longitude": -84.3267115206878}, "850550195RR0001": {"name": "Dr. Njenga Foundation Charity", "designationCode": "C", "categoryCode": "09", "address": "5841 - 138 STREET", "city": "SURREY", "province": "BC", "country": "CA", "postalCode": "V3X0C9", "twitter": "None", "instagram": "None", "facebook": "None", "youtube": "None", "website": "None", "summary": "None", "logo": "None", "latitude": 49.10916031057763, "longitude": -122.83944460926735}, "867152134RR0001": {"name": "Dr. Noble Irwin Regional Healthcare Foundation Inc.", "designationCode": "A", "categoryCode": "13", "address": "2051 SASKATCHEWAN DR", "city": "SWIFT CURRENT", "province": "SK", "country": "CA", "postalCode": "S9H0X6", "twitter": "None", "instagram": "None", "facebook": "None", "youtube": "None", "website": "None", "summary": "None", "logo": "None", "latitude": 50.31120964640201, "longitude": -107.773193140949}, "825815186RR0001": {"name": "Dr. Woo Hon Fai Memorial Foundation", "designationCode": "B", "categoryCode": "03", "address": "418 - 88 PENDER ST E", "city": "VANCOUVER", "province": "BC", "country": "CA", "postalCode": "V6A3X3", "twitter": "None", "instagram": "None", "facebook": "None", "youtube": "None", "website": "None", "summary": "None", "logo": "None", "latitude": 49.28040848845882, "longitude": -123.10275455398464}, "813404688RR0001": {"name": "Dr.C.Mathew Yaltho Foundation", "designationCode": "A", "categoryCode": "03", "address": "108 GRANDISLE WAY", "city": "EDMONTON", "province": "AB", "country": "CA", "postalCode": "T6M2N7", "twitter": "None", "instagram": "None", "facebook": "None", "youtube": "None", "website": "None", "summary": "None", "logo": "None", "latitude": 53.43434886721758, "longitude": -113.6623483929257}, "809322787RR0001": {"name": "Dragon Fire Charitable Foundation", "designationCode": "B", "categoryCode": "03", "address": "PO BOX 21600 RPO LITTLE ITALY", "city": "VANCOUVER", "province": "BC", "country": "CA", "postalCode": "V5L5G2", "twitter": "None", "instagram": "None", "facebook": "None", "youtube": "None", "website": "None", "summary": "None", "logo": "None", "latitude": 49.280496000000056, "longitude": -123.06684499999994}, "802565754RR0001": {"name": "Dragon Tamers", "designationCode": "C", "categoryCode": "11", "address": "P.O. BOX 65", "city": "KENORA", "province": "ON", "country": "CA", "postalCode": "P9N3X1", "twitter": "None", "instagram": "None", "facebook": "None", "youtube": "None", "website": "None", "summary": "None", "logo": "None", "latitude": 49.77125700000006, "longitude": -94.48912249999994}, "841319809RR0001": {"name": "Dragon View Gardens Cancer Support and Resource Program", "designationCode": "A", "categoryCode": "13", "address": "134 MARTIN DRIVE", "city": "BELLE RIVER", "province": "ON", "country": "CA", "postalCode": "N0R1A0", "twitter": "None", "instagram": "None", "facebook": "None", "youtube": "None", "website": "None", "summary": "None", "logo": "None", "latitude": 42.305613442148896, "longitude": -82.81152985928213}, "816850986RR0001": {"name": "Dragonfly Counselling & Support Centre", "designationCode": "C", "categoryCode": "09", "address": "1004 - 4313 50 AVE", "city": "BONNYVILLE", "province": "AB", "country": "CA", "postalCode": "T9N0B4", "twitter": "None", "instagram": "None", "facebook": "None", "youtube": "None", "website": "None", "summary": "None", "logo": "None", "latitude": 54.26799749321933, "longitude": -110.7253035}, "850807843RR0001": {"name": "Dravet.ca", "designationCode": "C", "categoryCode": "11", "address": "211 - 2400 DUNDAS ST W", "city": "MISSISSAUGA", "province": "ON", "country": "CA", "postalCode": "L5K2R8", "twitter": "None", "instagram": "None", "facebook": "None", "youtube": "None", "website": "None", "summary": "None", "logo": "None", "latitude": 43.543128663519944, "longitude": -79.65839818301347}, "106693047RR0062": {"name": "Drayton Valley Seventh-day Adventist Company", "designationCode": "C", "categoryCode": "41", "address": "5816 HIGHWAY 2A", "city": "LACOMBE", "province": "AB", "country": "CA", "postalCode": "T4L2G5", "twitter": "None", "instagram": "None", "facebook": "None", "youtube": "None", "website": "None", "summary": "None", "logo": "None", "latitude": 52.474063600197404, "longitude": -113.71692568401835}, "847250305RR0001": {"name": "Dream on Seniors Wish Foundation", "designationCode": "C", "categoryCode": "09", "address": "502 - 5525 WEST BOULEVARD", "city": "VANCOUVER", "province": "BC", "country": "CA", "postalCode": "V6M3W6", "twitter": "None", "instagram": "None", "facebook": "None", "youtube": "None", "website": "None", "summary": "None", "logo": "None", "latitude": 49.23618429704238, "longitude": -123.15559426785543}, "847600681RR0001": {"name": "Dream Big Child Care Inc.", "designationCode": "C", "categoryCode": "01", "address": "PO BOX 38", "city": "ROCANVILLE", "province": "SK", "country": "CA", "postalCode": "S0A3L0", "twitter": "None", "instagram": "None", "facebook": "None", "youtube": "None", "website": "None", "summary": "None", "logo": "None", "latitude": 50.377500000000055, "longitude": -101.68600999999995}, "107383846RR0001": {"name": "Dream Centre Yorkton Inc.", "designationCode": "C", "categoryCode": "36", "address": "244 MYRTLE AVE", "city": "YORKTON", "province": "SK", "country": "CA", "postalCode": "S3N1R4", "twitter": "None", "instagram": "None", "facebook": "None", "youtube": "None", "website": "None", "summary": "None", "logo": "None", "latitude": 51.219233329447746, "longitude": -102.46560436678396}, "119108777RR0001": {"name": "Dream Factory Foundation Inc.", "designationCode": "C", "categoryCode": "09", "address": "303-1 WESLEY AVE", "city": "WINNIPEG", "province": "MB", "country": "CA", "postalCode": "R3C4C6", "twitter": "None", "instagram": "None", "facebook": "None", "youtube": "None", "website": "None", "summary": "None", "logo": "None", "latitude": 49.89270373510321, "longitude": -97.13672106771274}, "828817858RR0001": {"name": "Dream Nation Christian Center", "designationCode": "B", "categoryCode": "39", "address": "71 TREMBLAY AVENUE", "city": "WOODBRIDGE", "province": "ON", "country": "CA", "postalCode": "L4H2X1", "twitter": "None", "instagram": "None", "facebook": "None", "youtube": "None", "website": "None", "summary": "None", "logo": "None", "latitude": 43.83297000000002, "longitude": -79.56701440172559}, "779377894RR0001": {"name": "Dream Unlimited Foundation", "designationCode": "B", "categoryCode": "03", "address": "301-30 ADELAIDE STREET E", "city": "TORONTO", "province": "ON", "country": "CA", "postalCode": "M5C3H1", "twitter": "None", "instagram": "None", "facebook": "None", "youtube": "None", "website": "None", "summary": "None", "logo": "None", "latitude": 43.65083516515655, "longitude": -79.37669869637594}, "814960167RR0001": {"name": "Dreaming Church", "designationCode": "C", "categoryCode": "39", "address": "202-515 COTTONWOOD AVE", "city": "COQUITLAM", "province": "BC", "country": "CA", "postalCode": "V3J2R4", "twitter": "None", "instagram": "None", "facebook": "None", "youtube": "None", "website": "None", "summary": "None", "logo": "None", "latitude": 49.25889944936224, "longitude": -122.89192205245541}, "814032280RR0001": {"name": "Dreams & Wishes Children's Charity", "designationCode": "C", "categoryCode": "09", "address": "26 ARCHER DR", "city": "AJAX", "province": "ON", "country": "CA", "postalCode": "L1S2Z2", "twitter": "None", "instagram": "None", "facebook": "None", "youtube": "None", "website": "None", "summary": "None", "logo": "None", "latitude": 43.83042575685279, "longitude": -79.00654374675389}, "797784493RR0001": {"name": "Dreams Come Alive Childrens Charity Ltd.", "designationCode": "C", "categoryCode": "01", "address": "4723 201 ST NW", "city": "EDMONTON", "province": "AB", "country": "CA", "postalCode": "T6M2X7", "twitter": "None", "instagram": "None", "facebook": "None", "youtube": "None", "website": "None", "summary": "None", "logo": "None", "latitude": 53.485130828755274, "longitude": -113.66748558725281}, "854801289RR0001": {"name": "DreamRider Productions Society", "designationCode": "C", "categoryCode": "22", "address": "215-202 WESTHILL PL", "city": "PORT MOODY", "province": "BC", "country": "CA", "postalCode": "V3H1V2", "twitter": "None", "instagram": "None", "facebook": "None", "youtube": "None", "website": "None", "summary": "None", "logo": "None", "latitude": 49.28323225228039, "longitude": -122.87884571685817}, "815230883RR0001": {"name": "Dresden Community Healthcare Foundation", "designationCode": "C", "categoryCode": "11", "address": "PO BOX 479", "city": "DRESDEN", "province": "ON", "country": "CA", "postalCode": "N0P1M0", "twitter": "None", "instagram": "None", "facebook": "None", "youtube": "None", "website": "None", "summary": "None", "logo": "None", "latitude": 42.58952000000005, "longitude": -82.17963999999995}, "816098883RR0001": {"name": "Dress for Success Calgary Centre", "designationCode": "C", "categoryCode": "09", "address": "1008 14 ST SE", "city": "CALGARY", "province": "AB", "country": "CA", "postalCode": "T2G3K3", "twitter": "None", "instagram": "None", "facebook": "None", "youtube": "None", "website": "None", "summary": "None", "logo": "None"}, "815015649RR0001": {"name": "Dress for Success Kingston", "designationCode": "C", "categoryCode": "09", "address": "126 NOTCH HILL ROAD           UNIT 3", "city": "KINGSTON", "province": "ON", "country": "CA", "postalCode": "K7M2X1", "twitter": "None", "instagram": "None", "facebook": "None", "youtube": "None", "website": "None", "summary": "None", "logo": "None", "latitude": 44.23763157285475, "longitude": -76.53456695697963}, "809607658RR0001": {"name": "Dress for Success Ottawa National Capital Region", "designationCode": "C", "categoryCode": "09", "address": "L100 - 200 CATHERINE ST", "city": "OTTAWA", "province": "ON", "country": "CA", "postalCode": "K2P2K9", "twitter": "None", "instagram": "None", "facebook": "None", "youtube": "None", "website": "None", "summary": "None", "logo": "None", "latitude": 45.40978069856897, "longitude": -75.69131877878132}, "825162704RR0001": {"name": "Dress for Success Saskatoon Inc.", "designationCode": "C", "categoryCode": "09", "address": "207 - 2121 AIRPORT DR", "city": "SASKATOON", "province": "SK", "country": "CA", "postalCode": "S7L6W5", "twitter": "None", "instagram": "None", "facebook": "None", "youtube": "None", "website": "None", "summary": "None", "logo": "None", "latitude": 52.15632389650273, "longitude": -106.68638652021563}, "814872636RR0001": {"name": "Dress For Success Orillia and Barrie", "designationCode": "C", "categoryCode": "09", "address": "121-320 BAYFIELD ST", "city": "SPRINGWATER", "province": "ON", "country": "CA", "postalCode": "L4M3C1", "twitter": "None", "instagram": "None", "facebook": "None", "youtube": "None", "website": "None", "summary": "None", "logo": "None", "latitude": 44.43645071933898, "longitude": -79.73126603466301}, "859621211RR0001": {"name": "Dress For Success Regina Inc.", "designationCode": "C", "categoryCode": "09", "address": "PO BOX 33025                  CATHEDRAL POST OFFICE", "city": "REGINA", "province": "SK", "country": "CA", "postalCode": "S4T7X2", "twitter": "None", "instagram": "None", "facebook": "None", "youtube": "None", "website": "None", "summary": "None", "logo": "None", "latitude": 50.448246000000054, "longitude": -104.59517299999993}, "808846885RR0001": {"name": "Drinksmart Inc.", "designationCode": "C", "categoryCode": "57", "address": "2053 - 375 UNIVERSITY AVE E", "city": "WATERLOO", "province": "ON", "country": "CA", "postalCode": "N2K3M7", "twitter": "None", "instagram": "None", "facebook": "None", "youtube": "None", "website": "None", "summary": "None", "logo": "None", "latitude": 43.513405023608954, "longitude": -80.49821651261857}, "821042249RR0001": {"name": "Driven 2 Smile - The Community Inclusion Program", "designationCode": "C", "categoryCode": "11", "address": "301 COLBORNE STREET EAST", "city": "WHITBY", "province": "ON", "country": "CA", "postalCode": "L1N1W3", "twitter": "None", "instagram": "None", "facebook": "None", "youtube": "None", "website": "None", "summary": "None", "logo": "None", "latitude": 43.87942189312726, "longitude": -78.93898465139367}, "869974121RR0001": {"name": "Droits Devant/\u00c9rable", "designationCode": "C", "categoryCode": "59", "address": "305-1470 AVE TRUDELLE", "city": "PLESSISVILLE", "province": "QC", "country": "CA", "postalCode": "G6L3K4", "twitter": "None", "instagram": "None", "facebook": "None", "youtube": "None", "website": "None", "summary": "None", "logo": "None", "latitude": 46.2155663741227, "longitude": -71.77458169567187}, "879516714RR0001": {"name": "Drowning Prevention Research Centre Canada / Centre canadien de recherche sur la pr\u00e9vention de la noyade", "designationCode": "C", "categoryCode": "29", "address": "400 CONSUMERS RD", "city": "TORONTO", "province": "ON", "country": "CA", "postalCode": "M2J1P8", "twitter": "None", "instagram": "None", "facebook": "None", "youtube": "None", "website": "None", "summary": "None", "logo": "None", "latitude": 43.77082246378897, "longitude": -79.32561289508915}, "896474319RR0001": {"name": "Drug Free Kids Canada / Jeunesse sans drogue Canada", "designationCode": "C", "categoryCode": "57", "address": "P.O. BOX 23013", "city": "TORONTO", "province": "ON", "country": "CA", "postalCode": "M5N3A8", "twitter": "None", "instagram": "None", "facebook": "None", "youtube": "None", "website": "None", "summary": "None", "logo": "None", "latitude": 43.712070000000054, "longitude": -79.41805549999994}, "825868417RR0001": {"name": "Drum Artz Canada", "designationCode": "C", "categoryCode": "22", "address": "27 PRIMROSE AVE", "city": "TORONTO", "province": "ON", "country": "CA", "postalCode": "M6H3V1", "twitter": "None", "instagram": "None", "facebook": "None", "youtube": "None", "website": "None", "summary": "None", "logo": "None", "latitude": 43.668609223151904, "longitude": -79.44469996500105}, "809329550RR0001": {"name": "Drumheller & District Humane Society", "designationCode": "C", "categoryCode": "54", "address": "POST OFFICE BOX 1474", "city": "DRUMHELLER", "province": "AB", "country": "CA", "postalCode": "T0J0Y0", "twitter": "None", "instagram": "None", "facebook": "None", "youtube": "None", "website": "None", "summary": "None", "logo": "None", "latitude": 51.46154700000005, "longitude": -112.70878099999993}, "120663208RR0001": {"name": "Drumheller & District Rural Crime Watch Association", "designationCode": "C", "categoryCode": "59", "address": "P.O. BOX 671", "city": "DRUMHELLER", "province": "AB", "country": "CA", "postalCode": "T0J0Y0", "twitter": "None", "instagram": "None", "facebook": "None", "youtube": "None", "website": "None", "summary": "None", "logo": "None", "latitude": 51.46154700000005, "longitude": -112.70878099999993}, "836475780RR0001": {"name": "Drumheller Community Learning Society", "designationCode": "C", "categoryCode": "21", "address": "PO BOX 419", "city": "DRUMHELLER", "province": "AB", "country": "CA", "postalCode": "T0J0Y0", "twitter": "None", "instagram": "None", "facebook": "None", "youtube": "None", "website": "None", "summary": "None", "logo": "None", "latitude": 51.46154700000005, "longitude": -112.70878099999993}, "838114890RR0001": {"name": "Drumlin Hills Inc.", "designationCode": "C", "categoryCode": "09", "address": "35 ATLANTIC BAPTIST AVENUE", "city": "MONCTON", "province": "NB", "country": "CA", "postalCode": "E1E4N3", "twitter": "None", "instagram": "None", "facebook": "None", "youtube": "None", "website": "None", "summary": "None", "logo": "None", "latitude": 46.05999327145241, "longitude": -64.85879860263182}, "810925024RR0001": {"name": "Du coeur aux ventres Matawinie", "designationCode": "C", "categoryCode": "09", "address": "145, RUE SAINTE-LOUISE", "city": "SAINT-JEAN-DE-MATHA", "province": "QC", "country": "CA", "postalCode": "J0K2S0", "twitter": "None", "instagram": "None", "facebook": "None", "youtube": "None", "website": "None", "summary": "None", "logo": "None", "latitude": 46.22973920206009, "longitude": -73.53501240703437}, "826342750RR0001": {"name": "Duck Lake Stobart Scholarship Fund", "designationCode": "C", "categoryCode": "25", "address": "PO BOX 610", "city": "DUCK LAKE", "province": "SK", "country": "CA", "postalCode": "S0K1J0", "twitter": "None", "instagram": "None", "facebook": "None", "youtube": "None", "website": "None", "summary": "None", "logo": "None", "latitude": 52.809180000000026, "longitude": -106.22419999999994}, "837503267RR0001": {"name": "Dufferin Youth Festival of the Arts", "designationCode": "B", "categoryCode": "22", "address": "211 BROADWAY", "city": "ORANGEVILLE", "province": "ON", "country": "CA", "postalCode": "L9W1K4", "twitter": "None", "instagram": "None", "facebook": "None", "youtube": "None", "website": "None", "summary": "None", "logo": "None", "latitude": 43.919175682422896, "longitude": -80.09808667615272}, "826207110RR0001": {"name": "Dufresne Ministries Canada", "designationCode": "C", "categoryCode": "39", "address": "140 CAPITAL CRT", "city": "MISSISSAUGA", "province": "ON", "country": "CA", "postalCode": "L5T2R8", "twitter": "None", "instagram": "None", "facebook": "None", "youtube": "None", "website": "None", "summary": "None", "logo": "None", "latitude": 43.647409103208766, "longitude": -79.70063426666322}, "826128415RR0001": {"name": "Dunamis Church Sarnia", "designationCode": "C", "categoryCode": "39", "address": "203 - 805 CHRISTINA ST N", "city": "POINT EDWARD", "province": "ON", "country": "CA", "postalCode": "N7V1X6", "twitter": "None", "instagram": "None", "facebook": "None", "youtube": "None", "website": "None", "summary": "None", "logo": "None", "latitude": 42.990311554013296, "longitude": -82.39679829300556}, "108195900RR0001": {"name": "Dunara Homes for Recovery Inc.", "designationCode": "C", "categoryCode": "10", "address": "329 GORDON ST", "city": "GUELPH", "province": "ON", "country": "CA", "postalCode": "N1G1X7", "twitter": "None", "instagram": "None", "facebook": "None", "youtube": "None", "website": "None", "summary": "None", "logo": "None", "latitude": 43.53424247319537, "longitude": -80.2356410197355}, "118889187RR0001": {"name": "Dunbar Community Centre Association", "designationCode": "C", "categoryCode": "56", "address": "4747 DUNBAR STREET", "city": "VANCOUVER", "province": "BC", "country": "CA", "postalCode": "V6S2H2", "twitter": "None", "instagram": "None", "facebook": "None", "youtube": "None", "website": "None", "summary": "None", "logo": "None", "latitude": 49.243347, "longitude": -123.18531261725917}}