{"138522545RR0001": {"name": "L'AVANT-GARDE EN SANTE MENTALE", "designationCode": "C", "categoryCode": "09", "address": "462 RUE ST-PAUL", "city": "LAPRAIRIE", "province": "QC", "country": "CA", "postalCode": "J5R2R5", "twitter": "None", "instagram": "None", "facebook": "None", "youtube": "None", "website": "None", "summary": "None", "logo": "None", "latitude": 45.414937950026065, "longitude": -73.49097405510982}, "119009801RR0001": {"name": "L'AVENIR COOPERATIVE INC.", "designationCode": "C", "categoryCode": "09", "address": "80 SHERBROOK ST", "city": "WINNIPEG", "province": "MB", "country": "CA", "postalCode": "R3C2B3", "twitter": "None", "instagram": "None", "facebook": "None", "youtube": "None", "website": "None", "summary": "None", "logo": "None", "latitude": 49.88111621065843, "longitude": -97.15966332918795}, "852689272RR0001": {"name": "L'AVENUE HEBERGEMENT COMMUNAUTAIRE", "designationCode": "C", "categoryCode": "09", "address": "2587 RUE LECLAIRE", "city": "MONTREAL", "province": "QC", "country": "CA", "postalCode": "H1V3A8", "twitter": "None", "instagram": "None", "facebook": "None", "youtube": "None", "website": "None", "summary": "None", "logo": "None", "latitude": 45.559841855415655, "longitude": -73.54516142824176}, "889261897RR0001": {"name": "L'AVENUE INC.", "designationCode": "C", "categoryCode": "01", "address": "571 EMILE JOURNAULT", "city": "MONTREAL", "province": "QC", "country": "CA", "postalCode": "H2M1J8", "twitter": "None", "instagram": "None", "facebook": "None", "youtube": "None", "website": "None", "summary": "None", "logo": "None", "latitude": 45.54800350375091, "longitude": -73.64177226646073}, "885422360RR0001": {"name": "L'AVENUE 12-17", "designationCode": "C", "categoryCode": "29", "address": "450 BOUL DE LA SALETTE", "city": "ST-JEROME", "province": "QC", "country": "CA", "postalCode": "J5L2J1", "twitter": "None", "instagram": "None", "facebook": "None", "youtube": "None", "website": "None", "summary": "None", "logo": "None", "latitude": 45.79324226000084, "longitude": -74.04453632878251}, "134557255RR0001": {"name": "L'AVENUE-LIBRE DU BASSIN DE MASKINONGE INC.", "designationCode": "C", "categoryCode": "09", "address": "240 AV SAINTE-ELISABETH", "city": "LOUISEVILLE", "province": "QC", "country": "CA", "postalCode": "J5V1M6", "twitter": "None", "instagram": "None", "facebook": "None", "youtube": "None", "website": "None", "summary": "None", "logo": "None", "latitude": 46.254849463788965, "longitude": -72.94513561809683}, "107631830RR0001": {"name": "L'CHAIM ADULT DAYCARE SOCIETY", "designationCode": "C", "categoryCode": "01", "address": "950 WEST 41ST AVE", "city": "VANCOUVER", "province": "BC", "country": "CA", "postalCode": "V5Z2N7", "twitter": "None", "instagram": "None", "facebook": "None", "youtube": "None", "website": "None", "summary": "None", "logo": "None", "latitude": 49.23387050620376, "longitude": -123.12594479822836}, "886758754RR0001": {"name": "L'Envol Programme d'aide aux jeunes m\u00e8res", "designationCode": "C", "categoryCode": "09", "address": "1660 RUE DE L'EGLISE", "city": "VILLE LEMOYNE", "province": "QC", "country": "CA", "postalCode": "J4P2C8", "twitter": "None", "instagram": "None", "facebook": "None", "youtube": "None", "website": "None", "summary": "None", "logo": "None", "latitude": 45.50622986343708, "longitude": -73.49427130056564}, "819268913RR0001": {"name": "L'Envol\u00e9e des m\u00e8res", "designationCode": "C", "categoryCode": "09", "address": "500 RUE MORSE", "city": "DRUMMONDVILLE", "province": "QC", "country": "CA", "postalCode": "J2B0W9", "twitter": "None", "instagram": "None", "facebook": "None", "youtube": "None", "website": "None", "summary": "None", "logo": "None", "latitude": 45.85405844630382, "longitude": -72.46449443836931}, "120045422RR0001": {"name": "L'ECHO DES FEMMES DE LA PETITE PATRIE", "designationCode": "C", "categoryCode": "09", "address": "6032 SAINT-HUBERT", "city": "MONTREAL", "province": "QC", "country": "CA", "postalCode": "H2S2L7", "twitter": "None", "instagram": "None", "facebook": "None", "youtube": "None", "website": "None", "summary": "None", "logo": "None", "latitude": 45.53448787342042, "longitude": -73.59946218708511}, "131473514RR0001": {"name": "L'ECLOSION INC.", "designationCode": "C", "categoryCode": "59", "address": "167, RUE PRINCIPALE", "city": "SAINTE-ANNE-DE-MADAWASKA", "province": "NB", "country": "CA", "postalCode": "E7E1B1", "twitter": "None", "instagram": "None", "facebook": "None", "youtube": "None", "website": "None", "summary": "None", "logo": "None", "latitude": 47.251720864014004, "longitude": -68.03497719481805}, "892264490RR0001": {"name": "L'ECLUSE DES LAURENTIDES", "designationCode": "C", "categoryCode": "09", "address": "22A RUE GOYER", "city": "ST-SAUVEUR", "province": "QC", "country": "CA", "postalCode": "J0R1R0", "twitter": "None", "instagram": "None", "facebook": "None", "youtube": "None", "website": "None", "summary": "None", "logo": "None", "latitude": 45.89208409174981, "longitude": -74.1567803529688}, "140675455RR0001": {"name": "L'ECOLE ALI IBN ABI TALIB", "designationCode": "C", "categoryCode": "20", "address": "1610 RUE DE BEAUHARNOIS OUEST", "city": "MONTREAL", "province": "QC", "country": "CA", "postalCode": "H4N1J5", "twitter": "None", "instagram": "None", "facebook": "None", "youtube": "None", "website": "None", "summary": "None", "logo": "None", "latitude": 45.528900465433736, "longitude": -73.65290067216837}, "134669084RR0001": {"name": "L'ECOLE BETH TZIPORAH", "designationCode": "C", "categoryCode": "20", "address": "940 OUTREMONT AVE", "city": "OUTREMONT", "province": "QC", "country": "CA", "postalCode": "H2V4P8", "twitter": "None", "instagram": "None", "facebook": "None", "youtube": "None", "website": "None", "summary": "None", "logo": "None", "latitude": 45.52242884788517, "longitude": -73.61670496116324}, "889571972RR0001": {"name": "L'ECOLE BILINGUE KINDERCARE SOCIETY", "designationCode": "C", "categoryCode": "01", "address": "1166 14TH AVE W", "city": "VANCOUVER", "province": "BC", "country": "CA", "postalCode": "V6H1P6", "twitter": "None", "instagram": "None", "facebook": "None", "youtube": "None", "website": "None", "summary": "None", "logo": "None", "latitude": 49.25875648066854, "longitude": -123.13034380252755}, "894208396RR0001": {"name": "L'ECOLE DE CIRQUE DE VERDUN", "designationCode": "C", "categoryCode": "22", "address": "5190 BLV LASALLE", "city": "VERDUN", "province": "QC", "country": "CA", "postalCode": "H4H1N8", "twitter": "None", "instagram": "None", "facebook": "None", "youtube": "None", "website": "None", "summary": "None", "logo": "None", "latitude": 45.45417655017415, "longitude": -73.5661449687276}, "107278400RR0001": {"name": "L'ECOLE DE MUSIQUE DE SEPT-ILES INC.", "designationCode": "C", "categoryCode": "22", "address": "500 AV JOLLIET", "city": "SEPT-ILES", "province": "QC", "country": "CA", "postalCode": "G4R2B4", "twitter": "None", "instagram": "None", "facebook": "None", "youtube": "None", "website": "None", "summary": "None", "logo": "None", "latitude": 50.21189759677386, "longitude": -66.37755338305794}, "107607798RR0001": {"name": "L'ECOLE DES URSULINES DE QUEBEC", "designationCode": "C", "categoryCode": "20", "address": "CP 820 SUCC HAUTE-VILLE       4 RUE DU PARLOIR / H V", "city": "QUEBEC", "province": "QC", "country": "CA", "postalCode": "G1R4M5", "twitter": "None", "instagram": "None", "facebook": "None", "youtube": "None", "website": "None", "summary": "None", "logo": "None", "latitude": 46.81184100000006, "longitude": -71.20816549999994}, "122200736RR0001": {"name": "L'ECOLE ENTREPRISE FORMETAL INC", "designationCode": "C", "categoryCode": "20", "address": "301-2175 ST-PATRICK", "city": "MONTREAL", "province": "QC", "country": "CA", "postalCode": "H3K1B4", "twitter": "None", "instagram": "None", "facebook": "None", "youtube": "None", "website": "None", "summary": "None", "logo": "None", "latitude": 45.48256234335487, "longitude": -73.5677788799986}, "866582414RR0001": {"name": "L'ECOLE L'EAU-VIVE", "designationCode": "C", "categoryCode": "20", "address": "4690 AVENUE CHAUVEAU", "city": "QUEBEC", "province": "QC", "country": "CA", "postalCode": "G2C1A7", "twitter": "None", "instagram": "None", "facebook": "None", "youtube": "None", "website": "None", "summary": "None", "logo": "None", "latitude": 46.825756822695745, "longitude": -71.35917966299219}, "107607822RR0001": {"name": "L'ECOLE SACRE-COEUR DE MONTREAL / THE SACRED HEART SCHOOL OF MONTREAL", "designationCode": "C", "categoryCode": "20", "address": "3635 AV ATWATER", "city": "MONTREAL", "province": "QC", "country": "CA", "postalCode": "H3H1Y4", "twitter": "None", "instagram": "None", "facebook": "None", "youtube": "None", "website": "None", "summary": "None", "logo": "None", "latitude": 45.49481900389515, "longitude": -73.58839280039275}, "141126805RR0001": {"name": "L'ECRIT TOT DE SAINT-HUBERT", "designationCode": "C", "categoryCode": "21", "address": "4050 GRANDE ALL\u00c9E", "city": "ST-HUBERT", "province": "QC", "country": "CA", "postalCode": "J4T2W2", "twitter": "None", "instagram": "None", "facebook": "None", "youtube": "None", "website": "None", "summary": "None", "logo": "None", "latitude": 45.488127992498185, "longitude": -73.46333741799864}, "893795443RR0001": {"name": "L'EDA (L'EDUCATION DES ADULTES EN FRANCAIS DE BASE)", "designationCode": "C", "categoryCode": "21", "address": "455 RUE YAMASKA E", "city": "FARNHAM", "province": "QC", "country": "CA", "postalCode": "J2N1J2", "twitter": "None", "instagram": "None", "facebook": "None", "youtube": "None", "website": "None", "summary": "None", "logo": "None", "latitude": 45.28575099226705, "longitude": -72.97419730221043}, "860073527RR0001": {"name": "L'EGLISE A L'ORME / CHURCH AT THE ELM", "designationCode": "C", "categoryCode": "39", "address": "3907 147 RTE", "city": "WATERVILLE", "province": "QC", "country": "CA", "postalCode": "J0B3H0", "twitter": "None", "instagram": "None", "facebook": "None", "youtube": "None", "website": "None", "summary": "None", "logo": "None", "latitude": 45.34288538489173, "longitude": -71.86322970020306}, "136716198RR0001": {"name": "L'EGLISE A MONTREAL - PALAIS DE LA PRIERE", "designationCode": "C", "categoryCode": "36", "address": "3480 DECARIE", "city": "MONTREAL", "province": "QC", "country": "CA", "postalCode": "H4A3J5", "twitter": "None", "instagram": "None", "facebook": "None", "youtube": "None", "website": "None", "summary": "None", "logo": "None", "latitude": 45.474997789601375, "longitude": -73.61043285180898}, "118793074RR0037": {"name": "L'EGLISE ADVENTISTE DU 7IEME JOUR (LAVAL OUEST)", "designationCode": "C", "categoryCode": "41", "address": "1936 - 40E AVE", "city": "P.A.T.", "province": "QC", "country": "CA", "postalCode": "H1A3H1", "twitter": "None", "instagram": "None", "facebook": "None", "youtube": "None", "website": "None", "summary": "None", "logo": "None", "latitude": 45.66314267441873, "longitude": -73.50432478587912}, "118793074RR0023": {"name": "L'EGLISE ADVENTISTE DU 7IEME JOUR (SHERBROOKE)", "designationCode": "C", "categoryCode": "41", "address": "305 - 4816 RUE DE GASPE", "city": "SHERBROOKE", "province": "QC", "country": "CA", "postalCode": "J1N2G4", "twitter": "None", "instagram": "None", "facebook": "None", "youtube": "None", "website": "None", "summary": "None", "logo": "None", "latitude": 45.37104908961875, "longitude": -71.98420361322073}, "881805410RR0001": {"name": "L'EGLISE BAPTISTE DE L'OUEST DE MONTREAL/MONTREAL CITY WEST BAPTIST CHURCH", "designationCode": "C", "categoryCode": "31", "address": "1600 DE L'EGLISE", "city": "ST-LAURENT", "province": "QC", "country": "CA", "postalCode": "H4L2H8", "twitter": "None", "instagram": "None", "facebook": "None", "youtube": "None", "website": "None", "summary": "None", "logo": "None", "latitude": 45.510324863437084, "longitude": -73.67993221674661}, "107286171RR0001": {"name": "L'EGLISE BAPTISTE DE LA VIEILLE CAPITALE (LES SAULES)", "designationCode": "C", "categoryCode": "31", "address": "3385 AV LAURIN", "city": "QUEBEC", "province": "QC", "country": "CA", "postalCode": "G1P1T6", "twitter": "None", "instagram": "None", "facebook": "None", "youtube": "None", "website": "None", "summary": "None", "logo": "None", "latitude": 46.811392167349595, "longitude": -71.32766930004604}, "107286577RR0001": {"name": "L'EGLISE BAPTISTE DE SAINT-CONSTANT", "designationCode": "C", "categoryCode": "31", "address": "66 RUE ST-JACQUES", "city": "ST-CONSTANT", "province": "QC", "country": "CA", "postalCode": "J5A1G4", "twitter": "None", "instagram": "None", "facebook": "None", "youtube": "None", "website": "None", "summary": "None", "logo": "None", "latitude": 45.379242944197706, "longitude": -73.5689677677015}, "865882799RR0001": {"name": "L'EGLISE BAPTISTE DU BON BERGER DE DRUMMONDVILLE", "designationCode": "C", "categoryCode": "31", "address": "2375, ROUTE 139", "city": "DRUMMONDVILLE", "province": "QC", "country": "CA", "postalCode": "J2A2G2", "twitter": "None", "instagram": "None", "facebook": "None", "youtube": "None", "website": "None", "summary": "None", "logo": "None", "latitude": 45.82609417223829, "longitude": -72.42406025918719}, "107286437RR0001": {"name": "L'EGLISE BAPTISTE EVANGELIQUE DU BON BERGER", "designationCode": "C", "categoryCode": "31", "address": "3775 ST. JOSEPH BLVD", "city": "ORLEANS", "province": "ON", "country": "CA", "postalCode": "K4A0Z7", "twitter": "None", "instagram": "None", "facebook": "None", "youtube": "None", "website": "None", "summary": "None", "logo": "None", "latitude": 45.488651400022555, "longitude": -75.48016589468511}, "132503756RR0001": {"name": "L'EGLISE BAPTISTE EVANGILIQUE DE VICTORIAVILLE", "designationCode": "C", "categoryCode": "31", "address": "101 RUE ST-PAUL", "city": "VICTORIAVILLE", "province": "QC", "country": "CA", "postalCode": "G6P8G9", "twitter": "None", "instagram": "None", "facebook": "None", "youtube": "None", "website": "None", "summary": "None", "logo": "None", "latitude": 46.06373315569286, "longitude": -71.96303215774165}, "141125872RR0001": {"name": "L'EGLISE BAPTISTE FIRST FILIPINO DE MONTR\u00c9AL/FIRST FILIPINO BAPTIST CHURCH OF MONTREAL", "designationCode": "C", "categoryCode": "39", "address": "6999 CH DE LA COTE-DES-NEIGES", "city": "MONTREAL", "province": "QC", "country": "CA", "postalCode": "H3S2B8", "twitter": "None", "instagram": "None", "facebook": "None", "youtube": "None", "website": "None", "summary": "None", "logo": "None", "latitude": 45.5043901737549, "longitude": -73.63958943337765}, "888283447RR0001": {"name": "L'EGLISE BAPTISTE HISPANIQUE LUMIERE ET VERITE / IGLESIA BAUTISTA HISPANA LUZ Y VERDAD", "designationCode": "C", "categoryCode": "31", "address": "1661 RUE SAINT GREGOIRE", "city": "MONTREAL", "province": "QC", "country": "CA", "postalCode": "H2J1A9", "twitter": "None", "instagram": "None", "facebook": "None", "youtube": "None", "website": "None", "summary": "None", "logo": "None", "latitude": 45.53728363310047, "longitude": -73.58589530867305}, "107286585RR0001": {"name": "L'EGLISE BETHANIE", "designationCode": "C", "categoryCode": "39", "address": "3925 BEL-AIR", "city": "ST-HYACINTHE", "province": "QC", "country": "CA", "postalCode": "J2S7N8", "twitter": "None", "instagram": "None", "facebook": "None", "youtube": "None", "website": "None", "summary": "None", "logo": "None", "latitude": 45.607617032460126, "longitude": -72.9711136219633}, "131917676RR0001": {"name": "L'EGLISE C R DE SAINT-BENOIT-LABRE", "designationCode": "C", "categoryCode": "38", "address": "CP 129", "city": "LA BROQUERIE", "province": "MB", "country": "CA", "postalCode": "R0A0W0", "twitter": "None", "instagram": "None", "facebook": "None", "youtube": "None", "website": "None", "summary": "None", "logo": "None", "latitude": 49.52402700000006, "longitude": -96.51053149999993}, "119012664RR0001": {"name": "L'EGLISE CHRETIENNE DE LA PENTECOTE DE ST-MICHEL-CHRISTIAN PENTICOSTAL CHURCH OF ST. MICHAEL", "designationCode": "C", "categoryCode": "39", "address": "8350 BOUL SAINT-MICHEL", "city": "MONTREAL", "province": "QC", "country": "CA", "postalCode": "H1Z4G3", "twitter": "None", "instagram": "None", "facebook": "None", "youtube": "None", "website": "None", "summary": "None", "logo": "None", "latitude": 45.56558075685278, "longitude": -73.61384219138426}, "119012672RR0001": {"name": "L'EGLISE CHRETIENNE REFORMEE DE BEAUCE INC.", "designationCode": "C", "categoryCode": "37", "address": "C P 402", "city": "ST GEORGES BEAUCE", "province": "QC", "country": "CA", "postalCode": "G5Y5C8", "twitter": "None", "instagram": "None", "facebook": "None", "youtube": "None", "website": "None", "summary": "None", "logo": "None", "latitude": 46.113530000000026, "longitude": -70.66525999999993}, "845420744RR0001": {"name": "L'EGLISE COMMUNAUTE COREENNE DE MONTREAL/THE MONTREAL KOREAN COMMUNITY CHURCH", "designationCode": "C", "categoryCode": "39", "address": "MONTREAL KOREAN COMMUNITY CH. 4322 WELLINGTON STREET", "city": "VERDUN", "province": "QC", "country": "CA", "postalCode": "H4G1W4", "twitter": "None", "instagram": "None", "facebook": "None", "youtube": "None", "website": "None", "summary": "None", "logo": "None", "latitude": 45.46073381487679, "longitude": -73.567164600179}, "108184904RR0001": {"name": "L'EGLISE COPTE ORTHODOXE DE LA VIERGE MARIE / VIRGIN MARY COPTIC ORTHODOX CHURCH", "designationCode": "C", "categoryCode": "39", "address": "6100 BOUL GRANDE ALLEE", "city": "SAINT-HUBERT", "province": "QC", "country": "CA", "postalCode": "J3Y1B4", "twitter": "None", "instagram": "None", "facebook": "None", "youtube": "None", "website": "None", "summary": "None", "logo": "None", "latitude": 45.46895203750911, "longitude": -73.43444368298842}, "131710568RR0001": {"name": "L'EGLISE COPTE ORTHODOXE DE SAINT-GEORGES ET SAINT-JOSEPH / ST. GEORGE AND ST. JOSEPH COPTIC ORTHODOX CHURCH", "designationCode": "C", "categoryCode": "39", "address": "17400, BOUL. DE PIERREFONDS", "city": "PIERREFONDS", "province": "QC", "country": "CA", "postalCode": "H9J2V4", "twitter": "None", "instagram": "None", "facebook": "None", "youtube": "None", "website": "None", "summary": "None", "logo": "None", "latitude": 45.46595734883747, "longitude": -73.87963420990863}, "889023479RR0001": {"name": "L'EGLISE COREENNE METHODISTE DE MONTREAL INC./ MONTREAL KOREAN METHODIST CHURCH", "designationCode": "C", "categoryCode": "39", "address": "687 ROSLYN AVE", "city": "WESTMOUNT", "province": "QC", "country": "CA", "postalCode": "H3Y2Y1", "twitter": "None", "instagram": "None", "facebook": "None", "youtube": "None", "website": "None", "summary": "None", "logo": "None", "latitude": 45.484826122684474, "longitude": -73.61193834234525}, "891311979RR0001": {"name": "L'EGLISE DE LA FOI APOSTOLIQUE", "designationCode": "C", "categoryCode": "39", "address": "319 RUE DES MONTS", "city": "LAVAL", "province": "QC", "country": "CA", "postalCode": "H7N4B4", "twitter": "None", "instagram": "None", "facebook": "None", "youtube": "None", "website": "None", "summary": "None", "logo": "None", "latitude": 45.55959780850016, "longitude": -73.69704081305912}, "119012722RR0002": {"name": "L'EGLISE DE LA NATIVITE", "designationCode": "C", "categoryCode": "30", "address": "10374 AV DE COBOURG", "city": "MONTREAL-NORD", "province": "QC", "country": "CA", "postalCode": "H1H4X1", "twitter": "None", "instagram": "None", "facebook": "None", "youtube": "None", "website": "None", "summary": "None", "logo": "None", "latitude": 45.58268603690354, "longitude": -73.64059300931949}, "118895606RR0001": {"name": "L'EGLISE DE LA PAROLE VIVANTE", "designationCode": "C", "categoryCode": "39", "address": "2362, FRONTENAC", "city": "MONTREAL", "province": "QC", "country": "CA", "postalCode": "H2K2Z9", "twitter": "None", "instagram": "None", "facebook": "None", "youtube": "None", "website": "None", "summary": "None", "logo": "None", "latitude": 45.53502364028518, "longitude": -73.55749463739964}, "886046994RR0001": {"name": "L'EGLISE DE LA PENTECOTE CANADA/THE CHURCH OF PENTECOST CANADA", "designationCode": "C", "categoryCode": "49", "address": "8586,10E AVENUE", "city": "MONTREAL", "province": "QC", "country": "CA", "postalCode": "H1Z3B6", "twitter": "None", "instagram": "None", "facebook": "None", "youtube": "None", "website": "None", "summary": "None", "logo": "None", "latitude": 45.566836691355604, "longitude": -73.61849450542435}, "107286833RR0001": {"name": "L'EGLISE DE LA VIE ABONDANTE", "designationCode": "C", "categoryCode": "36", "address": "CP 113", "city": "COWANSVILLE", "province": "QC", "country": "CA", "postalCode": "J2K3H1", "twitter": "None", "instagram": "None", "facebook": "None", "youtube": "None", "website": "None", "summary": "None", "logo": "None", "latitude": 45.208068000000054, "longitude": -72.74446099999993}, "141189902RR0001": {"name": "L'EGLISE DES DISCIPLES DU CHRIST DE MONTREAL/THE MONTREAL CHURCH OF THE DISCIPLES OF CHRIST", "designationCode": "C", "categoryCode": "39", "address": "1 - 2554 RUE PAUL-PAU", "city": "MONTREAL", "province": "QC", "country": "CA", "postalCode": "H1L4L4", "twitter": "None", "instagram": "None", "facebook": "None", "youtube": "None", "website": "None", "summary": "None", "logo": "None", "latitude": 45.60592903523009, "longitude": -73.5182685148594}, "891997447RR0001": {"name": "L'EGLISE DES MONTREALAIS", "designationCode": "C", "categoryCode": "39", "address": "3201 HOCHELAGA", "city": "MONTREAL", "province": "QC", "country": "CA", "postalCode": "H1W1G7", "twitter": "None", "instagram": "None", "facebook": "None", "youtube": "None", "website": "None", "summary": "None", "logo": "None", "latitude": 45.54327313823636, "longitude": -73.55364048049469}, "890655343RR0001": {"name": "L'EGLISE DU CHRIST", "designationCode": "C", "categoryCode": "39", "address": "53 RANG EST", "city": "SAINT-AMBROISE", "province": "QC", "country": "CA", "postalCode": "G7P2N7", "twitter": "None", "instagram": "None", "facebook": "None", "youtube": "None", "website": "None", "summary": "None", "logo": "None", "latitude": 48.541508647176656, "longitude": -71.32139511169353}, "107610271RR0001": {"name": "L'EGLISE DU CHRIST DU DISTRICT DE QUEBEC INC.", "designationCode": "C", "categoryCode": "39", "address": "C.P. 9041, SUCC. SAINTE-FOY", "city": "QU\u00c9BEC", "province": "QC", "country": "CA", "postalCode": "G1V4A8", "twitter": "None", "instagram": "None", "facebook": "None", "youtube": "None", "website": "None", "summary": "None", "logo": "None", "latitude": 46.78481673911341, "longitude": -71.28547031164715}, "886783794RR0001": {"name": "L'EGLISE DU CHRIST DU GRAND-MONTREAL/CHURCH OF CHRIST OF GREATER MONTREAL", "designationCode": "C", "categoryCode": "39", "address": "237, BOUL. DE LA COTE-VERTU   C.P. 33517", "city": "SAINT-LAURENT", "province": "QC", "country": "CA", "postalCode": "H4N1C8", "twitter": "None", "instagram": "None", "facebook": "None", "youtube": "None", "website": "None", "summary": "None", "logo": "None", "latitude": 45.52813187956591, "longitude": -73.6694516791506}, "893011445RR0001": {"name": "L'EGLISE DU NAZAREEN DE LA RIVIERE DES PRAIRIES", "designationCode": "C", "categoryCode": "39", "address": "8290, BLVD GOUIN EST", "city": "MONTREAL", "province": "QC", "country": "CA", "postalCode": "H1E1B9", "twitter": "None", "instagram": "None", "facebook": "None", "youtube": "None", "website": "None", "summary": "None", "logo": "None", "latitude": 45.644661032460135, "longitude": -73.5954976219633}, "862664299RR0001": {"name": "L'EGLISE DU REVEIL DU PLEIN EVANGILE \"SHEKINA\"", "designationCode": "C", "categoryCode": "39", "address": "166 RUE WELLINGTON S", "city": "SHERBROOKE", "province": "QC", "country": "CA", "postalCode": "J1H5C7", "twitter": "None", "instagram": "None", "facebook": "None", "youtube": "None", "website": "None", "summary": "None", "logo": "None", "latitude": 45.39879802498695, "longitude": -71.88861040740974}, "878709567RR0001": {"name": "L'EGLISE DU SAINT-ESPRIT INC.", "designationCode": "C", "categoryCode": "39", "address": "1 PROMENADE DES V\u00c9T\u00c9RANS      C.P. 162", "city": "EDMUNDSTON", "province": "NB", "country": "CA", "postalCode": "E3V3K8", "twitter": "None", "instagram": "None", "facebook": "None", "youtube": "None", "website": "None", "summary": "None", "logo": "None", "latitude": 45.97611730709952, "longitude": -66.59230150797576}, "870670163RR0001": {"name": "L'EGLISE EVANGELIQUE BAPTISTE DE MAHANAIM", "designationCode": "C", "categoryCode": "39", "address": "12158, RUE ANNA PAQUIN", "city": "MONTR\u00c9AL", "province": "QC", "country": "CA", "postalCode": "H1E7H1", "twitter": "None", "instagram": "None", "facebook": "None", "youtube": "None", "website": "None", "summary": "None", "logo": "None", "latitude": 45.6298020113683, "longitude": -73.5990525348547}, "107287203RR0001": {"name": "L'EGLISE EVANGELIQUE BAPTISTE DE THETFORD-MINES", "designationCode": "C", "categoryCode": "31", "address": "123 FLINTKOTE", "city": "THETFORD MINES", "province": "QC", "country": "CA", "postalCode": "G6H4E7", "twitter": "None", "instagram": "None", "facebook": "None", "youtube": "None", "website": "None", "summary": "None", "logo": "None", "latitude": 46.12118922375749, "longitude": -71.25695659019567}, "887098994RR0001": {"name": "L'EGLISE EVANGELIQUE DE LA PENTEC\u00d4TE", "designationCode": "C", "categoryCode": "36", "address": "524 RANG ST-LOUIS", "city": "DOLBEAU-MISTASSINI", "province": "QC", "country": "CA", "postalCode": "G8L5J1", "twitter": "None", "instagram": "None", "facebook": "None", "youtube": "None", "website": "None", "summary": "None", "logo": "None", "latitude": 48.90518363139838, "longitude": -72.21062337503653}, "141033290RR0001": {"name": "L'EGLISE EVANGELIQUE DE MIRABEL", "designationCode": "C", "categoryCode": "39", "address": "10320 RUE DES LAURENTIDES", "city": "TERREBONNE", "province": "QC", "country": "CA", "postalCode": "J7M1T6", "twitter": "None", "instagram": "None", "facebook": "None", "youtube": "None", "website": "None", "summary": "None", "logo": "None", "latitude": 45.786245029141895, "longitude": -73.76555955620633}, "107287559RR0001": {"name": "L'EGLISE ORTHODOXE DU SIGNE DE LA THEOTOKOS A MONTREAL, QUEBEC/THE SIGN OF THE THEOTOKOS ORTHODOX CHURCH IN MONTREAL, QUEBEC", "designationCode": "C", "categoryCode": "39", "address": "4829 RUE RESTHER", "city": "MONTREAL", "province": "QC", "country": "CA", "postalCode": "H2J2V6", "twitter": "None", "instagram": "None", "facebook": "None", "youtube": "None", "website": "None", "summary": "None", "logo": "None", "latitude": 45.52749821371687, "longitude": -73.58571081251085}, "107608226RR0001": {"name": "L'EGLISE REFORMEE DU QUEBEC", "designationCode": "C", "categoryCode": "39", "address": "1275, ROUTE 173 SUD", "city": "ST-JOSEPH DE BEAUCE", "province": "QC", "country": "CA", "postalCode": "G0S2V0", "twitter": "None", "instagram": "None", "facebook": "None", "youtube": "None", "website": "None", "summary": "None", "logo": "None", "latitude": 46.29981349570084, "longitude": -70.86335596543374}, "119012888RR0001": {"name": "L'EGLISE ROUMAINE ORTHODOXE DE MONTREAL", "designationCode": "C", "categoryCode": "39", "address": "8080 AVENUE CRISTOPHE-COLOMB", "city": "MONTREAL", "province": "QC", "country": "CA", "postalCode": "H2R2S9", "twitter": "None", "instagram": "None", "facebook": "None", "youtube": "None", "website": "None", "summary": "None", "logo": "None", "latitude": 45.54784279349652, "longitude": -73.62426234791383}, "108148271RR0002": {"name": "L'EGLISE UKRAINIENNE ORTHODOXE DE SAINT-GEORGE/UKRAINIAN ORTHODOX CHURCH OF SAINT-GEORGE", "designationCode": "C", "categoryCode": "39", "address": "880 ST. ANTOINE STREET", "city": "LACHINE", "province": "QC", "country": "CA", "postalCode": "H8S1T1", "twitter": "None", "instagram": "None", "facebook": "None", "youtube": "None", "website": "None", "summary": "None", "logo": "None", "latitude": 45.440193434935516, "longitude": -73.67142755092623}, "129951794RR0001": {"name": "L'EN-DROIT DE LAVAL", "designationCode": "C", "categoryCode": "09", "address": "119B BOUL. DES LAURENTIDES", "city": "LAVAL", "province": "QC", "country": "CA", "postalCode": "H7G2T2", "twitter": "None", "instagram": "None", "facebook": "None", "youtube": "None", "website": "None", "summary": "None", "logo": "None", "latitude": 45.563509780481, "longitude": -73.6843266549636}, "102936572RR0001": {"name": "L'ENFANT RIT INC.", "designationCode": "C", "categoryCode": "01", "address": "154, RUE ST-LUC C.P. 66", "city": "CAUSAPSCAL", "province": "QC", "country": "CA", "postalCode": "G0J1J0", "twitter": "None", "instagram": "None", "facebook": "None", "youtube": "None", "website": "None", "summary": "None", "logo": "None", "latitude": 48.34744911324938, "longitude": -67.22502926259425}, "892741729RR0001": {"name": "L'ENSEMBLE INSTRUMENTAL APPASSIONATA", "designationCode": "C", "categoryCode": "22", "address": "2025 RUE PARTHENAIS           BUREAU 305B", "city": "MONTREAL", "province": "QC", "country": "CA", "postalCode": "H2K3T2", "twitter": "None", "instagram": "None", "facebook": "None", "youtube": "None", "website": "None", "summary": "None", "logo": "None", "latitude": 45.52993011936625, "longitude": -73.55707809420639}, "897970323RR0001": {"name": "L'ENSEMBLE LES BOREADES DE MONTREAL", "designationCode": "C", "categoryCode": "22", "address": "127, 17E AVE", "city": "LACHINE", "province": "QC", "country": "CA", "postalCode": "H8S3N7", "twitter": "None", "instagram": "None", "facebook": "None", "youtube": "None", "website": "None", "summary": "None", "logo": "None", "latitude": 45.43392944685208, "longitude": -73.67953962380963}, "840015879RR0001": {"name": "L'ENSEMBLE MUSICAL GERARD CHARETTE", "designationCode": "C", "categoryCode": "22", "address": "145, STE-TH\u00c9R\u00c8SE", "city": "CAUSAPSCAL", "province": "QC", "country": "CA", "postalCode": "G0J1J0", "twitter": "None", "instagram": "None", "facebook": "None", "youtube": "None", "website": "None", "summary": "None", "logo": "None", "latitude": 48.35849970941769, "longitude": -67.22693081072185}, "872276910RR0001": {"name": "L'ENSEMBLE VOCAL LES JONGLEURS", "designationCode": "C", "categoryCode": "22", "address": "5101 RUE SAINT-DENIS          C.P. 60144", "city": "MONTR\u00c9AL", "province": "QC", "country": "CA", "postalCode": "H2J2M1", "twitter": "None", "instagram": "None", "facebook": "None", "youtube": "None", "website": "None", "summary": "None", "logo": "None", "latitude": 45.527093192076784, "longitude": -73.58967041505579}, "141963868RR0001": {"name": "L'ENSOLEILLEE: RESSOURCE COMMUNAUTAIRE EN SANTE MENTALE", "designationCode": "C", "categoryCode": "19", "address": "4663 RUE DOLLARD", "city": "LAC-MEGANTIC", "province": "QC", "country": "CA", "postalCode": "G6B1G5", "twitter": "None", "instagram": "None", "facebook": "None", "youtube": "None", "website": "None", "summary": "None", "logo": "None", "latitude": 45.581645326937576, "longitude": -70.88823472817222}, "136577665RR0001": {"name": "L'ENTOURELLE", "designationCode": "C", "categoryCode": "09", "address": "176, PRINCIPALE, CP 935", "city": "FORT-COULONGE", "province": "QC", "country": "CA", "postalCode": "J0X1V0", "twitter": "None", "instagram": "None", "facebook": "None", "youtube": "None", "website": "None", "summary": "None", "logo": "None", "latitude": 45.84168641078527, "longitude": -76.7386097561603}, "891771339RR0001": {"name": "L'ENTRAIDE (PONT-VIAU ET LAVAL DES RAPIDES) INC", "designationCode": "C", "categoryCode": "09", "address": "664 SAINT-ANDR\u00c9", "city": "LAVAL", "province": "QC", "country": "CA", "postalCode": "H7G3A5", "twitter": "None", "instagram": "None", "facebook": "None", "youtube": "None", "website": "None", "summary": "None", "logo": "None", "latitude": 45.5742002400888, "longitude": -73.69357308188579}, "119013472RR0001": {"name": "L'ENTRAIDE CHEZ-NOUS", "designationCode": "C", "categoryCode": "09", "address": "155 RUE BRODEUR", "city": "LONGUEUIL", "province": "QC", "country": "CA", "postalCode": "J4J2S3", "twitter": "None", "instagram": "None", "facebook": "None", "youtube": "None", "website": "None", "summary": "None", "logo": "None", "latitude": 45.52939593533956, "longitude": -73.47506139373282}, "103051892RR0001": {"name": "L'ENTRAIDE COMMUNAUTAIRE \"LE HALO\"", "designationCode": "C", "categoryCode": "01", "address": "162 NOTRE DAME                C.P. 4012", "city": "DONNACONA", "province": "QC", "country": "CA", "postalCode": "G3M2X2", "twitter": "None", "instagram": "None", "facebook": "None", "youtube": "None", "website": "None", "summary": "None", "logo": "None", "latitude": 46.67324483709381, "longitude": -71.74008200193325}, "828784728RR0001": {"name": "L'ENTRAIDE DE LA VALLEE", "designationCode": "C", "categoryCode": "09", "address": "446 DE LA MONTAGNE", "city": "MANIWAKI", "province": "QC", "country": "CA", "postalCode": "J9E1K6", "twitter": "None", "instagram": "None", "facebook": "None", "youtube": "None", "website": "None", "summary": "None", "logo": "None", "latitude": 46.378976216227, "longitude": -75.96387534277795}, "890028590RR0001": {"name": "L'ENTRAIDE DES DIABETIQUES DE TROIS-RIVIERES INC", "designationCode": "C", "categoryCode": "11", "address": "575, RUE DU PERE-DANIEL       PORTE 1", "city": "TROIS-RIVIERES", "province": "QC", "country": "CA", "postalCode": "G9A5Z7", "twitter": "None", "instagram": "None", "facebook": "None", "youtube": "None", "website": "None", "summary": "None", "logo": "None", "latitude": 46.33250849541238, "longitude": -72.55661045227643}, "120587985RR0001": {"name": "L'ENTRAIDE FRATERNELLE DE NOTRE-DAME-DU-LAC INC", "designationCode": "C", "categoryCode": "09", "address": "27, CARON                     C.P. 1734", "city": "T\u00c9MISCOUATA-SUR-LE-LAC", "province": "QC", "country": "CA", "postalCode": "G0L1X0", "twitter": "None", "instagram": "None", "facebook": "None", "youtube": "None", "website": "None", "summary": "None", "logo": "None", "latitude": 47.61092036802473, "longitude": -68.79245544656361}, "107306086RR0001": {"name": "L'ENTRAIDE MISSIONNAIRE", "designationCode": "C", "categoryCode": "09", "address": "433 BOUL ST-JOSEPH EST", "city": "MONTREAL", "province": "QC", "country": "CA", "postalCode": "H2J1J6", "twitter": "None", "instagram": "None", "facebook": "None", "youtube": "None", "website": "None", "summary": "None", "logo": "None", "latitude": 45.526680931732876, "longitude": -73.58762568861431}, "891539272RR0001": {"name": "L'ENTRAIDE PASCAL-TACHE INC", "designationCode": "C", "categoryCode": "09", "address": "147 RUE LABBE", "city": "L'ISLET", "province": "QC", "country": "CA", "postalCode": "G0R2B0", "twitter": "None", "instagram": "None", "facebook": "None", "youtube": "None", "website": "None", "summary": "None", "logo": "None", "latitude": 47.124534908679145, "longitude": -70.37406066945573}, "894366574RR0001": {"name": "L'ENTRAIDE POUR HOMMES DE MONTREAL", "designationCode": "C", "categoryCode": "09", "address": "101 - 4245 AV LAVAL", "city": "MONTREAL", "province": "QC", "country": "CA", "postalCode": "H2W2J6", "twitter": "None", "instagram": "None", "facebook": "None", "youtube": "None", "website": "None", "summary": "None", "logo": "None", "latitude": 45.52072614821967, "longitude": -73.58042140062906}, "890458797RR0001": {"name": "L'ENTRAIDE POUR HOMMES VALLEE-DU-RICHELIEU INC", "designationCode": "C", "categoryCode": "09", "address": "551 BOUL LAURIER              BUREAU 204", "city": "BELOEIL", "province": "QC", "country": "CA", "postalCode": "J3G4J1", "twitter": "None", "instagram": "None", "facebook": "None", "youtube": "None", "website": "None", "summary": "None", "logo": "None", "latitude": 45.56736935966172, "longitude": -73.2028687732098}, "130421662RR0001": {"name": "L'ENTRE-AIDE DE LOUISEVILLE", "designationCode": "C", "categoryCode": "09", "address": "121 PETITE RIVIERE            LOCAL 17", "city": "LOUISEVILLE", "province": "QC", "country": "CA", "postalCode": "J5V2H3", "twitter": "None", "instagram": "None", "facebook": "None", "youtube": "None", "website": "None", "summary": "None", "logo": "None", "latitude": 46.25360541159335, "longitude": -72.95106513154259}, "890313877RR0001": {"name": "L'ENTRE-DEUX-TOURNANTS", "designationCode": "C", "categoryCode": "09", "address": "3 RUE DU PRE", "city": "NATASHQUAN", "province": "QC", "country": "CA", "postalCode": "G0G2E0", "twitter": "None", "instagram": "None", "facebook": "None", "youtube": "None", "website": "None", "summary": "None", "logo": "None", "latitude": 50.188667898147585, "longitude": -61.82538382901505}, "135856375RR0001": {"name": "L'ENTRE-TEMPS DES FRANCO-MANITOBAINES INC", "designationCode": "C", "categoryCode": "09", "address": "CP 183", "city": "SAINT-BONIFACE", "province": "MB", "country": "CA", "postalCode": "R2H3B4", "twitter": "None", "instagram": "None", "facebook": "None", "youtube": "None", "website": "None", "summary": "None", "logo": "None", "latitude": 49.85724000000005, "longitude": -97.08514999999994}, "888961679RR0001": {"name": "L'ENTRE-TEMPS, MAISON DES JEUNES DE CAP-CHAT INC.", "designationCode": "C", "categoryCode": "09", "address": "15 DES PEUPLIERS              C.P. 143", "city": "CAP-CHAT", "province": "QC", "country": "CA", "postalCode": "G0J1E0", "twitter": "None", "instagram": "None", "facebook": "None", "youtube": "None", "website": "None", "summary": "None", "logo": "None", "latitude": 49.09413694833781, "longitude": -66.6928419702813}, "895492601RR0001": {"name": "L'ENTREPRISE JEUNESSE DE LA MAISON DES JEUNES DE LATERRIERE", "designationCode": "C", "categoryCode": "20", "address": "6250 RUE NOTRE DAME           C. P. 609", "city": "LATERRIERE", "province": "QC", "country": "CA", "postalCode": "G7N1P9", "twitter": "None", "instagram": "None", "facebook": "None", "youtube": "None", "website": "None", "summary": "None", "logo": "None", "latitude": 48.3076810041836, "longitude": -71.11033920569542}, "131698961RR0001": {"name": "L'ENTRETOISE DU TEMISCAMINGUE INC", "designationCode": "C", "categoryCode": "09", "address": "12 RUE DESOBLATS NORD", "city": "VILLE-MARIE", "province": "QC", "country": "CA", "postalCode": "J9V1J3", "twitter": "None", "instagram": "None", "facebook": "None", "youtube": "None", "website": "None", "summary": "None", "logo": "None", "latitude": 47.33274300000005, "longitude": -79.43699149999993}, "863674263RR0001": {"name": "L'ENVOL DES FEMMES / WOMEN ON THE RISE", "designationCode": "C", "categoryCode": "09", "address": "6870 TERREBONNE STREET", "city": "MONTREAL", "province": "QC", "country": "CA", "postalCode": "H4B1C5", "twitter": "None", "instagram": "None", "facebook": "None", "youtube": "None", "website": "None", "summary": "None", "logo": "None", "latitude": 45.462459332765974, "longitude": -73.6386366609443}, "817099948RR0001": {"name": "L'ENVOL DU HAUT-RICHELIEU INC.", "designationCode": "C", "categoryCode": "09", "address": "245, 6I\u00c8ME AVENUE, BUREAU 1", "city": "SAINT-JEAN-SUR-RICHELIEU", "province": "QC", "country": "CA", "postalCode": "J2X0C6", "twitter": "None", "instagram": "None", "facebook": "None", "youtube": "None", "website": "None", "summary": "None", "logo": "None", "latitude": 45.3078548198398, "longitude": -73.23872586620705}, "136075314RR0001": {"name": "L'ENVOL S.R.T. SERVICE DE RETOUR AU TRAVAIL", "designationCode": "C", "categoryCode": "59", "address": "92 BOUL ST-RAYMOND            BUREAU 302", "city": "GATINEAU", "province": "QC", "country": "CA", "postalCode": "J8Y1S7", "twitter": "None", "instagram": "None", "facebook": "None", "youtube": "None", "website": "None", "summary": "None", "logo": "None", "latitude": 45.4470094205088, "longitude": -75.74195494615958}, "106893498RR0001": {"name": "L'ENVOL, MAISON DE LA FAMILLE", "designationCode": "C", "categoryCode": "09", "address": "652 AVE DEQUEN", "city": "SEPT-ILES", "province": "QC", "country": "CA", "postalCode": "G4R2R5", "twitter": "None", "instagram": "None", "facebook": "None", "youtube": "None", "website": "None", "summary": "None", "logo": "None", "latitude": 50.212464000000054, "longitude": -66.38965549999993}, "138519368RR0001": {"name": "L'ENVOLEE CENTRE D'ACTION BENEVOLE STE-JULIE", "designationCode": "C", "categoryCode": "09", "address": "695, MONTEE STE-JULIE", "city": "STE-JULIE", "province": "QC", "country": "CA", "postalCode": "J3E1W8", "twitter": "None", "instagram": "None", "facebook": "None", "youtube": "None", "website": "None", "summary": "None", "logo": "None", "latitude": 45.595237147671426, "longitude": -73.34189172006482}, "892686338RR0001": {"name": "L'ENVOLEE DE STE-AGATHE-DES-MONTS INC", "designationCode": "C", "categoryCode": "09", "address": "5 RUE LAROCQUE O.", "city": "SAINTE-AGATHE-DES-MONTS", "province": "QC", "country": "CA", "postalCode": "J8C1A1", "twitter": "None", "instagram": "None", "facebook": "None", "youtube": "None", "website": "None", "summary": "None", "logo": "None", "latitude": 46.0464203072594, "longitude": -74.28935971412088}, "859320905RR0001": {"name": "L'ENVOLEE, EQUIPE DE BENEVOLES EN SOINS PALLIATIFS", "designationCode": "C", "categoryCode": "11", "address": "50, RUE ST-PATRICE EST", "city": "MAGOG", "province": "QC", "country": "CA", "postalCode": "J1X3X3", "twitter": "None", "instagram": "None", "facebook": "None", "youtube": "None", "website": "None", "summary": "None", "logo": "None", "latitude": 45.26561684537503, "longitude": -72.14488021761198}, "870127131RR0001": {"name": "L'EQUERRE", "designationCode": "C", "categoryCode": "20", "address": "7468 DROLET C.P.52520", "city": "MONTR\u00c9AL", "province": "QC", "country": "CA", "postalCode": "H2R2C4", "twitter": "None", "instagram": "None", "facebook": "None", "youtube": "None", "website": "None", "summary": "None", "logo": "None", "latitude": 45.539236028016724, "longitude": -73.6205087663165}, "118869114RR0001": {"name": "L'EQUIPE BENEVOLE DE L'INSTITUT", "designationCode": "C", "categoryCode": "09", "address": "525 BOUL WILFRID-HAMEL", "city": "QUEBEC", "province": "QC", "country": "CA", "postalCode": "G1M2S8", "twitter": "None", "instagram": "None", "facebook": "None", "youtube": "None", "website": "None", "summary": "None", "logo": "None", "latitude": 46.820106819839786, "longitude": -71.2486411447591}, "107613861RR0001": {"name": "L'EQUIPE DES BENEVOLES DE LA HAUTE-GATINEAU", "designationCode": "C", "categoryCode": "09", "address": "104-198 RUE NOTRE-DAME", "city": "MANIWAKI", "province": "QC", "country": "CA", "postalCode": "J9E2J5", "twitter": "None", "instagram": "None", "facebook": "None", "youtube": "None", "website": "None", "summary": "None", "logo": "None", "latitude": 46.376105887327526, "longitude": -75.97824048268774}, "894248483RR0001": {"name": "L'EQUIPE ENTREPRISE", "designationCode": "C", "categoryCode": "59", "address": "750 AVENUE DAWSON", "city": "DORVAL", "province": "QC", "country": "CA", "postalCode": "H9S1X1", "twitter": "None", "instagram": "None", "facebook": "None", "youtube": "None", "website": "None", "summary": "None", "logo": "None", "latitude": 45.44118452842075, "longitude": -73.73856458534824}, "119014819RR0001": {"name": "L'ESCALE DE L'ESTRIE INC.", "designationCode": "A", "categoryCode": "01", "address": "C.P. 22001", "city": "SHERBROOKE", "province": "QC", "country": "CA", "postalCode": "J1E4B4", "twitter": "None", "instagram": "None", "facebook": "None", "youtube": "None", "website": "None", "summary": "None", "logo": "None", "latitude": 45.403251000000054, "longitude": -71.88894349999994}}