{"107960866RR0001": {"name": "The Board of Education of School District No. 23 (Central Okanagan)", "designationCode": "C", "categoryCode": "20", "address": "1940 UNDERHILL ST", "city": "KELOWNA", "province": "BC", "country": "CA", "postalCode": "V1X5X7", "twitter": "None", "instagram": "None", "facebook": "None", "youtube": "None", "website": "None", "summary": "None", "logo": "None", "latitude": 49.8790161066906, "longitude": -119.43509863713467}, "886275197RR0001": {"name": "The Board of Education of School District No. 27 (Cariboo-Chilcotin)", "designationCode": "C", "categoryCode": "20", "address": "350 NORTH SECOND AVENUE", "city": "WILLIAMS LAKE", "province": "BC", "country": "CA", "postalCode": "V2G1Z9", "twitter": "None", "instagram": "None", "facebook": "None", "youtube": "None", "website": "None", "summary": "None", "logo": "None", "latitude": 52.13401588649081, "longitude": -122.14627668394071}, "107960999RR0001": {"name": "The Board of Education of School District No. 28 (Quesnel)", "designationCode": "C", "categoryCode": "20", "address": "401 NORTH STAR ROAD", "city": "QUESNEL", "province": "BC", "country": "CA", "postalCode": "V2J5K2", "twitter": "None", "instagram": "None", "facebook": "None", "youtube": "None", "website": "None", "summary": "None", "logo": "None", "latitude": 52.98174102014974, "longitude": -122.46665335242196}, "888699790RR0001": {"name": "The Board of Education of School District No. 33 (Chilliwack)", "designationCode": "C", "categoryCode": "21", "address": "8430 CESSNA DR", "city": "CHILLIWACK", "province": "BC", "country": "CA", "postalCode": "V2P7K4", "twitter": "None", "instagram": "None", "facebook": "None", "youtube": "None", "website": "None", "summary": "None", "logo": "None", "latitude": 49.155692437417024, "longitude": -121.94591457406686}, "122172661RR0001": {"name": "The Board of Education of School District No. 34 (Abbotsford)", "designationCode": "C", "categoryCode": "20", "address": "2790 TIMS STREET", "city": "ABBOTSFORD", "province": "BC", "country": "CA", "postalCode": "V2T4M7", "twitter": "None", "instagram": "None", "facebook": "None", "youtube": "None", "website": "None", "summary": "None", "logo": "None", "latitude": 49.05292840740974, "longitude": -122.33218362164618}, "119216588RR0001": {"name": "The Board of Education of School District No. 35 (Langley)", "designationCode": "C", "categoryCode": "20", "address": "4875 - 222ND STREET", "city": "LANGLEY", "province": "BC", "country": "CA", "postalCode": "V3A3Z7", "twitter": "None", "instagram": "None", "facebook": "None", "youtube": "None", "website": "None", "summary": "None", "logo": "None", "latitude": 49.090464, "longitude": -122.60822397068426}, "107961229RR0001": {"name": "The Board of Education of School District No. 36 (Surrey)", "designationCode": "C", "categoryCode": "20", "address": "14033-92 AVE", "city": "SURREY", "province": "BC", "country": "CA", "postalCode": "V3V0B7", "twitter": "None", "instagram": "None", "facebook": "None", "youtube": "None", "website": "None", "summary": "None", "logo": "None", "latitude": 49.170119489324186, "longitude": -122.83237269317328}, "107961260RR0001": {"name": "The Board of Education of School District No. 37 (Delta)", "designationCode": "C", "categoryCode": "21", "address": "4585 HARVEST DRIVE", "city": "DELTA", "province": "BC", "country": "CA", "postalCode": "V4K5B4", "twitter": "None", "instagram": "None", "facebook": "None", "youtube": "None", "website": "None", "summary": "None", "logo": "None", "latitude": 49.08617797760601, "longitude": -123.0642135402544}, "107961302RR0002": {"name": "The Board of Education of School District No. 38 (Richmond)", "designationCode": "C", "categoryCode": "21", "address": "7811 GRANVILLE AVE", "city": "RICHMOND", "province": "BC", "country": "CA", "postalCode": "V6Y3E3", "twitter": "None", "instagram": "None", "facebook": "None", "youtube": "None", "website": "None", "summary": "None", "logo": "None", "latitude": 49.162816486005966, "longitude": -123.13960102553523}, "107962359RR0001": {"name": "The Board of Education of School District No. 39 (Vancouver)", "designationCode": "C", "categoryCode": "20", "address": "1580 W BROADWAY", "city": "VANCOUVER", "province": "BC", "country": "CA", "postalCode": "V6J5K8", "twitter": "None", "instagram": "None", "facebook": "None", "youtube": "None", "website": "None", "summary": "None", "logo": "None", "latitude": 49.26360250288555, "longitude": -123.14024397016561}, "118812940RR0001": {"name": "The Board of Education of School District No. 41 (Burnaby)", "designationCode": "C", "categoryCode": "21", "address": "5325 KINCAID ST", "city": "BURNABY", "province": "BC", "country": "CA", "postalCode": "V5G1W2", "twitter": "None", "instagram": "None", "facebook": "None", "youtube": "None", "website": "None", "summary": "None", "logo": "None", "latitude": 49.24844748268774, "longitude": -122.98697163918865}, "107961385RR0001": {"name": "The Board of Education of School District No. 42 (Maple Ridge-Pitt Meadows)", "designationCode": "C", "categoryCode": "20", "address": "22225 BROWN AVE", "city": "MAPLE RIDGE", "province": "BC", "country": "CA", "postalCode": "V2X8N6", "twitter": "None", "instagram": "None", "facebook": "None", "youtube": "None", "website": "None", "summary": "None", "logo": "None", "latitude": 49.22188943551243, "longitude": -122.60538224147378}, "129819868RR0001": {"name": "The Board of Education of School District No. 43 (Coquitlam)", "designationCode": "C", "categoryCode": "21", "address": "550 POIRIER ST", "city": "COQUITLAM", "province": "BC", "country": "CA", "postalCode": "V3J6A7", "twitter": "None", "instagram": "None", "facebook": "None", "youtube": "None", "website": "None", "summary": "None", "logo": "None", "latitude": 49.2519136902591, "longitude": -122.84659407556647}, "107961427RR0001": {"name": "The Board of Education of School District No. 44 (North Vancouver)", "designationCode": "C", "categoryCode": "20", "address": "2121 LONSDALE AVE", "city": "NORTH VANCOUVER", "province": "BC", "country": "CA", "postalCode": "V7M2K6", "twitter": "None", "instagram": "None", "facebook": "None", "youtube": "None", "website": "None", "summary": "None", "logo": "None", "latitude": 49.32853802914844, "longitude": -123.07225095612553}, "107961476RR0001": {"name": "The Board of Education of School District No. 45 (West Vancouver)", "designationCode": "C", "categoryCode": "20", "address": "1075 21ST ST", "city": "WEST VANCOUVER", "province": "BC", "country": "CA", "postalCode": "V7V4A9", "twitter": "None", "instagram": "None", "facebook": "None", "youtube": "None", "website": "None", "summary": "None", "logo": "None", "latitude": 49.33434600000001, "longitude": -123.16808367496607}, "107961484RR0001": {"name": "The Board of Education of School District No. 46 (Sunshine Coast)", "designationCode": "C", "categoryCode": "20", "address": "BOX 220", "city": "GIBSONS", "province": "BC", "country": "CA", "postalCode": "V0N1V0", "twitter": "None", "instagram": "None", "facebook": "None", "youtube": "None", "website": "None", "summary": "None", "logo": "None", "latitude": 49.40659350000001, "longitude": -123.528087}, "119216489RR0001": {"name": "The Board of Education of School District No. 48 (Sea to Sky)", "designationCode": "C", "categoryCode": "20", "address": "37866 SECOND  AVENUE BOX 250", "city": "SQUAMISH", "province": "BC", "country": "CA", "postalCode": "V8B0A2", "twitter": "None", "instagram": "None", "facebook": "None", "youtube": "None", "website": "None", "summary": "None", "logo": "None", "latitude": 49.69657548640514, "longitude": -123.15659349048522}, "107961559RR0001": {"name": "The Board of Education of School District No. 49 (Central Coast)", "designationCode": "C", "categoryCode": "20", "address": "BAG 130", "city": "HAGENSBORG", "province": "BC", "country": "CA", "postalCode": "V0T1H0", "twitter": "None", "instagram": "None", "facebook": "None", "youtube": "None", "website": "None", "summary": "None", "logo": "None", "latitude": 52.39166399999999, "longitude": -126.5500215}, "891358277RR0001": {"name": "The Board of Education of School District No. 5 (Southeast Kootenay)", "designationCode": "C", "categoryCode": "20", "address": "940 INDUSTRIAL RD NO 1", "city": "CRANBROOK", "province": "BC", "country": "CA", "postalCode": "V1C4C6", "twitter": "None", "instagram": "None", "facebook": "None", "youtube": "None", "website": "None", "summary": "None", "logo": "None", "latitude": 49.523282279733614, "longitude": -115.76112197781259}, "107961575RR0001": {"name": "The Board of Education of School District No. 50 (Haida Gwaii/Queen Charlotte)", "designationCode": "C", "categoryCode": "20", "address": "PO 69", "city": "VILLAGE OF QUEEN CHARLOTTE", "province": "BC", "country": "CA", "postalCode": "V0T1S0", "twitter": "None", "instagram": "None", "facebook": "None", "youtube": "None", "website": "None", "summary": "None", "logo": "None", "latitude": 53.50199672573152, "longitude": -132.2619050828624}, "891104275RR0002": {"name": "The Board of Education of School District No. 51 (Boundary)", "designationCode": "C", "categoryCode": "20", "address": "1021 CENTRAL AVENUE           P.O. BOX 640", "city": "GRAND FORKS", "province": "BC", "country": "CA", "postalCode": "V0H1H0", "twitter": "None", "instagram": "None", "facebook": "None", "youtube": "None", "website": "None", "summary": "None", "logo": "None", "latitude": 49.03121033086677, "longitude": -118.44797877136818}, "130978422RR0001": {"name": "The Board of Education of School District No. 52 (Prince Rupert)", "designationCode": "C", "categoryCode": "20", "address": "634 - 6TH AVENUE EAST", "city": "PRINCE RUPERT", "province": "BC", "country": "CA", "postalCode": "V8J1X1", "twitter": "None", "instagram": "None", "facebook": "None", "youtube": "None", "website": "None", "summary": "None", "logo": "None", "latitude": 54.317414117664136, "longitude": -130.31086521201476}, "893847087RR0002": {"name": "The Board of Education of School District No. 53 (Okanagan-Similkameen)", "designationCode": "C", "categoryCode": "20", "address": "PO BOX 1770", "city": "OLIVER", "province": "BC", "country": "CA", "postalCode": "V0H1T0", "twitter": "None", "instagram": "None", "facebook": "None", "youtube": "None", "website": "None", "summary": "None", "logo": "None", "latitude": 49.182600000000036, "longitude": -119.55045999999999}, "107961641RR0001": {"name": "The Board of Education of School District No. 54 (Bulkley Valley)", "designationCode": "C", "categoryCode": "20", "address": "BOX 758", "city": "SMITHERS", "province": "BC", "country": "CA", "postalCode": "V0J2N0", "twitter": "None", "instagram": "None", "facebook": "None", "youtube": "None", "website": "None", "summary": "None", "logo": "None", "latitude": 54.78190002943043, "longitude": -127.16272999999995}, "119216422RR0001": {"name": "The Board of Education of School District No. 57 (Prince George)", "designationCode": "C", "categoryCode": "20", "address": "2100 FERRY AVE", "city": "PRINCE GEORGE", "province": "BC", "country": "CA", "postalCode": "V2L4R5", "twitter": "None", "instagram": "None", "facebook": "None", "youtube": "None", "website": "None", "summary": "None", "logo": "None", "latitude": 53.88891989678176, "longitude": -122.7656745}, "891046070RR0002": {"name": "The Board of Education of School District No. 58 (Nicola-Similkameen)", "designationCode": "C", "categoryCode": "20", "address": "P.O. BOX 4100 STN MAIN", "city": "MERRITT", "province": "BC", "country": "CA", "postalCode": "V1K1B8", "twitter": "None", "instagram": "None", "facebook": "None", "youtube": "None", "website": "None", "summary": "None", "logo": "None", "latitude": 50.110601889565906, "longitude": -120.80346822143058}, "119142792RR0001": {"name": "The Board of Education of School District No. 59 (Peace River South)", "designationCode": "C", "categoryCode": "20", "address": "11600 7TH STREET", "city": "DAWSON CREEK", "province": "BC", "country": "CA", "postalCode": "V1G4R8", "twitter": "None", "instagram": "None", "facebook": "None", "youtube": "None", "website": "None", "summary": "None", "logo": "None", "latitude": 55.74372308381905, "longitude": -120.22133115673205}, "891358079RR0001": {"name": "The Board of Education of School District No. 6 (Rocky Mountain)", "designationCode": "C", "categoryCode": "20", "address": "PO BOX 430", "city": "INVERMERE", "province": "BC", "country": "CA", "postalCode": "V0A1K0", "twitter": "None", "instagram": "None", "facebook": "None", "youtube": "None", "website": "None", "summary": "None", "logo": "None", "latitude": 50.50916700000006, "longitude": -116.03037049999993}, "107961773RR0001": {"name": "The Board of Education of School District No. 60 (Peace River North)", "designationCode": "C", "categoryCode": "25", "address": "10112 - 105 AVE", "city": "FORT ST JOHN", "province": "BC", "country": "CA", "postalCode": "V1J4S4", "twitter": "None", "instagram": "None", "facebook": "None", "youtube": "None", "website": "None", "summary": "None", "logo": "None", "latitude": 56.2511034676841, "longitude": -120.84987052553522}, "106799927RR0001": {"name": "The Board of Education of School District No. 61 (Greater Victoria)", "designationCode": "C", "categoryCode": "20", "address": "556 BOLESKINE RD.", "city": "VICTORIA", "province": "BC", "country": "CA", "postalCode": "V8Z1E8", "twitter": "None", "instagram": "None", "facebook": "None", "youtube": "None", "website": "None", "summary": "None", "logo": "None", "latitude": 48.45246243161731, "longitude": -123.37777263503371}, "118813005RR0001": {"name": "The Board of Education of School District No. 62 (Sooke)", "designationCode": "C", "categoryCode": "20", "address": "3143 JACKLIN ROAD", "city": "VICTORIA", "province": "BC", "country": "CA", "postalCode": "V9B5R1", "twitter": "None", "instagram": "None", "facebook": "None", "youtube": "None", "website": "None", "summary": "None", "logo": "None", "latitude": 48.43582032087962, "longitude": -123.51410828512661}, "119130490RR0001": {"name": "The Board of Education of School District No. 63 (Saanich)", "designationCode": "C", "categoryCode": "21", "address": "2125 KEATING CROSS RD", "city": "SAANICHTON", "province": "BC", "country": "CA", "postalCode": "V8M2A5", "twitter": "None", "instagram": "None", "facebook": "None", "youtube": "None", "website": "None", "summary": "None", "logo": "None", "latitude": 48.56503127326959, "longitude": -123.41266429707937}, "119216505RR0001": {"name": "The Board of Education of School District No. 64 (Gulf Islands)", "designationCode": "C", "categoryCode": "21", "address": "112 RAINBOW ROAD", "city": "SALT SPRING ISLAND", "province": "BC", "country": "CA", "postalCode": "V8K2K3", "twitter": "None", "instagram": "None", "facebook": "None", "youtube": "None", "website": "None", "summary": "None", "logo": "None", "latitude": 48.85447189348202, "longitude": -123.50110888558896}, "891032476RR0002": {"name": "The Board of Education of School District No. 67 (Okanagan Skaha)", "designationCode": "C", "categoryCode": "20", "address": "425 JERMYN AVE", "city": "PENTICTON", "province": "BC", "country": "CA", "postalCode": "V2A1Z4", "twitter": "None", "instagram": "None", "facebook": "None", "youtube": "None", "website": "None", "summary": "None", "logo": "None", "latitude": 49.49232419401001, "longitude": -119.58220988565408}, "107961898RR0001": {"name": "The Board of Education of School District No. 68 (Nanaimo-Ladysmith)", "designationCode": "C", "categoryCode": "21", "address": "395 WAKESIAH AVENUE", "city": "NANAIMO", "province": "BC", "country": "CA", "postalCode": "V9R3K6", "twitter": "None", "instagram": "None", "facebook": "None", "youtube": "None", "website": "None", "summary": "None", "logo": "None", "latitude": 49.16090326939418, "longitude": -123.9611592737047}, "119142826RR0001": {"name": "The Board of Education of School District No. 69 (Qualicum)", "designationCode": "C", "categoryCode": "20", "address": "PO BOX 430 STN MAIN", "city": "PARKSVILLE", "province": "BC", "country": "CA", "postalCode": "V9P2G5", "twitter": "None", "instagram": "None", "facebook": "None", "youtube": "None", "website": "None", "summary": "None", "logo": "None", "latitude": 49.31968200000006, "longitude": -124.31365099999994}, "119142834RR0001": {"name": "The Board of Education of School District No. 70 (Alberni)", "designationCode": "C", "categoryCode": "20", "address": "4690 ROGER ST", "city": "PORT ALBERNI", "province": "BC", "country": "CA", "postalCode": "V9Y3Z4", "twitter": "None", "instagram": "None", "facebook": "None", "youtube": "None", "website": "None", "summary": "None", "logo": "None", "latitude": 49.25422193593943, "longitude": -124.80318111993729}, "107961963RR0001": {"name": "The Board of Education of School District No. 71 (Comox Valley)", "designationCode": "C", "categoryCode": "20", "address": "607 CUMBERLAND RD", "city": "COURTENAY", "province": "BC", "country": "CA", "postalCode": "V9N7G5", "twitter": "None", "instagram": "None", "facebook": "None", "youtube": "None", "website": "None", "summary": "None", "logo": "None", "latitude": 49.687022798288766, "longitude": -125.00098016877317}, "119216612RR0001": {"name": "The Board of Education of School District No. 72 (Campbell River)", "designationCode": "C", "categoryCode": "21", "address": "425 PINECREST RD", "city": "CAMPBELL RIVER", "province": "BC", "country": "CA", "postalCode": "V9W3N9", "twitter": "None", "instagram": "None", "facebook": "None", "youtube": "None", "website": "None", "summary": "None", "logo": "None", "latitude": 50.00387647951469, "longitude": -125.24318107285382}, "893840280RR0001": {"name": "The Board of Education of School District No. 73 (Kamloops/Thompson)", "designationCode": "C", "categoryCode": "20", "address": "1383 NINTH AVE", "city": "KAMLOOPS", "province": "BC", "country": "CA", "postalCode": "V2C3X7", "twitter": "None", "instagram": "None", "facebook": "None", "youtube": "None", "website": "None", "summary": "None", "logo": "None", "latitude": 50.665598497085824, "longitude": -120.31905916108853}, "891016271RR0003": {"name": "The Board of Education of School District No. 74 (Gold Trail)", "designationCode": "C", "categoryCode": "20", "address": "P.O. BOX 250", "city": "ASHCROFT", "province": "BC", "country": "CA", "postalCode": "V0K1A0", "twitter": "None", "instagram": "None", "facebook": "None", "youtube": "None", "website": "None", "summary": "None", "logo": "None", "latitude": 50.7271758075652, "longitude": -121.28212858201184}, "119142842RR0001": {"name": "The Board of Education of School District No. 75 (Mission)", "designationCode": "C", "categoryCode": "20", "address": "33046-4TH AVENUE", "city": "MISSION", "province": "BC", "country": "CA", "postalCode": "V2V1S5", "twitter": "None", "instagram": "None", "facebook": "None", "youtube": "None", "website": "None", "summary": "None", "logo": "None", "latitude": 49.13704644792754, "longitude": -122.30837442999987}, "119216513RR0001": {"name": "The Board of Education of School District No. 78 (Fraser-Cascade)", "designationCode": "C", "categoryCode": "20", "address": "650 KAWKAWA LAKE ROAD", "city": "HOPE", "province": "BC", "country": "CA", "postalCode": "V0X1L4", "twitter": "None", "instagram": "None", "facebook": "None", "youtube": "None", "website": "None", "summary": "None", "logo": "None", "latitude": 49.37753125104471, "longitude": -121.43017675984369}, "891105074RR0003": {"name": "The Board of Education of School District No. 79 (Cowichan Valley)", "designationCode": "C", "categoryCode": "20", "address": "2557 BEVERLY ST", "city": "DUNCAN", "province": "BC", "country": "CA", "postalCode": "V9L2X3", "twitter": "None", "instagram": "None", "facebook": "None", "youtube": "None", "website": "None", "summary": "None", "logo": "None", "latitude": 48.78494451601325, "longitude": -123.69737110644007}, "893857284RR0001": {"name": "The Board of Education of School District No. 8 (Kootenay Lake)", "designationCode": "C", "categoryCode": "20", "address": "570 JOHNSTONE RD", "city": "NELSON", "province": "BC", "country": "CA", "postalCode": "V1L6J2", "twitter": "None", "instagram": "None", "facebook": "None", "youtube": "None", "website": "None", "summary": "None", "logo": "None", "latitude": 49.511220487073835, "longitude": -117.28997040977566}, "107962565RR0001": {"name": "The Board of Education of School District No. 81 (Fort Nelson)", "designationCode": "C", "categoryCode": "20", "address": "5104 AIRPORT DRIVE            BOX 87", "city": "FORT NELSON", "province": "BC", "country": "CA", "postalCode": "V0C1R0", "twitter": "None", "instagram": "None", "facebook": "None", "youtube": "None", "website": "None", "summary": "None", "logo": "None", "latitude": 58.80674792090718, "longitude": -122.69664017424635}, "894038280RR0001": {"name": "The Board of Education of School District No. 82 (Coast Mountains)", "designationCode": "C", "categoryCode": "20", "address": "3211 KENNEY STREET", "city": "TERRACE", "province": "BC", "country": "CA", "postalCode": "V8G3E9", "twitter": "None", "instagram": "None", "facebook": "None", "youtube": "None", "website": "None", "summary": "None", "logo": "None", "latitude": 54.51771038148941, "longitude": -128.6115081555154}, "891020679RR0002": {"name": "The Board of Education of School District No. 83 (North Okanagan-Shuswap)", "designationCode": "C", "categoryCode": "20", "address": "341 SHUSWAP STREET SOUTH WEST", "city": "SALMON ARM", "province": "BC", "country": "CA", "postalCode": "V1E4N2", "twitter": "None", "instagram": "None", "facebook": "None", "youtube": "None", "website": "None", "summary": "None", "logo": "None", "latitude": 50.70182972875454, "longitude": -119.28518877124546}, "119216497RR0001": {"name": "The Board of Education of School District No. 84 (Vancouver Island West)", "designationCode": "C", "categoryCode": "20", "address": "PO BOX 100", "city": "GOLD RIVER", "province": "BC", "country": "CA", "postalCode": "V0P1G0", "twitter": "None", "instagram": "None", "facebook": "None", "youtube": "None", "website": "None", "summary": "None", "logo": "None", "latitude": 49.83721007822344, "longitude": -125.63117932769842}, "893274167RR0001": {"name": "The Board of Education of School District No. 85 (Vancouver Island North)", "designationCode": "C", "categoryCode": "20", "address": "BOX 90", "city": "PORT HARDY", "province": "BC", "country": "CA", "postalCode": "V0N2P0", "twitter": "None", "instagram": "None", "facebook": "None", "youtube": "None", "website": "None", "summary": "None", "logo": "None", "latitude": 50.72153001889881, "longitude": -127.5011199316182}, "107962607RR0001": {"name": "The Board of Education of School District No. 87 (Stikine)", "designationCode": "C", "categoryCode": "20", "address": "PO BOX 190", "city": "DEASE LAKE", "province": "BC", "country": "CA", "postalCode": "V0C1L0", "twitter": "None", "instagram": "None", "facebook": "None", "youtube": "None", "website": "None", "summary": "None", "logo": "None", "latitude": 58.4363202097706, "longitude": -129.98762594213716}, "118812965RR0002": {"name": "The Board of Education of School District No. 91 (Nechako Lakes)", "designationCode": "C", "categoryCode": "20", "address": "P.O. BOX 129", "city": "VANDERHOOF", "province": "BC", "country": "CA", "postalCode": "V0J3A0", "twitter": "None", "instagram": "None", "facebook": "None", "youtube": "None", "website": "None", "summary": "None", "logo": "None", "latitude": 54.01397400000006, "longitude": -124.01297449999993}, "794374124RR0001": {"name": "The Board of Trustees for St. Andrew's Cemetery", "designationCode": "C", "categoryCode": "59", "address": "17812 ST. ANDREW'S ROAD", "city": "CALEDON", "province": "ON", "country": "CA", "postalCode": "L7K2C4", "twitter": "None", "instagram": "None", "facebook": "None", "youtube": "None", "website": "None", "summary": "None", "logo": "None", "latitude": 43.88881171614198, "longitude": -79.93866796698974}, "107879009RR0001": {"name": "The Board of Trustees of the Red Deer Public School District No. 104", "designationCode": "C", "categoryCode": "21", "address": "4747 53 ST", "city": "RED DEER", "province": "AB", "country": "CA", "postalCode": "T4N2E6", "twitter": "None", "instagram": "None", "facebook": "None", "youtube": "None", "website": "None", "summary": "None", "logo": "None", "latitude": 52.27180449567218, "longitude": -113.80766408381903}, "858599558RR0001": {"name": "The Bob Rumball Home for the Deaf", "designationCode": "B", "categoryCode": "01", "address": "1 ROYAL PARKSIDE DR           ATTN: CHANG ZHOU", "city": "BARRIE", "province": "ON", "country": "CA", "postalCode": "L4M0C4", "twitter": "None", "instagram": "None", "facebook": "None", "youtube": "None", "website": "None", "summary": "None", "logo": "None", "latitude": 44.36409483680534, "longitude": -79.62329879834394}, "815277645RR0001": {"name": "The Bob Williams Foundation Inc.", "designationCode": "B", "categoryCode": "03", "address": "550 - 5 DONALD STREET", "city": "WINNIPEG", "province": "MB", "country": "CA", "postalCode": "R3L2T4", "twitter": "None", "instagram": "None", "facebook": "None", "youtube": "None", "website": "None", "summary": "None", "logo": "None", "latitude": 49.88072169885744, "longitude": -97.13747212124215}, "818685224RR0001": {"name": "The Bockman Foundation for Spinal Cord Injuries", "designationCode": "C", "categoryCode": "59", "address": "78 ASPEN CRES", "city": "ST. ALBERT", "province": "AB", "country": "CA", "postalCode": "T8N2L8", "twitter": "None", "instagram": "None", "facebook": "None", "youtube": "None", "website": "None", "summary": "None", "logo": "None", "latitude": 53.63472663056166, "longitude": -113.5851679624909}, "813449790RR0001": {"name": "The Bol Food Bank Of Greater Toronto", "designationCode": "C", "categoryCode": "09", "address": "48 KALAHARI RD", "city": "BRAMPTON", "province": "ON", "country": "CA", "postalCode": "L6R2P4", "twitter": "None", "instagram": "None", "facebook": "None", "youtube": "None", "website": "None", "summary": "None", "logo": "None", "latitude": 43.749224328351225, "longitude": -79.76838720886941}, "854911054RR0001": {"name": "The Boots for Kids Foundation of Alberta", "designationCode": "C", "categoryCode": "09", "address": "4303 9ST SE", "city": "CALGARY", "province": "AB", "country": "CA", "postalCode": "T2G3C8", "twitter": "None", "instagram": "None", "facebook": "None", "youtube": "None", "website": "None", "summary": "None", "logo": "None", "latitude": 51.01434600000006, "longitude": -114.04074049999994}, "867338527RR0001": {"name": "The Bow Valley Society for the Prevention of Cruelty to Animals", "designationCode": "C", "categoryCode": "54", "address": "123 BOW MEADOWS CRESCENT", "city": "CAMMORE", "province": "AB", "country": "CA", "postalCode": "T1W2W8", "twitter": "None", "instagram": "None", "facebook": "None", "youtube": "None", "website": "None", "summary": "None", "logo": "None", "latitude": 51.07756627234644, "longitude": -115.31929699679735}, "818518250RR0001": {"name": "The Bowen Island Community School Association", "designationCode": "C", "categoryCode": "21", "address": "PO BOX 220", "city": "BOWEN ISLAND", "province": "BC", "country": "CA", "postalCode": "V0N1G0", "twitter": "None", "instagram": "None", "facebook": "None", "youtube": "None", "website": "None", "summary": "None", "logo": "None", "latitude": 49.38112992339439, "longitude": -123.3307800379408}, "841958986RR0001": {"name": "The Boys' and Girls' Christian Brigade Canada", "designationCode": "C", "categoryCode": "49", "address": "33 SCIBERRAS ROAD", "city": "MARKHAM", "province": "ON", "country": "CA", "postalCode": "L3R2J2", "twitter": "None", "instagram": "None", "facebook": "None", "youtube": "None", "website": "None", "summary": "None", "logo": "None", "latitude": 43.86188268304573, "longitude": -79.31771728862041}, "816347645RR0001": {"name": "The Brain Aneurysm Foundation of Canada", "designationCode": "C", "categoryCode": "11", "address": "18 STUART ST., BOTTERELL HALL,ROOM 234, CTR FOR NEUROSCENCE", "city": "KINGSTON", "province": "ON", "country": "CA", "postalCode": "K7L3N6", "twitter": "None", "instagram": "None", "facebook": "None", "youtube": "None", "website": "None", "summary": "None", "logo": "None", "latitude": 44.226006000000055, "longitude": -76.49357749999993}, "848374294RR0001": {"name": "The Brain Injury Coalition of Prince Edward Island Inc.", "designationCode": "C", "categoryCode": "11", "address": "81 PRINCE ST", "city": "CHARLOTTETOWN", "province": "PE", "country": "CA", "postalCode": "C1A4R3", "twitter": "None", "instagram": "None", "facebook": "None", "youtube": "None", "website": "None", "summary": "None", "logo": "None", "latitude": 46.23527784901036, "longitude": -63.123739081885795}, "118816990RR0001": {"name": "The Brant Community Healthcare System Volunteer Association", "designationCode": "C", "categoryCode": "19", "address": "200 TERRACE HILL ST", "city": "BRANTFORD", "province": "ON", "country": "CA", "postalCode": "N3R1G9", "twitter": "None", "instagram": "None", "facebook": "None", "youtube": "None", "website": "None", "summary": "None", "logo": "None", "latitude": 43.1525449863004, "longitude": -80.27577595363758}, "831057625RR0001": {"name": "The Brantford Seniors Resource Centre", "designationCode": "C", "categoryCode": "09", "address": "783 COLBORNE STREET,          UNIT 2", "city": "BRANTFORD", "province": "ON", "country": "CA", "postalCode": "N3S3S3", "twitter": "None", "instagram": "None", "facebook": "None", "youtube": "None", "website": "None", "summary": "None", "logo": "None", "latitude": 43.14369964748799, "longitude": -80.22654365998484}, "817743453RR0001": {"name": "The BrazeauSeller Foundation", "designationCode": "B", "categoryCode": "05", "address": "700 - 100 QUEEN ST", "city": "OTTAWA", "province": "ON", "country": "CA", "postalCode": "K1P1J9", "twitter": "None", "instagram": "None", "facebook": "None", "youtube": "None", "website": "None", "summary": "None", "logo": "None", "latitude": 45.42179783677668, "longitude": -75.69784066261774}, "830856464RR0001": {"name": "The Brenda Strafford Society for the Prevention of Domestic Violence", "designationCode": "C", "categoryCode": "09", "address": "4628 MONTGOMERY BLVD NW", "city": "CALGARY", "province": "AB", "country": "CA", "postalCode": "T3B0K7", "twitter": "None", "instagram": "None", "facebook": "None", "youtube": "None", "website": "None", "summary": "None", "logo": "None", "latitude": 51.06791931447276, "longitude": -114.16241879211152}, "826667032RR0001": {"name": "The Brenton Wood Foundation", "designationCode": "B", "categoryCode": "05", "address": "4 KING STREET WEST            SUITE 1300", "city": "TORONTO", "province": "ON", "country": "CA", "postalCode": "M5H1B6", "twitter": "None", "instagram": "None", "facebook": "None", "youtube": "None", "website": "None", "summary": "None", "logo": "None", "latitude": 43.64906913240797, "longitude": -79.37833642951118}, "829613215RR0001": {"name": "The Brian and Joannah Lawson Family Foundation", "designationCode": "B", "categoryCode": "03", "address": "SUITE 300, BCE PLACE          181 BAY STREET, P.O. BOX 762", "city": "TORONTO", "province": "ON", "country": "CA", "postalCode": "M5J2T3", "twitter": "None", "instagram": "None", "facebook": "None", "youtube": "None", "website": "None", "summary": "None", "logo": "None", "latitude": 43.64715006939234, "longitude": -79.3795999811012}, "807930045RR0001": {"name": "The Brian Ludwig Scholarship Foundation", "designationCode": "C", "categoryCode": "21", "address": "1520 96TH AVENUE SOUTHWEST", "city": "CALGARY", "province": "AB", "country": "CA", "postalCode": "T2V5E5", "twitter": "None", "instagram": "None", "facebook": "None", "youtube": "None", "website": "None", "summary": "None", "logo": "None", "latitude": 50.96695049321932, "longitude": -114.09731083236194}, "824063259RR0001": {"name": "The Bride of God's Ministry", "designationCode": "C", "categoryCode": "39", "address": "46 NEILSON PARK DRIVE", "city": "SCARBOROUGH", "province": "ON", "country": "CA", "postalCode": "M1B6B1", "twitter": "None", "instagram": "None", "facebook": "None", "youtube": "None", "website": "None", "summary": "None", "logo": "None", "latitude": 43.81514103026708, "longitude": -79.22415810006342}, "870848355RR0001": {"name": "The Bridegroom's House", "designationCode": "C", "categoryCode": "39", "address": "907-250 FREDERICK STREET", "city": "KITCHENER", "province": "ON", "country": "CA", "postalCode": "N2H2N1", "twitter": "None", "instagram": "None", "facebook": "None", "youtube": "None", "website": "None", "summary": "None", "logo": "None", "latitude": 43.45485971469781, "longitude": -80.47965391883535}, "118977628RR0001": {"name": "The Bridge", "designationCode": "C", "categoryCode": "39", "address": "285 ROGER NEILSON WAY", "city": "KANATA", "province": "ON", "country": "CA", "postalCode": "K2T1C4", "twitter": "None", "instagram": "None", "facebook": "None", "youtube": "None", "website": "None", "summary": "None", "logo": "None", "latitude": 45.30458811726087, "longitude": -75.91849276826403}, "863108379RR0001": {"name": "The Bridge - Church for All Nations Incorporated", "designationCode": "C", "categoryCode": "39", "address": "477 KINGSTON ROAD", "city": "PICKERING", "province": "ON", "country": "CA", "postalCode": "L1V1A5", "twitter": "None", "instagram": "None", "facebook": "None", "youtube": "None", "website": "None", "summary": "None", "logo": "None", "latitude": 43.812276382711254, "longitude": -79.12430086242746}, "803737089RR0001": {"name": "The Bridge a Church That Connects", "designationCode": "C", "categoryCode": "39", "address": "106-1033 HARO STREET", "city": "VANCOUVER", "province": "BC", "country": "CA", "postalCode": "V6E1C8", "twitter": "None", "instagram": "None", "facebook": "None", "youtube": "None", "website": "None", "summary": "None", "logo": "None", "latitude": 49.28316261117194, "longitude": -123.12471081054895}, "118911221RR0001": {"name": "The Bridge on Taunton Ministries", "designationCode": "C", "categoryCode": "31", "address": "95 TAUNTON RD EAST", "city": "WHITBY", "province": "ON", "country": "CA", "postalCode": "L1R3L3", "twitter": "None", "instagram": "None", "facebook": "None", "youtube": "None", "website": "None", "summary": "None", "logo": "None", "latitude": 43.91611788418314, "longitude": -78.95389444223579}, "780159927RR0001": {"name": "The Bridge Church", "designationCode": "C", "categoryCode": "39", "address": "6829 MCMICKING ST", "city": "NIAGARA FALLS", "province": "ON", "country": "CA", "postalCode": "L2J1X6", "twitter": "None", "instagram": "None", "facebook": "None", "youtube": "None", "website": "None", "summary": "None", "logo": "None", "latitude": 43.12791051154119, "longitude": -79.11119550152921}, "841689763RR0001": {"name": "The Bridge Educational Society", "designationCode": "C", "categoryCode": "20", "address": "730 WHITEVALE ROAD", "city": "LUMBY", "province": "BC", "country": "CA", "postalCode": "V0E2G7", "twitter": "None", "instagram": "None", "facebook": "None", "youtube": "None", "website": "None", "summary": "None", "logo": "None", "latitude": 50.22019050504992, "longitude": -119.02820302553522}, "107396905RR0048": {"name": "The Bridge Foursquare Gospel Church Regina", "designationCode": "C", "categoryCode": "39", "address": "5130 4TH AVE", "city": "REGINA", "province": "SK", "country": "CA", "postalCode": "S4T0J7", "twitter": "None", "instagram": "None", "facebook": "None", "youtube": "None", "website": "None", "summary": "None", "logo": "None", "latitude": 50.462941493219326, "longitude": -104.65495102553523}, "892560970RR0001": {"name": "The Bridge Prison Ministry", "designationCode": "C", "categoryCode": "59", "address": "7 - 1287 ST CLAIR AVE W", "city": "TORONTO", "province": "ON", "country": "CA", "postalCode": "M6E1B8", "twitter": "None", "instagram": "None", "facebook": "None", "youtube": "None", "website": "None", "summary": "None", "logo": "None", "latitude": 43.67801976972371, "longitude": -79.4430252665196}, "891194771RR0001": {"name": "The Bridgewater Music Festival", "designationCode": "C", "categoryCode": "22", "address": "199 EMPIRE STREET", "city": "BRIDGEWATER", "province": "NS", "country": "CA", "postalCode": "B4V2M4", "twitter": "None", "instagram": "None", "facebook": "None", "youtube": "None", "website": "None", "summary": "None", "logo": "None", "latitude": 44.37433762363676, "longitude": -64.5282501197416}, "842271694RR0001": {"name": "The Bridgeworks Hope to the World Foundation", "designationCode": "B", "categoryCode": "03", "address": "PO BOX 2158", "city": "DIDSBURY", "province": "AB", "country": "CA", "postalCode": "T0M0W0", "twitter": "None", "instagram": "None", "facebook": "None", "youtube": "None", "website": "None", "summary": "None", "logo": "None", "latitude": 51.666270000000054, "longitude": -114.13792999999998}, "811326958RR0001": {"name": "The Bridle Bash Foundation", "designationCode": "A", "categoryCode": "03", "address": "45 ST. CLAIR AVE. WEST        SUITE 200", "city": "TORONTO", "province": "ON", "country": "CA", "postalCode": "M4V1K6", "twitter": "None", "instagram": "None", "facebook": "None", "youtube": "None", "website": "None", "summary": "None", "logo": "None", "latitude": 43.68768979098635, "longitude": -79.3955475478678}, "851100958RR0001": {"name": "The British Schools' Foundation", "designationCode": "B", "categoryCode": "25", "address": "146 YORKVILLE AVE", "city": "TORONTO", "province": "ON", "country": "CA", "postalCode": "M5R1C2", "twitter": "None", "instagram": "None", "facebook": "None", "youtube": "None", "website": "None", "summary": "None", "logo": "None", "latitude": 43.67044618679666, "longitude": -79.3945089111893}, "119217461RR0001": {"name": "The Brookfield Fire Commissioners", "designationCode": "A", "categoryCode": "59", "address": "POST OFFICE BOX 128", "city": "BROOKFIELD", "province": "NS", "country": "CA", "postalCode": "B0N1C0", "twitter": "None", "instagram": "None", "facebook": "None", "youtube": "None", "website": "None", "summary": "None", "logo": "None", "latitude": 45.258150183855356, "longitude": -63.2817954722186}, "132471186RR0001": {"name": "The Brookhaven Foundation for Youth / Fondation Jeunesse Brookhaven", "designationCode": "C", "categoryCode": "09", "address": "298 AV BROOKHAVEN", "city": "DORVAL", "province": "QC", "country": "CA", "postalCode": "H9S2N4", "twitter": "None", "instagram": "None", "facebook": "None", "youtube": "None", "website": "None", "summary": "None", "logo": "None", "latitude": 45.44427766610887, "longitude": -73.76895571859295}, "727242323RR0001": {"name": "The Brookings Institution Canada", "designationCode": "C", "categoryCode": "21", "address": "390 BAY ST                    SUITE 1202", "city": "TORONTO", "province": "ON", "country": "CA", "postalCode": "M5H2Y2", "twitter": "None", "instagram": "None", "facebook": "None", "youtube": "None", "website": "None", "summary": "None", "logo": "None", "latitude": 43.65110410687275, "longitude": -79.38169965834723}, "886842632RR0001": {"name": "The Brotherhood of Christ Healing Temple Ministries Inc.", "designationCode": "C", "categoryCode": "39", "address": "37 FAULKNER CRESCENT", "city": "TORONTO", "province": "ON", "country": "CA", "postalCode": "M9M2B9", "twitter": "None", "instagram": "None", "facebook": "None", "youtube": "None", "website": "None", "summary": "None", "logo": "None", "latitude": 43.747881317790984, "longitude": -79.55500082849545}, "844385427RR0001": {"name": "The Brothers of Mercy Foundation", "designationCode": "C", "categoryCode": "09", "address": "2770 DUFFERIN STREET          SUITE 201", "city": "TORONTO", "province": "ON", "country": "CA", "postalCode": "M6B3R7", "twitter": "None", "instagram": "None", "facebook": "None", "youtube": "None", "website": "None", "summary": "None", "logo": "None", "latitude": 43.70413018067982, "longitude": -79.4525475466557}, "838100063RR0001": {"name": "The Brown-Nusbaum Family Foundation", "designationCode": "B", "categoryCode": "03", "address": "67 ELDERWOOD DRIVE", "city": "TORONTO", "province": "ON", "country": "CA", "postalCode": "M5P1X5", "twitter": "None", "instagram": "None", "facebook": "None", "youtube": "None", "website": "None", "summary": "None", "logo": "None", "latitude": 43.695636769346265, "longitude": -79.42247517554392}, "837180918RR0001": {"name": "The Brownlee Family Foundation Inc.", "designationCode": "B", "categoryCode": "03", "address": "631 TRENT CRESCENT", "city": "SASKATOON", "province": "SK", "country": "CA", "postalCode": "S7H4T5", "twitter": "None", "instagram": "None", "facebook": "None", "youtube": "None", "website": "None", "summary": "None", "logo": "None", "latitude": 52.11660650291418, "longitude": -106.58057627612693}, "835556085RR0001": {"name": "The Browns Shoes Charitable Foundation / La Fondation de bienfaisance Chaussures Browns", "designationCode": "B", "categoryCode": "03", "address": "2255 RUE COHEN", "city": "SAINT-LAURENT", "province": "QC", "country": "CA", "postalCode": "H4R2N7", "twitter": "None", "instagram": "None", "facebook": "None", "youtube": "None", "website": "None", "summary": "None", "logo": "None", "latitude": 45.494968248420555, "longitude": -73.73178816657858}, "737696294RR0001": {"name": "The Bruce And Audrey Groves Family Foundation", "designationCode": "B", "categoryCode": "03", "address": "390 HINTON AVE S", "city": "OTTAWA", "province": "ON", "country": "CA", "postalCode": "K1Y1B1", "twitter": "None", "instagram": "None", "facebook": "None", "youtube": "None", "website": "None", "summary": "None", "logo": "None", "latitude": 45.392603794333226, "longitude": -75.7266100288821}, "806425104RR0001": {"name": "The Bruce H. Mitchell Foundation", "designationCode": "B", "categoryCode": "03", "address": "SUITE 5330                    1ST CANADIAN PLACE", "city": "TORONTO", "province": "ON", "country": "CA", "postalCode": "M5X1A6", "twitter": "None", "instagram": "None", "facebook": "None", "youtube": "None", "website": "None", "summary": "None", "logo": "None", "latitude": 43.64826932503962, "longitude": -79.38190945606182}, "830029021RR0001": {"name": "The Bruce Mines & District Historical Society", "designationCode": "C", "categoryCode": "50", "address": "PO BOX 188", "city": "BRUCE MINES", "province": "ON", "country": "CA", "postalCode": "P0R1C0", "twitter": "None", "instagram": "None", "facebook": "None", "youtube": "None", "website": "None", "summary": "None", "logo": "None", "latitude": 46.300230000000056, "longitude": -83.79410999999999}, "817422033RR0001": {"name": "The Bruce Oake Memorial Foundation, Inc.", "designationCode": "B", "categoryCode": "57", "address": "162 WALLINGFORD CRES", "city": "WINNIPEG", "province": "MB", "country": "CA", "postalCode": "R3P1L5", "twitter": "None", "instagram": "None", "facebook": "None", "youtube": "None", "website": "None", "summary": "None", "logo": "None", "latitude": 49.84197268471917, "longitude": -97.18378518806605}, "800754418RR0001": {"name": "The Bruce Peninsula Art Show", "designationCode": "C", "categoryCode": "22", "address": "PO BOX 983", "city": "LION'S HEAD", "province": "ON", "country": "CA", "postalCode": "N0H1W0", "twitter": "None", "instagram": "None", "facebook": "None", "youtube": "None", "website": "None", "summary": "None", "logo": "None", "latitude": 44.98728998889153, "longitude": -81.25250001889873}, "860975358RR0001": {"name": "The Bruce Peninsula Biosphere Association", "designationCode": "C", "categoryCode": "29", "address": "P.O. BOX 3", "city": "TOBERMORY", "province": "ON", "country": "CA", "postalCode": "N0H2R0", "twitter": "None", "instagram": "None", "facebook": "None", "youtube": "None", "website": "None", "summary": "None", "logo": "None", "latitude": 45.253840000000025, "longitude": -81.66510999999997}, "839085321RR0001": {"name": "The Brunswick Street Mission", "designationCode": "C", "categoryCode": "09", "address": "2107 BRUNSWICK STREET", "city": "HALIFAX", "province": "NS", "country": "CA", "postalCode": "B3K2Y4", "twitter": "None", "instagram": "None", "facebook": "None", "youtube": "None", "website": "None", "summary": "None", "logo": "None", "latitude": 44.652704541231365, "longitude": -63.58125264888351}}