{"853321677RR0001": {"name": "CHINOOK WINDS GREYHOUND RESCUE FOUNDATION", "designationCode": "C", "categoryCode": "54", "address": "SITE 25, BOX 41, RR 7", "city": "CALGARY", "province": "AB", "country": "CA", "postalCode": "T2P2G7", "twitter": "None", "instagram": "None", "facebook": "None", "youtube": "None", "website": "None", "summary": "None", "logo": "None", "latitude": 51.050427000000056, "longitude": -114.07341499999993}, "744056094RR0001": {"name": "CHIOTS NORDIQUES, NORTHERN PUPPIES", "designationCode": "B", "categoryCode": "54", "address": "33 RUE DE LA BRETAGNE", "city": "STE-ANNE-DES-PLAINES", "province": "QC", "country": "CA", "postalCode": "J0N1H0", "twitter": "None", "instagram": "None", "facebook": "None", "youtube": "None", "website": "None", "summary": "None", "logo": "None", "latitude": 45.71681985651218, "longitude": -73.7788038184548}, "889913174RR0001": {"name": "CHIP LAKE HISTORICAL SOCIETY", "designationCode": "C", "categoryCode": "50", "address": "BOX 485", "city": "WILDWOOD", "province": "AB", "country": "CA", "postalCode": "T0E2M0", "twitter": "None", "instagram": "None", "facebook": "None", "youtube": "None", "website": "None", "summary": "None", "logo": "None", "latitude": 53.60579000000007, "longitude": -115.23706999999996}, "118853530RR0001": {"name": "CHIPMAN COMMUNITY CARE INC.", "designationCode": "C", "categoryCode": "01", "address": "93 BRIDGE ST", "city": "CHIPMAN", "province": "NB", "country": "CA", "postalCode": "E4A1R8", "twitter": "None", "instagram": "None", "facebook": "None", "youtube": "None", "website": "None", "summary": "None", "logo": "None", "latitude": 46.17996973618977, "longitude": -65.8859655965812}, "131894891RR0001": {"name": "CHIPMAN PASTORAL CHARGE", "designationCode": "C", "categoryCode": "44", "address": "204 MAIN ST", "city": "CHIPMAN", "province": "NB", "country": "CA", "postalCode": "E4A1X4", "twitter": "None", "instagram": "None", "facebook": "None", "youtube": "None", "website": "None", "summary": "None", "logo": "None", "latitude": 46.177197618413956, "longitude": -65.87892807819219}, "118853571RR0001": {"name": "CHIPMAN PUBLIC LIBRARY", "designationCode": "C", "categoryCode": "50", "address": "8 KING STREET", "city": "CHIPMAN", "province": "NB", "country": "CA", "postalCode": "E4A2H3", "twitter": "None", "instagram": "None", "facebook": "None", "youtube": "None", "website": "None", "summary": "None", "logo": "None", "latitude": 46.17487939491039, "longitude": -65.88126960771775}, "106916380RR0001": {"name": "CHIPPAWA PRESBYTERIAN CHURCH", "designationCode": "C", "categoryCode": "37", "address": "8280 WILLOUGHBY DR", "city": "NIAGARA FALLS", "province": "ON", "country": "CA", "postalCode": "L2G6X2", "twitter": "None", "instagram": "None", "facebook": "None", "youtube": "None", "website": "None", "summary": "None", "logo": "None", "latitude": 43.05791466169413, "longitude": -79.04950595764346}, "892580283RR0001": {"name": "CHIPPENDALE FOUNDATION", "designationCode": "B", "categoryCode": "03", "address": "1500 GEORGIA ST W             SUITE 1250, BOX 62", "city": "VANCOUVER", "province": "BC", "country": "CA", "postalCode": "V6G2Z6", "twitter": "None", "instagram": "None", "facebook": "None", "youtube": "None", "website": "None", "summary": "None", "logo": "None", "latitude": 49.2900638104334, "longitude": -123.12989899362336}, "889378790RR0001": {"name": "CHIPPEWAS OF SARNIA BAND OF INDIANS TRUST", "designationCode": "B", "categoryCode": "25", "address": "380 WELLINGTON ST, 12TH FLOOR", "city": "LONDON", "province": "ON", "country": "CA", "postalCode": "N6A5B5", "twitter": "None", "instagram": "None", "facebook": "None", "youtube": "None", "website": "None", "summary": "None", "logo": "None", "latitude": 42.98403487844074, "longitude": -81.24475227780037}, "887730711RR0001": {"name": "CHIRS FOUNDATION FOR BRAIN INJURY REHABILITATION", "designationCode": "A", "categoryCode": "03", "address": "62 FINCH AVE.W.", "city": "TORONTO", "province": "ON", "country": "CA", "postalCode": "M2N7G1", "twitter": "None", "instagram": "None", "facebook": "None", "youtube": "None", "website": "None", "summary": "None", "logo": "None", "latitude": 43.77863516515656, "longitude": -79.42076684569214}, "835398405RR0001": {"name": "CHISHOLM FOUNDATION FOR CHILDREN", "designationCode": "A", "categoryCode": "03", "address": "5724 SOUTH STREET", "city": "HALIFAX", "province": "NS", "country": "CA", "postalCode": "B3H1S4", "twitter": "None", "instagram": "None", "facebook": "None", "youtube": "None", "website": "None", "summary": "None", "logo": "None", "latitude": 44.63798291144912, "longitude": -63.57840459310985}, "118853621RR0001": {"name": "CHISHOLM UNITED CHURCH", "designationCode": "C", "categoryCode": "44", "address": "1724 CHISWICK LINE RR 4", "city": "POWASSAN", "province": "ON", "country": "CA", "postalCode": "P0H1Z0", "twitter": "None", "instagram": "None", "facebook": "None", "youtube": "None", "website": "None", "summary": "None", "logo": "None", "latitude": 46.09758306604357, "longitude": -79.24574979669822}, "855108478RR0001": {"name": "CHISTIAN EVANGELISTIC MINISTRIES", "designationCode": "C", "categoryCode": "39", "address": "5566                          WHISTLER CRES", "city": "MISSISSAUGA", "province": "ON", "country": "CA", "postalCode": "L4Z3R5", "twitter": "None", "instagram": "None", "facebook": "None", "youtube": "None", "website": "None", "summary": "None", "logo": "None", "latitude": 43.62043142879002, "longitude": -79.66483166198256}, "120267885RR0001": {"name": "CHOC CARREFOUR D'HOMMES EN CHANGEMENT", "designationCode": "C", "categoryCode": "09", "address": "25 BOUL LEVESQUE EST", "city": "LAVAL", "province": "QC", "country": "CA", "postalCode": "H7G1B3", "twitter": "None", "instagram": "None", "facebook": "None", "youtube": "None", "website": "None", "summary": "None", "logo": "None", "latitude": 45.561901212591685, "longitude": -73.68199945017031}, "861296416RR0001": {"name": "CHOEUR DES ENFANTS DE MONTREAL / MONTREAL CHILDREN'S CHOIR", "designationCode": "C", "categoryCode": "22", "address": "5038 RUE SHERBROOKE O         P.O. BOX 23016", "city": "MONTREAL", "province": "QC", "country": "CA", "postalCode": "H4A3V4", "twitter": "None", "instagram": "None", "facebook": "None", "youtube": "None", "website": "None", "summary": "None", "logo": "None", "latitude": 45.47663885954196, "longitude": -73.60610331109723}, "118853647RR0001": {"name": "CHOEUR LAVAL INC.", "designationCode": "C", "categoryCode": "22", "address": "132 L'ALLIER", "city": "LAVAL", "province": "QC", "country": "CA", "postalCode": "H7L2L2", "twitter": "None", "instagram": "None", "facebook": "None", "youtube": "None", "website": "None", "summary": "None", "logo": "None", "latitude": 45.61505788343239, "longitude": -73.7801763122224}, "125479451RR0001": {"name": "CHOEUR LES RHAPSODES INC.", "designationCode": "C", "categoryCode": "22", "address": "CP 273 SUCC HAUTE-VILLE", "city": "QUEBEC", "province": "QC", "country": "CA", "postalCode": "G1R4P8", "twitter": "None", "instagram": "None", "facebook": "None", "youtube": "None", "website": "None", "summary": "None", "logo": "None", "latitude": 46.81977000000006, "longitude": -71.23039999999997}, "802533349RR0001": {"name": "CHOEUR NEIL-MICHAUD INC.", "designationCode": "C", "categoryCode": "22", "address": "CP 23142", "city": "MONCTON", "province": "NB", "country": "CA", "postalCode": "E1A6S8", "twitter": "None", "instagram": "None", "facebook": "None", "youtube": "None", "website": "None", "summary": "None", "logo": "None"}, "883118119RR0001": {"name": "CHOEUR POLYPHONIQUE DE CHARLEVOIX", "designationCode": "C", "categoryCode": "22", "address": "C.P. 3101", "city": "BAIE-ST-PAUL", "province": "QC", "country": "CA", "postalCode": "G3Z3B6", "twitter": "None", "instagram": "None", "facebook": "None", "youtube": "None", "website": "None", "summary": "None", "logo": "None", "latitude": 47.44776300000005, "longitude": -70.51778449999993}, "885149328RR0001": {"name": "CHOEUR RADIO VILLE-MARIE", "designationCode": "C", "categoryCode": "22", "address": "7269 RUE BOYER", "city": "MONTREAL", "province": "QC", "country": "CA", "postalCode": "H2R2R6", "twitter": "None", "instagram": "None", "facebook": "None", "youtube": "None", "website": "None", "summary": "None", "logo": "None", "latitude": 45.54259119207676, "longitude": -73.61458152441004}, "118853654RR0001": {"name": "CHOEUR ST-LAURENT", "designationCode": "C", "categoryCode": "22", "address": "CP 307 SUCC B", "city": "MONTR\u00c9AL", "province": "QC", "country": "CA", "postalCode": "H3B3J7", "twitter": "None", "instagram": "None", "facebook": "None", "youtube": "None", "website": "None", "summary": "None", "logo": "None", "latitude": 45.49987500000006, "longitude": -73.56867649999994}, "118853662RR0001": {"name": "CHOEUR V'LA L'BON VENT", "designationCode": "C", "categoryCode": "22", "address": "260 AV BELANGER", "city": "QUEBEC", "province": "QC", "country": "CA", "postalCode": "G1M1V8", "twitter": "None", "instagram": "None", "facebook": "None", "youtube": "None", "website": "None", "summary": "None", "logo": "None", "latitude": 46.81626020151182, "longitude": -71.25840989852294}, "889926978RR0001": {"name": "CHOICE FOR LIFE SOCIETY OF WILLIAMS LAKE", "designationCode": "C", "categoryCode": "09", "address": "BOX 4321", "city": "WILLIAMS LAKE", "province": "BC", "country": "CA", "postalCode": "V2G2V4", "twitter": "None", "instagram": "None", "facebook": "None", "youtube": "None", "website": "None", "summary": "None", "logo": "None", "latitude": 52.12864500000006, "longitude": -122.14108249999992}, "106917040RR0001": {"name": "CHOICE SCHOOL FOR GIFTED CHILDREN SOCIETY", "designationCode": "C", "categoryCode": "20", "address": "20451 WESTMINSTER HWY", "city": "RICHMOND", "province": "BC", "country": "CA", "postalCode": "V6V1B3", "twitter": "None", "instagram": "None", "facebook": "None", "youtube": "None", "website": "None", "summary": "None", "logo": "None", "latitude": 49.1698494649428, "longitude": -122.99475031112588}, "118853712RR0001": {"name": "CHOICELAND HISTORICAL SOCIETY", "designationCode": "C", "categoryCode": "50", "address": "BOX 218", "city": "CHOICELAND", "province": "SK", "country": "CA", "postalCode": "S0J0M0", "twitter": "None", "instagram": "None", "facebook": "None", "youtube": "None", "website": "None", "summary": "None", "logo": "None", "latitude": 53.48339000000004, "longitude": -104.48422999999997}, "125593657RR0053": {"name": "CHOICELAND SQUADRON NO 574", "designationCode": "C", "categoryCode": "29", "address": "PO BOX 1382", "city": "NIPAWIN", "province": "SK", "country": "CA", "postalCode": "S0E1E0", "twitter": "None", "instagram": "None", "facebook": "None", "youtube": "None", "website": "None", "summary": "None", "logo": "None", "latitude": 53.396118, "longitude": -104.00834700000001}, "833001969RR0001": {"name": "CHOICELAND UNITED CHURCH", "designationCode": "C", "categoryCode": "44", "address": "BOX 163", "city": "CHOICELAND", "province": "SK", "country": "CA", "postalCode": "S0J0M0", "twitter": "None", "instagram": "None", "facebook": "None", "youtube": "None", "website": "None", "summary": "None", "logo": "None", "latitude": 53.48339000000004, "longitude": -104.48422999999997}, "119247872RR0001": {"name": "CHOICES ASSOCIATION INC.", "designationCode": "C", "categoryCode": "11", "address": "UNIT 10 & 11, 59 KIRBY AVE.", "city": "DUNDAS", "province": "ON", "country": "CA", "postalCode": "L9H6P3", "twitter": "None", "instagram": "None", "facebook": "None", "youtube": "None", "website": "None", "summary": "None", "logo": "None", "latitude": 43.275167119077764, "longitude": -79.99684647925488}, "130632375RR0001": {"name": "CHOICES ASSOCIATION OF FORT MCMURRAY", "designationCode": "C", "categoryCode": "11", "address": "10010 FRANKLIN AVE            ATHABASCA BUILDING", "city": "FT MCMURRAY", "province": "AB", "country": "CA", "postalCode": "T9H2K6", "twitter": "None", "instagram": "None", "facebook": "None", "youtube": "None", "website": "None", "summary": "None", "logo": "None", "latitude": 56.72806800000005, "longitude": -111.38241049999993}, "129560173RR0001": {"name": "CHOICES FOR CHANGE ALCOHOL, DRUG AND GAMBLING COUNSELLING CENTRE", "designationCode": "C", "categoryCode": "11", "address": "10 DOWNIE STREET              3RD FLOOR", "city": "STRATFORD", "province": "ON", "country": "CA", "postalCode": "N5A7K4", "twitter": "None", "instagram": "None", "facebook": "None", "youtube": "None", "website": "None", "summary": "None", "logo": "None", "latitude": 43.37111549125743, "longitude": -80.98235024857156}, "130889942RR0001": {"name": "CHOICES FOR YOUTH INC", "designationCode": "C", "categoryCode": "01", "address": "12-16 CARTER'S HILL PLACE", "city": "ST. JOHN'S", "province": "NL", "country": "CA", "postalCode": "A1C6N5", "twitter": "None", "instagram": "None", "facebook": "None", "youtube": "None", "website": "None", "summary": "None", "logo": "None", "latitude": 47.56297469499096, "longitude": -52.71148406160203}, "882798713RR0001": {"name": "CHOICES FOUNDATION INC.", "designationCode": "A", "categoryCode": "03", "address": "UNIT 10 & 11                  59 KIRBY AVE.", "city": "DUNDAS", "province": "ON", "country": "CA", "postalCode": "L9H6P3", "twitter": "None", "instagram": "None", "facebook": "None", "youtube": "None", "website": "None", "summary": "None", "logo": "None", "latitude": 43.275167119077764, "longitude": -79.99684647925488}, "138051347RR0001": {"name": "CHOICES THRIFT & GIFT SHOP", "designationCode": "C", "categoryCode": "09", "address": "PO BOX 1576 22 BRIDGE STREET", "city": "BANCROFT", "province": "ON", "country": "CA", "postalCode": "K0L1C0", "twitter": "None", "instagram": "None", "facebook": "None", "youtube": "None", "website": "None", "summary": "None", "logo": "None", "latitude": 44.422189603334324, "longitude": -78.27347172370078}, "888679461RR0001": {"name": "CHOICES: FUTURES AND FAMILIES SOCIETY OF BRITISH COLUMBIA", "designationCode": "C", "categoryCode": "09", "address": "100 - 850 BLANSHARD ST", "city": "VICTORIA", "province": "BC", "country": "CA", "postalCode": "V8W2H2", "twitter": "None", "instagram": "None", "facebook": "None", "youtube": "None", "website": "None", "summary": "None", "logo": "None", "latitude": 48.4224507238444, "longitude": -123.3630216687919}, "119067536RR0001": {"name": "CHOIRS ONTARIO/CHORALES ONTARIO", "designationCode": "C", "categoryCode": "22", "address": "626 BATHURST ST", "city": "TORONTO", "province": "ON", "country": "CA", "postalCode": "M5S2R1", "twitter": "None", "instagram": "None", "facebook": "None", "youtube": "None", "website": "None", "summary": "None", "logo": "None", "latitude": 43.66046648681402, "longitude": -79.40933660909445}, "118853720RR0001": {"name": "CHOMEDEY BAPTIST CHURCH", "designationCode": "C", "categoryCode": "31", "address": "1225 BOUL ELISABETH", "city": "LAVAL", "province": "QC", "country": "CA", "postalCode": "H7W3J7", "twitter": "None", "instagram": "None", "facebook": "None", "youtube": "None", "website": "None", "summary": "None", "logo": "None", "latitude": 45.53990029808415, "longitude": -73.75903180428789}, "119288918RR0716": {"name": "CHOMEDEY CONGREGATON OF JEHOVAH'S WITNESSES", "designationCode": "C", "categoryCode": "61", "address": "1872 RUE DE BUCAREST", "city": "LAVAL", "province": "QC", "country": "CA", "postalCode": "H7M4W8", "twitter": "None", "instagram": "None", "facebook": "None", "youtube": "None", "website": "None", "summary": "None", "logo": "None", "latitude": 45.61120477269315, "longitude": -73.72248571980502}, "867922726RR0001": {"name": "CHOOSE AGAIN SOCIETY", "designationCode": "C", "categoryCode": "09", "address": "4438 5TH AVE W", "city": "VANCOUVER", "province": "BC", "country": "CA", "postalCode": "V6R1S5", "twitter": "None", "instagram": "None", "facebook": "None", "youtube": "None", "website": "None", "summary": "None", "logo": "None", "latitude": 49.268086513994035, "longitude": -123.20728055398465}, "891227084RR0001": {"name": "CHOR LEONI MEN'S CHOIR", "designationCode": "C", "categoryCode": "22", "address": "949 49TH AVE W", "city": "VANCOUVER", "province": "BC", "country": "CA", "postalCode": "V5Z2T1", "twitter": "None", "instagram": "None", "facebook": "None", "youtube": "None", "website": "None", "summary": "None", "logo": "None", "latitude": 49.22653944993916, "longitude": -123.12757091756595}, "853576478RR0001": {"name": "CHORAL CONNECTION", "designationCode": "C", "categoryCode": "22", "address": "89 HEMLOCK STREET", "city": "ST. THOMAS", "province": "ON", "country": "CA", "postalCode": "N5R1X8", "twitter": "None", "instagram": "None", "facebook": "None", "youtube": "None", "website": "None", "summary": "None", "logo": "None", "latitude": 42.76895980861139, "longitude": -81.18373850739214}, "100957497RR0001": {"name": "CHORALE \"LES OISILLONS\"", "designationCode": "C", "categoryCode": "22", "address": "66, RUE CLOUGH", "city": "SHERBROOKE", "province": "QC", "country": "CA", "postalCode": "J1M2G9", "twitter": "None", "instagram": "None", "facebook": "None", "youtube": "None", "website": "None", "summary": "None", "logo": "None", "latitude": 45.365003474897485, "longitude": -71.86635025145709}, "890657943RR0001": {"name": "CHORALE \"LES VOIX D'ARGENTEUIL\"", "designationCode": "C", "categoryCode": "22", "address": "378 PRINCIPALE LOCAL 114", "city": "LACHUTE", "province": "QC", "country": "CA", "postalCode": "J8H1Y2", "twitter": "None", "instagram": "None", "facebook": "None", "youtube": "None", "website": "None", "summary": "None", "logo": "None", "latitude": 45.655724620030064, "longitude": -74.34125082209015}, "118853753RR0001": {"name": "CHORALE DONOVAN INC.", "designationCode": "C", "categoryCode": "22", "address": "CP 75                         SUCCURSALE NDG", "city": "MONTREAL", "province": "QC", "country": "CA", "postalCode": "H4A3P4", "twitter": "None", "instagram": "None", "facebook": "None", "youtube": "None", "website": "None", "summary": "None", "logo": "None", "latitude": 45.47400000000006, "longitude": -73.61589949999993}, "118853787RR0001": {"name": "CHORALE VOIDUNOR", "designationCode": "C", "categoryCode": "22", "address": "2555 ROUTE 315", "city": "DUNLOP", "province": "NB", "country": "CA", "postalCode": "E8K2J7", "twitter": "None", "instagram": "None", "facebook": "None", "youtube": "None", "website": "None", "summary": "None", "logo": "None", "latitude": 47.6842629500029, "longitude": -65.73259683625079}, "833983968RR0001": {"name": "CHORALIS CAMERATA", "designationCode": "C", "categoryCode": "22", "address": "2539 NOELLA CRESCENT", "city": "NIAGARA FALLS", "province": "ON", "country": "CA", "postalCode": "L2J3H7", "twitter": "None", "instagram": "None", "facebook": "None", "youtube": "None", "website": "None", "summary": "None", "logo": "None", "latitude": 43.13517142853022, "longitude": -79.11416035501163}, "118853795RR0001": {"name": "CHORLEY & BISSET LTD. CONSULTING ENGINEERS EMPLOYEES CHARITY TRUST", "designationCode": "A", "categoryCode": "75", "address": "369 YORK STREET SUITE 2B", "city": "LONDON", "province": "ON", "country": "CA", "postalCode": "N6B3R4", "twitter": "None", "instagram": "None", "facebook": "None", "youtube": "None", "website": "None", "summary": "None", "logo": "None", "latitude": 42.9835320130131, "longitude": -81.24028455785111}, "849174545RR0001": {"name": "CHOROIDEREMIA RESEARCH FOUNDATION CANADA INC.", "designationCode": "C", "categoryCode": "13", "address": "16 CANDLEWOOD DRIVE", "city": "BRANTFORD", "province": "ON", "country": "CA", "postalCode": "N3R6A1", "twitter": "None", "instagram": "None", "facebook": "None", "youtube": "None", "website": "None", "summary": "None", "logo": "None", "latitude": 43.181372002481496, "longitude": -80.26270478766814}, "871437968RR0001": {"name": "CHORUS NIAGARA", "designationCode": "C", "categoryCode": "22", "address": "PO BOX 25019                  221 GLENDALE AVENUE", "city": "ST.CATHARINES", "province": "ON", "country": "CA", "postalCode": "L2T4C4", "twitter": "None", "instagram": "None", "facebook": "None", "youtube": "None", "website": "None", "summary": "None", "logo": "None", "latitude": 43.13320025676439, "longitude": -79.22457138582774}, "118807114RR0001": {"name": "CHOSEN PEOPLE MINISTRIES (CANADA)", "designationCode": "C", "categoryCode": "47", "address": "DUFFERIN-LAWRENCE PO          BOX 58103", "city": "TORONTO", "province": "ON", "country": "CA", "postalCode": "M6A3C8", "twitter": "None", "instagram": "None", "facebook": "None", "youtube": "None", "website": "None", "summary": "None", "logo": "None", "latitude": 43.71484673567959, "longitude": -79.45006503232214}, "889575767RR0001": {"name": "CHOSEN PEOPLE MINISTRIES AND BETH SAR SHALOM MISSION FOUNDATION", "designationCode": "A", "categoryCode": "47", "address": "DUFFERIN-LAWRENCE PO          BOX 58103", "city": "TORONTO", "province": "ON", "country": "CA", "postalCode": "M6A3C8", "twitter": "None", "instagram": "None", "facebook": "None", "youtube": "None", "website": "None", "summary": "None", "logo": "None", "latitude": 43.71484673567959, "longitude": -79.45006503232214}, "841026560RR0001": {"name": "CHOSEN PEOPLE'S PRESBYTERIAN CHURCH", "designationCode": "C", "categoryCode": "37", "address": "686 OSSINGTON AVE", "city": "TORONTO", "province": "ON", "country": "CA", "postalCode": "M6G3T7", "twitter": "None", "instagram": "None", "facebook": "None", "youtube": "None", "website": "None", "summary": "None", "logo": "None", "latitude": 43.66063913183107, "longitude": -79.42517410479527}, "132238551RR0001": {"name": "CHOWN ADULT DAY CARE CENTRE SOCIETY", "designationCode": "C", "categoryCode": "56", "address": "594 EAST 15TH AVENUE", "city": "VANCOUVER", "province": "BC", "country": "CA", "postalCode": "V5T2R5", "twitter": "None", "instagram": "None", "facebook": "None", "youtube": "None", "website": "None", "summary": "None", "logo": "None", "latitude": 49.25717039343657, "longitude": -123.09193542535311}, "118853431RR0001": {"name": "CHOWN MEMORIAL AND CHINESE UNITED CHURCH", "designationCode": "C", "categoryCode": "44", "address": "3519 CAMBIE ST", "city": "VANCOUVER", "province": "BC", "country": "CA", "postalCode": "V5Z2W9", "twitter": "None", "instagram": "None", "facebook": "None", "youtube": "None", "website": "None", "summary": "None", "logo": "None", "latitude": 49.2539497857349, "longitude": -123.11523248395717}, "870896552RR0001": {"name": "CHRETIENS REUNIS AU NOM DU SEIGNEUR JESUS-CHRIST A MONTREAL", "designationCode": "C", "categoryCode": "39", "address": "2241 GRANDE LIGNE", "city": "SAINT ALEXANDRE", "province": "QC", "country": "CA", "postalCode": "J0J1S0", "twitter": "None", "instagram": "None", "facebook": "None", "youtube": "None", "website": "None", "summary": "None", "logo": "None", "latitude": 45.22331726172887, "longitude": -73.09501020898499}, "867074932RR0001": {"name": "CHRIS ROSE THERAPY CENTRE FOR AUTISM FOUNDATION", "designationCode": "A", "categoryCode": "03", "address": "1111 TRANQUILLE ROAD", "city": "KAMLOOPS", "province": "BC", "country": "CA", "postalCode": "V2B3J8", "twitter": "None", "instagram": "None", "facebook": "None", "youtube": "None", "website": "None", "summary": "None", "logo": "None", "latitude": 50.700610583386336, "longitude": -120.3711843923192}, "125880401RR0001": {"name": "CHRIS ROSE THERAPY CENTRE FOR AUTISM SOCIETY", "designationCode": "C", "categoryCode": "11", "address": "1111 TRANQUILLE RD", "city": "KAMLOOPS", "province": "BC", "country": "CA", "postalCode": "V2B3J8", "twitter": "None", "instagram": "None", "facebook": "None", "youtube": "None", "website": "None", "summary": "None", "logo": "None", "latitude": 50.700610583386336, "longitude": -120.3711843923192}, "118853886RR0001": {"name": "CHRIS SPENCER FOUNDATION", "designationCode": "B", "categoryCode": "23", "address": "POBOX 48284 BENTALL CENTRE", "city": "VANCOUVER", "province": "BC", "country": "CA", "postalCode": "V7X1A1", "twitter": "None", "instagram": "None", "facebook": "None", "youtube": "None", "website": "None", "summary": "None", "logo": "None", "latitude": 49.286055733749365, "longitude": -123.11861287615625}, "860601582RR0001": {"name": "CHRIS STOIKOS MEMORIAL FOUNDATION", "designationCode": "C", "categoryCode": "11", "address": "29 TAMARA DRIVE", "city": "RICHMOND HILL", "province": "ON", "country": "CA", "postalCode": "L4S1E4", "twitter": "None", "instagram": "None", "facebook": "None", "youtube": "None", "website": "None", "summary": "None", "logo": "None", "latitude": 43.89886918428648, "longitude": -79.43400392702966}, "892163643RR0001": {"name": "CHRIST ALIVE COMMUNITY CHURCH", "designationCode": "C", "categoryCode": "39", "address": "9771 CAPELLA DRIVE", "city": "RICHMOND", "province": "BC", "country": "CA", "postalCode": "V6X3N4", "twitter": "None", "instagram": "None", "facebook": "None", "youtube": "None", "website": "None", "summary": "None", "logo": "None", "latitude": 49.18819587837091, "longitude": -123.11630744525338}, "893987263RR0001": {"name": "CHRIST ALIVE INTERNATIONAL MINISTRIES", "designationCode": "C", "categoryCode": "47", "address": "RM 200-3811 EDMONTON TRAIL NE", "city": "CALGARY", "province": "AB", "country": "CA", "postalCode": "T2E3P5", "twitter": "None", "instagram": "None", "facebook": "None", "youtube": "None", "website": "None", "summary": "None", "logo": "None", "latitude": 51.08650116180968, "longitude": -114.05174372525804}, "130124597RR0001": {"name": "CHRIST ANGLICAN CHURCH", "designationCode": "C", "categoryCode": "30", "address": "BOX 40", "city": "OMEMEE", "province": "ON", "country": "CA", "postalCode": "K0L2W0", "twitter": "None", "instagram": "None", "facebook": "None", "youtube": "None", "website": "None", "summary": "None", "logo": "None", "latitude": 44.29912000000007, "longitude": -78.55888999999996}, "858599483RR0001": {"name": "CHRIST APOSTOLIC CHURCH (BETHEL) TORONTO", "designationCode": "C", "categoryCode": "39", "address": "22-94 KENHAR DR", "city": "TORONTO", "province": "ON", "country": "CA", "postalCode": "M9L1N2", "twitter": "None", "instagram": "None", "facebook": "None", "youtube": "None", "website": "None", "summary": "None", "logo": "None", "latitude": 43.760827808269006, "longitude": -79.54863849575815}, "894918630RR0001": {"name": "CHRIST APOSTOLIC CHURCH (WINNIPEG CHAPTER) INTERNATIONAL MIRACLE CENTRE-VINEYARD OF COMFORT, INC.", "designationCode": "C", "categoryCode": "39", "address": "365 WESTMOUNT DRIVE", "city": "WINNIPEG", "province": "MB", "country": "CA", "postalCode": "R2J1P1", "twitter": "None", "instagram": "None", "facebook": "None", "youtube": "None", "website": "None", "summary": "None", "logo": "None", "latitude": 49.86090899999999, "longitude": -97.06532616114585}, "867436560RR0001": {"name": "CHRIST CENTERED ALLIANCE CHURCH OF THE CHRISTIAN AND MISSIONARY ALLIANCE IN CANADA", "designationCode": "C", "categoryCode": "39", "address": "10 WANTANOPA CRESCENT", "city": "TORONTO", "province": "ON", "country": "CA", "postalCode": "M1H2B3", "twitter": "None", "instagram": "None", "facebook": "None", "youtube": "None", "website": "None", "summary": "None", "logo": "None", "latitude": 43.76466722898029, "longitude": -79.23376334612483}, "890750946RR0001": {"name": "CHRIST CENTRE OF TRUTH ONTARIO", "designationCode": "C", "categoryCode": "39", "address": "8 TEMPLAR DRIVE", "city": "ETOBICOKE", "province": "ON", "country": "CA", "postalCode": "M9R3C7", "twitter": "None", "instagram": "None", "facebook": "None", "youtube": "None", "website": "None", "summary": "None", "logo": "None", "latitude": 43.68770120982172, "longitude": -79.55468283210213}, "106917610RR0002": {"name": "CHRIST CHURCH", "designationCode": "C", "categoryCode": "30", "address": "80 WELLINGTON ST W", "city": "CHATHAM", "province": "ON", "country": "CA", "postalCode": "N7M1J1", "twitter": "None", "instagram": "None", "facebook": "None", "youtube": "None", "website": "None", "summary": "None", "logo": "None", "latitude": 42.40394026836532, "longitude": -82.18364234875057}, "106917669RR0001": {"name": "CHRIST CHURCH", "designationCode": "C", "categoryCode": "30", "address": "PO BOX 667", "city": "CAMPBELLFORD", "province": "ON", "country": "CA", "postalCode": "K0L1L0", "twitter": "None", "instagram": "None", "facebook": "None", "youtube": "None", "website": "None", "summary": "None", "logo": "None", "latitude": 44.287060000000054, "longitude": -77.80936999999994}, "106917735RR0002": {"name": "CHRIST CHURCH", "designationCode": "C", "categoryCode": "30", "address": "101 GORE ST", "city": "AMHERSTBURG", "province": "ON", "country": "CA", "postalCode": "N9V1K7", "twitter": "None", "instagram": "None", "facebook": "None", "youtube": "None", "website": "None", "summary": "None", "logo": "None", "latitude": 42.10093583426653, "longitude": -83.11024858782973}, "108099771RR0008": {"name": "CHRIST CHURCH", "designationCode": "C", "categoryCode": "30", "address": "4750 ZIMMERMAN AVENUE", "city": "NIAGARA FALLS", "province": "ON", "country": "CA", "postalCode": "L2E3M9", "twitter": "None", "instagram": "None", "facebook": "None", "youtube": "None", "website": "None", "summary": "None", "logo": "None", "latitude": 43.104456754371284, "longitude": -79.06180587578633}, "108099771RR0046": {"name": "CHRIST CHURCH", "designationCode": "C", "categoryCode": "30", "address": "92 HIGHWAY #8", "city": "DUNDAS", "province": "ON", "country": "CA", "postalCode": "L9H4V5", "twitter": "None", "instagram": "None", "facebook": "None", "youtube": "None", "website": "None", "summary": "None", "logo": "None", "latitude": 43.26289038744309, "longitude": -79.95189511633647}, "108099771RR0074": {"name": "CHRIST CHURCH", "designationCode": "C", "categoryCode": "30", "address": "BOX 638", "city": "HAGERSVILLE", "province": "ON", "country": "CA", "postalCode": "N0A1H0", "twitter": "None", "instagram": "None", "facebook": "None", "youtube": "None", "website": "None", "summary": "None", "logo": "None", "latitude": 42.96624567435869, "longitude": -80.04526476987148}, "108099771RR0107": {"name": "CHRIST CHURCH", "designationCode": "C", "categoryCode": "30", "address": "31970 CHURCH ST BOX 31", "city": "WAINFLEET", "province": "ON", "country": "CA", "postalCode": "L0S1V0", "twitter": "None", "instagram": "None", "facebook": "None", "youtube": "None", "website": "None", "summary": "None", "logo": "None", "latitude": 42.92600301252214, "longitude": -79.37573681279932}, "108099771RR0110": {"name": "CHRIST CHURCH", "designationCode": "C", "categoryCode": "30", "address": "1307 WOODBURN ROAD            BOX 18", "city": "HANNON", "province": "ON", "country": "CA", "postalCode": "L0R1P0", "twitter": "None", "instagram": "None", "facebook": "None", "youtube": "None", "website": "None", "summary": "None", "logo": "None", "latitude": 43.137603526199044, "longitude": -79.74389716833149}, "118787142RR0055": {"name": "CHRIST CHURCH", "designationCode": "C", "categoryCode": "30", "address": "BOX 201", "city": "ALERT BAY", "province": "BC", "country": "CA", "postalCode": "V0N1A0", "twitter": "None", "instagram": "None", "facebook": "None", "youtube": "None", "website": "None", "summary": "None", "logo": "None", "latitude": 50.6420595, "longitude": -127.02791249999999}, "118854256RR0001": {"name": "CHRIST CHURCH", "designationCode": "C", "categoryCode": "30", "address": "P.O.BOX 40", "city": "HARRINGTON HARBOUR", "province": "QC", "country": "CA", "postalCode": "G0G1N0", "twitter": "None", "instagram": "None", "facebook": "None", "youtube": "None", "website": "None", "summary": "None", "logo": "None", "latitude": 50.497070000000065, "longitude": -59.478399999999965}, "118854264RR0001": {"name": "CHRIST CHURCH", "designationCode": "C", "categoryCode": "30", "address": "833 ROUTE MCKILLOP N", "city": "INVERNESS", "province": "QC", "country": "CA", "postalCode": "G0S1K0", "twitter": "None", "instagram": "None", "facebook": "None", "youtube": "None", "website": "None", "summary": "None", "logo": "None", "latitude": 46.214534076800454, "longitude": -71.51323047189415}, "118854314RR0002": {"name": "CHRIST CHURCH", "designationCode": "C", "categoryCode": "30", "address": "1173 MILLE ISLES", "city": "MILLE ISLES", "province": "QC", "country": "CA", "postalCode": "J0R1A0", "twitter": "None", "instagram": "None", "facebook": "None", "youtube": "None", "website": "None", "summary": "None", "logo": "None", "latitude": 45.813304954815244, "longitude": -74.21102237520941}, "118854389RR0001": {"name": "CHRIST CHURCH", "designationCode": "C", "categoryCode": "30", "address": "BOX 83                        12 ELIZABETH STREET", "city": "COBOCONK", "province": "ON", "country": "CA", "postalCode": "K0M1K0", "twitter": "None", "instagram": "None", "facebook": "None", "youtube": "None", "website": "None", "summary": "None", "logo": "None", "latitude": 44.65989815098963, "longitude": -78.79588682151324}, "118854421RR0001": {"name": "CHRIST CHURCH", "designationCode": "C", "categoryCode": "30", "address": "1076 PENETANGUISHENE RD", "city": "SPRINGWATER", "province": "ON", "country": "CA", "postalCode": "L9X1Z3", "twitter": "None", "instagram": "None", "facebook": "None", "youtube": "None", "website": "None", "summary": "None", "logo": "None", "latitude": 44.467941376811, "longitude": -79.67200513528914}, "118854439RR0001": {"name": "CHRIST CHURCH", "designationCode": "C", "categoryCode": "30", "address": "5 BANDA ROAD", "city": "MULMUR", "province": "ON", "country": "CA", "postalCode": "L9V0M2", "twitter": "None", "instagram": "None", "facebook": "None", "youtube": "None", "website": "None", "summary": "None", "logo": "None"}, "118854488RR0001": {"name": "CHRIST CHURCH", "designationCode": "C", "categoryCode": "30", "address": "254 SUNSET BLVD", "city": "STOUFFVILLE", "province": "ON", "country": "CA", "postalCode": "L4A3R1", "twitter": "None", "instagram": "None", "facebook": "None", "youtube": "None", "website": "None", "summary": "None", "logo": "None", "latitude": 43.96785873818515, "longitude": -79.2537056638585}, "118854512RR0001": {"name": "CHRIST CHURCH", "designationCode": "C", "categoryCode": "39", "address": "1828 EGLINTON AVE WEST", "city": "TORONTO", "province": "ON", "country": "CA", "postalCode": "M6E2H6", "twitter": "None", "instagram": "None", "facebook": "None", "youtube": "None", "website": "None", "summary": "None", "logo": "None", "latitude": 43.695730150729844, "longitude": -79.45014900611683}, "118854520RR0002": {"name": "CHRIST CHURCH", "designationCode": "C", "categoryCode": "30", "address": "50 MANLEY STREET", "city": "AYR", "province": "ON", "country": "CA", "postalCode": "N0B1E0", "twitter": "None", "instagram": "None", "facebook": "None", "youtube": "None", "website": "None", "summary": "None", "logo": "None", "latitude": 43.288313646695784, "longitude": -80.451752774427}, "118854553RR0002": {"name": "CHRIST CHURCH", "designationCode": "C", "categoryCode": "30", "address": "P.O. BOX 287", "city": "LION'S HEAD", "province": "ON", "country": "CA", "postalCode": "N0H1W0", "twitter": "None", "instagram": "None", "facebook": "None", "youtube": "None", "website": "None", "summary": "None", "logo": "None", "latitude": 44.98728998889153, "longitude": -81.25250001889873}, "118854611RR0002": {"name": "CHRIST CHURCH", "designationCode": "C", "categoryCode": "30", "address": "P.O. BOX 134", "city": "SHAKESPEARE", "province": "ON", "country": "CA", "postalCode": "N0B2P0", "twitter": "None", "instagram": "None", "facebook": "None", "youtube": "None", "website": "None", "summary": "None", "logo": "None", "latitude": 43.36747596743702, "longitude": -80.83698746867277}, "118854694RR0002": {"name": "CHRIST CHURCH", "designationCode": "C", "categoryCode": "30", "address": "295 MAIN ST WEST", "city": "LISTOWEL", "province": "ON", "country": "CA", "postalCode": "N4W1A3", "twitter": "None", "instagram": "None", "facebook": "None", "youtube": "None", "website": "None", "summary": "None", "logo": "None", "latitude": 43.732567823200014, "longitude": -80.95543609797755}, "118854702RR0002": {"name": "CHRIST CHURCH", "designationCode": "C", "categoryCode": "30", "address": "RR 6 615916 13TH LINE", "city": "WOODSTOCK", "province": "ON", "country": "CA", "postalCode": "N4S7W1", "twitter": "None", "instagram": "None", "facebook": "None", "youtube": "None", "website": "None", "summary": "None", "logo": "None", "latitude": 43.21316456869984, "longitude": -80.78421093141574}, "118854736RR0002": {"name": "CHRIST CHURCH", "designationCode": "C", "categoryCode": "30", "address": "46 MELBORNE ST                RR 3", "city": "GODERICH", "province": "ON", "country": "CA", "postalCode": "N7A3X9", "twitter": "None", "instagram": "None", "facebook": "None", "youtube": "None", "website": "None", "summary": "None", "logo": "None", "latitude": 43.87990654284749, "longitude": -81.71703533250616}, "118854785RR0002": {"name": "CHRIST CHURCH", "designationCode": "C", "categoryCode": "30", "address": "45 CHRIST CHURCH LANE         BOX 1022, RR#1", "city": "PORT SYDNEY", "province": "ON", "country": "CA", "postalCode": "P0B1L0", "twitter": "None", "instagram": "None", "facebook": "None", "youtube": "None", "website": "None", "summary": "None", "logo": "None", "latitude": 45.220342988603036, "longitude": -79.27786526623052}, "118854793RR0001": {"name": "CHRIST CHURCH", "designationCode": "C", "categoryCode": "30", "address": "PO BOX 21", "city": "MINETT", "province": "ON", "country": "CA", "postalCode": "P0B1G0", "twitter": "None", "instagram": "None", "facebook": "None", "youtube": "None", "website": "None", "summary": "None", "logo": "None", "latitude": 45.16185000000007, "longitude": -79.65309999999994}, "118854801RR0002": {"name": "CHRIST CHURCH", "designationCode": "C", "categoryCode": "30", "address": "BOX 81", "city": "WINDERMERE", "province": "ON", "country": "CA", "postalCode": "P0B1P0", "twitter": "None", "instagram": "None", "facebook": "None", "youtube": "None", "website": "None", "summary": "None", "logo": "None", "latitude": 45.167336239391005, "longitude": -79.4311155}, "118854819RR0002": {"name": "CHRIST CHURCH", "designationCode": "C", "categoryCode": "30", "address": "PO BOX 912", "city": "ENGLEHART", "province": "ON", "country": "CA", "postalCode": "P0J1H0", "twitter": "None", "instagram": "None", "facebook": "None", "youtube": "None", "website": "None", "summary": "None", "logo": "None", "latitude": 47.81686000000008, "longitude": -79.86639999999994}, "118854827RR0003": {"name": "CHRIST CHURCH", "designationCode": "C", "categoryCode": "30", "address": "231 SIXTH AV", "city": "LIVELY", "province": "ON", "country": "CA", "postalCode": "P3Y1M4", "twitter": "None", "instagram": "None", "facebook": "None", "youtube": "None", "website": "None", "summary": "None", "logo": "None", "latitude": 46.437084406847454, "longitude": -81.14261602013552}, "118854843RR0002": {"name": "CHRIST CHURCH", "designationCode": "C", "categoryCode": "30", "address": "585 ALLEN'S SIDE ROAD", "city": "SAULT STE MARIE", "province": "ON", "country": "CA", "postalCode": "P6A5K8", "twitter": "None", "instagram": "None", "facebook": "None", "youtube": "None", "website": "None", "summary": "None", "logo": "None", "latitude": 46.544363206699394, "longitude": -84.40329548774446}, "118854884RR0001": {"name": "CHRIST CHURCH", "designationCode": "C", "categoryCode": "30", "address": "PO BOX 463", "city": "CARTWRIGHT", "province": "MB", "country": "CA", "postalCode": "R0K0L0", "twitter": "None", "instagram": "None", "facebook": "None", "youtube": "None", "website": "None", "summary": "None", "logo": "None", "latitude": 49.09414000000004, "longitude": -99.34137999999996}, "118854892RR0001": {"name": "CHRIST CHURCH", "designationCode": "C", "categoryCode": "30", "address": "BOX 221", "city": "GRANDVIEW", "province": "MB", "country": "CA", "postalCode": "R0L0Y0", "twitter": "None", "instagram": "None", "facebook": "None", "youtube": "None", "website": "None", "summary": "None", "logo": "None", "latitude": 51.17220000000003, "longitude": -100.69866999999994}, "118854900RR0001": {"name": "CHRIST CHURCH", "designationCode": "C", "categoryCode": "30", "address": "BOX 594", "city": "ROBLIN", "province": "MB", "country": "CA", "postalCode": "R0L1P0", "twitter": "None", "instagram": "None", "facebook": "None", "youtube": "None", "website": "None", "summary": "None", "logo": "None", "latitude": 51.22816000000006, "longitude": -101.35248999999999}, "118854983RR0001": {"name": "CHRIST CHURCH", "designationCode": "C", "categoryCode": "30", "address": "515-28TH ST W", "city": "SASKATOON", "province": "SK", "country": "CA", "postalCode": "S7L4R5", "twitter": "None", "instagram": "None", "facebook": "None", "youtube": "None", "website": "None", "summary": "None", "logo": "None", "latitude": 52.13612453952927, "longitude": -106.67752263918865}, "129117917RR0002": {"name": "CHRIST CHURCH", "designationCode": "C", "categoryCode": "30", "address": "34 BOUCHER ST E", "city": "MEAFORD", "province": "ON", "country": "CA", "postalCode": "N4L1B9", "twitter": "None", "instagram": "None", "facebook": "None", "youtube": "None", "website": "None", "summary": "None", "logo": "None", "latitude": 44.605252150729854, "longitude": -80.58960758993587}, "129144549RR0012": {"name": "CHRIST CHURCH", "designationCode": "C", "categoryCode": "30", "address": "BOX 279", "city": "FERNIE", "province": "BC", "country": "CA", "postalCode": "V0B1M0", "twitter": "None", "instagram": "None", "facebook": "None", "youtube": "None", "website": "None", "summary": "None", "logo": "None", "latitude": 49.499960000000044, "longitude": -115.06870999999995}}