{"894016575RR0001": {"name": "HOME ASSISTANCE IN NEEPAWA AND DISTRICT INC.", "designationCode": "C", "categoryCode": "09", "address": "BOX 1852", "city": "NEEPAWA", "province": "MB", "country": "CA", "postalCode": "R0J1H0", "twitter": "None", "instagram": "None", "facebook": "None", "youtube": "None", "website": "None", "summary": "None", "logo": "None", "latitude": 50.22581100000005, "longitude": -99.48963949999994}, "132737438RR0001": {"name": "HOME BASE INCORPORATED", "designationCode": "C", "categoryCode": "01", "address": "PO BOX 785  STN CENTRAL", "city": "CHARLOTTETOWN", "province": "PE", "country": "CA", "postalCode": "C1A7L9", "twitter": "None", "instagram": "None", "facebook": "None", "youtube": "None", "website": "None", "summary": "None", "logo": "None", "latitude": 46.23659700000006, "longitude": -63.12815449999994}, "134491513RR0001": {"name": "HOME CHILD CARE ASSOCIATION OF ONTARIO/ASSOCIATION ONTARIENNE DE GARDE D'ENFANTS A DOMICILE", "designationCode": "C", "categoryCode": "59", "address": "44 GREENDALE DRIVE", "city": "HAMILTON", "province": "ON", "country": "CA", "postalCode": "L9C5Z4", "twitter": "None", "instagram": "None", "facebook": "None", "youtube": "None", "website": "None", "summary": "None", "logo": "None"}, "118962117RR0001": {"name": "HOME COUNTY FOLK LEAGUE", "designationCode": "C", "categoryCode": "22", "address": "1017 WESTERN RD.", "city": "LONDON", "province": "ON", "country": "CA", "postalCode": "N6G1G5", "twitter": "None", "instagram": "None", "facebook": "None", "youtube": "None", "website": "None", "summary": "None", "logo": "None", "latitude": 42.9963403568056, "longitude": -81.27279434492367}, "107488744RR0001": {"name": "HOME FOR THE AGED OF NIPISSING WEST", "designationCode": "C", "categoryCode": "01", "address": "100 RUE MICHAUD STREET", "city": "STURGEON FALLS", "province": "ON", "country": "CA", "postalCode": "P2B2Z4", "twitter": "None", "instagram": "None", "facebook": "None", "youtube": "None", "website": "None", "summary": "None", "logo": "None", "latitude": 46.372293741298456, "longitude": -79.92085366648773}, "118962133RR0001": {"name": "HOME FRONT EVANGELISM", "designationCode": "C", "categoryCode": "49", "address": "PO BOX 3333 STN LCD 1", "city": "LANGLEY", "province": "BC", "country": "CA", "postalCode": "V3A4R7", "twitter": "None", "instagram": "None", "facebook": "None", "youtube": "None", "website": "None", "summary": "None", "logo": "None", "latitude": 49.10435700000005, "longitude": -122.65652149999994}, "862848389RR0001": {"name": "HOME HORIZON GEORGIAN TRIANGLE RESIDENTIAL SERVICES", "designationCode": "C", "categoryCode": "09", "address": "53 CAMPBELL ST", "city": "COLLINGWOOD", "province": "ON", "country": "CA", "postalCode": "L9Y2L1", "twitter": "None", "instagram": "None", "facebook": "None", "youtube": "None", "website": "None", "summary": "None", "logo": "None", "latitude": 44.48499497928835, "longitude": -80.21850868370969}, "891200743RR0001": {"name": "HOME IS WHERE WE LIVE-LIFE CYCLES PROJECT SOCIETY", "designationCode": "C", "categoryCode": "29", "address": "808A VIEWFIELD RD", "city": "VICTORIA", "province": "BC", "country": "CA", "postalCode": "V9A4V1", "twitter": "None", "instagram": "None", "facebook": "None", "youtube": "None", "website": "None", "summary": "None", "logo": "None", "latitude": 48.43325563397851, "longitude": -123.39500451296806}, "118962158RR0001": {"name": "HOME MISSIONARY DEPARTMENT - UNITED PENTECOSTAL CHURCH (ONTARIO DISTRICT)", "designationCode": "C", "categoryCode": "47", "address": "PO BOX 35073 RPO NELSON PARK", "city": "LONDON", "province": "ON", "country": "CA", "postalCode": "N5W5Z6", "twitter": "None", "instagram": "None", "facebook": "None", "youtube": "None", "website": "None", "summary": "None", "logo": "None", "latitude": 42.9985041046318, "longitude": -81.17701794538134}, "886959204RR0001": {"name": "HOME OF THE GOOD SHEPHERD MINISTRIES INC.", "designationCode": "C", "categoryCode": "01", "address": "PO BOX 34127                  RPO FORT RICHMOND", "city": "WINNIPEG", "province": "MB", "country": "CA", "postalCode": "R3T5T5", "twitter": "None", "instagram": "None", "facebook": "None", "youtube": "None", "website": "None", "summary": "None", "logo": "None", "latitude": 49.79192000000006, "longitude": -97.13961999999998}, "118962166RR0001": {"name": "HOME OF THE GUARDIAN ANGEL", "designationCode": "C", "categoryCode": "01", "address": "3 SYLVIA AVENUE", "city": "HALIFAX", "province": "NS", "country": "CA", "postalCode": "B3R1J7", "twitter": "None", "instagram": "None", "facebook": "None", "youtube": "None", "website": "None", "summary": "None", "logo": "None", "latitude": 44.603592832073474, "longitude": -63.611218394656454}, "107489122RR0001": {"name": "HOME STREET MENNONITE CHURCH", "designationCode": "C", "categoryCode": "34", "address": "318 HOME STREET", "city": "WINNIPEG", "province": "MB", "country": "CA", "postalCode": "R3G1X4", "twitter": "None", "instagram": "None", "facebook": "None", "youtube": "None", "website": "None", "summary": "None", "logo": "None", "latitude": 49.88645257146978, "longitude": -97.16816627479928}, "859755308RR0001": {"name": "HOME SUITE HOPE SHARED LIVING CORP.", "designationCode": "C", "categoryCode": "09", "address": "200 NORTH SERVICE ROAD WEST   #424, UNIT 1", "city": "OAKVILLE", "province": "ON", "country": "CA", "postalCode": "L6M2Y1", "twitter": "None", "instagram": "None", "facebook": "None", "youtube": "None", "website": "None", "summary": "None", "logo": "None", "latitude": 43.450640558861664, "longitude": -79.70037321440934}, "107489163RR0001": {"name": "HOME SUPPORT SERVICES, INC.", "designationCode": "C", "categoryCode": "09", "address": "252 KING ST", "city": "ST STEPHEN", "province": "NB", "country": "CA", "postalCode": "E3L2E5", "twitter": "None", "instagram": "None", "facebook": "None", "youtube": "None", "website": "None", "summary": "None", "logo": "None", "latitude": 45.204859256955565, "longitude": -67.27238214550084}, "108194432RR0001": {"name": "HOME SUPPORT SERVICES, MORRISBURG & DISTRICT", "designationCode": "C", "categoryCode": "09", "address": "PO BOX 3050", "city": "MORRISBURG", "province": "ON", "country": "CA", "postalCode": "K0C1X0", "twitter": "None", "instagram": "None", "facebook": "None", "youtube": "None", "website": "None", "summary": "None", "logo": "None", "latitude": 44.89832000000007, "longitude": -75.19097999999997}, "130383391RR0001": {"name": "HOME SUPPORT STETTLER & DISTRICT ASSOCIATION", "designationCode": "C", "categoryCode": "09", "address": "BOX 2097", "city": "STETTLER", "province": "AB", "country": "CA", "postalCode": "T0C2L0", "twitter": "None", "instagram": "None", "facebook": "None", "youtube": "None", "website": "None", "summary": "None", "logo": "None", "latitude": 52.32597900000006, "longitude": -112.70698099999993}, "118962281RR0001": {"name": "HOME UNITED CHURCH", "designationCode": "C", "categoryCode": "44", "address": "12572 CREDITVIEW RD", "city": "CALEDON", "province": "ON", "country": "CA", "postalCode": "L7C1Y1", "twitter": "None", "instagram": "None", "facebook": "None", "youtube": "None", "website": "None", "summary": "None", "logo": "None", "latitude": 43.71572977904113, "longitude": -79.87205098228371}, "118962109RR0001": {"name": "HOME-CHURCH MINISTRIES", "designationCode": "C", "categoryCode": "39", "address": "1203 40 AVE NW", "city": "CALGARY", "province": "AB", "country": "CA", "postalCode": "T2K0G3", "twitter": "None", "instagram": "None", "facebook": "None", "youtube": "None", "website": "None", "summary": "None", "logo": "None", "latitude": 51.089391578106216, "longitude": -114.08661449780695}, "106728918RR0001": {"name": "HOMEBRIDGE YOUTH SOCIETY", "designationCode": "C", "categoryCode": "01", "address": "270 PLEASANT STREET", "city": "DARTMOUTH", "province": "NS", "country": "CA", "postalCode": "B2Y3S3", "twitter": "None", "instagram": "None", "facebook": "None", "youtube": "None", "website": "None", "summary": "None", "logo": "None", "latitude": 44.65638059810152, "longitude": -63.550136487996525}, "882721111RR0001": {"name": "HOMEFRONT SOCIETY FOR THE PREVENTION OF DOMESTIC VIOLENCE", "designationCode": "C", "categoryCode": "59", "address": "501 JOHN J. BOWLEN BUILDING   600 - 7TH AVENUE SW", "city": "CALGARY", "province": "AB", "country": "CA", "postalCode": "T2P0Y8", "twitter": "None", "instagram": "None", "facebook": "None", "youtube": "None", "website": "None", "summary": "None", "logo": "None", "latitude": 51.04682342625144, "longitude": -114.07570373231476}, "705233492RR0001": {"name": "HOMELAND CHARITABLE TRUST", "designationCode": "B", "categoryCode": "45", "address": "3425 2 AVE S", "city": "LETHBRIDGE", "province": "AB", "country": "CA", "postalCode": "T1J4V1", "twitter": "None", "instagram": "None", "facebook": "None", "youtube": "None", "website": "None", "summary": "None", "logo": "None", "latitude": 49.696839530439966, "longitude": -112.78914308381903}, "883171217RR0001": {"name": "HOMELAND INTERNATIONAL INC.", "designationCode": "C", "categoryCode": "09", "address": "400-1410 BUTE STREET", "city": "VANCOUVER", "province": "BC", "country": "CA", "postalCode": "V6E2A7", "twitter": "None", "instagram": "None", "facebook": "None", "youtube": "None", "website": "None", "summary": "None", "logo": "None", "latitude": 49.279489722719234, "longitude": -123.1368065636795}, "871741690RR0001": {"name": "HOMEPLACE NON-PROFIT EDUCATION INC.", "designationCode": "C", "categoryCode": "09", "address": "27 CANMORE BLVD", "city": "SCARBOROUGH", "province": "ON", "country": "CA", "postalCode": "M1C3T3", "twitter": "None", "instagram": "None", "facebook": "None", "youtube": "None", "website": "None", "summary": "None", "logo": "None", "latitude": 43.79320949956731, "longitude": -79.18278229808413}, "118962174RR0001": {"name": "HOMER WATSON HOUSE FOUNDATION", "designationCode": "C", "categoryCode": "52", "address": "1754 OLD MILL RD", "city": "KITCHENER", "province": "ON", "country": "CA", "postalCode": "N2P1H7", "twitter": "None", "instagram": "None", "facebook": "None", "youtube": "None", "website": "None", "summary": "None", "logo": "None", "latitude": 43.394639520139535, "longitude": -80.41870308713725}, "865843932RR0001": {"name": "HOMES FIRST FOUNDATION", "designationCode": "A", "categoryCode": "03", "address": "90 SHUTER ST, 2ND FL", "city": "TORONTO", "province": "ON", "country": "CA", "postalCode": "M5B2K6", "twitter": "None", "instagram": "None", "facebook": "None", "youtube": "None", "website": "None", "summary": "None", "logo": "None", "latitude": 43.655329256188956, "longitude": -79.37416540106176}, "118962182RR0001": {"name": "HOMES FIRST SOCIETY", "designationCode": "C", "categoryCode": "01", "address": "90 SHUTER ST.                 2ND FLOOR", "city": "TORONTO", "province": "ON", "country": "CA", "postalCode": "M5B2K6", "twitter": "None", "instagram": "None", "facebook": "None", "youtube": "None", "website": "None", "summary": "None", "logo": "None", "latitude": 43.655329256188956, "longitude": -79.37416540106176}, "827427063RR0001": {"name": "HOMES FOR HOPE, EL SALVADOR", "designationCode": "C", "categoryCode": "09", "address": "29-30 ANN STREET", "city": "ST. MARYS", "province": "ON", "country": "CA", "postalCode": "N4X1C8", "twitter": "None", "instagram": "None", "facebook": "None", "youtube": "None", "website": "None", "summary": "None", "logo": "None", "latitude": 43.25845183596863, "longitude": -81.15427011019096}, "118962190RR0001": {"name": "HOMES FOR INDEPENDENT LIVING (NOVA SCOTIA)", "designationCode": "C", "categoryCode": "01", "address": "2505 OXFORD ST", "city": "HALIFAX", "province": "NS", "country": "CA", "postalCode": "B3L2T5", "twitter": "None", "instagram": "None", "facebook": "None", "youtube": "None", "website": "None", "summary": "None", "logo": "None", "latitude": 44.646938632812024, "longitude": -63.6014202450518}, "102388873RR0001": {"name": "HOMES OF LEARNING DEVELOPMENT (H.O.L.D.)", "designationCode": "C", "categoryCode": "01", "address": "96 SHERWOOD DRIVE", "city": "BRANTFORD", "province": "ON", "country": "CA", "postalCode": "N3T1N7", "twitter": "None", "instagram": "None", "facebook": "None", "youtube": "None", "website": "None", "summary": "None", "logo": "None", "latitude": 43.13341410378568, "longitude": -80.2783642966705}, "130650773RR0001": {"name": "HOMES UNLIMITED (LONDON) INC", "designationCode": "C", "categoryCode": "59", "address": "390 BURWELL ST (OFFICE)", "city": "LONDON", "province": "ON", "country": "CA", "postalCode": "N6B0A1", "twitter": "None", "instagram": "None", "facebook": "None", "youtube": "None", "website": "None", "summary": "None", "logo": "None", "latitude": 42.98624093672454, "longitude": -81.23807189436799}, "872814504RR0001": {"name": "HOMESTART FOUNDATION", "designationCode": "C", "categoryCode": "09", "address": "2200 - 1021 HASTINGS ST W", "city": "VANCOUVER", "province": "BC", "country": "CA", "postalCode": "V6E0C3", "twitter": "None", "instagram": "None", "facebook": "None", "youtube": "None", "website": "None", "summary": "None", "logo": "None", "latitude": 49.28734898309179, "longitude": -123.1177059128341}, "809309479RR0001": {"name": "HOMESTEAD ON THE HILL FOUNDATION", "designationCode": "A", "categoryCode": "59", "address": "1250-1500 WEST GEORGIA STREET PO BOX 62", "city": "VANCOUVER", "province": "BC", "country": "CA", "postalCode": "V6G2Z6", "twitter": "None", "instagram": "None", "facebook": "None", "youtube": "None", "website": "None", "summary": "None", "logo": "None", "latitude": 49.290187500000016, "longitude": -123.130035}, "118962299RR0001": {"name": "HOMEWARD FAMILY SHELTER", "designationCode": "C", "categoryCode": "09", "address": "BOX 37529, 31 TAPSCOTT RE", "city": "SCARBOROUGH", "province": "ON", "country": "CA", "postalCode": "M1B5P9", "twitter": "None", "instagram": "None", "facebook": "None", "youtube": "None", "website": "None", "summary": "None", "logo": "None", "latitude": 43.805612754146125, "longitude": -79.22095035797685}, "863073334RR0001": {"name": "HOMEWOOD RESEARCH INSTITUTE/INSTITUT DE RECHERCHES HOMEWOOD", "designationCode": "C", "categoryCode": "23", "address": "150 DELHI STREET", "city": "GUELPH", "province": "ON", "country": "CA", "postalCode": "N1E6K9", "twitter": "None", "instagram": "None", "facebook": "None", "youtube": "None", "website": "None", "summary": "None", "logo": "None", "latitude": 43.55771150926216, "longitude": -80.25654988833712}, "860657733RR0001": {"name": "HOMMES SEPT-\u00ceLES, CENTRE D'ENTRAIDE POUR HOMMES INC.", "designationCode": "C", "categoryCode": "11", "address": "893 AV BROCHU", "city": "SEPT-ILES", "province": "QC", "country": "CA", "postalCode": "G4R2Y7", "twitter": "None", "instagram": "None", "facebook": "None", "youtube": "None", "website": "None", "summary": "None", "logo": "None", "latitude": 50.21584161336497, "longitude": -66.39888992189377}, "852983832RR0001": {"name": "HONDA CANADA FOUNDATION", "designationCode": "B", "categoryCode": "03", "address": "180 HONDA BLVD", "city": "MARKHAM", "province": "ON", "country": "CA", "postalCode": "L6C0H9", "twitter": "None", "instagram": "None", "facebook": "None", "youtube": "None", "website": "None", "summary": "None", "logo": "None", "latitude": 43.914617319833134, "longitude": -79.38108795494772}, "887227395RR0001": {"name": "HONEY HARBOUR COMMUNITY CHURCH INC", "designationCode": "C", "categoryCode": "39", "address": "540 QUAIL RIDGE DRIVE", "city": "AURORA", "province": "ON", "country": "CA", "postalCode": "L4G0L5", "twitter": "None", "instagram": "None", "facebook": "None", "youtube": "None", "website": "None", "summary": "None", "logo": "None", "latitude": 43.97496191144911, "longitude": -79.44678368454629}, "871827754RR0001": {"name": "HONEY HARBOUR HISTORICAL COMMITTEE", "designationCode": "C", "categoryCode": "50", "address": "PO BOX 195", "city": "HONEY HARBOUR", "province": "ON", "country": "CA", "postalCode": "P0E1E0", "twitter": "None", "instagram": "None", "facebook": "None", "youtube": "None", "website": "None", "summary": "None", "logo": "None", "latitude": 44.860792438305516, "longitude": -79.8046317993355}, "107489346RR0001": {"name": "HONEYDALE PENTECOSTAL CHURCH INC.", "designationCode": "C", "categoryCode": "39", "address": "40 RICHARDSON RD", "city": "HONEYDALE", "province": "NB", "country": "CA", "postalCode": "E5A1P1", "twitter": "None", "instagram": "None", "facebook": "None", "youtube": "None", "website": "None", "summary": "None", "logo": "None", "latitude": 45.38401933082356, "longitude": -67.21492689516283}, "890908973RR0001": {"name": "HONEYWOOD UNITED CHURCH,", "designationCode": "C", "categoryCode": "44", "address": "422 FIRST AVE E.", "city": "SHELBURNE", "province": "ON", "country": "CA", "postalCode": "L9V2Y9", "twitter": "None", "instagram": "None", "facebook": "None", "youtube": "None", "website": "None", "summary": "None", "logo": "None", "latitude": 44.08073215072983, "longitude": -80.19813620358929}, "107489452RR0001": {"name": "HONG FOOK MENTAL HEALTH ASSOCIATION", "designationCode": "C", "categoryCode": "11", "address": "201-3320 MIDLAND AVE", "city": "SCARBOROUGH", "province": "ON", "country": "CA", "postalCode": "M1V5E6", "twitter": "None", "instagram": "None", "facebook": "None", "youtube": "None", "website": "None", "summary": "None", "logo": "None", "latitude": 43.807284346096175, "longitude": -79.28893377090414}, "862514932RR0001": {"name": "HONG FOOK MENTAL HEALTH FOUNDATION", "designationCode": "A", "categoryCode": "03", "address": "#201-3320 MIDLAND AVENUE", "city": "SCARBOROUGH", "province": "ON", "country": "CA", "postalCode": "M1V5E6", "twitter": "None", "instagram": "None", "facebook": "None", "youtube": "None", "website": "None", "summary": "None", "logo": "None", "latitude": 43.807284346096175, "longitude": -79.28893377090414}, "898712203RR0001": {"name": "HONG KONG ASSOCIATION OF CHRISTIAN MUSIC MINISTRY (CANADA)", "designationCode": "C", "categoryCode": "49", "address": "4 - 20 AMBER ST", "city": "MARKHAM", "province": "ON", "country": "CA", "postalCode": "L3R5P4", "twitter": "None", "instagram": "None", "facebook": "None", "youtube": "None", "website": "None", "summary": "None", "logo": "None", "latitude": 43.828673151306766, "longitude": -79.32934648447676}, "869547240RR0001": {"name": "HONG KONG VETERANS COMMEMORATIVE ASSOCIATION", "designationCode": "C", "categoryCode": "09", "address": "1861 ROBERTSON ROAD           SUITE 164", "city": "OTTAWA", "province": "ON", "country": "CA", "postalCode": "K2H1B9", "twitter": "None", "instagram": "None", "facebook": "None", "youtube": "None", "website": "None", "summary": "None", "logo": "None", "latitude": 45.32746045911442, "longitude": -75.82017478106035}, "876127721RR0001": {"name": "HOOFBEAT MINISTRIES", "designationCode": "C", "categoryCode": "39", "address": "10281 LEE ROAD", "city": "QUESNEL", "province": "BC", "country": "CA", "postalCode": "V2J6R6", "twitter": "None", "instagram": "None", "facebook": "None", "youtube": "None", "website": "None", "summary": "None", "logo": "None", "latitude": 39.328200008213535, "longitude": -120.23619829250845}, "855137964RR0001": {"name": "HOOKED RUG MUSEUM OF NORTH AMERICA SOCIETY", "designationCode": "C", "categoryCode": "50", "address": "9849 ST.MARGARETS BAY ROAD    RR 2", "city": "HUBBARDS", "province": "NS", "country": "CA", "postalCode": "B0J1T0", "twitter": "None", "instagram": "None", "facebook": "None", "youtube": "None", "website": "None", "summary": "None", "logo": "None", "latitude": 44.64154375385169, "longitude": -64.03749203800004}, "128282423RR0001": {"name": "HOOSLI UKRAINIAN FOLK ENSEMBLE INC", "designationCode": "C", "categoryCode": "22", "address": "PO BOX 3632                   C-1155 MAIN ST.", "city": "WINNIPEG", "province": "MB", "country": "CA", "postalCode": "R2W5M3", "twitter": "None", "instagram": "None", "facebook": "None", "youtube": "None", "website": "None", "summary": "None", "logo": "None", "latitude": 49.91830849789386, "longitude": -97.13005432160014}, "106800220RR0001": {"name": "HOOVER MINISTRIES INC.", "designationCode": "C", "categoryCode": "47", "address": "115 27475 TWP RD 380", "city": "RED DEER COUNTY", "province": "AB", "country": "CA", "postalCode": "T4S2B7", "twitter": "None", "instagram": "None", "facebook": "None", "youtube": "None", "website": "None", "summary": "None", "logo": "None", "latitude": 52.230273000000054, "longitude": -113.83731799999993}, "808779698RR0001": {"name": "HOPE - Hamilton Ontario Philanthropic Enterprises", "designationCode": "A", "categoryCode": "02", "address": "44 HUGHSON STREET SOUTH", "city": "HAMILTON", "province": "ON", "country": "CA", "postalCode": "L8N2A7", "twitter": "None", "instagram": "None", "facebook": "None", "youtube": "None", "website": "None", "summary": "None", "logo": "None", "latitude": 43.25445199056494, "longitude": -79.86869349293087}, "854648755RR0001": {"name": "HOPE ACTION VALUES ETHICS CULINARY TRAINING SOCIETY", "designationCode": "C", "categoryCode": "59", "address": "374 POWELL STREET", "city": "VANCOUVER", "province": "BC", "country": "CA", "postalCode": "V6A1G4", "twitter": "None", "instagram": "None", "facebook": "None", "youtube": "None", "website": "None", "summary": "None", "logo": "None", "latitude": 49.28303093399815, "longitude": -123.09595406431447}, "119042299RR0001": {"name": "HOPE AIR", "designationCode": "C", "categoryCode": "19", "address": "207-124 MERTON ST", "city": "TORONTO", "province": "ON", "country": "CA", "postalCode": "M4S2Z2", "twitter": "None", "instagram": "None", "facebook": "None", "youtube": "None", "website": "None", "summary": "None", "logo": "None", "latitude": 43.696880180160214, "longitude": -79.39256824744639}, "895339083RR0001": {"name": "HOPE AND AREA TRANSITION SOCIETY", "designationCode": "C", "categoryCode": "09", "address": "PO BOX 1761", "city": "HOPE", "province": "BC", "country": "CA", "postalCode": "V0X1L0", "twitter": "None", "instagram": "None", "facebook": "None", "youtube": "None", "website": "None", "summary": "None", "logo": "None", "latitude": 49.37911800000006, "longitude": -121.44296149999994}, "888204070RR0001": {"name": "HOPE ASSEMBLY OF BIBLE CHRISTIANS, MISSISSAUGA", "designationCode": "C", "categoryCode": "31", "address": "201 - 45 PAISLEY BLVD W", "city": "MISSISSAUGA", "province": "ON", "country": "CA", "postalCode": "L5B1E4", "twitter": "None", "instagram": "None", "facebook": "None", "youtube": "None", "website": "None", "summary": "None", "logo": "None", "latitude": 43.57070531065616, "longitude": -79.62080241270348}, "118962489RR0001": {"name": "HOPE ASSOCIATION FOR COMMUNITY LIVING", "designationCode": "C", "categoryCode": "11", "address": "1166-7TH AVE", "city": "HOPE", "province": "BC", "country": "CA", "postalCode": "V0X1L4", "twitter": "None", "instagram": "None", "facebook": "None", "youtube": "None", "website": "None", "summary": "None", "logo": "None", "latitude": 49.37863221988169, "longitude": -121.42867776105274}, "832960520RR0001": {"name": "HOPE BAPTIST CHURCH", "designationCode": "C", "categoryCode": "31", "address": "SITE 106, COMP. 1, R.R. 1", "city": "ALBERTA BEACH", "province": "AB", "country": "CA", "postalCode": "T0E0A1", "twitter": "None", "instagram": "None", "facebook": "None", "youtube": "None", "website": "None", "summary": "None", "logo": "None", "latitude": 53.67507000000006, "longitude": -114.41082949999993}, "896056082RR0001": {"name": "HOPE BAPTIST CHURCH", "designationCode": "C", "categoryCode": "31", "address": "305 RTE 132 O", "city": "HOPETOWN", "province": "QC", "country": "CA", "postalCode": "G0C3C1", "twitter": "None", "instagram": "None", "facebook": "None", "youtube": "None", "website": "None", "summary": "None", "logo": "None"}, "833390677RR0001": {"name": "HOPE BRIDGES SOCIETY FOR CREATIVE AND CONTINUED LEARNING", "designationCode": "C", "categoryCode": "20", "address": "PO BOX 60051 RPO STRATHMORE", "city": "STRATHMORE", "province": "AB", "country": "CA", "postalCode": "T1P0C2", "twitter": "None", "instagram": "None", "facebook": "None", "youtube": "None", "website": "None", "summary": "None", "logo": "None", "latitude": 51.041247000000055, "longitude": -113.40029149999994}, "874358799RR0001": {"name": "HOPE CANCER HELP CENTRE INC.", "designationCode": "C", "categoryCode": "11", "address": "129 D PINEHOUSE DR", "city": "SASKATOON", "province": "SK", "country": "CA", "postalCode": "S7K5W1", "twitter": "None", "instagram": "None", "facebook": "None", "youtube": "None", "website": "None", "summary": "None", "logo": "None", "latitude": 52.16925464109325, "longitude": -106.63212861783703}, "122947005RR0001": {"name": "HOPE CEMETERY (OTTAWA-CARLETON)", "designationCode": "C", "categoryCode": "59", "address": "4660 BANK ST", "city": "GLOUCESTER", "province": "ON", "country": "CA", "postalCode": "K1T3W7", "twitter": "None", "instagram": "None", "facebook": "None", "youtube": "None", "website": "None", "summary": "None", "logo": "None", "latitude": 45.32702101826721, "longitude": -75.5976190059086}, "849679527RR0001": {"name": "HOPE CENTRE CHRISTIAN MISSION", "designationCode": "C", "categoryCode": "47", "address": "160 MAIN STREET SOUTH         SUITE 24", "city": "BRAMPTON", "province": "ON", "country": "CA", "postalCode": "L6W2E1", "twitter": "None", "instagram": "None", "facebook": "None", "youtube": "None", "website": "None", "summary": "None", "logo": "None", "latitude": 43.67739209775482, "longitude": -79.74845264132438}, "107489957RR0001": {"name": "HOPE CENTRE HEALTH CARE INCORPORATED", "designationCode": "C", "categoryCode": "11", "address": "240 POWERS ST.", "city": "WINNIPEG", "province": "MB", "country": "CA", "postalCode": "R2W5L1", "twitter": "None", "instagram": "None", "facebook": "None", "youtube": "None", "website": "None", "summary": "None", "logo": "None", "latitude": 49.91857590758262, "longitude": -97.14147923746306}, "728485723RR0001": {"name": "HOPE CENTRE MINISTRIES INC.", "designationCode": "C", "categoryCode": "39", "address": "83 HENDERSON HIGHWAY", "city": "WINNIPEG", "province": "MB", "country": "CA", "postalCode": "R2L1L2", "twitter": "None", "instagram": "None", "facebook": "None", "youtube": "None", "website": "None", "summary": "None", "logo": "None", "latitude": 49.910424119337584, "longitude": -97.11763502994995}, "107490021RR0001": {"name": "HOPE CHRISTIAN FELLOWSHIP", "designationCode": "C", "categoryCode": "39", "address": "BOX 1907", "city": "HOPE", "province": "BC", "country": "CA", "postalCode": "V0X1L0", "twitter": "None", "instagram": "None", "facebook": "None", "youtube": "None", "website": "None", "summary": "None", "logo": "None", "latitude": 49.37911800000006, "longitude": -121.44296149999994}, "872358809RR0001": {"name": "HOPE CHRISTIAN MINISTRIES", "designationCode": "C", "categoryCode": "39", "address": "116 - 10 GILLINGHAM DR        SUITE 548", "city": "BRAMPTON", "province": "ON", "country": "CA", "postalCode": "L6X5A5", "twitter": "None", "instagram": "None", "facebook": "None", "youtube": "None", "website": "None", "summary": "None", "logo": "None", "latitude": 43.70299650000001, "longitude": -79.7841945}, "118962513RR0001": {"name": "HOPE CHRISTIAN REFORMED CHURCH", "designationCode": "C", "categoryCode": "39", "address": "BOX 2479", "city": "STONY PLAIN", "province": "AB", "country": "CA", "postalCode": "T7Z1X9", "twitter": "None", "instagram": "None", "facebook": "None", "youtube": "None", "website": "None", "summary": "None", "logo": "None", "latitude": 53.52878400000006, "longitude": -114.00552349999992}, "898827365RR0001": {"name": "HOPE CHRISTIAN REFORMED CHURCH OF BRANTFORD", "designationCode": "C", "categoryCode": "39", "address": "64 BUCHANAN CRES", "city": "BRANTFORD", "province": "ON", "country": "CA", "postalCode": "N3P2A5", "twitter": "None", "instagram": "None", "facebook": "None", "youtube": "None", "website": "None", "summary": "None", "logo": "None", "latitude": 43.182999788476195, "longitude": -80.24431695646003}, "107490013RR0001": {"name": "HOPE CHRISTIAN REFORMED CHURCH OF PORT PERRY", "designationCode": "C", "categoryCode": "39", "address": "PO BOX 1169", "city": "PORT PERRY", "province": "ON", "country": "CA", "postalCode": "L9L1A9", "twitter": "None", "instagram": "None", "facebook": "None", "youtube": "None", "website": "None", "summary": "None", "logo": "None", "latitude": 44.10681900000006, "longitude": -78.94273399999993}, "887898724RR0001": {"name": "HOPE CHRISTIAN REFORMED CHURCH OF THUNDER BAY", "designationCode": "C", "categoryCode": "47", "address": "PO BOX 32002                  RPO ARTHUR", "city": "THUNDER BAY", "province": "ON", "country": "CA", "postalCode": "P7E0A1", "twitter": "None", "instagram": "None", "facebook": "None", "youtube": "None", "website": "None", "summary": "None", "logo": "None", "latitude": 48.38095472085908, "longitude": -89.2304792946918}, "107464711RR0001": {"name": "HOPE COMMUNITY CHURCH", "designationCode": "C", "categoryCode": "39", "address": "373-18TH AVENUE", "city": "HANOVER", "province": "ON", "country": "CA", "postalCode": "N4N3S5", "twitter": "None", "instagram": "None", "facebook": "None", "youtube": "None", "website": "None", "summary": "None", "logo": "None", "latitude": 44.15222861025109, "longitude": -81.01394469530995}, "876432600RR0001": {"name": "HOPE COMMUNITY CHURCH INC.", "designationCode": "C", "categoryCode": "39", "address": "PO BOX 3441 STN B", "city": "FREDERICTON", "province": "NB", "country": "CA", "postalCode": "E3A5H2", "twitter": "None", "instagram": "None", "facebook": "None", "youtube": "None", "website": "None", "summary": "None", "logo": "None", "latitude": 45.958638328435796, "longitude": -66.62155541090102}, "130746951RR0001": {"name": "HOPE COMMUNITY CHURCH OF SURREY, B C", "designationCode": "C", "categoryCode": "39", "address": "18625 FRASER HWY", "city": "SURREY", "province": "BC", "country": "CA", "postalCode": "V3S8E7", "twitter": "None", "instagram": "None", "facebook": "None", "youtube": "None", "website": "None", "summary": "None", "logo": "None", "latitude": 49.1257649821288, "longitude": -122.70603512849385}, "868227885RR0001": {"name": "HOPE COMMUNITY COVENANT CHURCH", "designationCode": "C", "categoryCode": "39", "address": "245 BRENT BLVD", "city": "STRATHMORE", "province": "AB", "country": "CA", "postalCode": "T1P1W4", "twitter": "None", "instagram": "None", "facebook": "None", "youtube": "None", "website": "None", "summary": "None", "logo": "None", "latitude": 51.0595494767734, "longitude": -113.3806815}, "118962547RR0001": {"name": "HOPE COMMUNITY SERVICES", "designationCode": "C", "categoryCode": "09", "address": "BOX 74 - 234 WALLACE STREET", "city": "HOPE", "province": "BC", "country": "CA", "postalCode": "V0X1L0", "twitter": "None", "instagram": "None", "facebook": "None", "youtube": "None", "website": "None", "summary": "None", "logo": "None", "latitude": 49.378872898479045, "longitude": -121.44308653215037}, "119288918RR0322": {"name": "HOPE CONGREGATION OF JEHOVAH'S WITNESSES,", "designationCode": "C", "categoryCode": "61", "address": "1247 6TH AVENUE", "city": "HOPE", "province": "BC", "country": "CA", "postalCode": "V0X1L4", "twitter": "None", "instagram": "None", "facebook": "None", "youtube": "None", "website": "None", "summary": "None", "logo": "None", "latitude": 49.376568218839125, "longitude": -121.43013655263269}, "868242959RR0001": {"name": "HOPE CONGREGATIONAL CHRISTIAN CHURCH", "designationCode": "C", "categoryCode": "39", "address": "PO BOX 399", "city": "ROCANVILLE", "province": "SK", "country": "CA", "postalCode": "S0A3L0", "twitter": "None", "instagram": "None", "facebook": "None", "youtube": "None", "website": "None", "summary": "None", "logo": "None", "latitude": 50.38263000000006, "longitude": -101.69969999999995}, "896141876RR0001": {"name": "HOPE CONGREGATIONAL CHRISTIAN FELLOWSHIP", "designationCode": "C", "categoryCode": "49", "address": "22668 VALLEYVIEW RD", "city": "THORNDALE", "province": "ON", "country": "CA", "postalCode": "N0M2P0", "twitter": "None", "instagram": "None", "facebook": "None", "youtube": "None", "website": "None", "summary": "None", "logo": "None", "latitude": 43.13328990446192, "longitude": -81.19063738242804}, "864825930RR0001": {"name": "HOPE CRIME PREVENTION SOCIETY", "designationCode": "C", "categoryCode": "59", "address": "777 FRASER AVENUE             P. O. BOX 8", "city": "HOPE", "province": "BC", "country": "CA", "postalCode": "V0X1L0", "twitter": "None", "instagram": "None", "facebook": "None", "youtube": "None", "website": "None", "summary": "None", "logo": "None", "latitude": 49.379726114374584, "longitude": -121.44350481591599}, "892735168RR0001": {"name": "HOPE EVANGELICAL LUTHERAN CHURCH", "designationCode": "C", "categoryCode": "32", "address": "14 CENTRE ST", "city": "TORONTO", "province": "ON", "country": "CA", "postalCode": "M1J3B5", "twitter": "None", "instagram": "None", "facebook": "None", "youtube": "None", "website": "None", "summary": "None", "logo": "None", "latitude": 43.74385516457964, "longitude": -79.22101418529608}, "107789778RR0001": {"name": "HOPE EVANGELICAL MISSIONARY CHURCH", "designationCode": "C", "categoryCode": "39", "address": "BOX 86", "city": "BURSTALL", "province": "SK", "country": "CA", "postalCode": "S0N0H0", "twitter": "None", "instagram": "None", "facebook": "None", "youtube": "None", "website": "None", "summary": "None", "logo": "None", "latitude": 50.65012000000007, "longitude": -109.90158999999994}, "889913521RR0001": {"name": "HOPE FELLOWSHIP CHRISTIAN REFORMED CHURCH", "designationCode": "C", "categoryCode": "39", "address": "1685 BLOOR STREET", "city": "COURTICE", "province": "ON", "country": "CA", "postalCode": "L1E2N1", "twitter": "None", "instagram": "None", "facebook": "None", "youtube": "None", "website": "None", "summary": "None", "logo": "None", "latitude": 43.895658673971546, "longitude": -78.7777550485285}, "880422761RR0001": {"name": "HOPE FELLOWSHIP CHURCH", "designationCode": "C", "categoryCode": "39", "address": "809 32ND STREET W", "city": "SASKATOON", "province": "SK", "country": "CA", "postalCode": "S7L0T5", "twitter": "None", "instagram": "None", "facebook": "None", "youtube": "None", "website": "None", "summary": "None", "logo": "None", "latitude": 52.1418264740321, "longitude": -106.68276385457894}, "833849367RR0001": {"name": "HOPE FOOD BANK AND CHARITABLE ORGANIZATION", "designationCode": "C", "categoryCode": "09", "address": "214 BAY ST.                   UNIT 2", "city": "OTTAWA", "province": "ON", "country": "CA", "postalCode": "K1R5B5", "twitter": "None", "instagram": "None", "facebook": "None", "youtube": "None", "website": "None", "summary": "None", "logo": "None", "latitude": 45.41627373160601, "longitude": -75.70494639482935}, "869633461RR0001": {"name": "HOPE FOR FREEDOM SOCIETY", "designationCode": "C", "categoryCode": "57", "address": "3237 LIVERPOOL", "city": "PORT COQUITLAM", "province": "BC", "country": "CA", "postalCode": "V3B3V5", "twitter": "None", "instagram": "None", "facebook": "None", "youtube": "None", "website": "None", "summary": "None", "logo": "None", "latitude": 49.271436450458765, "longitude": -122.76045356662235}, "826040941RR0001": {"name": "HOPE FOR RURAL CHILDREN AND ORPHANS (HORCO)", "designationCode": "C", "categoryCode": "09", "address": "33 ELVIRA CRESCENT", "city": "LONDON", "province": "ON", "country": "CA", "postalCode": "N6E2N1", "twitter": "None", "instagram": "None", "facebook": "None", "youtube": "None", "website": "None", "summary": "None", "logo": "None", "latitude": 42.939615122396, "longitude": -81.24118809091681}, "889697363RR0001": {"name": "HOPE FOR RWANDA'S CHILDREN FUND", "designationCode": "C", "categoryCode": "09", "address": "PO BOX 81585                  1057 STEELES AVE. W.", "city": "TORONTO", "province": "ON", "country": "CA", "postalCode": "M2R3X1", "twitter": "None", "instagram": "None", "facebook": "None", "youtube": "None", "website": "None", "summary": "None", "logo": "None", "latitude": 43.79177857478035, "longitude": -79.44848861125855}, "854400207RR0001": {"name": "HOPE FOR THE ISLAND MINISTRIES INC.", "designationCode": "C", "categoryCode": "47", "address": "303 - 212 WATSON STREET", "city": "WINNIPEG", "province": "MB", "country": "CA", "postalCode": "R2P1Z6", "twitter": "None", "instagram": "None", "facebook": "None", "youtube": "None", "website": "None", "summary": "None", "logo": "None", "latitude": 49.95045550126085, "longitude": -97.15516170616485}, "898759931RR0001": {"name": "HOPE FOR THE NATIONS", "designationCode": "C", "categoryCode": "09", "address": "222 - 1889 SPRINGFIELD RD", "city": "KELOWNA", "province": "BC", "country": "CA", "postalCode": "V1Y5V5", "twitter": "None", "instagram": "None", "facebook": "None", "youtube": "None", "website": "None", "summary": "None", "logo": "None", "latitude": 49.87710040660634, "longitude": -119.4548724756288}, "867621823RR0001": {"name": "HOPE FOR TODAY MINISTRIES CANADA", "designationCode": "C", "categoryCode": "47", "address": "PO BOX 15011                  RPO SEVENOAKS", "city": "ABBOTSFORD", "province": "BC", "country": "CA", "postalCode": "V2S8P1", "twitter": "None", "instagram": "None", "facebook": "None", "youtube": "None", "website": "None", "summary": "None", "logo": "None", "latitude": 49.03851300000005, "longitude": -122.29441549999993}, "107396905RR0064": {"name": "HOPE FOR TOMORROW FOURSQUARE GOSPEL CHURCH", "designationCode": "C", "categoryCode": "39", "address": "126 LONG ST", "city": "BRADFORD", "province": "ON", "country": "CA", "postalCode": "L3Z0R6", "twitter": "None", "instagram": "None", "facebook": "None", "youtube": "None", "website": "None", "summary": "None", "logo": "None", "latitude": 44.10067502628032, "longitude": -79.59625372887356}, "885062448RR0001": {"name": "HOPE FOR WILDLIFE SOCIETY", "designationCode": "C", "categoryCode": "54", "address": "5909 HIGHWAY 207              RR 2, SITE 14, BOX 1", "city": "HEAD OF CHEZZETCOOK", "province": "NS", "country": "CA", "postalCode": "B0J1N0", "twitter": "None", "instagram": "None", "facebook": "None", "youtube": "None", "website": "None", "summary": "None", "logo": "None", "latitude": 44.74421700000005, "longitude": -63.24492949999993}, "849500277RR0001": {"name": "HOPE HAVEN CANADA MINISTRIES", "designationCode": "C", "categoryCode": "09", "address": "18362 - 94TH STREET", "city": "SURREY", "province": "BC", "country": "CA", "postalCode": "V4N4A6", "twitter": "None", "instagram": "None", "facebook": "None", "youtube": "None", "website": "None", "summary": "None", "logo": "None", "latitude": 49.173687525102544, "longitude": -122.71380210935425}, "894008978RR0001": {"name": "HOPE HAVEN INC.", "designationCode": "C", "categoryCode": "01", "address": "350 BOOTH AVE", "city": "LABRADOR CITY", "province": "NL", "country": "CA", "postalCode": "A2V2K1", "twitter": "None", "instagram": "None", "facebook": "None", "youtube": "None", "website": "None", "summary": "None", "logo": "None", "latitude": 52.94681753686083, "longitude": -66.9107268249435}, "129317053RR0001": {"name": "HOPE HAVEN SOCIETY", "designationCode": "C", "categoryCode": "01", "address": "PO BOX 2168", "city": "LAC LA BICHE", "province": "AB", "country": "CA", "postalCode": "T0A2C0", "twitter": "None", "instagram": "None", "facebook": "None", "youtube": "None", "website": "None", "summary": "None", "logo": "None", "latitude": 54.768200000000036, "longitude": -111.98244999999997}, "887579860RR0001": {"name": "HOPE HOMES FOR THE HANDICAPPED", "designationCode": "C", "categoryCode": "01", "address": "357 STROUES LANE", "city": "PICKERING", "province": "ON", "country": "CA", "postalCode": "L1V7J2", "twitter": "None", "instagram": "None", "facebook": "None", "youtube": "None", "website": "None", "summary": "None", "logo": "None", "latitude": 43.8235058778638, "longitude": -79.13476329237133}, "855545125RR0001": {"name": "HOPE IN CHRIST MINISTRIES FELLOWSHIP", "designationCode": "C", "categoryCode": "49", "address": "PO BOX 25019", "city": "FORT MCMURRAY", "province": "AB", "country": "CA", "postalCode": "T9H5N8", "twitter": "None", "instagram": "None", "facebook": "None", "youtube": "None", "website": "None", "summary": "None", "logo": "None", "latitude": 56.72719500000005, "longitude": -111.38028199999994}, "107490146RR0001": {"name": "HOPE INTERNATIONAL DEVELOPMENT AGENCY", "designationCode": "C", "categoryCode": "09", "address": "214 SIXTH STREET", "city": "NEW WESTMINSTER", "province": "BC", "country": "CA", "postalCode": "V3L3A2", "twitter": "None", "instagram": "None", "facebook": "None", "youtube": "None", "website": "None", "summary": "None", "logo": "None"}, "107490161RR0001": {"name": "HOPE LUTHERAN CHURCH", "designationCode": "C", "categoryCode": "32", "address": "30 SHAFTSBURY DR", "city": "KITCHENER", "province": "ON", "country": "CA", "postalCode": "N2A1N6", "twitter": "None", "instagram": "None", "facebook": "None", "youtube": "None", "website": "None", "summary": "None", "logo": "None", "latitude": 43.45369647157925, "longitude": -80.43238088620235}, "107490187RR0001": {"name": "HOPE LUTHERAN CHURCH", "designationCode": "C", "categoryCode": "32", "address": "BOX 153", "city": "FORESTBURG", "province": "AB", "country": "CA", "postalCode": "T0B1N0", "twitter": "None", "instagram": "None", "facebook": "None", "youtube": "None", "website": "None", "summary": "None", "logo": "None", "latitude": 52.58134386913628, "longitude": -112.05738493950088}, "107490229RR0001": {"name": "HOPE LUTHERAN CHURCH", "designationCode": "C", "categoryCode": "32", "address": "3151 YORK STREET", "city": "PORT COQUITLAM", "province": "BC", "country": "CA", "postalCode": "V3B4A7", "twitter": "None", "instagram": "None", "facebook": "None", "youtube": "None", "website": "None", "summary": "None", "logo": "None"}, "107490237RR0001": {"name": "HOPE LUTHERAN CHURCH", "designationCode": "C", "categoryCode": "32", "address": "1924 CARRICK ST.", "city": "VICTORIA", "province": "BC", "country": "CA", "postalCode": "V8R2M4", "twitter": "None", "instagram": "None", "facebook": "None", "youtube": "None", "website": "None", "summary": "None", "logo": "None", "latitude": 48.43680649711446, "longitude": -123.32436011365343}}