{"891050841RR0001": {"name": "UNITED PENTECOSTAL CHURCH", "designationCode": "C", "categoryCode": "36", "address": "4 QUEEN ST                    BOX 2445", "city": "ST. CATHARINES", "province": "ON", "country": "CA", "postalCode": "L2R7S1", "twitter": "None", "instagram": "None", "facebook": "None", "youtube": "None", "website": "None", "summary": "None", "logo": "None", "latitude": 43.15698050181768, "longitude": -79.24581180293157}, "891069049RR0001": {"name": "UNITED PENTECOSTAL CHURCH", "designationCode": "C", "categoryCode": "36", "address": "11424 ROUTE 8", "city": "UPPER BLACKVILLE", "province": "NB", "country": "CA", "postalCode": "E9B1Z4", "twitter": "None", "instagram": "None", "facebook": "None", "youtube": "None", "website": "None", "summary": "None", "logo": "None", "latitude": 46.65623668457441, "longitude": -65.85867380606055}, "897886735RR0001": {"name": "UNITED PENTECOSTAL CHURCH", "designationCode": "C", "categoryCode": "39", "address": "25 KEIRSTEAD AVENUE", "city": "HAMPTON", "province": "NB", "country": "CA", "postalCode": "E5N4Z9", "twitter": "None", "instagram": "None", "facebook": "None", "youtube": "None", "website": "None", "summary": "None", "logo": "None", "latitude": 45.52452243184843, "longitude": -65.82769179730568}, "108156688RR0001": {"name": "UNITED PENTECOSTAL CHURCH (ONTARIO DISTRICT)", "designationCode": "C", "categoryCode": "36", "address": "P.O. BOX 475", "city": "NAPANEE", "province": "ON", "country": "CA", "postalCode": "K7R3P5", "twitter": "None", "instagram": "None", "facebook": "None", "youtube": "None", "website": "None", "summary": "None", "logo": "None", "latitude": 44.24834400000006, "longitude": -76.95158299999993}, "108156449RR0001": {"name": "UNITED PENTECOSTAL CHURCH HARVEY STATION", "designationCode": "C", "categoryCode": "39", "address": "PO BOX 259", "city": "HARVEY STATION", "province": "NB", "country": "CA", "postalCode": "E6K3W9", "twitter": "None", "instagram": "None", "facebook": "None", "youtube": "None", "website": "None", "summary": "None", "logo": "None", "latitude": 45.73342000000008, "longitude": -66.99886999999995}, "119277267RR0001": {"name": "UNITED PENTECOSTAL CHURCH INC.", "designationCode": "C", "categoryCode": "39", "address": "P.O. BOX 291", "city": "BISHOP'S FALLS", "province": "NL", "country": "CA", "postalCode": "A0H1C0", "twitter": "None", "instagram": "None", "facebook": "None", "youtube": "None", "website": "None", "summary": "None", "logo": "None", "latitude": 49.02673000000004, "longitude": -55.45667999999995}, "896756616RR0001": {"name": "UNITED PENTECOSTAL CHURCH OF ANNAPOLIS ROYAL, NOVA SCOTIA", "designationCode": "C", "categoryCode": "39", "address": "4852 HIGHWAY 1, RR 2", "city": "GRANVILLE FERRY", "province": "NS", "country": "CA", "postalCode": "B0S1K0", "twitter": "None", "instagram": "None", "facebook": "None", "youtube": "None", "website": "None", "summary": "None", "logo": "None", "latitude": 44.76414137754292, "longitude": -65.4949870743981}, "106775638RR0001": {"name": "UNITED PENTECOSTAL CHURCH OF BATH", "designationCode": "C", "categoryCode": "36", "address": "278 MAIN ST", "city": "BATH", "province": "NB", "country": "CA", "postalCode": "E7J1H2", "twitter": "None", "instagram": "None", "facebook": "None", "youtube": "None", "website": "None", "summary": "None", "logo": "None", "latitude": 46.50642972191116, "longitude": -67.58977976850954}, "889323796RR0001": {"name": "UNITED PENTECOSTAL CHURCH OF BRITISH COLUMBIA", "designationCode": "C", "categoryCode": "39", "address": "PO BOX 514", "city": "MAPLE RIDGE", "province": "BC", "country": "CA", "postalCode": "V2X3P2", "twitter": "None", "instagram": "None", "facebook": "None", "youtube": "None", "website": "None", "summary": "None", "logo": "None", "latitude": 49.21686600000005, "longitude": -122.60537449999993}, "132787730RR0001": {"name": "UNITED PENTECOSTAL CHURCH OF CANADA", "designationCode": "C", "categoryCode": "39", "address": "P.O. BOX 406", "city": "MAPLE RIDGE", "province": "BC", "country": "CA", "postalCode": "V2X8K9", "twitter": "None", "instagram": "None", "facebook": "None", "youtube": "None", "website": "None", "summary": "None", "logo": "None", "latitude": 49.21686600000005, "longitude": -122.60537449999993}, "119277382RR0001": {"name": "UNITED PENTECOSTAL CHURCH OF FORT FRANCES", "designationCode": "C", "categoryCode": "39", "address": "324 VICTORIA AVENUE", "city": "FORT FRANCES", "province": "ON", "country": "CA", "postalCode": "P9A2C2", "twitter": "None", "instagram": "None", "facebook": "None", "youtube": "None", "website": "None", "summary": "None", "logo": "None", "latitude": 48.60901367286598, "longitude": -93.39253320795015}, "119277879RR0001": {"name": "UNITED PENTECOSTAL CHURCH OF GEARY", "designationCode": "C", "categoryCode": "36", "address": "4 LAUVINA RD", "city": "GEARY", "province": "NB", "country": "CA", "postalCode": "E2V3X4", "twitter": "None", "instagram": "None", "facebook": "None", "youtube": "None", "website": "None", "summary": "None", "logo": "None", "latitude": 45.77026348788315, "longitude": -66.4764826796982}, "119277390RR0001": {"name": "UNITED PENTECOSTAL CHURCH OF HARCOURT", "designationCode": "C", "categoryCode": "36", "address": "146 KING ST", "city": "MIRAMICHI", "province": "NB", "country": "CA", "postalCode": "E1N2N9", "twitter": "None", "instagram": "None", "facebook": "None", "youtube": "None", "website": "None", "summary": "None", "logo": "None", "latitude": 47.02266118647952, "longitude": -65.44915653889409}, "119277416RR0002": {"name": "UNITED PENTECOSTAL CHURCH OF KENORA", "designationCode": "C", "categoryCode": "39", "address": "1100 MINTO AVE", "city": "KENORA", "province": "ON", "country": "CA", "postalCode": "P9N3J9", "twitter": "None", "instagram": "None", "facebook": "None", "youtube": "None", "website": "None", "summary": "None", "logo": "None", "latitude": 49.777964999999995, "longitude": -94.47170551846608}, "119277424RR0001": {"name": "UNITED PENTECOSTAL CHURCH OF KOUCHIBOUGUAC", "designationCode": "C", "categoryCode": "36", "address": "718 TWEEDIE BROOK ROAD", "city": "KOUCHIBOUGUAC", "province": "NB", "country": "CA", "postalCode": "E4X1N1", "twitter": "None", "instagram": "None", "facebook": "None", "youtube": "None", "website": "None", "summary": "None", "logo": "None", "latitude": 46.7942167644571, "longitude": -65.06211211140766}, "108156456RR0001": {"name": "UNITED PENTECOSTAL CHURCH OF MILLVILLE N.B.", "designationCode": "C", "categoryCode": "36", "address": "3898 ROUTE 104", "city": "MILLVILLE", "province": "NB", "country": "CA", "postalCode": "E6E1S7", "twitter": "None", "instagram": "None", "facebook": "None", "youtube": "None", "website": "None", "summary": "None", "logo": "None", "latitude": 46.12961952276791, "longitude": -67.19458425970915}, "119277457RR0001": {"name": "UNITED PENTECOSTAL CHURCH OF MINTO", "designationCode": "C", "categoryCode": "36", "address": "P.O. BOX 619                  193 LAKE DRIVE", "city": "MINTO", "province": "NB", "country": "CA", "postalCode": "E4B2M9", "twitter": "None", "instagram": "None", "facebook": "None", "youtube": "None", "website": "None", "summary": "None", "logo": "None", "latitude": 46.07326602845262, "longitude": -66.0428182006223}, "139739791RR0001": {"name": "UNITED PENTECOSTAL CHURCH OF NOVA SCOTIA", "designationCode": "C", "categoryCode": "39", "address": "PO BOX 2354 STN MAIN", "city": "WOLFVILLE", "province": "NS", "country": "CA", "postalCode": "B4P2N5", "twitter": "None", "instagram": "None", "facebook": "None", "youtube": "None", "website": "None", "summary": "None", "logo": "None", "latitude": 45.085581897197095, "longitude": -64.38691392056936}, "108156415RR0001": {"name": "UNITED PENTECOSTAL CHURCH OF RIPPLES", "designationCode": "C", "categoryCode": "36", "address": "548 ROUTE 670", "city": "RIPPLES", "province": "NB", "country": "CA", "postalCode": "E4B1E5", "twitter": "None", "instagram": "None", "facebook": "None", "youtube": "None", "website": "None", "summary": "None", "logo": "None", "latitude": 45.97909878909294, "longitude": -66.20846244897463}, "119277507RR0001": {"name": "UNITED PENTECOSTAL CHURCH OF SACKVILLE", "designationCode": "C", "categoryCode": "39", "address": "119 CROSSMAN RD.", "city": "SACKVILLE", "province": "NB", "country": "CA", "postalCode": "E4L3V8", "twitter": "None", "instagram": "None", "facebook": "None", "youtube": "None", "website": "None", "summary": "None", "logo": "None", "latitude": 45.90360521256413, "longitude": -64.39428361402524}, "119277515RR0001": {"name": "UNITED PENTECOSTAL CHURCH OF SOURIS, P E I", "designationCode": "C", "categoryCode": "36", "address": "PO BOX 321", "city": "SOURIS", "province": "PE", "country": "CA", "postalCode": "C0A2B0", "twitter": "None", "instagram": "None", "facebook": "None", "youtube": "None", "website": "None", "summary": "None", "logo": "None", "latitude": 46.35451000000006, "longitude": -62.25295999999997}, "119277523RR0001": {"name": "UNITED PENTECOSTAL CHURCH OF STE ANNE DE MADAWASKA, N B", "designationCode": "C", "categoryCode": "36", "address": "13515 ROUTE 144", "city": "SAINTE-ANNE-DE-MADAWASKA", "province": "NB", "country": "CA", "postalCode": "E7E1T3", "twitter": "None", "instagram": "None", "facebook": "None", "youtube": "None", "website": "None", "summary": "None", "logo": "None", "latitude": 47.277603974933086, "longitude": -68.09162101249571}, "119277531RR0001": {"name": "UNITED PENTECOSTAL CHURCH OF THE LORD JESUS CHRIST,", "designationCode": "B", "categoryCode": "36", "address": "312 ERIE STREET SOUTH", "city": "LEAMINGTON", "province": "ON", "country": "CA", "postalCode": "N8H3C5", "twitter": "None", "instagram": "None", "facebook": "None", "youtube": "None", "website": "None", "summary": "None", "logo": "None"}, "891075988RR0001": {"name": "UNITED PENTECOSTAL CHURCH OF TRURO", "designationCode": "C", "categoryCode": "36", "address": "130 KING ST.", "city": "TRURO", "province": "NS", "country": "CA", "postalCode": "B2N3L4", "twitter": "None", "instagram": "None", "facebook": "None", "youtube": "None", "website": "None", "summary": "None", "logo": "None", "latitude": 45.36060418428649, "longitude": -63.284677834612296}, "119277549RR0001": {"name": "UNITED PENTECOSTAL CHURCH OF YARMOUTH", "designationCode": "C", "categoryCode": "39", "address": "PO BOX 2354", "city": "WOLFVILLE", "province": "NS", "country": "CA", "postalCode": "B4P2N5", "twitter": "None", "instagram": "None", "facebook": "None", "youtube": "None", "website": "None", "summary": "None", "logo": "None", "latitude": 45.09137400000006, "longitude": -64.36303099999994}, "136213907RR0001": {"name": "UNITED PENTECOSTAL CHURCH STEPHENVILLE", "designationCode": "C", "categoryCode": "36", "address": "8 CABIN ROAD", "city": "GALLANTS", "province": "NL", "country": "CA", "postalCode": "A0L1G0", "twitter": "None", "instagram": "None", "facebook": "None", "youtube": "None", "website": "None", "summary": "None", "logo": "None", "latitude": 48.97914000000006, "longitude": -56.03536699999994}, "119277614RR0001": {"name": "UNITED PENTECOSTAL CHURCH,", "designationCode": "C", "categoryCode": "36", "address": "130 KING ST", "city": "TRURO", "province": "NS", "country": "CA", "postalCode": "B2N3L4", "twitter": "None", "instagram": "None", "facebook": "None", "youtube": "None", "website": "None", "summary": "None", "logo": "None", "latitude": 45.36060418428649, "longitude": -63.284677834612296}, "119277804RR0001": {"name": "UNITED PENTECOSTAL CHURCH,", "designationCode": "C", "categoryCode": "39", "address": "SPRINGFIELD PENTECOSTAL CHURCHBLDG 1457 ROUTE 615 SPRINGFIEL", "city": "YORK CO", "province": "NB", "country": "CA", "postalCode": "E6E1V1", "twitter": "None", "instagram": "None", "facebook": "None", "youtube": "None", "website": "None", "summary": "None", "logo": "None", "latitude": 46.11191100000005, "longitude": -67.16585149999993}, "119277903RR0001": {"name": "UNITED PENTECOSTAL CHURCH,", "designationCode": "C", "categoryCode": "36", "address": "10 LAWRENCE ST", "city": "OXFORD STATION", "province": "ON", "country": "CA", "postalCode": "K0G1T0", "twitter": "None", "instagram": "None", "facebook": "None", "youtube": "None", "website": "None", "summary": "None", "logo": "None", "latitude": 44.871543446016034, "longitude": -75.70025602592686}, "119278026RR0001": {"name": "UNITED PENTECOSTAL CHURCH,", "designationCode": "C", "categoryCode": "36", "address": "128 WHYTE AVE", "city": "DRYDEN", "province": "ON", "country": "CA", "postalCode": "P8N1Z7", "twitter": "None", "instagram": "None", "facebook": "None", "youtube": "None", "website": "None", "summary": "None", "logo": "None", "latitude": 49.77883873327945, "longitude": -92.83895330091141}, "891314643RR0001": {"name": "UNITED PENTECOSTAL CHURCH,", "designationCode": "C", "categoryCode": "36", "address": "15 CHARLES ST E", "city": "NORTH BAY", "province": "ON", "country": "CA", "postalCode": "P1A1E7", "twitter": "None", "instagram": "None", "facebook": "None", "youtube": "None", "website": "None", "summary": "None", "logo": "None", "latitude": 46.29366799526816, "longitude": -79.45240286857297}, "119277242RR0001": {"name": "UNITED PENTECOSTAL CHURCHES OF WATERVILLE,", "designationCode": "C", "categoryCode": "39", "address": "34 PIKE HILL ROAD", "city": "TEMPERANCE VALE", "province": "NB", "country": "CA", "postalCode": "E6G2E5", "twitter": "None", "instagram": "None", "facebook": "None", "youtube": "None", "website": "None", "summary": "None", "logo": "None", "latitude": 46.0628983677102, "longitude": -67.25020302890515}, "839673373RR0001": {"name": "UNITED PENTECOSTAL SPANISH CHURCH OF RED DEER AB.", "designationCode": "C", "categoryCode": "36", "address": "302A - 7108 PARKE AVE", "city": "RED DEER", "province": "AB", "country": "CA", "postalCode": "T4P1M9", "twitter": "None", "instagram": "None", "facebook": "None", "youtube": "None", "website": "None", "summary": "None", "logo": "None", "latitude": 52.29660532944774, "longitude": -113.81068889872448}, "105453385RR0001": {"name": "UNITED PENTICOSTAL CHURCH OF ST. MALO INC.", "designationCode": "C", "categoryCode": "39", "address": "BOX 382", "city": "ST MALO", "province": "MB", "country": "CA", "postalCode": "R0A1T0", "twitter": "None", "instagram": "None", "facebook": "None", "youtube": "None", "website": "None", "summary": "None", "logo": "None", "latitude": 49.31380157685065, "longitude": -96.95277278028621}, "136848942RR0001": {"name": "UNITED PLAYERS OF VANCOUVER", "designationCode": "C", "categoryCode": "22", "address": "206-2366 WALL STREET", "city": "VANCOUVER", "province": "BC", "country": "CA", "postalCode": "V5L4Y1", "twitter": "None", "instagram": "None", "facebook": "None", "youtube": "None", "website": "None", "summary": "None", "logo": "None", "latitude": 49.290289858993674, "longitude": -123.0573281606845}, "874111719RR0001": {"name": "UNITED REFORMED CHURCH OF THUNDER BAY", "designationCode": "C", "categoryCode": "39", "address": "938 CANDY MOUNTAIN ROAD", "city": "SLATE RIVER", "province": "ON", "country": "CA", "postalCode": "P7J0C4", "twitter": "None", "instagram": "None", "facebook": "None", "youtube": "None", "website": "None", "summary": "None", "logo": "None", "latitude": 48.32619676834384, "longitude": -89.49396249484538}, "864691480RR0001": {"name": "UNITED REFORMED CHURCHES IN NORTH AMERICA", "designationCode": "C", "categoryCode": "39", "address": "74025 WELLANDPORT RD", "city": "WELLANDPORT", "province": "ON", "country": "CA", "postalCode": "L0R2J0", "twitter": "None", "instagram": "None", "facebook": "None", "youtube": "None", "website": "None", "summary": "None", "logo": "None", "latitude": 42.986760223151904, "longitude": -79.47966356939324}, "897466900RR0001": {"name": "UNITED SENIORS HOUSING SOCIETY", "designationCode": "C", "categoryCode": "09", "address": "2211 PRAIRIE AVE", "city": "PORT COQUITLAM", "province": "BC", "country": "CA", "postalCode": "V3B1V8", "twitter": "None", "instagram": "None", "facebook": "None", "youtube": "None", "website": "None", "summary": "None", "logo": "None", "latitude": 49.271229508799905, "longitude": -122.77588419317328}, "108159799RR0001": {"name": "UNITED TALMUD TORAHS OF MONTREAL INC.", "designationCode": "C", "categoryCode": "20", "address": "4840 ST. KEVIN AVENUE, STE 210", "city": "MONTREAL", "province": "QC", "country": "CA", "postalCode": "H3W1P2", "twitter": "None", "instagram": "None", "facebook": "None", "youtube": "None", "website": "None", "summary": "None", "logo": "None", "latitude": 45.49066642186513, "longitude": -73.63137971022574}, "890951049RR0001": {"name": "UNITED UKRAINIAN CHARITABLE TRUST", "designationCode": "A", "categoryCode": "05", "address": "2445 BLOOR ST W", "city": "TORONTO", "province": "ON", "country": "CA", "postalCode": "M6S1P7", "twitter": "None", "instagram": "None", "facebook": "None", "youtube": "None", "website": "None", "summary": "None", "logo": "None", "latitude": 43.64932100969488, "longitude": -79.48430247792722}, "878891795RR0001": {"name": "UNITED VICTIMS ASSISTANCE FOUNDATION", "designationCode": "C", "categoryCode": "59", "address": "212-8711A-50 STREET", "city": "EDMONTON", "province": "AB", "country": "CA", "postalCode": "T6B1E7", "twitter": "None", "instagram": "None", "facebook": "None", "youtube": "None", "website": "None", "summary": "None", "logo": "None", "latitude": 53.51980765808087, "longitude": -113.41808155508355}, "843145673RR0001": {"name": "UNITED VISION OF TRUTH MINISTRIES INC.", "designationCode": "C", "categoryCode": "39", "address": "1008-25 MARTH EATON WAY", "city": "NORTH YORK", "province": "ON", "country": "CA", "postalCode": "M6M5B7", "twitter": "None", "instagram": "None", "facebook": "None", "youtube": "None", "website": "None", "summary": "None", "logo": "None", "latitude": 43.69697382431698, "longitude": -79.4892666999439}, "108160334RR0001": {"name": "UNITED WAY / CENTRAIDE WINDSOR-ESSEX COUNTY", "designationCode": "A", "categoryCode": "03", "address": "A1-300 GILES BLVD E", "city": "WINDSOR", "province": "ON", "country": "CA", "postalCode": "N9A4C4", "twitter": "None", "instagram": "None", "facebook": "None", "youtube": "None", "website": "None", "summary": "None", "logo": "None", "latitude": 42.307371, "longitude": -83.026431}, "119260537RR0001": {"name": "UNITED WAY CENTRAL AND NORTHERN VANCOUVER ISLAND", "designationCode": "A", "categoryCode": "03", "address": "9 - 327 PRIDEAUX ST", "city": "NANAIMO", "province": "BC", "country": "CA", "postalCode": "V9R2N4", "twitter": "None", "instagram": "None", "facebook": "None", "youtube": "None", "website": "None", "summary": "None", "logo": "None", "latitude": 49.16347709461041, "longitude": -123.94292722017947}, "107457053RR0001": {"name": "UNITED WAY COMMUNITY SERVICES OF GUELPH AND WELLINGTON", "designationCode": "A", "categoryCode": "03", "address": "85 WESTMOUNT RD", "city": "GUELPH", "province": "ON", "country": "CA", "postalCode": "N1H5J2", "twitter": "None", "instagram": "None", "facebook": "None", "youtube": "None", "website": "None", "summary": "None", "logo": "None", "latitude": 43.55020864726738, "longitude": -80.26994525336168}, "105454508RR0001": {"name": "UNITED WAY FOR THE CITY OF KAWARTHA LAKES", "designationCode": "A", "categoryCode": "05", "address": "50 MARY STREET WEST, FRONT", "city": "LINDSAY", "province": "ON", "country": "CA", "postalCode": "K9V2N6", "twitter": "None", "instagram": "None", "facebook": "None", "youtube": "None", "website": "None", "summary": "None", "logo": "None", "latitude": 44.34629045298178, "longitude": -78.73431624730824}, "107462988RR0001": {"name": "UNITED WAY HALTON & HAMILTON", "designationCode": "A", "categoryCode": "03", "address": "177 REBECCA STREET", "city": "HAMILTON", "province": "ON", "country": "CA", "postalCode": "L8R1B9", "twitter": "None", "instagram": "None", "facebook": "None", "youtube": "None", "website": "None", "summary": "None", "logo": "None", "latitude": 43.25634309965941, "longitude": -79.86136484886613}, "898768627RR0001": {"name": "UNITED WAY OF BRUCE GREY", "designationCode": "C", "categoryCode": "03", "address": "380 9TH STREET EAST", "city": "OWEN SOUND", "province": "ON", "country": "CA", "postalCode": "N4K1P1", "twitter": "None", "instagram": "None", "facebook": "None", "youtube": "None", "website": "None", "summary": "None", "logo": "None", "latitude": 44.56623943493552, "longitude": -80.93945514516126}, "130229750RR0001": {"name": "UNITED WAY OF CALGARY AND AREA", "designationCode": "A", "categoryCode": "05", "address": "600-105 12 AVE SE", "city": "CALGARY", "province": "AB", "country": "CA", "postalCode": "T2G1A1", "twitter": "None", "instagram": "None", "facebook": "None", "youtube": "None", "website": "None", "summary": "None", "logo": "None", "latitude": 51.04136053621104, "longitude": -114.06274186372553}, "119278141RR0001": {"name": "UNITED WAY OF CANADA - CENTRAIDE CANADA", "designationCode": "A", "categoryCode": "59", "address": "900 - 116 ALBERT ST", "city": "OTTAWA", "province": "ON", "country": "CA", "postalCode": "K1P5G3", "twitter": "None", "instagram": "None", "facebook": "None", "youtube": "None", "website": "None", "summary": "None", "logo": "None", "latitude": 45.421453698568975, "longitude": -75.69672205285946}, "119278364RR0001": {"name": "UNITED WAY OF CENTRAL ALBERTA SOCIETY", "designationCode": "A", "categoryCode": "03", "address": "4811-48 STREET", "city": "RED DEER", "province": "AB", "country": "CA", "postalCode": "T4N1S6", "twitter": "None", "instagram": "None", "facebook": "None", "youtube": "None", "website": "None", "summary": "None", "logo": "None", "latitude": 52.2670785212074, "longitude": -113.8097025}, "119278166RR0001": {"name": "UNITED WAY OF CHATHAM-KENT", "designationCode": "A", "categoryCode": "05", "address": "P.O. BOX 606", "city": "CHATHAM", "province": "ON", "country": "CA", "postalCode": "N7M5K8", "twitter": "None", "instagram": "None", "facebook": "None", "youtube": "None", "website": "None", "summary": "None", "logo": "None", "latitude": 42.404613000000055, "longitude": -82.18960099999994}, "119278489RR0001": {"name": "UNITED WAY OF COLCHESTER COUNTY", "designationCode": "C", "categoryCode": "05", "address": "2 - 90 ESPLANADE ST", "city": "TRURO", "province": "NS", "country": "CA", "postalCode": "B2N2K3", "twitter": "None", "instagram": "None", "facebook": "None", "youtube": "None", "website": "None", "summary": "None", "logo": "None", "latitude": 45.362845856483524, "longitude": -63.27627593989851}, "119278117RR0001": {"name": "UNITED WAY OF CUMBERLAND COUNTY", "designationCode": "C", "categoryCode": "05", "address": "P.O. BOX 535", "city": "AMHERST", "province": "NS", "country": "CA", "postalCode": "B4H4A1", "twitter": "None", "instagram": "None", "facebook": "None", "youtube": "None", "website": "None", "summary": "None", "logo": "None", "latitude": 45.83198400000006, "longitude": -64.20979249999993}, "119278323RR0001": {"name": "UNITED WAY OF DURHAM REGION", "designationCode": "C", "categoryCode": "05", "address": "345 SIMCOE STREET SOUTH", "city": "OSHAWA", "province": "ON", "country": "CA", "postalCode": "L1H4J2", "twitter": "None", "instagram": "None", "facebook": "None", "youtube": "None", "website": "None", "summary": "None", "logo": "None", "latitude": 43.88846995060301, "longitude": -78.85939708739704}, "119278455RR0001": {"name": "UNITED WAY OF GREATER MONCTON AND SOUTHEASTERN NEW BRUNSWICK REGION INC.\\CENTRAIDE DE LA REGION DU GRAND MONCTON ET DU SUD EST DU NOUVEAU-NEW BRUNSWICK INC.", "designationCode": "A", "categoryCode": "03", "address": "T210-22 CHURCH STREET", "city": "MONCTON", "province": "NB", "country": "CA", "postalCode": "E1C0P7", "twitter": "None", "instagram": "None", "facebook": "None", "youtube": "None", "website": "None", "summary": "None", "logo": "None", "latitude": 46.089332999999996, "longitude": -64.77836624999999}, "119278190RR0001": {"name": "UNITED WAY OF GREATER SAINT JOHN INCORPORATED", "designationCode": "C", "categoryCode": "05", "address": "301 - 28 RICHMOND ST", "city": "SAINT JOHN", "province": "NB", "country": "CA", "postalCode": "E2L3B2", "twitter": "None", "instagram": "None", "facebook": "None", "youtube": "None", "website": "None", "summary": "None", "logo": "None", "latitude": 45.27753772103, "longitude": -66.05533101278604}, "119278216RR0001": {"name": "UNITED WAY OF GREATER TORONTO", "designationCode": "A", "categoryCode": "03", "address": "26 WELLINGTON STREET EAST     12TH FLOOR", "city": "TORONTO", "province": "ON", "country": "CA", "postalCode": "M5E1S2", "twitter": "None", "instagram": "None", "facebook": "None", "youtube": "None", "website": "None", "summary": "None", "logo": "None"}, "119278224RR0001": {"name": "UNITED WAY OF GREATER VICTORIA", "designationCode": "A", "categoryCode": "03", "address": "201 - 633 COURTNEY ST", "city": "VICTORIA", "province": "BC", "country": "CA", "postalCode": "V8W1B9", "twitter": "None", "instagram": "None", "facebook": "None", "youtube": "None", "website": "None", "summary": "None", "logo": "None", "latitude": 48.42334255395597, "longitude": -123.36641624868713}, "119278232RR0001": {"name": "UNITED WAY OF HALIFAX REGION", "designationCode": "A", "categoryCode": "05", "address": "7TH FLOOR                     46 PORTLAND STREET", "city": "HALIFAX", "province": "NS", "country": "CA", "postalCode": "B2Y1H4", "twitter": "None", "instagram": "None", "facebook": "None", "youtube": "None", "website": "None", "summary": "None", "logo": "None"}, "119278273RR0001": {"name": "UNITED WAY OF LEEDS AND GRENVILLE", "designationCode": "A", "categoryCode": "05", "address": "42 GEORGE STREET              P.O. BOX 576", "city": "BROCKVILLE", "province": "ON", "country": "CA", "postalCode": "K6V5V7", "twitter": "None", "instagram": "None", "facebook": "None", "youtube": "None", "website": "None", "summary": "None", "logo": "None", "latitude": 44.5890796125569, "longitude": -75.68733487789247}, "131582355RR0001": {"name": "UNITED WAY OF LETHBRIDGE & SOUTH WESTERN ALBERTA SOCIETY", "designationCode": "A", "categoryCode": "05", "address": "1277-3 AVE SOUTH", "city": "LETHBRIDGE", "province": "AB", "country": "CA", "postalCode": "T1J0K3", "twitter": "None", "instagram": "None", "facebook": "None", "youtube": "None", "website": "None", "summary": "None", "logo": "None", "latitude": 49.69652533477673, "longitude": -112.82514395078023}, "119260503RR0001": {"name": "UNITED WAY OF LONDON & MIDDLESEX", "designationCode": "A", "categoryCode": "05", "address": "409 KING ST", "city": "LONDON", "province": "ON", "country": "CA", "postalCode": "N6B1S5", "twitter": "None", "instagram": "None", "facebook": "None", "youtube": "None", "website": "None", "summary": "None", "logo": "None", "latitude": 42.98533110072725, "longitude": -81.23883493407014}, "862524485RR0001": {"name": "UNITED WAY OF LUNENBURG COUNTY", "designationCode": "A", "categoryCode": "03", "address": "215 DOMINION STREET, SUITE 102", "city": "BRIDGEWATER", "province": "NS", "country": "CA", "postalCode": "B4V2K7", "twitter": "None", "instagram": "None", "facebook": "None", "youtube": "None", "website": "None", "summary": "None", "logo": "None", "latitude": 44.37118726946184, "longitude": -64.52630832910197}, "119278307RR0001": {"name": "UNITED WAY OF MORDEN AND DISTRICT, INC", "designationCode": "A", "categoryCode": "03", "address": "P.O. BOX 758", "city": "MORDEN", "province": "MB", "country": "CA", "postalCode": "R6M1S6", "twitter": "None", "instagram": "None", "facebook": "None", "youtube": "None", "website": "None", "summary": "None", "logo": "None", "latitude": 49.18960500000006, "longitude": -98.10298699999993}, "853328672RR0001": {"name": "UNITED WAY OF NEWFOUNDLAND AND LABRADOR", "designationCode": "A", "categoryCode": "03", "address": "1D-39 PIPPY PLACE", "city": "ST. JOHN'S", "province": "NL", "country": "CA", "postalCode": "A1B3X2", "twitter": "None", "instagram": "None", "facebook": "None", "youtube": "None", "website": "None", "summary": "None", "logo": "None", "latitude": 47.55977837717132, "longitude": -52.77045294676517}, "119060911RR0001": {"name": "UNITED WAY OF NORTH OKANAGAN COLUMBIA SHUSWAP", "designationCode": "A", "categoryCode": "03", "address": "3304 30TH AVE", "city": "VERNON", "province": "BC", "country": "CA", "postalCode": "V1T2C8", "twitter": "None", "instagram": "None", "facebook": "None", "youtube": "None", "website": "None", "summary": "None", "logo": "None", "latitude": 50.263748488458816, "longitude": -119.2753527485429}, "122679699RR0001": {"name": "UNITED WAY OF NORTHERN BRITISH COLUMBIA", "designationCode": "C", "categoryCode": "03", "address": "1600 3RD AVE", "city": "PRINCE GEORGE", "province": "BC", "country": "CA", "postalCode": "V2L3G6", "twitter": "None", "instagram": "None", "facebook": "None", "youtube": "None", "website": "None", "summary": "None", "logo": "None", "latitude": 53.91866787050817, "longitude": -122.75158176464869}, "119303642RR0001": {"name": "UNITED WAY OF OXFORD", "designationCode": "A", "categoryCode": "03", "address": "447 HUNTER STREET", "city": "WOODSTOCK", "province": "ON", "country": "CA", "postalCode": "N4S4G7", "twitter": "None", "instagram": "None", "facebook": "None", "youtube": "None", "website": "None", "summary": "None", "logo": "None", "latitude": 43.13170027782904, "longitude": -80.75832616403139}, "119278414RR0001": {"name": "UNITED WAY OF PERTH-HURON", "designationCode": "A", "categoryCode": "05", "address": "32 ERIE ST", "city": "STRATFORD", "province": "ON", "country": "CA", "postalCode": "N5A2M4", "twitter": "None", "instagram": "None", "facebook": "None", "youtube": "None", "website": "None", "summary": "None", "logo": "None", "latitude": 43.37093845573887, "longitude": -80.9832668139245}, "105454482RR0001": {"name": "UNITED WAY OF PETERBOROUGH AND DISTRICT", "designationCode": "A", "categoryCode": "05", "address": "277 STEWART ST", "city": "PETERBOROUGH", "province": "ON", "country": "CA", "postalCode": "K9J3M8", "twitter": "None", "instagram": "None", "facebook": "None", "youtube": "None", "website": "None", "summary": "None", "logo": "None", "latitude": 44.301660956979646, "longitude": -78.32541112712785}, "119278356RR0001": {"name": "UNITED WAY OF PRINCE EDWARD ISLAND", "designationCode": "A", "categoryCode": "05", "address": "P.O. BOX 247                  180 KENT STREET,2ND FLOOR", "city": "CHARLOTTETOWN", "province": "PE", "country": "CA", "postalCode": "C1A7K4", "twitter": "None", "instagram": "None", "facebook": "None", "youtube": "None", "website": "None", "summary": "None", "logo": "None", "latitude": 46.236937883143916, "longitude": -63.1263973262451}, "119278372RR0001": {"name": "UNITED WAY OF REGINA", "designationCode": "A", "categoryCode": "05", "address": "1440 SCARTH STREET", "city": "REGINA", "province": "SK", "country": "CA", "postalCode": "S4R2E9", "twitter": "None", "instagram": "None", "facebook": "None", "youtube": "None", "website": "None", "summary": "None", "logo": "None", "latitude": 50.45581833527612, "longitude": -104.61088315684667}, "119278380RR0001": {"name": "UNITED WAY OF SARNIA-LAMBTON", "designationCode": "A", "categoryCode": "03", "address": "PO BOX 548", "city": "SARNIA", "province": "ON", "country": "CA", "postalCode": "N7T7J4", "twitter": "None", "instagram": "None", "facebook": "None", "youtube": "None", "website": "None", "summary": "None", "logo": "None", "latitude": 42.97877700000005, "longitude": -82.40368399999993}, "119276509RR0001": {"name": "UNITED WAY OF SASKATOON AND AREA", "designationCode": "A", "categoryCode": "05", "address": "100, 506-25TH STREET EAST", "city": "SASKATOON", "province": "SK", "country": "CA", "postalCode": "S7K4A7", "twitter": "None", "instagram": "None", "facebook": "None", "youtube": "None", "website": "None", "summary": "None", "logo": "None", "latitude": 52.1332218899879, "longitude": -106.66010199993282}, "108160300RR0001": {"name": "UNITED WAY OF SAULT STE MARIE AND DISTRICT", "designationCode": "A", "categoryCode": "05", "address": "7A OXFORD STREET", "city": "SAULT STE.MARIE", "province": "ON", "country": "CA", "postalCode": "P6B1R7", "twitter": "None", "instagram": "None", "facebook": "None", "youtube": "None", "website": "None", "summary": "None", "logo": "None", "latitude": 46.519908973409976, "longitude": -84.31925635421692}, "119278299RR0001": {"name": "UNITED WAY OF SOUTH EASTERN ALBERTA", "designationCode": "A", "categoryCode": "03", "address": "101-928 ALLOWANCE AVENUE SE", "city": "MEDICINE HAT", "province": "AB", "country": "CA", "postalCode": "T1A3G7", "twitter": "None", "instagram": "None", "facebook": "None", "youtube": "None", "website": "None", "summary": "None", "logo": "None", "latitude": 50.02949783819031, "longitude": -110.66440625160132}, "108160318RR0001": {"name": "UNITED WAY OF SOUTH NIAGARA", "designationCode": "A", "categoryCode": "05", "address": "800 NIAGARA ST", "city": "WELLAND", "province": "ON", "country": "CA", "postalCode": "L3C5Z4", "twitter": "None", "instagram": "None", "facebook": "None", "youtube": "None", "website": "None", "summary": "None", "logo": "None", "latitude": 43.01587465167412, "longitude": -79.2498161516741}, "119260487RR0001": {"name": "UNITED WAY OF THE ALBERTA CAPITAL REGION", "designationCode": "A", "categoryCode": "03", "address": "15132 STONY PLAIN ROAD", "city": "EDMONTON", "province": "AB", "country": "CA", "postalCode": "T5P3Y3", "twitter": "None", "instagram": "None", "facebook": "None", "youtube": "None", "website": "None", "summary": "None", "logo": "None", "latitude": 53.541313478792596, "longitude": -113.58281152553522}, "106887441RR0001": {"name": "UNITED WAY OF THE CENTRAL & SOUTH OKANAGAN/SIMILKAMEEN", "designationCode": "A", "categoryCode": "03", "address": "202-1456 ST. PAUL STREET", "city": "KELOWNA", "province": "BC", "country": "CA", "postalCode": "V1Y2E6", "twitter": "None", "instagram": "None", "facebook": "None", "youtube": "None", "website": "None", "summary": "None", "logo": "None"}, "108160185RR0001": {"name": "UNITED WAY OF THE LOWER MAINLAND", "designationCode": "A", "categoryCode": "03", "address": "4543 CANADA WAY", "city": "BURNABY", "province": "BC", "country": "CA", "postalCode": "V5G4T4", "twitter": "None", "instagram": "None", "facebook": "None", "youtube": "None", "website": "None", "summary": "None", "logo": "None", "latitude": 49.25472046378898, "longitude": -123.00163102553523}, "129820387RR0001": {"name": "UNITED WAY OF THUNDER BAY", "designationCode": "A", "categoryCode": "03", "address": "1006- 715 HEWITSON STREET", "city": "THUNDER BAY", "province": "ON", "country": "CA", "postalCode": "P7B6B5", "twitter": "None", "instagram": "None", "facebook": "None", "youtube": "None", "website": "None", "summary": "None", "logo": "None", "latitude": 48.40496246162458, "longitude": -89.25563471011017}, "119278471RR0001": {"name": "UNITED WAY OF TRAIL AND DISTRICT", "designationCode": "A", "categoryCode": "03", "address": "855 FARWELL STREET", "city": "TRAIL", "province": "BC", "country": "CA", "postalCode": "V1R3T9", "twitter": "None", "instagram": "None", "facebook": "None", "youtube": "None", "website": "None", "summary": "None", "logo": "None", "latitude": 49.09626989770227, "longitude": -117.71036339085313}, "119278513RR0001": {"name": "UNITED WAY OF WINNIPEG", "designationCode": "A", "categoryCode": "03", "address": "580 MAIN ST", "city": "WINNIPEG", "province": "MB", "country": "CA", "postalCode": "R3B1C7", "twitter": "None", "instagram": "None", "facebook": "None", "youtube": "None", "website": "None", "summary": "None", "logo": "None", "latitude": 49.90151937774824, "longitude": -97.13691035931079}, "119278133RR0001": {"name": "UNITED WAY WATERLOO REGION COMMUNITIES", "designationCode": "A", "categoryCode": "55", "address": "2 - 135 THOMPSON DR", "city": "CAMBRIDGE", "province": "ON", "country": "CA", "postalCode": "N1T2E4", "twitter": "None", "instagram": "None", "facebook": "None", "youtube": "None", "website": "None", "summary": "None", "logo": "None", "latitude": 43.40667616928285, "longitude": -80.29537884932748}, "108160011RR0001": {"name": "UNITED WAY/CENTRAIDE (CENTRAL N.B./REGION DU CENTRE DU N.B.) INC.", "designationCode": "A", "categoryCode": "05", "address": "1-385 WILSEY RD", "city": "FREDERICTON", "province": "NB", "country": "CA", "postalCode": "E3B5N6", "twitter": "None", "instagram": "None", "facebook": "None", "youtube": "None", "website": "None", "summary": "None", "logo": "None", "latitude": 45.91996098831772, "longitude": -66.61994486219359}, "894150671RR0001": {"name": "UNITED WE CAN", "designationCode": "C", "categoryCode": "59", "address": "449 INDUSTRIAL AVE", "city": "VANCOUVER", "province": "BC", "country": "CA", "postalCode": "V6A2P8", "twitter": "None", "instagram": "None", "facebook": "None", "youtube": "None", "website": "None", "summary": "None", "logo": "None", "latitude": 49.26938209314243, "longitude": -123.09452051587986}, "898125463RR0001": {"name": "UNITED WORLD MISSION OF CANADA, INC.", "designationCode": "C", "categoryCode": "39", "address": "PO BOX 54024", "city": "OSHAWA", "province": "ON", "country": "CA", "postalCode": "L1H1A0", "twitter": "None", "instagram": "None", "facebook": "None", "youtube": "None", "website": "None", "summary": "None", "logo": "None", "latitude": 43.993170000000134, "longitude": -78.89633384482988}, "119278711RR0001": {"name": "UNITY + DISTRICT HERITAGE MUSEUM", "designationCode": "C", "categoryCode": "50", "address": "PO BOX 852", "city": "UNITY", "province": "SK", "country": "CA", "postalCode": "S0K4L0", "twitter": "None", "instagram": "None", "facebook": "None", "youtube": "None", "website": "None", "summary": "None", "logo": "None", "latitude": 52.437110000000075, "longitude": -109.14557999999994}, "888910866RR0001": {"name": "UNITY & DISTRICT FOOD BANK INC.", "designationCode": "C", "categoryCode": "01", "address": "P.O. BOX 789", "city": "UNITY", "province": "SK", "country": "CA", "postalCode": "S0K4L0", "twitter": "None", "instagram": "None", "facebook": "None", "youtube": "None", "website": "None", "summary": "None", "logo": "None", "latitude": 52.437110000000075, "longitude": -109.14557999999994}, "882794613RR0001": {"name": "UNITY & DISTRICT SENIORS' LODGE PROJECT INC.", "designationCode": "C", "categoryCode": "09", "address": "BOX 477", "city": "UNITY", "province": "SK", "country": "CA", "postalCode": "S0K4L0", "twitter": "None", "instagram": "None", "facebook": "None", "youtube": "None", "website": "None", "summary": "None", "logo": "None", "latitude": 52.437110000000075, "longitude": -109.14557999999994}, "119278588RR0001": {"name": "UNITY AGRICULTURAL SOCIETY INC", "designationCode": "C", "categoryCode": "56", "address": "BOX 1553", "city": "UNITY", "province": "SK", "country": "CA", "postalCode": "S0K4L0", "twitter": "None", "instagram": "None", "facebook": "None", "youtube": "None", "website": "None", "summary": "None", "logo": "None", "latitude": 52.437110000000075, "longitude": -109.14557999999994}, "108160417RR0001": {"name": "UNITY BAPTIST CHURCH", "designationCode": "C", "categoryCode": "31", "address": "BOX 112", "city": "UNITY", "province": "SK", "country": "CA", "postalCode": "S0K4L0", "twitter": "None", "instagram": "None", "facebook": "None", "youtube": "None", "website": "None", "summary": "None", "logo": "None", "latitude": 52.437110000000075, "longitude": -109.14557999999994}, "108160425RR0001": {"name": "UNITY BAPTIST CHURCH OF RED DEER, ALBERTA", "designationCode": "C", "categoryCode": "31", "address": "139 NORTHEY AVE", "city": "RED DEER", "province": "AB", "country": "CA", "postalCode": "T4P2C7", "twitter": "None", "instagram": "None", "facebook": "None", "youtube": "None", "website": "None", "summary": "None", "logo": "None", "latitude": 52.299153251457085, "longitude": -113.82579806073664}, "119278604RR0001": {"name": "UNITY BRANCH OF SASKATCHEWAN HEALTH CARE AUXILIARY", "designationCode": "A", "categoryCode": "19", "address": "PO BOX 523", "city": "UNITY", "province": "SK", "country": "CA", "postalCode": "S0K4L0", "twitter": "None", "instagram": "None", "facebook": "None", "youtube": "None", "website": "None", "summary": "None", "logo": "None", "latitude": 52.437110000000075, "longitude": -109.14557999999994}, "108160441RR0001": {"name": "UNITY CENTRE OF PRACTICAL CHRISTIANITY", "designationCode": "C", "categoryCode": "39", "address": "2631 KINGSWAY DRIVE", "city": "KITCHENER", "province": "ON", "country": "CA", "postalCode": "N2C1A7", "twitter": "None", "instagram": "None", "facebook": "None", "youtube": "None", "website": "None", "summary": "None", "logo": "None", "latitude": 43.43217218454629, "longitude": -80.44515145519063}, "108160458RR0001": {"name": "UNITY CENTRE OF PRACTICAL CHRISTIANITY", "designationCode": "C", "categoryCode": "39", "address": "5840 OAK STREET", "city": "VANCOUVER", "province": "BC", "country": "CA", "postalCode": "V6M2V9", "twitter": "None", "instagram": "None", "facebook": "None", "youtube": "None", "website": "None", "summary": "None", "logo": "None", "latitude": 49.23242029808415, "longitude": -123.12810197276268}, "889832309RR0001": {"name": "UNITY CHURCH & CEMETERY", "designationCode": "C", "categoryCode": "39", "address": "502 BAPTIST CHURCH ROAD", "city": "CALEDONIA", "province": "ON", "country": "CA", "postalCode": "N3W2G9", "twitter": "None", "instagram": "None", "facebook": "None", "youtube": "None", "website": "None", "summary": "None", "logo": "None", "latitude": 43.122715593426996, "longitude": -80.01529300233727}, "108160466RR0001": {"name": "UNITY CHURCH OF AGAPE, TORONTO", "designationCode": "C", "categoryCode": "39", "address": "7 ELMRIDGE ACRES ROAD", "city": "THORNHILL", "province": "ON", "country": "CA", "postalCode": "L3T1W2", "twitter": "None", "instagram": "None", "facebook": "None", "youtube": "None", "website": "None", "summary": "None", "logo": "None", "latitude": 43.81536571827582, "longitude": -79.40116898528481}, "869365148RR0001": {"name": "UNITY CHURCH OF CALGARY", "designationCode": "C", "categoryCode": "39", "address": "2035 26A ST SW", "city": "CALGARY", "province": "AB", "country": "CA", "postalCode": "T3E2B9", "twitter": "None", "instagram": "None", "facebook": "None", "youtube": "None", "website": "None", "summary": "None", "logo": "None", "latitude": 51.03597267255627, "longitude": -114.12533126795276}}