{"130842099RR0001": {"name": "THE VILLAGE SHUL AND LEARNING CENTER OF TORONTO", "designationCode": "C", "categoryCode": "42", "address": "1072 EGLINTON AVE W", "city": "TORONTO", "province": "ON", "country": "CA", "postalCode": "M6C2E2", "twitter": "None", "instagram": "None", "facebook": "None", "youtube": "None", "website": "None", "summary": "None", "logo": "None", "latitude": 43.699783157943195, "longitude": -79.43128581294354}, "119261725RR0001": {"name": "THE VILNA AND DISTRICT AGRICULTURAL SOCIETY", "designationCode": "C", "categoryCode": "56", "address": "BOX 440", "city": "VILNA", "province": "AB", "country": "CA", "postalCode": "T0A3L0", "twitter": "None", "instagram": "None", "facebook": "None", "youtube": "None", "website": "None", "summary": "None", "logo": "None", "latitude": 54.11403000000007, "longitude": -111.91908999999998}, "848016523RR0001": {"name": "THE VIMY FOUNDATION/LA FONDATION VIMY", "designationCode": "C", "categoryCode": "21", "address": "726-1470 RUE PEEL", "city": "MONTR\u00c9AL", "province": "QC", "country": "CA", "postalCode": "H3A1T1", "twitter": "None", "instagram": "None", "facebook": "None", "youtube": "None", "website": "None", "summary": "None", "logo": "None", "latitude": 45.50063692449085, "longitude": -73.57431405510981}, "119261733RR0001": {"name": "THE VINE AND BRANCH FOUNDATION", "designationCode": "B", "categoryCode": "47", "address": "15080 NORTH BLUFF ROAD", "city": "WHITE ROCK", "province": "BC", "country": "CA", "postalCode": "V4B5C1", "twitter": "None", "instagram": "None", "facebook": "None", "youtube": "None", "website": "None", "summary": "None", "logo": "None", "latitude": 49.03103087664165, "longitude": -122.80431437664166}, "862298395RR0001": {"name": "THE VINE CAMPUS MINISTRY", "designationCode": "C", "categoryCode": "39", "address": "2535 ROBIE STREET", "city": "HALIFAX", "province": "NS", "country": "CA", "postalCode": "B3K4N3", "twitter": "None", "instagram": "None", "facebook": "None", "youtube": "None", "website": "None", "summary": "None", "logo": "None", "latitude": 44.65369869109581, "longitude": -63.5940022123032}, "139789788RR0001": {"name": "THE VINEYARD CHRISTIAN FELLOWSHIP OF TORONTO / DOWNTOWN", "designationCode": "C", "categoryCode": "39", "address": "6 EDNA AVENUE", "city": "TORONTO", "province": "ON", "country": "CA", "postalCode": "M6P1B5", "twitter": "None", "instagram": "None", "facebook": "None", "youtube": "None", "website": "None", "summary": "None", "logo": "None", "latitude": 43.65718016515656, "longitude": -79.45320717805407}, "119261766RR0001": {"name": "THE VINEYARD CHRISTIAN FELLOWSHIP-WINDSOR", "designationCode": "C", "categoryCode": "39", "address": "1650 HOWARD AVE", "city": "WINDSOR", "province": "ON", "country": "CA", "postalCode": "N8X3T7", "twitter": "None", "instagram": "None", "facebook": "None", "youtube": "None", "website": "None", "summary": "None", "logo": "None", "latitude": 42.299506014455375, "longitude": -83.01799445885555}, "108103540RR0001": {"name": "THE VINTAGE LOCOMOTIVE SOCIETY INC.", "designationCode": "C", "categoryCode": "59", "address": "P.O. BOX 33021 RPO POLO PARK", "city": "WINNIPEG", "province": "MB", "country": "CA", "postalCode": "R3G3N4", "twitter": "None", "instagram": "None", "facebook": "None", "youtube": "None", "website": "None", "summary": "None", "logo": "None", "latitude": 49.886420000000044, "longitude": -97.19825999999995}, "131848525RR0001": {"name": "THE VIRDEN AREA FOUNDATION INC.", "designationCode": "A", "categoryCode": "59", "address": "362 WELLINGTON ST. W.         P O BOX 2319", "city": "VIRDEN", "province": "MB", "country": "CA", "postalCode": "R0M2C0", "twitter": "None", "instagram": "None", "facebook": "None", "youtube": "None", "website": "None", "summary": "None", "logo": "None", "latitude": 49.848380656034635, "longitude": -100.9334563471813}, "119261774RR0001": {"name": "THE VIRDEN CEMETERY IMPROVEMENT ASSOCIATION", "designationCode": "C", "categoryCode": "59", "address": "BOX 310", "city": "VIRDEN", "province": "MB", "country": "CA", "postalCode": "R0M2C0", "twitter": "None", "instagram": "None", "facebook": "None", "youtube": "None", "website": "None", "summary": "None", "logo": "None", "latitude": 49.85688000000005, "longitude": -100.92262999999997}, "889818241RR0001": {"name": "THE VIRDEN DONOR'S CHOICE", "designationCode": "A", "categoryCode": "05", "address": "BOX 922", "city": "VIRDEN", "province": "MB", "country": "CA", "postalCode": "R0M2C0", "twitter": "None", "instagram": "None", "facebook": "None", "youtube": "None", "website": "None", "summary": "None", "logo": "None", "latitude": 49.85688000000005, "longitude": -100.92262999999997}, "803693142RR0001": {"name": "THE VIRMANI FAMILY CHARITABLE FOUNDATION", "designationCode": "B", "categoryCode": "03", "address": "37 COLONIAL CRESCENT", "city": "OAKVILLE", "province": "ON", "country": "CA", "postalCode": "L6J4K8", "twitter": "None", "instagram": "None", "facebook": "None", "youtube": "None", "website": "None", "summary": "None", "logo": "None", "latitude": 43.46011668053557, "longitude": -79.64945011099903}, "867070849RR0001": {"name": "THE VIRTUAL STAGE ARTS SOCIETY", "designationCode": "C", "categoryCode": "22", "address": "P.O. BOX 21524                1424 COMMERCIAL DRIVE", "city": "VANCOUVER", "province": "BC", "country": "CA", "postalCode": "V5L5G2", "twitter": "None", "instagram": "None", "facebook": "None", "youtube": "None", "website": "None", "summary": "None", "logo": "None", "latitude": 49.271858533335184, "longitude": -123.06953653292588}, "894806710RR0001": {"name": "THE VIRTUE FOUNDATION", "designationCode": "C", "categoryCode": "56", "address": "#208-179 DAVIE STREET", "city": "VANCOUVER", "province": "BC", "country": "CA", "postalCode": "V6Z2Y1", "twitter": "None", "instagram": "None", "facebook": "None", "youtube": "None", "website": "None", "summary": "None", "logo": "None", "latitude": 49.273689209424546, "longitude": -123.1207134418849}, "893242669RR0001": {"name": "THE VISUAL ARTS CENTRE OF CLARINGTON", "designationCode": "C", "categoryCode": "22", "address": "PO BOX 52 STN MAIN            143 SIMPSON AVE", "city": "BOWMANVILLE", "province": "ON", "country": "CA", "postalCode": "L1C3K8", "twitter": "None", "instagram": "None", "facebook": "None", "youtube": "None", "website": "None", "summary": "None", "logo": "None", "latitude": 43.904354373593286, "longitude": -78.671871498125}, "839742368RR0001": {"name": "THE VITA CHILDREN'S FOUNDATION", "designationCode": "B", "categoryCode": "03", "address": "4595 BLVD COUTURE", "city": "MONTREAL", "province": "QC", "country": "CA", "postalCode": "H1R3R9", "twitter": "None", "instagram": "None", "facebook": "None", "youtube": "None", "website": "None", "summary": "None", "logo": "None", "latitude": 45.58494212213619, "longitude": -73.61764084543235}, "124239054RR0001": {"name": "THE VITANOVA FOUNDATION", "designationCode": "C", "categoryCode": "57", "address": "6299 RUTHERFORD RD", "city": "WOODBRIDGE", "province": "ON", "country": "CA", "postalCode": "L4L1A7", "twitter": "None", "instagram": "None", "facebook": "None", "youtube": "None", "website": "None", "summary": "None", "logo": "None", "latitude": 43.807764854175836, "longitude": -79.63959689448356}, "882722580RR0001": {"name": "THE VITTORIA & DISTRICT FOUNDATION", "designationCode": "A", "categoryCode": "05", "address": "P.O. BOX 45", "city": "VITTORIA", "province": "ON", "country": "CA", "postalCode": "N0E1W0", "twitter": "None", "instagram": "None", "facebook": "None", "youtube": "None", "website": "None", "summary": "None", "logo": "None", "latitude": 42.771104716832504, "longitude": -80.30081960993185}, "864166533RR0001": {"name": "THE VOBOC FOUNDATION / LA FONDATION VOBOC", "designationCode": "C", "categoryCode": "11", "address": "269 BOUL. ST-JEAN             SUITE 215", "city": "POINTE-CLAIRE", "province": "QC", "country": "CA", "postalCode": "H9R3J1", "twitter": "None", "instagram": "None", "facebook": "None", "youtube": "None", "website": "None", "summary": "None", "logo": "None", "latitude": 45.44565532542544, "longitude": -73.81632278783424}, "866675242RR0001": {"name": "THE VOGELZANG CHARITABLE FOUNDATION", "designationCode": "B", "categoryCode": "03", "address": "RR 1                          BOX 160", "city": "SEELEY'S BAY", "province": "ON", "country": "CA", "postalCode": "K0H2N0", "twitter": "None", "instagram": "None", "facebook": "None", "youtube": "None", "website": "None", "summary": "None", "logo": "None", "latitude": 44.47601045333105, "longitude": -76.236505414248}, "119261857RR0001": {"name": "THE VOICE OF HEALING MINISTRIES", "designationCode": "C", "categoryCode": "39", "address": "7869 HIGHWAY #3", "city": "DUNNVILLE", "province": "ON", "country": "CA", "postalCode": "N1A2W4", "twitter": "None", "instagram": "None", "facebook": "None", "youtube": "None", "website": "None", "summary": "None", "logo": "None", "latitude": 42.94030228614449, "longitude": -79.66556689675528}, "838152809RR0001": {"name": "THE VOICE OF ORPHANS CANADA", "designationCode": "C", "categoryCode": "09", "address": "624 VICTORIA STREET SOUTH", "city": "KITCHENER", "province": "ON", "country": "CA", "postalCode": "N2M3B1", "twitter": "None", "instagram": "None", "facebook": "None", "youtube": "None", "website": "None", "summary": "None", "logo": "None", "latitude": 43.440379720526174, "longitude": -80.51841038149914}, "863297057RR0001": {"name": "THE VOICE OF PENTECOST CHURCH", "designationCode": "C", "categoryCode": "39", "address": "538 MIDNIGHT DR", "city": "WILLIAMS LAKE", "province": "BC", "country": "CA", "postalCode": "V2G4E3", "twitter": "None", "instagram": "None", "facebook": "None", "youtube": "None", "website": "None", "summary": "None", "logo": "None", "latitude": 52.14921196280801, "longitude": -122.15750785547391}, "867096166RR0001": {"name": "THE VOICE OF REVIVAL", "designationCode": "C", "categoryCode": "47", "address": "60 YOEMANS RD.", "city": "MILLBROOK", "province": "NB", "country": "CA", "postalCode": "E4E3W1", "twitter": "None", "instagram": "None", "facebook": "None", "youtube": "None", "website": "None", "summary": "None", "logo": "None", "latitude": 45.66255900000006, "longitude": -65.36431249999994}, "107534307RR0001": {"name": "THE VOICE OF THE MARTYRS INC.", "designationCode": "C", "categoryCode": "47", "address": "PO BOX 608", "city": "STREETSVILLE", "province": "ON", "country": "CA", "postalCode": "L5M2C1", "twitter": "None", "instagram": "None", "facebook": "None", "youtube": "None", "website": "None", "summary": "None", "logo": "None", "latitude": 43.580620062179015, "longitude": -79.71223998499634}, "108103607RR0001": {"name": "THE VOLUNTARY ACTION CENTRE OF HAMILTON AND DISTRICT INC.", "designationCode": "C", "categoryCode": "59", "address": "20 - 140 KING ST E", "city": "HAMILTON", "province": "ON", "country": "CA", "postalCode": "L8N1B2", "twitter": "None", "instagram": "None", "facebook": "None", "youtube": "None", "website": "None", "summary": "None", "logo": "None", "latitude": 43.2552723122224, "longitude": -79.86489240703436}, "119261881RR0001": {"name": "THE VOLUNTEER ASSOCIATION OF MACASSA LODGE", "designationCode": "C", "categoryCode": "19", "address": "701 UPPER SHERMAN AVENUE", "city": "HAMILTON", "province": "ON", "country": "CA", "postalCode": "L8V3M7", "twitter": "None", "instagram": "None", "facebook": "None", "youtube": "None", "website": "None", "summary": "None", "logo": "None", "latitude": 43.226121940042745, "longitude": -79.84985907920273}, "891826968RR0001": {"name": "THE VOLUNTEER CENTRE OF ST. LAWRENCE-RIDEAU", "designationCode": "C", "categoryCode": "59", "address": "PO BOX 191 LCD MAIN", "city": "BROCKVILLE", "province": "ON", "country": "CA", "postalCode": "K6V5V2", "twitter": "None", "instagram": "None", "facebook": "None", "youtube": "None", "website": "None", "summary": "None", "logo": "None", "latitude": 44.59037100000006, "longitude": -75.68301049999994}, "858013030RR0001": {"name": "THE VOLUNTEER COMMITTEE OF THE GRIMSBY PUBLIC ART GALLERY", "designationCode": "A", "categoryCode": "23", "address": "18 CARNEGIE LANE", "city": "GRIMSBY", "province": "ON", "country": "CA", "postalCode": "L3M1Y1", "twitter": "None", "instagram": "None", "facebook": "None", "youtube": "None", "website": "None", "summary": "None", "logo": "None", "latitude": 43.19572423754998, "longitude": -79.55913408024101}, "888710845RR0001": {"name": "THE VOLUNTEER COMMITTEE OF THE LONDON REGIONAL ART GALLERY", "designationCode": "C", "categoryCode": "22", "address": "171 SUNNYSIDE DRIVE", "city": "LONDON", "province": "ON", "country": "CA", "postalCode": "N5X3P7", "twitter": "None", "instagram": "None", "facebook": "None", "youtube": "None", "website": "None", "summary": "None", "logo": "None", "latitude": 43.02266608630053, "longitude": -81.26760492685678}, "122275068RR0001": {"name": "THE VOLUNTEER PROGRAMS ASSOCIATION - FORT SASKATCHEWAN", "designationCode": "C", "categoryCode": "09", "address": "BOX 3188 STATION MAIN 10004-103 ST.", "city": "FORT SASKATCHEWAN", "province": "AB", "country": "CA", "postalCode": "T8L2E2", "twitter": "None", "instagram": "None", "facebook": "None", "youtube": "None", "website": "None", "summary": "None", "logo": "None", "latitude": 53.71316505522539, "longitude": -113.21298652541965}, "885922518RR0001": {"name": "THE VOORTMAN FOUNDATION", "designationCode": "B", "categoryCode": "03", "address": "1034 CONRAD COURT", "city": "BURLINGTON", "province": "ON", "country": "CA", "postalCode": "L7T3E4", "twitter": "None", "instagram": "None", "facebook": "None", "youtube": "None", "website": "None", "summary": "None", "logo": "None", "latitude": 43.31874249151723, "longitude": -79.83935103300838}, "119261923RR0001": {"name": "THE VOYAGEUR TRAIL ASSOCIATION", "designationCode": "C", "categoryCode": "56", "address": "P.O. BOX 20040                150 CHURCHILL BLVD.", "city": "SAULT STE MARIE", "province": "ON", "country": "CA", "postalCode": "P6A6W3", "twitter": "None", "instagram": "None", "facebook": "None", "youtube": "None", "website": "None", "summary": "None", "logo": "None", "latitude": 46.50847931183665, "longitude": -84.29842301122001}, "867992539RR0001": {"name": "THE VYSNIAUSKAS FAMILY FOUNDATION", "designationCode": "B", "categoryCode": "03", "address": "242004 RANGE ROAD 32", "city": "CALGARY", "province": "AB", "country": "CA", "postalCode": "T3Z3L4", "twitter": "None", "instagram": "None", "facebook": "None", "youtube": "None", "website": "None", "summary": "None", "logo": "None", "latitude": 51.036666557879784, "longitude": -114.32168957193113}, "119262343RR0001": {"name": "THE W G MORROW SCHOLARSHIP FUND", "designationCode": "C", "categoryCode": "21", "address": "130 KING STREET WEST, 20TH FLOBOX 430 STN FIRST CANADIAN PL", "city": "TORONTO", "province": "ON", "country": "CA", "postalCode": "M5X1K1", "twitter": "None", "instagram": "None", "facebook": "None", "youtube": "None", "website": "None", "summary": "None", "logo": "None", "latitude": 43.64868300000006, "longitude": -79.38544399999994}, "891729170RR0001": {"name": "THE W H & S E LOEWEN FOUNDATION INC", "designationCode": "B", "categoryCode": "03", "address": "118 LENORE STREET", "city": "WINNIPEG", "province": "MB", "country": "CA", "postalCode": "R3G2C3", "twitter": "None", "instagram": "None", "facebook": "None", "youtube": "None", "website": "None", "summary": "None", "logo": "None", "latitude": 49.88103425728548, "longitude": -97.17180455900495}, "889330064RR0001": {"name": "THE W H BILL SCRIVENS MEMORIAL FUND FOR YOUTH MINISTRY", "designationCode": "A", "categoryCode": "49", "address": "6 EPWORTH AVE", "city": "OTTAWA", "province": "ON", "country": "CA", "postalCode": "K2G2L5", "twitter": "None", "instagram": "None", "facebook": "None", "youtube": "None", "website": "None", "summary": "None", "logo": "None", "latitude": 45.35199758863781, "longitude": -75.74027324837002}, "119262376RR0001": {"name": "THE W H TIDMARSH FOUNDATION", "designationCode": "C", "categoryCode": "01", "address": "15 VILLA AVENUE", "city": "CHARLOTTETOWN", "province": "PE", "country": "CA", "postalCode": "C1A2A7", "twitter": "None", "instagram": "None", "facebook": "None", "youtube": "None", "website": "None", "summary": "None", "logo": "None", "latitude": 46.234641363033056, "longitude": -63.13914521732353}, "891377947RR0001": {"name": "THE W P WILDER FOUNDATION", "designationCode": "B", "categoryCode": "23", "address": "1201 25 SCRIVENER SQ", "city": "TORONTO", "province": "ON", "country": "CA", "postalCode": "M4W3Y6", "twitter": "None", "instagram": "None", "facebook": "None", "youtube": "None", "website": "None", "summary": "None", "logo": "None", "latitude": 43.680631777136554, "longitude": -79.38978788020107}, "119263077RR0001": {"name": "THE W S LOGGIE CULTURAL CENTRE", "designationCode": "C", "categoryCode": "55", "address": "222 WELLINGTON STREET", "city": "MIRAMICHI", "province": "NB", "country": "CA", "postalCode": "E1N1M9", "twitter": "None", "instagram": "None", "facebook": "None", "youtube": "None", "website": "None", "summary": "None", "logo": "None", "latitude": 47.03201817009091, "longitude": -65.46342673876207}, "119262186RR0001": {"name": "THE W. B. WELLS HERITAGE FOUNDATION", "designationCode": "B", "categoryCode": "53", "address": "PO BOX 976 STN MAIN", "city": "AMHERST", "province": "NS", "country": "CA", "postalCode": "B4H4E1", "twitter": "None", "instagram": "None", "facebook": "None", "youtube": "None", "website": "None", "summary": "None", "logo": "None", "latitude": 45.83198400000006, "longitude": -64.20979249999993}, "889015194RR0001": {"name": "THE W. GARFIELD WESTON FOUNDATION", "designationCode": "B", "categoryCode": "03", "address": "22 ST.CLAIR AVE E, SUITE 1400", "city": "TORONTO", "province": "ON", "country": "CA", "postalCode": "M4T2S5", "twitter": "None", "instagram": "None", "facebook": "None", "youtube": "None", "website": "None", "summary": "None", "logo": "None", "latitude": 43.688336132408, "longitude": -79.39301839967676}, "119263044RR0001": {"name": "THE W. P. SCOTT CHARITABLE FOUNDATION", "designationCode": "B", "categoryCode": "03", "address": "58 BELMONT AVE", "city": "OTTAWA", "province": "ON", "country": "CA", "postalCode": "K1S0V1", "twitter": "None", "instagram": "None", "facebook": "None", "youtube": "None", "website": "None", "summary": "None", "logo": "None", "latitude": 45.39519565860704, "longitude": -75.67604082263841}, "857337448RR0001": {"name": "THE W.A.U. NICOLL ROBERTSON CHARITABLE FOUNDATION TRUST", "designationCode": "B", "categoryCode": "03", "address": "510. W HASTINGS ST SUITE 1201 THE STANDARD BUILDING", "city": "VANCOUVER", "province": "BC", "country": "CA", "postalCode": "V6B1L8", "twitter": "None", "instagram": "None", "facebook": "None", "youtube": "None", "website": "None", "summary": "None", "logo": "None", "latitude": 49.28416167554392, "longitude": -123.11212684860634}, "106914823RR0001": {"name": "THE WABASCA/DESMARAIS CHILDREN'S PLACE PLAYSCHOOL ASSOCIATION", "designationCode": "C", "categoryCode": "20", "address": "PO BOX 59", "city": "WABASCA", "province": "AB", "country": "CA", "postalCode": "T0G2K0", "twitter": "None", "instagram": "None", "facebook": "None", "youtube": "None", "website": "None", "summary": "None", "logo": "None", "latitude": 55.987460000000056, "longitude": -113.91912999999994}, "888648177RR0001": {"name": "THE WABIKON FOUNDATION", "designationCode": "C", "categoryCode": "21", "address": "48 DELHI AVENUE", "city": "TORONTO", "province": "ON", "country": "CA", "postalCode": "M5M3B7", "twitter": "None", "instagram": "None", "facebook": "None", "youtube": "None", "website": "None", "summary": "None", "logo": "None", "latitude": 43.74254946047075, "longitude": -79.42052757646144}, "888784816RR0001": {"name": "THE WAGEMAKERS FOUNDATION", "designationCode": "B", "categoryCode": "03", "address": "202, 600 PRINCETON WAY SW", "city": "CALGARY", "province": "AB", "country": "CA", "postalCode": "T2P5N4", "twitter": "None", "instagram": "None", "facebook": "None", "youtube": "None", "website": "None", "summary": "None", "logo": "None", "latitude": 51.05255252207278, "longitude": -114.07394263627445}, "119261972RR0001": {"name": "THE WALDINE TRUST", "designationCode": "C", "categoryCode": "39", "address": "546 OAKDALE DRIVE", "city": "WINNIPEG", "province": "MB", "country": "CA", "postalCode": "R3R1A1", "twitter": "None", "instagram": "None", "facebook": "None", "youtube": "None", "website": "None", "summary": "None", "logo": "None", "latitude": 49.857587622540244, "longitude": -97.27092424709967}, "119261980RR0001": {"name": "THE WALES HOME", "designationCode": "C", "categoryCode": "01", "address": "506 ROUTE 243", "city": "RICHMOND", "province": "QC", "country": "CA", "postalCode": "J0B2H0", "twitter": "None", "instagram": "None", "facebook": "None", "youtube": "None", "website": "None", "summary": "None", "logo": "None", "latitude": 45.666689361038614, "longitude": -72.14715179512983}, "119261998RR0001": {"name": "THE WALKER LYNCH FOUNDATION", "designationCode": "B", "categoryCode": "03", "address": "72 RAILSIDE ROAD", "city": "DON MILLS", "province": "ON", "country": "CA", "postalCode": "M3A1A3", "twitter": "None", "instagram": "None", "facebook": "None", "youtube": "None", "website": "None", "summary": "None", "logo": "None", "latitude": 43.737436338911486, "longitude": -79.3228331799004}, "131216988RR0001": {"name": "THE WALKERTON AGRICULTURAL SOCIETY", "designationCode": "C", "categoryCode": "56", "address": "BOX 1497", "city": "WALKERTON", "province": "ON", "country": "CA", "postalCode": "N0G2V0", "twitter": "None", "instagram": "None", "facebook": "None", "youtube": "None", "website": "None", "summary": "None", "logo": "None", "latitude": 44.12817000000007, "longitude": -81.15211999999997}, "119262004RR0001": {"name": "THE WALLACE BAY CEMETERIES ASSOCIATION", "designationCode": "C", "categoryCode": "59", "address": "960 NORTH WALLACE RD", "city": "NORTH WALLACE BAY", "province": "NS", "country": "CA", "postalCode": "B0K1L0", "twitter": "None", "instagram": "None", "facebook": "None", "youtube": "None", "website": "None", "summary": "None", "logo": "None", "latitude": 45.8380592345202, "longitude": -63.563456219632144}, "119262012RR0001": {"name": "THE WALLACE CEMETERY COMPANY", "designationCode": "C", "categoryCode": "59", "address": "P.O. BOX 225", "city": "WALLACE", "province": "NS", "country": "CA", "postalCode": "B0K1Y0", "twitter": "None", "instagram": "None", "facebook": "None", "youtube": "None", "website": "None", "summary": "None", "logo": "None", "latitude": 45.52877866223628, "longitude": -62.73566833776373}, "890022775RR0001": {"name": "THE WALPOLE ISLAND EVANGELISTIC CENTRE", "designationCode": "C", "categoryCode": "39", "address": "156 DAN SHAB RD               RR 3", "city": "WALLACEBURG", "province": "ON", "country": "CA", "postalCode": "N8A4K9", "twitter": "None", "instagram": "None", "facebook": "None", "youtube": "None", "website": "None", "summary": "None", "logo": "None", "latitude": 42.59188500000006, "longitude": -82.47018499999993}, "861851624RR0001": {"name": "THE WALRUS FOUNDATION", "designationCode": "C", "categoryCode": "21", "address": "15B - 411 RICHMOND ST E", "city": "TORONTO", "province": "ON", "country": "CA", "postalCode": "M5A3S5", "twitter": "None", "instagram": "None", "facebook": "None", "youtube": "None", "website": "None", "summary": "None", "logo": "None", "latitude": 43.6538198892321, "longitude": -79.36691630070987}, "877551812RR0001": {"name": "THE WALT FAMILY FOUNDATION", "designationCode": "B", "categoryCode": "03", "address": "92 OLD COLONY ROAD", "city": "TORONTO", "province": "ON", "country": "CA", "postalCode": "M2L2K2", "twitter": "None", "instagram": "None", "facebook": "None", "youtube": "None", "website": "None", "summary": "None", "logo": "None", "latitude": 43.75895515072983, "longitude": -79.37698889676258}, "119262038RR0001": {"name": "THE WALTER J BLACKBURN FOUNDATION", "designationCode": "B", "categoryCode": "23", "address": "102-700 RICHMOND ST", "city": "LONDON", "province": "ON", "country": "CA", "postalCode": "N6A5C7", "twitter": "None", "instagram": "None", "facebook": "None", "youtube": "None", "website": "None", "summary": "None", "logo": "None", "latitude": 42.99403521954524, "longitude": -81.25239318829719}, "871456422RR0001": {"name": "THE WALTER KEMP SINGERS SOCIETY", "designationCode": "C", "categoryCode": "22", "address": "PO BOX 997", "city": "HALIFAX", "province": "NS", "country": "CA", "postalCode": "B3J2X2", "twitter": "None", "instagram": "None", "facebook": "None", "youtube": "None", "website": "None", "summary": "None", "logo": "None", "latitude": 44.645478000000054, "longitude": -63.576552499999934}, "863604955RR0001": {"name": "THE WALTONS TRUST", "designationCode": "B", "categoryCode": "25", "address": "VINEBERG LLP                  155 WELLINGTON STREET WEST", "city": "TORONTO", "province": "ON", "country": "CA", "postalCode": "M5V3J7", "twitter": "None", "instagram": "None", "facebook": "None", "youtube": "None", "website": "None", "summary": "None", "logo": "None", "latitude": 43.64596585316531, "longitude": -79.38574575644876}, "131353435RR0001": {"name": "THE WANDERING RIVER AGRICULTURAL SOCIETY", "designationCode": "C", "categoryCode": "56", "address": "BOX 9", "city": "WANDERING RIVER", "province": "AB", "country": "CA", "postalCode": "T0A3M0", "twitter": "None", "instagram": "None", "facebook": "None", "youtube": "None", "website": "None", "summary": "None", "logo": "None", "latitude": 33.563492891034954, "longitude": -117.59430663574983}, "131969628RR0001": {"name": "THE WAR AMPUTATIONS OF CANADA", "designationCode": "C", "categoryCode": "09", "address": "2827 RIVERSIDE DR", "city": "OTTAWA", "province": "ON", "country": "CA", "postalCode": "K1V0C4", "twitter": "None", "instagram": "None", "facebook": "None", "youtube": "None", "website": "None", "summary": "None", "logo": "None", "latitude": 45.37196854614917, "longitude": -75.69064374591746}, "119262061RR0001": {"name": "THE WARNER AND DISTRICT AGRICULTURAL SOCIETY", "designationCode": "C", "categoryCode": "56", "address": "PO BOX 431", "city": "WARNER", "province": "AB", "country": "CA", "postalCode": "T0K2L0", "twitter": "None", "instagram": "None", "facebook": "None", "youtube": "None", "website": "None", "summary": "None", "logo": "None", "latitude": 49.283300000000054, "longitude": -112.20177999999999}, "887497923RR0001": {"name": "THE WARREN AND DEBBIE KIMEL FAMILY FOUNDATION", "designationCode": "B", "categoryCode": "03", "address": "1450 CASTLEFIELD AVENUE", "city": "TORONTO", "province": "ON", "country": "CA", "postalCode": "M6M1Y6", "twitter": "None", "instagram": "None", "facebook": "None", "youtube": "None", "website": "None", "summary": "None", "logo": "None", "latitude": 43.697605567314845, "longitude": -79.46717140564938}, "802694141RR0001": {"name": "THE WARREN THOMAS AND DON TALLIS FOUNDATION", "designationCode": "B", "categoryCode": "03", "address": "19 HALLAM ROAD", "city": "MARKHAM", "province": "ON", "country": "CA", "postalCode": "L3P5Y4", "twitter": "None", "instagram": "None", "facebook": "None", "youtube": "None", "website": "None", "summary": "None", "logo": "None", "latitude": 43.892379860378675, "longitude": -79.25556670246412}, "123363806RR0001": {"name": "THE WASAGA BEACH PUBLIC LIBRARY BOARD", "designationCode": "C", "categoryCode": "50", "address": "120 GLENWOOD DRIVE", "city": "WASAGA BEACH", "province": "ON", "country": "CA", "postalCode": "L9Z1A5", "twitter": "None", "instagram": "None", "facebook": "None", "youtube": "None", "website": "None", "summary": "None", "logo": "None", "latitude": 44.5194881030311, "longitude": -80.01744331227032}, "108191065RR0001": {"name": "THE WASAGAMING FOUNDATION", "designationCode": "C", "categoryCode": "20", "address": "P.O. BOX 125", "city": "ONANOLE", "province": "MB", "country": "CA", "postalCode": "R0J1N0", "twitter": "None", "instagram": "None", "facebook": "None", "youtube": "None", "website": "None", "summary": "None", "logo": "None", "latitude": 50.62285000000003, "longitude": -99.96866999999997}, "872159074RR0001": {"name": "THE WASKESIU FOUNDATION INC.", "designationCode": "C", "categoryCode": "56", "address": "206 MALLIN CRESCENT", "city": "SASKATOON", "province": "SK", "country": "CA", "postalCode": "S7K7X1", "twitter": "None", "instagram": "None", "facebook": "None", "youtube": "None", "website": "None", "summary": "None", "logo": "None", "latitude": 52.18889064888352, "longitude": -106.61736658214558}, "127151678RR0001": {"name": "THE WATER VALLEY COMMUNITY ASSOCIATION", "designationCode": "C", "categoryCode": "56", "address": "BOX 233", "city": "WATER VALLEY", "province": "AB", "country": "CA", "postalCode": "T0M2E0", "twitter": "None", "instagram": "None", "facebook": "None", "youtube": "None", "website": "None", "summary": "None", "logo": "None", "latitude": 51.47594002524497, "longitude": -114.58962007588168}, "119288959RR0001": {"name": "THE WATERDOWN-EAST FLAMBOROUGH HERITAGE SOCIETY", "designationCode": "C", "categoryCode": "50", "address": "BOX 1044", "city": "WATERDOWN", "province": "ON", "country": "CA", "postalCode": "L0R2H0", "twitter": "None", "instagram": "None", "facebook": "None", "youtube": "None", "website": "None", "summary": "None", "logo": "None", "latitude": 43.329109500000015, "longitude": -79.8842655}, "890136971RR0001": {"name": "THE WATERFORD AND DISTRICT FOOD CUPBOARD", "designationCode": "C", "categoryCode": "09", "address": "P.O. BOX 1231", "city": "WATERFORD", "province": "ON", "country": "CA", "postalCode": "N0E1Y0", "twitter": "None", "instagram": "None", "facebook": "None", "youtube": "None", "website": "None", "summary": "None", "logo": "None", "latitude": 42.89519400000006, "longitude": -80.29546099999993}, "889565776RR0001": {"name": "THE WATERLOO COUNTY ENGLISH AWARDS", "designationCode": "C", "categoryCode": "21", "address": "455 UNIVERSITY AVE W", "city": "KITCHENER", "province": "ON", "country": "CA", "postalCode": "N2N3B9", "twitter": "None", "instagram": "None", "facebook": "None", "youtube": "None", "website": "None", "summary": "None", "logo": "None", "latitude": 43.44139869603017, "longitude": -80.54700623169293}, "892102286RR0001": {"name": "THE WATERLOO REGION CATHOLIC SCHOOLS FOUNDATION INC", "designationCode": "A", "categoryCode": "23", "address": "35 WEBER ST. WEST             PO BOX 91116", "city": "KITCHENER", "province": "ON", "country": "CA", "postalCode": "N2G4G2", "twitter": "None", "instagram": "None", "facebook": "None", "youtube": "None", "website": "None", "summary": "None", "logo": "None", "latitude": 43.45123200000006, "longitude": -80.49304249999993}, "891981441RR0001": {"name": "THE WATERLOO REGIONAL DOWN SYNDROME SOCIETY", "designationCode": "C", "categoryCode": "11", "address": "658 ERB ST W, PO BOX 22008    RPO IRA NEEDLES", "city": "WATERLOO", "province": "ON", "country": "CA", "postalCode": "N2T0A2", "twitter": "None", "instagram": "None", "facebook": "None", "youtube": "None", "website": "None", "summary": "None", "logo": "None", "latitude": 43.445616724421335, "longitude": -80.57337989260765}, "130710338RR0001": {"name": "THE WATERLOO-KITCHENER UNITED MENNONITE CHURCH", "designationCode": "C", "categoryCode": "34", "address": "15 GEORGE ST", "city": "WATERLOO", "province": "ON", "country": "CA", "postalCode": "N2J1K6", "twitter": "None", "instagram": "None", "facebook": "None", "youtube": "None", "website": "None", "summary": "None", "logo": "None", "latitude": 43.461635218968304, "longitude": -80.51947937313194}, "121550610RR0001": {"name": "THE WATSON CEMETERY COMPANY", "designationCode": "C", "categoryCode": "59", "address": "1219 PRINCE ST", "city": "TRURO", "province": "NS", "country": "CA", "postalCode": "B2N1J3", "twitter": "None", "instagram": "None", "facebook": "None", "youtube": "None", "website": "None", "summary": "None", "logo": "None", "latitude": 45.364512456575596, "longitude": -63.25932478434991}, "119262137RR0001": {"name": "THE WATSON CROSSLEY COMMUNITY MUSEUM INC", "designationCode": "C", "categoryCode": "50", "address": "BOX 396", "city": "GRANDVIEW", "province": "MB", "country": "CA", "postalCode": "R0L0Y0", "twitter": "None", "instagram": "None", "facebook": "None", "youtube": "None", "website": "None", "summary": "None", "logo": "None", "latitude": 51.17220000000003, "longitude": -100.69866999999994}, "119262145RR0001": {"name": "THE WAUPOOS FOUNDATION", "designationCode": "C", "categoryCode": "09", "address": "2050 RIDEAU ROAD", "city": "GLOUCESTER", "province": "ON", "country": "CA", "postalCode": "K1X1B1", "twitter": "None", "instagram": "None", "facebook": "None", "youtube": "None", "website": "None", "summary": "None", "logo": "None", "latitude": 45.27678552256372, "longitude": -75.62493055262831}, "119262152RR0001": {"name": "THE WAWA BAPTIST CHURCH", "designationCode": "C", "categoryCode": "31", "address": "BOX 21 SITE 5", "city": "WAWA", "province": "ON", "country": "CA", "postalCode": "P0S1K0", "twitter": "None", "instagram": "None", "facebook": "None", "youtube": "None", "website": "None", "summary": "None", "logo": "None", "latitude": 47.997277871564776, "longitude": -84.7699002945724}, "891598971RR0001": {"name": "THE WAWANESA MUTUAL INSURANCE COMPANY EMPLOYEES' CHARITY TRUST", "designationCode": "B", "categoryCode": "75", "address": "191 BROADWAY", "city": "WINNIPEG", "province": "MB", "country": "CA", "postalCode": "R3C3P1", "twitter": "None", "instagram": "None", "facebook": "None", "youtube": "None", "website": "None", "summary": "None", "logo": "None", "latitude": 49.88873918737356, "longitude": -97.13578659714923}, "119289858RR0001": {"name": "THE WAWOTA CHURCH OF CHRIST", "designationCode": "C", "categoryCode": "39", "address": "BOX 184", "city": "KENOSEE LAKE", "province": "SK", "country": "CA", "postalCode": "S0C2S0", "twitter": "None", "instagram": "None", "facebook": "None", "youtube": "None", "website": "None", "summary": "None", "logo": "None", "latitude": 49.83219600000005, "longitude": -102.28552099999993}, "894828110RR0001": {"name": "THE WAY CHRISTIAN MISSION FELLOWSHIP ALBERTA", "designationCode": "C", "categoryCode": "39", "address": "303 4909-17 AVE SE", "city": "CALGARY", "province": "AB", "country": "CA", "postalCode": "T2A0V5", "twitter": "None", "instagram": "None", "facebook": "None", "youtube": "None", "website": "None", "summary": "None", "logo": "None", "latitude": 51.03780850288554, "longitude": -113.96366983236193}, "119289890RR0001": {"name": "THE WAY MINISTRY OF CANADA", "designationCode": "C", "categoryCode": "47", "address": "231 - 250B GREENBANK RD", "city": "NEPEAN", "province": "ON", "country": "CA", "postalCode": "K2H8X4", "twitter": "None", "instagram": "None", "facebook": "None", "youtube": "None", "website": "None", "summary": "None", "logo": "None", "latitude": 45.324435116429086, "longitude": -75.77850496571638}, "891253148RR0001": {"name": "THE WAY OF CHRIST CHRISTIAN MINISTRIES OF CANADA", "designationCode": "C", "categoryCode": "47", "address": "395/OTTAWA STREET SOUTH", "city": "KITCHENER", "province": "ON", "country": "CA", "postalCode": "N2M3P3", "twitter": "None", "instagram": "None", "facebook": "None", "youtube": "None", "website": "None", "summary": "None", "logo": "None", "latitude": 43.432661640573635, "longitude": -80.47910801315732}, "108193707RR0001": {"name": "THE WAY OF HOLINESS CHRISTIAN ASSOCIATION OF HINTON", "designationCode": "C", "categoryCode": "49", "address": "PO BOX 3270 STN A", "city": "HINTON", "province": "AB", "country": "CA", "postalCode": "T7V1Y4", "twitter": "None", "instagram": "None", "facebook": "None", "youtube": "None", "website": "None", "summary": "None", "logo": "None", "latitude": 53.40093900000005, "longitude": -117.57696199999994}, "878896117RR0001": {"name": "THE WAY OF THE WORD CHRISTIAN MINISTRIES", "designationCode": "C", "categoryCode": "39", "address": "BOX 1354", "city": "FORT MACLEOD", "province": "AB", "country": "CA", "postalCode": "T0L0Z0", "twitter": "None", "instagram": "None", "facebook": "None", "youtube": "None", "website": "None", "summary": "None", "logo": "None", "latitude": 49.72081000000003, "longitude": -113.42989999999998}, "108103755RR0001": {"name": "THE WAY TO GOD", "designationCode": "C", "categoryCode": "39", "address": "46 GLADSTONE AVE", "city": "LONDON", "province": "ON", "country": "CA", "postalCode": "N5Z3R1", "twitter": "None", "instagram": "None", "facebook": "None", "youtube": "None", "website": "None", "summary": "None", "logo": "None", "latitude": 42.97255609631252, "longitude": -81.21600751454228}, "132824715RR0001": {"name": "THE WAY WORLD OUTREACH MINISTRIES INC.", "designationCode": "C", "categoryCode": "49", "address": "P.O.BOX 5748 MERIVALE DEPOT", "city": "OTTAWA", "province": "ON", "country": "CA", "postalCode": "K2C3M1", "twitter": "None", "instagram": "None", "facebook": "None", "youtube": "None", "website": "None", "summary": "None", "logo": "None", "latitude": 45.32581000000005, "longitude": -75.72397999999998}, "857446686RR0001": {"name": "THE WAYNE GRETZKY FOUNDATION (CANADA) / LA FONDATION CANADIENNE WAYNE GRETZKY", "designationCode": "B", "categoryCode": "09", "address": "96 NELSON ST                  PO BOX 367", "city": "BRANTFORD", "province": "ON", "country": "CA", "postalCode": "N3T5N3", "twitter": "None", "instagram": "None", "facebook": "None", "youtube": "None", "website": "None", "summary": "None", "logo": "None", "latitude": 43.14234744272581, "longitude": -80.26145222023771}, "119262178RR0001": {"name": "THE WAYNE TANENBAUM CHARITABLE FOUNDATION", "designationCode": "B", "categoryCode": "03", "address": "1051 TAPSCOTT ROAD", "city": "SCARBOROUGH", "province": "ON", "country": "CA", "postalCode": "M1X1A1", "twitter": "None", "instagram": "None", "facebook": "None", "youtube": "None", "website": "None", "summary": "None", "logo": "None", "latitude": 43.82487783461231, "longitude": -79.24262752622865}, "131274607RR0001": {"name": "THE WAYSIDE HOUSE OF ST. CATHARINES", "designationCode": "C", "categoryCode": "01", "address": "50 QUEENSTON STREET", "city": "ST CATHARINES", "province": "ON", "country": "CA", "postalCode": "L2R2Y9", "twitter": "None", "instagram": "None", "facebook": "None", "youtube": "None", "website": "None", "summary": "None", "logo": "None", "latitude": 43.16293687091024, "longitude": -79.237424635986}, "869831032RR0001": {"name": "THE WB FAMILY FOUNDATION", "designationCode": "B", "categoryCode": "03", "address": "4240 SHERWOODTOWNE BLVD", "city": "MISSISSAUGA", "province": "ON", "country": "CA", "postalCode": "L4Z2G6", "twitter": "None", "instagram": "None", "facebook": "None", "youtube": "None", "website": "None", "summary": "None", "logo": "None", "latitude": 43.60026320315662, "longitude": -79.63961517127339}, "881547491RR0001": {"name": "THE WEASELHEAD/GLENMORE PARK PRESERVATION SOCIETY", "designationCode": "C", "categoryCode": "52", "address": "PO BOX 36032 RPO LAKEVIEW", "city": "CALGARY", "province": "AB", "country": "CA", "postalCode": "T3E7C6", "twitter": "None", "instagram": "None", "facebook": "None", "youtube": "None", "website": "None", "summary": "None", "logo": "None", "latitude": 51.001671511626654, "longitude": -114.13480631627729}, "882070360RR0001": {"name": "THE WEBER FOUNDATION", "designationCode": "B", "categoryCode": "05", "address": "P.O. BOX 373", "city": "MIDLAND", "province": "ON", "country": "CA", "postalCode": "L4R4L1", "twitter": "None", "instagram": "None", "facebook": "None", "youtube": "None", "website": "None", "summary": "None", "logo": "None", "latitude": 44.74989600000005, "longitude": -79.88850349999993}, "890777576RR0001": {"name": "THE WEBSTER MUSEUM FOUNDATION", "designationCode": "B", "categoryCode": "25", "address": "ROYAL TRUST CORP #04043       155 WELLINGTON ST. W, 20TH FL.", "city": "TORONTO", "province": "ON", "country": "CA", "postalCode": "M5V3K7", "twitter": "None", "instagram": "None", "facebook": "None", "youtube": "None", "website": "None", "summary": "None", "logo": "None", "latitude": 43.64596585316531, "longitude": -79.38574575644876}, "119290336RR0001": {"name": "THE WEIR FOUNDATION", "designationCode": "B", "categoryCode": "03", "address": "116 QUEENSTON ST.             P.O. BOX 266", "city": "QUEENSTON", "province": "ON", "country": "CA", "postalCode": "L0S1L0", "twitter": "None", "instagram": "None", "facebook": "None", "youtube": "None", "website": "None", "summary": "None", "logo": "None", "latitude": 43.170157675832385, "longitude": -79.0572871219633}, "895441400RR0001": {"name": "THE WEITZ FAMILY FOUNDATION", "designationCode": "B", "categoryCode": "53", "address": "134 ALMORE AVENUE", "city": "TORONTO", "province": "ON", "country": "CA", "postalCode": "M3H2H8", "twitter": "None", "instagram": "None", "facebook": "None", "youtube": "None", "website": "None", "summary": "None", "logo": "None", "latitude": 43.746324190691794, "longitude": -79.44644737122735}, "889406773RR0001": {"name": "THE WELCOME HOME - A MISSION OF ST ALPHONSUS INC", "designationCode": "C", "categoryCode": "47", "address": "188 EUCLID AVE", "city": "WINNIPEG", "province": "MB", "country": "CA", "postalCode": "R2W2X4", "twitter": "None", "instagram": "None", "facebook": "None", "youtube": "None", "website": "None", "summary": "None", "logo": "None", "latitude": 49.90917953231589, "longitude": -97.13224483542035}, "874173289RR0001": {"name": "THE WELD FOUNDATION - LA FONDATION WELD", "designationCode": "B", "categoryCode": "23", "address": "1575 FIESTA AVENUE", "city": "CUMBERLAND", "province": "ON", "country": "CA", "postalCode": "K4C1A7", "twitter": "None", "instagram": "None", "facebook": "None", "youtube": "None", "website": "None", "summary": "None", "logo": "None", "latitude": 45.510973739424955, "longitude": -75.45632892203801}, "849862768RR0001": {"name": "THE WELL", "designationCode": "C", "categoryCode": "39", "address": "4033 LOWER COACH RD", "city": "STEVENSVILLE", "province": "ON", "country": "CA", "postalCode": "L0S1S0", "twitter": "None", "instagram": "None", "facebook": "None", "youtube": "None", "website": "None", "summary": "None", "logo": "None", "latitude": 42.94271223094219, "longitude": -79.06423371593856}, "866430499RR0001": {"name": "THE WELL - A GATHERING PLACE (FELLOWSHIP)", "designationCode": "C", "categoryCode": "47", "address": "2620 2ND AVE", "city": "PRINCE GEORGE", "province": "BC", "country": "CA", "postalCode": "V2M1E4", "twitter": "None", "instagram": "None", "facebook": "None", "youtube": "None", "website": "None", "summary": "None", "logo": "None", "latitude": 53.923676168541775, "longitude": -122.77251245313592}}