{"780842720RR0001": {"name": "BELVEDERE ORPHANAGE FUND INC.", "designationCode": "C", "categoryCode": "01", "address": "P.O. BOX 1757", "city": "ST. JOHN'S", "province": "NL", "country": "CA", "postalCode": "A1C5P5", "twitter": "None", "instagram": "None", "facebook": "None", "youtube": "None", "website": "None", "summary": "None", "logo": "None", "latitude": 47.56082100000006, "longitude": -52.71219349999993}, "118803154RR0001": {"name": "BELWOOD LODGE & CAMP", "designationCode": "C", "categoryCode": "56", "address": "322 THIRD ST", "city": "BELWOOD", "province": "ON", "country": "CA", "postalCode": "N0B1J0", "twitter": "None", "instagram": "None", "facebook": "None", "youtube": "None", "website": "None", "summary": "None", "logo": "None", "latitude": 43.763499737501284, "longitude": -80.34519507248751}, "131200297RR0001": {"name": "BELWOOD PASTORAL CHARGE,", "designationCode": "C", "categoryCode": "44", "address": "8471 ERAMOSA-GARAFRAXA        RR 1", "city": "ROCKWOOD", "province": "ON", "country": "CA", "postalCode": "N0B2K0", "twitter": "None", "instagram": "None", "facebook": "None", "youtube": "None", "website": "None", "summary": "None", "logo": "None", "latitude": 43.73255131449767, "longitude": -80.2835190472997}, "128906336RR0001": {"name": "BEN CALF ROBE SOCIETY", "designationCode": "C", "categoryCode": "09", "address": "12046 77 STREET", "city": "EDMONTON", "province": "AB", "country": "CA", "postalCode": "T5B2G7", "twitter": "None", "instagram": "None", "facebook": "None", "youtube": "None", "website": "None", "summary": "None", "logo": "None", "latitude": 53.57487650291421, "longitude": -113.45955976146907}, "118803360RR0001": {"name": "BEN LYONS EVANGELISTIC ASSOCIATION, INC.", "designationCode": "C", "categoryCode": "47", "address": "PO BOX 1381  STN A", "city": "FREDERICTON", "province": "NB", "country": "CA", "postalCode": "E3B5E3", "twitter": "None", "instagram": "None", "facebook": "None", "youtube": "None", "website": "None", "summary": "None", "logo": "None", "latitude": 45.96062100000006, "longitude": -66.63911299999994}, "118803170RR0001": {"name": "BENADO INC.", "designationCode": "C", "categoryCode": "56", "address": "197 CH. ST-FRANCOIS XAVIER", "city": "DELSON", "province": "QC", "country": "CA", "postalCode": "J5B1X7", "twitter": "None", "instagram": "None", "facebook": "None", "youtube": "None", "website": "None", "summary": "None", "logo": "None", "latitude": 45.376941352213024, "longitude": -73.536106700848}, "106783707RR0001": {"name": "BENALTO BAPTIST CHURCH", "designationCode": "C", "categoryCode": "31", "address": "BOX 28", "city": "BENALTO", "province": "AB", "country": "CA", "postalCode": "T0M0H0", "twitter": "None", "instagram": "None", "facebook": "None", "youtube": "None", "website": "None", "summary": "None", "logo": "None", "latitude": 52.308620000000076, "longitude": -114.27550999999994}, "893214965RR0001": {"name": "BENCH CHARITABLE TRUST", "designationCode": "B", "categoryCode": "39", "address": "PO BOX 1118", "city": "SHAUNAVON", "province": "SK", "country": "CA", "postalCode": "S0N2M0", "twitter": "None", "instagram": "None", "facebook": "None", "youtube": "None", "website": "None", "summary": "None", "logo": "None", "latitude": 49.64645000000007, "longitude": -108.41961999999995}, "118803212RR0001": {"name": "BENDALE BIBLE CHAPEL", "designationCode": "C", "categoryCode": "39", "address": "330 BELLAMY RD", "city": "SCARBOROUGH", "province": "ON", "country": "CA", "postalCode": "M1H1E8", "twitter": "None", "instagram": "None", "facebook": "None", "youtube": "None", "website": "None", "summary": "None", "logo": "None", "latitude": 43.754438149392634, "longitude": -79.2345485242448}, "119288918RR0282": {"name": "BENDALE CONGREGATION OF JEHOVAH'S WITNESSES, TORONTO, ONTARIO", "designationCode": "C", "categoryCode": "61", "address": "3 DAVID DRIVE", "city": "SCARBOROUGH", "province": "ON", "country": "CA", "postalCode": "M1E5E5", "twitter": "None", "instagram": "None", "facebook": "None", "youtube": "None", "website": "None", "summary": "None", "logo": "None", "latitude": 43.79373687261234, "longitude": -79.20355050219304}, "887921047RR0001": {"name": "BENDER HAMLET COLONY FOUNDATION INC", "designationCode": "C", "categoryCode": "50", "address": "2027 - 905 SHAFTESBURY BLVD.", "city": "WINNIPEG", "province": "MB", "country": "CA", "postalCode": "R3P0Y3", "twitter": "None", "instagram": "None", "facebook": "None", "youtube": "None", "website": "None", "summary": "None", "logo": "None", "latitude": 49.8470478095799, "longitude": -97.2314259774989}, "864108311RR0001": {"name": "BENE ISRAEL CONGREGATION", "designationCode": "C", "categoryCode": "39", "address": "15133 DUFFERIN ST             P.O. BOX 474", "city": "KING CITY", "province": "ON", "country": "CA", "postalCode": "L7B1A7", "twitter": "None", "instagram": "None", "facebook": "None", "youtube": "None", "website": "None", "summary": "None", "logo": "None"}, "118803261RR0001": {"name": "BENEDICT LABRE HOUSE INC.", "designationCode": "C", "categoryCode": "09", "address": "308, RUE YOUNG", "city": "MONTREAL", "province": "QC", "country": "CA", "postalCode": "H3C2G2", "twitter": "None", "instagram": "None", "facebook": "None", "youtube": "None", "website": "None", "summary": "None", "logo": "None", "latitude": 45.4939194143633, "longitude": -73.56091311324938}, "118803253RR0001": {"name": "BENEDICTION LUTHERAN CHURCH", "designationCode": "C", "categoryCode": "32", "address": "5575 6TH AVE", "city": "DELTA", "province": "BC", "country": "CA", "postalCode": "V4M1M2", "twitter": "None", "instagram": "None", "facebook": "None", "youtube": "None", "website": "None", "summary": "None", "logo": "None", "latitude": 49.013671485140605, "longitude": -123.06913102553523}, "839588670RR0001": {"name": "BENEFIC FOUNDATION", "designationCode": "A", "categoryCode": "03", "address": "1500 WEST GEORGIA STREET      SUITE 1250   BOX 62", "city": "VANCOUVER", "province": "BC", "country": "CA", "postalCode": "V6G2Z6", "twitter": "None", "instagram": "None", "facebook": "None", "youtube": "None", "website": "None", "summary": "None", "logo": "None", "latitude": 49.2900638104334, "longitude": -123.12989899362336}, "890847148RR0001": {"name": "BENEVOLAT DU CENTRE D'ACCUEIL FOYER SUTTON INC", "designationCode": "C", "categoryCode": "09", "address": "50 WESTERN", "city": "SUTTON", "province": "QC", "country": "CA", "postalCode": "J0E2K0", "twitter": "None", "instagram": "None", "facebook": "None", "youtube": "None", "website": "None", "summary": "None", "logo": "None", "latitude": 45.109899733279455, "longitude": -72.61843176940359}, "120495015RR0001": {"name": "BENEVOLAT ST-SACREMENT INC", "designationCode": "C", "categoryCode": "09", "address": "915 - 1490 BOUL DE L'ENTENTE", "city": "QUEBEC", "province": "QC", "country": "CA", "postalCode": "G1S4V3", "twitter": "None", "instagram": "None", "facebook": "None", "youtube": "None", "website": "None", "summary": "None", "logo": "None", "latitude": 46.79468070416622, "longitude": -71.25929570653216}, "886352392RR0001": {"name": "BENEVOLENT COMMITTEE OF LA CROIX DE SECOURS ARMENIENNE INC", "designationCode": "A", "categoryCode": "05", "address": "3401 OLIVAR ASSELIN STREET", "city": "MONTREAL", "province": "QC", "country": "CA", "postalCode": "H4J1L5", "twitter": "None", "instagram": "None", "facebook": "None", "youtube": "None", "website": "None", "summary": "None", "logo": "None", "latitude": 45.53229752873787, "longitude": -73.69718800790585}, "118803279RR0001": {"name": "BENEVOLENT FUND OF THE CHARTERED PROFESSIONAL ACCOUNTANTS OF BRITISH COLUMBIA", "designationCode": "C", "categoryCode": "09", "address": "STE 800,555 WEST HASTINGS ST.", "city": "VANCOUVER", "province": "BC", "country": "CA", "postalCode": "V6B4N6", "twitter": "None", "instagram": "None", "facebook": "None", "youtube": "None", "website": "None", "summary": "None", "logo": "None", "latitude": 49.28438037610344, "longitude": -123.11234462859974}, "107474199RR0001": {"name": "BENEVOLENT SOCIETY \"HEIDEHOF\" FOR THE CARE OF THE AGED", "designationCode": "C", "categoryCode": "01", "address": "600 LAKE ST", "city": "ST CATHARINES", "province": "ON", "country": "CA", "postalCode": "L2N4J4", "twitter": "None", "instagram": "None", "facebook": "None", "youtube": "None", "website": "None", "summary": "None", "logo": "None", "latitude": 43.196715115182656, "longitude": -79.2522952974499}, "821227147RR0001": {"name": "BENEVOLENT SOCIETY OF GRIMSBY AND DISTRICT", "designationCode": "C", "categoryCode": "09", "address": "PO BOX 231", "city": "GRIMSBY", "province": "ON", "country": "CA", "postalCode": "L3M4G3", "twitter": "None", "instagram": "None", "facebook": "None", "youtube": "None", "website": "None", "summary": "None", "logo": "None", "latitude": 43.199079000000054, "longitude": -79.58552299999994}, "802310276RR0001": {"name": "BENEVOLES D'AFFAIRES", "designationCode": "C", "categoryCode": "59", "address": "400 - 3 PLACE VILLE-MARIE", "city": "MONTREAL", "province": "QC", "country": "CA", "postalCode": "H3B2E3", "twitter": "None", "instagram": "None", "facebook": "None", "youtube": "None", "website": "None", "summary": "None", "logo": "None", "latitude": 45.50226685567546, "longitude": -73.56864278590777}, "131896003RR0001": {"name": "BENGOUGH CHURCH OF CHRIST", "designationCode": "C", "categoryCode": "39", "address": "PO BOX 224", "city": "BENGOUGH", "province": "SK", "country": "CA", "postalCode": "S0C0K0", "twitter": "None", "instagram": "None", "facebook": "None", "youtube": "None", "website": "None", "summary": "None", "logo": "None", "latitude": 49.40006000000005, "longitude": -105.13438999999994}, "845804947RR0001": {"name": "BENGOUGH MUNICIPAL ARTS COUNCIL INC.", "designationCode": "A", "categoryCode": "22", "address": "PO BOX 398", "city": "OGEMA", "province": "SK", "country": "CA", "postalCode": "S0C1Y0", "twitter": "None", "instagram": "None", "facebook": "None", "youtube": "None", "website": "None", "summary": "None", "logo": "None", "latitude": 49.58337000000006, "longitude": -104.91778999999997}, "118803337RR0001": {"name": "BENITO AND AREA DROP IN CENTRE INC.", "designationCode": "C", "categoryCode": "56", "address": "BOX 353", "city": "BENITO", "province": "MB", "country": "CA", "postalCode": "R0L0C0", "twitter": "None", "instagram": "None", "facebook": "None", "youtube": "None", "website": "None", "summary": "None", "logo": "None", "latitude": 51.91345000000007, "longitude": -101.54769999999996}, "118803345RR0001": {"name": "BENITO KENVILLE PASTORAL CHARGE", "designationCode": "C", "categoryCode": "44", "address": "PO BOX 2855", "city": "SWAN RIVER", "province": "MB", "country": "CA", "postalCode": "R0L1Z0", "twitter": "None", "instagram": "None", "facebook": "None", "youtube": "None", "website": "None", "summary": "None", "logo": "None", "latitude": 52.11672730414978, "longitude": -101.25989472758229}, "871149621RR0001": {"name": "BENJAMIN HERBERT BIRSTEIN FOUNDATION", "designationCode": "B", "categoryCode": "15", "address": "PO BOX 10085                  LCD PACIFIC CENTRE", "city": "VANCOUVER", "province": "BC", "country": "CA", "postalCode": "V7Y1B6", "twitter": "None", "instagram": "None", "facebook": "None", "youtube": "None", "website": "None", "summary": "None", "logo": "None"}, "119301653RR0001": {"name": "BENJAMIN WINTROB BERGLERIAN FOUNDATION", "designationCode": "B", "categoryCode": "13", "address": "885 PROGRESS AVE SUITE 220", "city": "SCARBOROUGH", "province": "ON", "country": "CA", "postalCode": "M1H3G3", "twitter": "None", "instagram": "None", "facebook": "None", "youtube": "None", "website": "None", "summary": "None", "logo": "None", "latitude": 43.78130482705316, "longitude": -79.23596425255361}, "869019133RR0001": {"name": "BENNETT AND ALBERT COUNTY HOSPITAL FOUNDATION INC", "designationCode": "A", "categoryCode": "13", "address": "8 FORESTDALE RD", "city": "RIVERSIDE-ALBERT", "province": "NB", "country": "CA", "postalCode": "E4H3Y7", "twitter": "None", "instagram": "None", "facebook": "None", "youtube": "None", "website": "None", "summary": "None", "logo": "None", "latitude": 45.74891401278196, "longitude": -64.74314661316342}, "893902411RR0001": {"name": "BENNETT HEALTH CARE CENTRE", "designationCode": "C", "categoryCode": "10", "address": "1 PRINCESS ANNE DRIVE", "city": "GEORGETOWN", "province": "ON", "country": "CA", "postalCode": "L7G2B8", "twitter": "None", "instagram": "None", "facebook": "None", "youtube": "None", "website": "None", "summary": "None", "logo": "None", "latitude": 43.644256322617736, "longitude": -79.93223459831167}, "898857263RR0001": {"name": "BENNY HINN MINISTRIES CANADA", "designationCode": "C", "categoryCode": "49", "address": "1-401 TRADERS BLVD E", "city": "MISSISSAUGA", "province": "ON", "country": "CA", "postalCode": "L4Z2H8", "twitter": "None", "instagram": "None", "facebook": "None", "youtube": "None", "website": "None", "summary": "None", "logo": "None", "latitude": 43.63014744217753, "longitude": -79.6635942909281}, "118803394RR0001": {"name": "BENSON RECREATION FACILITY", "designationCode": "C", "categoryCode": "56", "address": "BOX 1", "city": "BENSON", "province": "SK", "country": "CA", "postalCode": "S0C0L0", "twitter": "None", "instagram": "None", "facebook": "None", "youtube": "None", "website": "None", "summary": "None", "logo": "None", "latitude": 49.6440462417121, "longitude": -104.66217827333533}, "895504165RR0001": {"name": "BENT ARROW TRADITIONAL HEALING SOCIETY", "designationCode": "C", "categoryCode": "59", "address": "11648 85 ST", "city": "EDMONTON", "province": "AB", "country": "CA", "postalCode": "T5B3E5", "twitter": "None", "instagram": "None", "facebook": "None", "youtube": "None", "website": "None", "summary": "None", "logo": "None", "latitude": 53.56782900000002, "longitude": -113.47184824372412}, "118803428RR0001": {"name": "BENTLEY BLACKFALDS PASTORAL CHARGE", "designationCode": "C", "categoryCode": "44", "address": "PO BOX 190", "city": "BLACKFALDS", "province": "AB", "country": "CA", "postalCode": "T0M0J0", "twitter": "None", "instagram": "None", "facebook": "None", "youtube": "None", "website": "None", "summary": "None", "logo": "None", "latitude": 52.37008281578276, "longitude": -113.79281997964283}, "879582310RR0001": {"name": "BENTLEY CHARITABLE TRUST", "designationCode": "B", "categoryCode": "05", "address": "3425-2 AVENUE SOUTH", "city": "LETHBRIDGE", "province": "AB", "country": "CA", "postalCode": "T1J4V1", "twitter": "None", "instagram": "None", "facebook": "None", "youtube": "None", "website": "None", "summary": "None", "logo": "None", "latitude": 49.696839530439966, "longitude": -112.78914308381903}, "132902966RR0001": {"name": "BENTLEY COMMUNITY CHURCH", "designationCode": "C", "categoryCode": "36", "address": "P O BOX 14", "city": "BENTLEY", "province": "AB", "country": "CA", "postalCode": "T0C0J0", "twitter": "None", "instagram": "None", "facebook": "None", "youtube": "None", "website": "None", "summary": "None", "logo": "None", "latitude": 52.45537747553501, "longitude": -113.96484692260027}, "137496816RR0001": {"name": "BENTLEY MUSEUM SOCIETY", "designationCode": "C", "categoryCode": "50", "address": "BOX 620", "city": "BENTLEY", "province": "AB", "country": "CA", "postalCode": "T0C0J0", "twitter": "None", "instagram": "None", "facebook": "None", "youtube": "None", "website": "None", "summary": "None", "logo": "None", "latitude": 52.45537747553501, "longitude": -113.96484692260027}, "889874467RR0001": {"name": "BENTLEY S D A CHURCH", "designationCode": "C", "categoryCode": "41", "address": "5816 HIGHWAY 2A", "city": "LACOMBE", "province": "AB", "country": "CA", "postalCode": "T4L2G5", "twitter": "None", "instagram": "None", "facebook": "None", "youtube": "None", "website": "None", "summary": "None", "logo": "None", "latitude": 52.474063600197404, "longitude": -113.71692568401835}, "118803469RR0001": {"name": "BENTON STREET BAPTIST CHURCH", "designationCode": "C", "categoryCode": "31", "address": "90 BENTON STREET", "city": "KITCHENER", "province": "ON", "country": "CA", "postalCode": "N2G3H4", "twitter": "None", "instagram": "None", "facebook": "None", "youtube": "None", "website": "None", "summary": "None", "logo": "None", "latitude": 43.44709075549647, "longitude": -80.48970374343567}, "871355434RR0001": {"name": "BEOTHUK INSTITUTE INC.", "designationCode": "C", "categoryCode": "21", "address": "P.O. BOX 44                   17 BEOTHUK STREET", "city": "MILLERTOWN", "province": "NL", "country": "CA", "postalCode": "A0H1V0", "twitter": "None", "instagram": "None", "facebook": "None", "youtube": "None", "website": "None", "summary": "None", "logo": "None", "latitude": 48.81184377267187, "longitude": -56.54513762695338}, "840003313RR0001": {"name": "BERAKAH PRAISE MINISTRY", "designationCode": "C", "categoryCode": "39", "address": "39 BANKS COURT", "city": "DARTMOUTH", "province": "NS", "country": "CA", "postalCode": "B2X2Y9", "twitter": "None", "instagram": "None", "facebook": "None", "youtube": "None", "website": "None", "summary": "None", "logo": "None", "latitude": 44.70441518901834, "longitude": -63.54558228769678}, "872969753RR0001": {"name": "BERCAIL DE LA SAINTE FAMILLE DE NAZARETH", "designationCode": "C", "categoryCode": "59", "address": "175 SAINT-ADELARD", "city": "QUEBEC", "province": "QC", "country": "CA", "postalCode": "G1L1Y9", "twitter": "None", "instagram": "None", "facebook": "None", "youtube": "None", "website": "None", "summary": "None", "logo": "None", "latitude": 46.83230230864439, "longitude": -71.2385741147786}, "872297759RR0001": {"name": "BERCAIL DE MARIE", "designationCode": "C", "categoryCode": "59", "address": "2911 CHEMIN ROYAL", "city": "QU\u00c9BEC", "province": "QC", "country": "CA", "postalCode": "G1E1T2", "twitter": "None", "instagram": "None", "facebook": "None", "youtube": "None", "website": "None", "summary": "None", "logo": "None", "latitude": 46.847330263430976, "longitude": -71.21490933963261}, "118803501RR0001": {"name": "BEREA BAPTIST CHURCH", "designationCode": "C", "categoryCode": "31", "address": "6062-132 ST", "city": "SURREY", "province": "BC", "country": "CA", "postalCode": "V3X1M8", "twitter": "None", "instagram": "None", "facebook": "None", "youtube": "None", "website": "None", "summary": "None", "logo": "None", "latitude": 49.1125200663339, "longitude": -122.85657226475864}, "118803519RR0001": {"name": "BEREA BY THE WATER LUTHERAN CHURCH", "designationCode": "C", "categoryCode": "32", "address": "326 GIBBONS ST", "city": "GODERICH", "province": "ON", "country": "CA", "postalCode": "N7A3Z6", "twitter": "None", "instagram": "None", "facebook": "None", "youtube": "None", "website": "None", "summary": "None", "logo": "None", "latitude": 43.731472725777635, "longitude": -81.70855751335887}, "107797383RR0072": {"name": "BEREA SEVENTH-DAY ADVENTIST CHURCH", "designationCode": "C", "categoryCode": "41", "address": "353 SHERBOURNE ST", "city": "TORONTO", "province": "ON", "country": "CA", "postalCode": "M5A2S3", "twitter": "None", "instagram": "None", "facebook": "None", "youtube": "None", "website": "None", "summary": "None", "logo": "None", "latitude": 43.66281244768881, "longitude": -79.37285681040473}, "106785330RR0001": {"name": "BEREAN BAPTIST CHURCH", "designationCode": "C", "categoryCode": "31", "address": "256 ST GEORGE ST", "city": "BRANTFORD", "province": "ON", "country": "CA", "postalCode": "N3R1W9", "twitter": "None", "instagram": "None", "facebook": "None", "youtube": "None", "website": "None", "summary": "None", "logo": "None", "latitude": 43.16522972793944, "longitude": -80.28265844237337}, "131435810RR0001": {"name": "BEREAN BAPTIST CHURCH", "designationCode": "C", "categoryCode": "31", "address": "231 BLOOR ST", "city": "SUDBURY", "province": "ON", "country": "CA", "postalCode": "P3C2L1", "twitter": "None", "instagram": "None", "facebook": "None", "youtube": "None", "website": "None", "summary": "None", "logo": "None", "latitude": 46.49938000466314, "longitude": -81.00385262616578}, "866218407RR0001": {"name": "BEREAN BAPTIST CHURCH", "designationCode": "C", "categoryCode": "31", "address": "71 CELINA STREET", "city": "OSHAWA", "province": "ON", "country": "CA", "postalCode": "L1H4N1", "twitter": "None", "instagram": "None", "facebook": "None", "youtube": "None", "website": "None", "summary": "None", "logo": "None", "latitude": 43.89587293810953, "longitude": -78.86165899887483}, "888721669RR0001": {"name": "BEREAN BAPTIST CHURCH", "designationCode": "C", "categoryCode": "31", "address": "453 LINDEN AVE", "city": "KAMLOOPS", "province": "BC", "country": "CA", "postalCode": "V2B2N3", "twitter": "None", "instagram": "None", "facebook": "None", "youtube": "None", "website": "None", "summary": "None", "logo": "None", "latitude": 50.691121890357294, "longitude": -120.35386125578492}, "890135676RR0001": {"name": "BEREAN BAPTIST CHURCH", "designationCode": "C", "categoryCode": "31", "address": "932 LEATHORNE STREET", "city": "LONDON", "province": "ON", "country": "CA", "postalCode": "N5Z3M5", "twitter": "None", "instagram": "None", "facebook": "None", "youtube": "None", "website": "None", "summary": "None", "logo": "None", "latitude": 42.96217646436589, "longitude": -81.21542933764206}, "887312437RR0001": {"name": "BEREAN BAPTIST CHURCH INC.", "designationCode": "C", "categoryCode": "31", "address": "776 KIMBERLY AVE", "city": "WINNIPEG", "province": "MB", "country": "CA", "postalCode": "R2K0Y5", "twitter": "None", "instagram": "None", "facebook": "None", "youtube": "None", "website": "None", "summary": "None", "logo": "None", "latitude": 49.91921511904913, "longitude": -97.07900031600197}, "877313510RR0001": {"name": "BEREAN BAPTIST CHURCH OF QUESNEL", "designationCode": "C", "categoryCode": "39", "address": "P.O. BOX 4224", "city": "QUESNEL", "province": "BC", "country": "CA", "postalCode": "V2J3J8", "twitter": "None", "instagram": "None", "facebook": "None", "youtube": "None", "website": "None", "summary": "None", "logo": "None", "latitude": 52.978128000000055, "longitude": -122.49828349999993}, "869139972RR0001": {"name": "BEREAN BIBLE CHURCH", "designationCode": "C", "categoryCode": "39", "address": "6251 49TH AVENUE", "city": "DELTA", "province": "BC", "country": "CA", "postalCode": "V4K4S5", "twitter": "None", "instagram": "None", "facebook": "None", "youtube": "None", "website": "None", "summary": "None", "logo": "None", "latitude": 49.09194449321934, "longitude": -123.0494715}, "891248197RR0001": {"name": "BEREAN BIBLE SOCIETY", "designationCode": "C", "categoryCode": "47", "address": "54940 LIGHT LINE              R.R.#1", "city": "VIENNA", "province": "ON", "country": "CA", "postalCode": "N0J1Z0", "twitter": "None", "instagram": "None", "facebook": "None", "youtube": "None", "website": "None", "summary": "None", "logo": "None", "latitude": 42.696500008050094, "longitude": -80.80188568220902}, "861303451RR0001": {"name": "BEREAN CHURCH OF GOD INTERNATIONAL - BRAMPTON", "designationCode": "C", "categoryCode": "39", "address": "15 FISHERMAN DRIVE            UNIT 4 & 5", "city": "BRAMPTON", "province": "ON", "country": "CA", "postalCode": "L7A1B7", "twitter": "None", "instagram": "None", "facebook": "None", "youtube": "None", "website": "None", "summary": "None", "logo": "None", "latitude": 43.71318001410961, "longitude": -79.80149206125624}, "891446502RR0001": {"name": "BEREAN CHURCH OF GOD INTERNATIONAL - CALGARY", "designationCode": "C", "categoryCode": "39", "address": "1111 - 33RD STREET NE", "city": "CALGARY", "province": "AB", "country": "CA", "postalCode": "T2A6T2", "twitter": "None", "instagram": "None", "facebook": "None", "youtube": "None", "website": "None", "summary": "None", "logo": "None", "latitude": 51.06210274854291, "longitude": -113.98604418140096}, "858877111RR0001": {"name": "BEREAN CHURCH OF GOD INTERNATIONAL - CANADA", "designationCode": "C", "categoryCode": "39", "address": "217 MOUNTAINBERRY ROAD", "city": "BRAMPTON", "province": "ON", "country": "CA", "postalCode": "L6R1W3", "twitter": "None", "instagram": "None", "facebook": "None", "youtube": "None", "website": "None", "summary": "None", "logo": "None", "latitude": 43.7615532489756, "longitude": -79.72763620497427}, "858927486RR0001": {"name": "BEREAN CHURCH OF GOD INTERNATIONAL - EDMONTON", "designationCode": "C", "categoryCode": "39", "address": "13020 114 ST NW", "city": "EDMONTON", "province": "AB", "country": "CA", "postalCode": "T5E5C9", "twitter": "None", "instagram": "None", "facebook": "None", "youtube": "None", "website": "None", "summary": "None", "logo": "None", "latitude": 53.59058999999999, "longitude": -113.51829724372412}, "118803634RR0001": {"name": "BEREAN FORWARD MOVEMENT (CANADA)", "designationCode": "C", "categoryCode": "49", "address": "40 ROYAL OAK ROAD             APT 220", "city": "MOUNT ALBERT", "province": "ON", "country": "CA", "postalCode": "L0G1M0", "twitter": "None", "instagram": "None", "facebook": "None", "youtube": "None", "website": "None", "summary": "None", "logo": "None", "latitude": 44.13554810407415, "longitude": -79.30523971487068}, "131486722RR0001": {"name": "BEREAN FUNDAMENTAL CHURCH OF OAK LAKE, MAN INC", "designationCode": "C", "categoryCode": "39", "address": "BOX 126", "city": "OAK LAKE", "province": "MB", "country": "CA", "postalCode": "R0M1P0", "twitter": "None", "instagram": "None", "facebook": "None", "youtube": "None", "website": "None", "summary": "None", "logo": "None", "latitude": 49.76436503648926, "longitude": -100.63092570210371}, "898264635RR0001": {"name": "BEREAVED FAMILIES OF CAPE BRETON SOCIETY", "designationCode": "C", "categoryCode": "09", "address": "P.O. BOX 45 - STATION A", "city": "SYDNEY", "province": "NS", "country": "CA", "postalCode": "B1P6G9", "twitter": "None", "instagram": "None", "facebook": "None", "youtube": "None", "website": "None", "summary": "None", "logo": "None", "latitude": 46.137372000000056, "longitude": -60.19552249999994}, "118803659RR0001": {"name": "BEREAVED FAMILIES OF ONTARIO", "designationCode": "C", "categoryCode": "09", "address": "RPO WATLINE PO BOX 10015", "city": "MISSISSAUGA", "province": "ON", "country": "CA", "postalCode": "L4Z4G5", "twitter": "None", "instagram": "None", "facebook": "None", "youtube": "None", "website": "None", "summary": "None", "logo": "None", "latitude": 43.62592211755824, "longitude": -79.66709282360223}, "863610358RR0001": {"name": "BEREAVED FAMILIES OF ONTARIO - CORNWALL", "designationCode": "C", "categoryCode": "09", "address": "216 MONTREAL RD", "city": "CORNWALL", "province": "ON", "country": "CA", "postalCode": "K6H1B4", "twitter": "None", "instagram": "None", "facebook": "None", "youtube": "None", "website": "None", "summary": "None", "logo": "None", "latitude": 45.01853949653754, "longitude": -74.71270308090484}, "865892319RR0001": {"name": "BEREAVED FAMILIES OF ONTARIO - HAMILTON / BURLINGTON", "designationCode": "C", "categoryCode": "11", "address": "293 WELLINGTON ST N           SUITE 118", "city": "HAMILTON", "province": "ON", "country": "CA", "postalCode": "L8L8E7", "twitter": "None", "instagram": "None", "facebook": "None", "youtube": "None", "website": "None", "summary": "None", "logo": "None", "latitude": 43.26243805995726, "longitude": -79.85558492801061}, "871593117RR0001": {"name": "BEREAVED FAMILIES OF ONTARIO - MIDWESTERN REGION", "designationCode": "C", "categoryCode": "59", "address": "65 HANSON AV 1043", "city": "KITCHENER", "province": "ON", "country": "CA", "postalCode": "N2C2H6", "twitter": "None", "instagram": "None", "facebook": "None", "youtube": "None", "website": "None", "summary": "None", "logo": "None", "latitude": 43.42534500885816, "longitude": -80.4717904158056}, "853432730RR0001": {"name": "BEREAVED FAMILIES OF ONTARIO - OTTAWA REGION", "designationCode": "C", "categoryCode": "09", "address": "303-211 BRONSON AVENUE", "city": "OTTAWA", "province": "ON", "country": "CA", "postalCode": "K1R6H5", "twitter": "None", "instagram": "None", "facebook": "None", "youtube": "None", "website": "None", "summary": "None", "logo": "None", "latitude": 45.41349725618897, "longitude": -75.7068905103587}, "134070416RR0001": {"name": "BEREAVED FAMILIES OF ONTARIO - SOUTHWEST REGION", "designationCode": "C", "categoryCode": "09", "address": "4-571 WHARNCLIFFE RD S", "city": "LONDON", "province": "ON", "country": "CA", "postalCode": "N6J2N6", "twitter": "None", "instagram": "None", "facebook": "None", "youtube": "None", "website": "None", "summary": "None", "logo": "None", "latitude": 42.95412533603382, "longitude": -81.25983145528194}, "106785397RR0001": {"name": "BEREAVED FAMILIES OF ONTARIO - TORONTO", "designationCode": "C", "categoryCode": "09", "address": "202 - 250 MERTON ST", "city": "TORONTO", "province": "ON", "country": "CA", "postalCode": "M4S1B1", "twitter": "None", "instagram": "None", "facebook": "None", "youtube": "None", "website": "None", "summary": "None", "logo": "None", "latitude": 43.69773414351649, "longitude": -79.3884989222978}, "865703318RR0001": {"name": "BEREAVED FAMILIES OF ONTARIO - YORK REGION", "designationCode": "C", "categoryCode": "09", "address": "17070 YONGE STREET            STE #203", "city": "NEWMARKET", "province": "ON", "country": "CA", "postalCode": "L3Y8Z4", "twitter": "None", "instagram": "None", "facebook": "None", "youtube": "None", "website": "None", "summary": "None", "logo": "None", "latitude": 44.04413591090086, "longitude": -79.47784708387634}, "118803667RR0001": {"name": "BEREAVED FAMILIES OF ONTARIO -HALTON/PEEL", "designationCode": "C", "categoryCode": "09", "address": "610 - 33 CITY CENTRE DR", "city": "MISSISSAUGA", "province": "ON", "country": "CA", "postalCode": "L5B2N5", "twitter": "None", "instagram": "None", "facebook": "None", "youtube": "None", "website": "None", "summary": "None", "logo": "None", "latitude": 43.594569541808276, "longitude": -79.63961689586854}, "861619880RR0001": {"name": "BEREAVED FAMILIES OF ONTARIO DURHAM REGION", "designationCode": "C", "categoryCode": "09", "address": "1050 SIMCOE STREET NORTH", "city": "OSHAWA", "province": "ON", "country": "CA", "postalCode": "L1G4W5", "twitter": "None", "instagram": "None", "facebook": "None", "youtube": "None", "website": "None", "summary": "None", "logo": "None", "latitude": 43.9253688905426, "longitude": -78.87575364233709}, "865211718RR0001": {"name": "BEREAVED FAMILIES OF ONTARIO-KINGSTON REGION", "designationCode": "C", "categoryCode": "09", "address": "435 DAVIS DRIVE", "city": "KINGSTON", "province": "ON", "country": "CA", "postalCode": "K7M8L9", "twitter": "None", "instagram": "None", "facebook": "None", "youtube": "None", "website": "None", "summary": "None", "logo": "None", "latitude": 44.25158648845883, "longitude": -76.55755066763805}, "862202751RR0001": {"name": "BEREAVED FAMILIES OF ONTARIO-PETERBOROUGH REGION", "designationCode": "C", "categoryCode": "09", "address": "916 ELMDALE CRES", "city": "PETERBOROUGH", "province": "ON", "country": "CA", "postalCode": "K9H6G3", "twitter": "None", "instagram": "None", "facebook": "None", "youtube": "None", "website": "None", "summary": "None", "logo": "None", "latitude": 44.326321856800654, "longitude": -78.32278417459162}, "139322317RR0001": {"name": "BEREAVEMENT ONTARIO NETWORK", "designationCode": "C", "categoryCode": "59", "address": "174 OXFORD STREET", "city": "WOODSTOCK", "province": "ON", "country": "CA", "postalCode": "N4S6B1", "twitter": "None", "instagram": "None", "facebook": "None", "youtube": "None", "website": "None", "summary": "None", "logo": "None", "latitude": 43.135980768249766, "longitude": -80.76746831083743}, "840853261RR0001": {"name": "BERGEN MISSIONARY CHURCH FELLOWSHIP", "designationCode": "C", "categoryCode": "39", "address": "RR #2", "city": "SUNDRE", "province": "AB", "country": "CA", "postalCode": "T0M1X0", "twitter": "None", "instagram": "None", "facebook": "None", "youtube": "None", "website": "None", "summary": "None", "logo": "None", "latitude": 51.79261050000001, "longitude": -114.62985225}, "106785512RR0001": {"name": "BERGFELD MENNONITE CHURCH", "designationCode": "C", "categoryCode": "34", "address": "PO BOX 1478", "city": "ALTONA", "province": "MB", "country": "CA", "postalCode": "R0G0B0", "twitter": "None", "instagram": "None", "facebook": "None", "youtube": "None", "website": "None", "summary": "None", "logo": "None", "latitude": 49.10353800000006, "longitude": -97.55120149999993}, "129471454RR0001": {"name": "BERGTHAL MENNONITE CHURCH,", "designationCode": "C", "categoryCode": "34", "address": "R. R. 2", "city": "DIDSBURY", "province": "AB", "country": "CA", "postalCode": "T0M0W0", "twitter": "None", "instagram": "None", "facebook": "None", "youtube": "None", "website": "None", "summary": "None", "logo": "None", "latitude": 51.660720044434065, "longitude": -114.12785997446474}, "118803733RR0001": {"name": "BERGTHALER MENNONITE CHURCH INC.", "designationCode": "C", "categoryCode": "34", "address": "PO BOX 359", "city": "WARMAN", "province": "SK", "country": "CA", "postalCode": "S0K4S0", "twitter": "None", "instagram": "None", "facebook": "None", "youtube": "None", "website": "None", "summary": "None", "logo": "None", "latitude": 52.31985000000006, "longitude": -106.58322349999993}, "106785561RR0001": {"name": "BERGTHALER MENNONITE CHURCH OF ALTONA", "designationCode": "C", "categoryCode": "34", "address": "117 2 ST NW", "city": "ALTONA", "province": "MB", "country": "CA", "postalCode": "R0G0B1", "twitter": "None", "instagram": "None", "facebook": "None", "youtube": "None", "website": "None", "summary": "None", "logo": "None", "latitude": 49.10659158090485, "longitude": -97.56175593173286}, "106785579RR0001": {"name": "BERGTHALER MENNONITE CHURCH OF GRETNA", "designationCode": "C", "categoryCode": "34", "address": "BOX 89", "city": "GRETNA", "province": "MB", "country": "CA", "postalCode": "R0G0V0", "twitter": "None", "instagram": "None", "facebook": "None", "youtube": "None", "website": "None", "summary": "None", "logo": "None", "latitude": 49.007930000000044, "longitude": -97.56099999999998}, "861840072RR0001": {"name": "BERGTHALER MENNONITE CHURCH OF LEAMINGTON", "designationCode": "C", "categoryCode": "39", "address": "413 ROAD 3", "city": "LEAMINGTON", "province": "ON", "country": "CA", "postalCode": "N8H3V5", "twitter": "None", "instagram": "None", "facebook": "None", "youtube": "None", "website": "None", "summary": "None", "logo": "None", "latitude": 42.06394080183609, "longitude": -82.55564070622839}, "106785587RR0001": {"name": "BERGTHALER MENNONITE CHURCH OF MORDEN", "designationCode": "C", "categoryCode": "34", "address": "363 GILMOUR STREET", "city": "MORDEN", "province": "MB", "country": "CA", "postalCode": "R6M1M5", "twitter": "None", "instagram": "None", "facebook": "None", "youtube": "None", "website": "None", "summary": "None", "logo": "None", "latitude": 49.19662541352713, "longitude": -98.10235608771788}, "875151821RR0001": {"name": "BERKHOLD FAMILY FOUNDATION", "designationCode": "B", "categoryCode": "03", "address": "803 - 1333 8TH ST  S-W", "city": "CALGARY", "province": "AB", "country": "CA", "postalCode": "T2R1M6", "twitter": "None", "instagram": "None", "facebook": "None", "youtube": "None", "website": "None", "summary": "None", "logo": "None", "latitude": 51.04207113266203, "longitude": -114.08151041671603}, "896412608RR0001": {"name": "BERMUDIAN CANADIAN RELIEF ASSOCIATION INC.", "designationCode": "C", "categoryCode": "01", "address": "685 MCCOWAN RD                PO BOX 66559", "city": "SCARBOROUGH", "province": "ON", "country": "CA", "postalCode": "M1J3N8", "twitter": "None", "instagram": "None", "facebook": "None", "youtube": "None", "website": "None", "summary": "None", "logo": "None", "latitude": 43.7546229985766, "longitude": -79.24508901819252}, "889324190RR0001": {"name": "BERNADETTE CHILD CARE CENTRE INCORPORATED /GARDERIE BERNADETTE INCORPOREE", "designationCode": "C", "categoryCode": "20", "address": "100 THOMAS MORE PRIVATE", "city": "OTTAWA", "province": "ON", "country": "CA", "postalCode": "K1N6N5", "twitter": "None", "instagram": "None", "facebook": "None", "youtube": "None", "website": "None", "summary": "None", "logo": "None", "latitude": 45.423273478402955, "longitude": -75.68234080951817}, "118803774RR0001": {"name": "BERNADETTE MCCANN HOUSE FOR WOMEN INC.", "designationCode": "C", "categoryCode": "01", "address": "P.O. BOX 244", "city": "PEMBROKE", "province": "ON", "country": "CA", "postalCode": "K8A6X3", "twitter": "None", "instagram": "None", "facebook": "None", "youtube": "None", "website": "None", "summary": "None", "logo": "None", "latitude": 45.826494000000054, "longitude": -77.11217449999994}, "888667649RR0001": {"name": "BERNARD & NORTON WOLF FAMILY FOUNDATION", "designationCode": "B", "categoryCode": "03", "address": "SUITE 100-700 RICHMOND ST.", "city": "LONDON", "province": "ON", "country": "CA", "postalCode": "N6A5C7", "twitter": "None", "instagram": "None", "facebook": "None", "youtube": "None", "website": "None", "summary": "None", "logo": "None", "latitude": 42.99403521954524, "longitude": -81.25239318829719}, "869620047RR0001": {"name": "BERNETTA O'NEIL MEMORIAL FOUNDATION", "designationCode": "B", "categoryCode": "21", "address": "212 QUEEN STREET, SUITE 401", "city": "FREDERICTON", "province": "NB", "country": "CA", "postalCode": "E3B1A8", "twitter": "None", "instagram": "None", "facebook": "None", "youtube": "None", "website": "None", "summary": "None", "logo": "None", "latitude": 45.96471676934627, "longitude": -66.64745562698363}, "119288918RR0675": {"name": "BEROEA CONGREGATION OF JEHOVAH'S WITNESSES, TORONTO, ONTARIO", "designationCode": "C", "categoryCode": "61", "address": "423 BURNHAMTHORPE RD", "city": "ETOBICOKE", "province": "ON", "country": "CA", "postalCode": "M9B2A9", "twitter": "None", "instagram": "None", "facebook": "None", "youtube": "None", "website": "None", "summary": "None", "logo": "None", "latitude": 43.64643018347844, "longitude": -79.55945578740833}, "893260364RR0001": {"name": "BERRY CREEK CHARITABLE TRUST", "designationCode": "B", "categoryCode": "39", "address": "3425-2 AVENUE SOUTH", "city": "LETHBRIDGE", "province": "AB", "country": "CA", "postalCode": "T1J4V1", "twitter": "None", "instagram": "None", "facebook": "None", "youtube": "None", "website": "None", "summary": "None", "logo": "None", "latitude": 49.696839530439966, "longitude": -112.78914308381903}, "892809088RR0001": {"name": "BERT RIGGALL ENVIRONMENTAL FOUNDATION", "designationCode": "C", "categoryCode": "59", "address": "PO BOX 2127", "city": "PINCHER CREEK", "province": "AB", "country": "CA", "postalCode": "T0K1W0", "twitter": "None", "instagram": "None", "facebook": "None", "youtube": "None", "website": "None", "summary": "None", "logo": "None", "latitude": 49.48739000000006, "longitude": -113.9366800732874}, "867181869RR0001": {"name": "BERTRAND CREEK ENHANCEMENT SOCIETY", "designationCode": "C", "categoryCode": "52", "address": "201 - 4839 221 ST", "city": "LANGLEY", "province": "BC", "country": "CA", "postalCode": "V3A2P1", "twitter": "None", "instagram": "None", "facebook": "None", "youtube": "None", "website": "None", "summary": "None", "logo": "None", "latitude": 49.09017082968189, "longitude": -122.611584447215}, "892325580RR0001": {"name": "BERTRAND GERSTEIN FAMILY FOUNDATION", "designationCode": "B", "categoryCode": "13", "address": "55  CLAIR AVE WEST            SUITE 260", "city": "TORONTO", "province": "ON", "country": "CA", "postalCode": "M4V2Y7", "twitter": "None", "instagram": "None", "facebook": "None", "youtube": "None", "website": "None", "summary": "None", "logo": "None"}, "118803832RR0001": {"name": "BERVIE UNITED CHURCH", "designationCode": "C", "categoryCode": "44", "address": "R4 #1578", "city": "KINCARDINE", "province": "ON", "country": "CA", "postalCode": "N2Z2X5", "twitter": "None", "instagram": "None", "facebook": "None", "youtube": "None", "website": "None", "summary": "None", "logo": "None", "latitude": 44.09750400000006, "longitude": -81.41922799999993}, "879431823RR0001": {"name": "BERWICK & DISTRICT INTERFAITH OUTREACH SOCIETY", "designationCode": "C", "categoryCode": "39", "address": "P O BOX 207", "city": "BERWICK", "province": "NS", "country": "CA", "postalCode": "B0P1E0", "twitter": "None", "instagram": "None", "facebook": "None", "youtube": "None", "website": "None", "summary": "None", "logo": "None", "latitude": 45.04982000000007, "longitude": -64.73769999999996}, "118803857RR0001": {"name": "BERWICK & DISTRICT NURSERY SCHOOL", "designationCode": "C", "categoryCode": "01", "address": "155 ORCHARD STREET", "city": "BERWICK", "province": "NS", "country": "CA", "postalCode": "B0P1E0", "twitter": "None", "instagram": "None", "facebook": "None", "youtube": "None", "website": "None", "summary": "None", "logo": "None", "latitude": 45.03620074712928, "longitude": -64.74145555078199}, "865275226RR0001": {"name": "BERWICK & DISTRICT VOLUNTEER FIRE DEPARTMENT", "designationCode": "C", "categoryCode": "59", "address": "300 COMMERCIAL ST.", "city": "BERWICK", "province": "NS", "country": "CA", "postalCode": "B0P1E0", "twitter": "None", "instagram": "None", "facebook": "None", "youtube": "None", "website": "None", "summary": "None", "logo": "None", "latitude": 45.05297671302436, "longitude": -64.73871534202813}, "118803840RR0001": {"name": "BERWICK AND DISTRICT COMMUNITY ASSOCIATION", "designationCode": "C", "categoryCode": "55", "address": "PO BOX 567", "city": "BERWICK", "province": "NS", "country": "CA", "postalCode": "B0P1E0", "twitter": "None", "instagram": "None", "facebook": "None", "youtube": "None", "website": "None", "summary": "None", "logo": "None", "latitude": 45.04982000000007, "longitude": -64.73769999999996}, "890630643RR0001": {"name": "BERWICK FOOD BANK ASSOCIATION", "designationCode": "C", "categoryCode": "09", "address": "100 SOUTH ST.                 PO BOX 727", "city": "BERWICK", "province": "NS", "country": "CA", "postalCode": "B0P1E0", "twitter": "None", "instagram": "None", "facebook": "None", "youtube": "None", "website": "None", "summary": "None", "logo": "None", "latitude": 45.04386172672901, "longitude": -64.72189139015667}}