{"836906040RR0001": {"name": "DFI Mission Church Canada", "designationCode": "C", "categoryCode": "39", "address": "9 - 4490 CHESSWOOD DR", "city": "NORTH YORK", "province": "ON", "country": "CA", "postalCode": "M3J2B9", "twitter": "None", "instagram": "None", "facebook": "None", "youtube": "None", "website": "None", "summary": "None", "logo": "None", "latitude": 43.764487524265824, "longitude": -79.47669537477579}, "817167042RR0001": {"name": "DGL Charity Foundation", "designationCode": "A", "categoryCode": "03", "address": "707 MEMORIAL AVENUE", "city": "THUNDER BAY", "province": "ON", "country": "CA", "postalCode": "P7B3Z7", "twitter": "None", "instagram": "None", "facebook": "None", "youtube": "None", "website": "None", "summary": "None", "logo": "None", "latitude": 48.414688565901216, "longitude": -89.24283523252964}, "812797132RR0001": {"name": "DHAMMA - A THERAVADA BUDDHIST SOCIETY", "designationCode": "C", "categoryCode": "35", "address": "4405 COVE CLIFF ROAD", "city": "NORTH VANCOUVER", "province": "BC", "country": "CA", "postalCode": "V7G1H7", "twitter": "None", "instagram": "None", "facebook": "None", "youtube": "None", "website": "None", "summary": "None", "logo": "None", "latitude": 49.32175448845882, "longitude": -122.94908355107046}, "136112653RR0001": {"name": "DHAN GURU NANAK'S CHARITY FOUNDATION/FONDATION DE CHARITE DHAN GURU NANAK", "designationCode": "C", "categoryCode": "62", "address": "1500 RUE BELLEVUE SOUTH", "city": "GREENFIELD PARK", "province": "QC", "country": "CA", "postalCode": "J4V1K3", "twitter": "None", "instagram": "None", "facebook": "None", "youtube": "None", "website": "None", "summary": "None", "logo": "None", "latitude": 45.484655858156955, "longitude": -73.44808974545582}, "898252101RR0001": {"name": "DHARMA DRUM MOUNTAIN (ONTARIO) BUDDHIST ASSOCIATION", "designationCode": "C", "categoryCode": "35", "address": "1025 MCNICOLL AVENUE,", "city": "TORONTO", "province": "ON", "country": "CA", "postalCode": "M1W3W6", "twitter": "None", "instagram": "None", "facebook": "None", "youtube": "None", "website": "None", "summary": "None", "logo": "None", "latitude": 43.80427551788918, "longitude": -79.33482352553523}, "899332027RR0001": {"name": "DHARMA DRUM MOUNTAIN BUDDHIST ASSOCIATION", "designationCode": "C", "categoryCode": "35", "address": "8240 NO. 5 RD", "city": "RICHMOND", "province": "BC", "country": "CA", "postalCode": "V6Y2V4", "twitter": "None", "instagram": "None", "facebook": "None", "youtube": "None", "website": "None", "summary": "None", "logo": "None"}, "861746584RR0001": {"name": "DHARMA FELLOWSHIP OF HIS HOLINESS THE GYALWA KARMAPA", "designationCode": "C", "categoryCode": "35", "address": "7131 DENMAN ROAD", "city": "DENMAN ISLAND", "province": "BC", "country": "CA", "postalCode": "V0R1T0", "twitter": "None", "instagram": "None", "facebook": "None", "youtube": "None", "website": "None", "summary": "None", "logo": "None", "latitude": 49.53439718175895, "longitude": -124.76553257078346}, "118885060RR0001": {"name": "DHARMA REALM BUDDHIST ASSOCIATION", "designationCode": "C", "categoryCode": "35", "address": "248 E 11TH AVE", "city": "VANCOUVER", "province": "BC", "country": "CA", "postalCode": "V5T2C3", "twitter": "None", "instagram": "None", "facebook": "None", "youtube": "None", "website": "None", "summary": "None", "logo": "None", "latitude": 49.26111647013696, "longitude": -123.09976197016562}, "804485944RR0001": {"name": "DHATA FOUNDATION", "designationCode": "B", "categoryCode": "03", "address": "9155 MAVIS ST", "city": "CHILLIWACK", "province": "BC", "country": "CA", "postalCode": "V2P7H5", "twitter": "None", "instagram": "None", "facebook": "None", "youtube": "None", "website": "None", "summary": "None", "logo": "None", "latitude": 49.16852878380166, "longitude": -121.9706595337582}, "851478149RR0001": {"name": "DHC/ART", "designationCode": "B", "categoryCode": "22", "address": "356 RUE LEMOYNE", "city": "MONTREAL", "province": "QC", "country": "CA", "postalCode": "H2Y1Y3", "twitter": "None", "instagram": "None", "facebook": "None", "youtube": "None", "website": "None", "summary": "None", "logo": "None", "latitude": 45.50089200000005, "longitude": -73.55743999999993}, "866031370RR0001": {"name": "DHOKHAM CHUSHI GANGDRUK ONTARIO INC.", "designationCode": "C", "categoryCode": "39", "address": "67 STRATHNAIRN AVE", "city": "TORONTO", "province": "ON", "country": "CA", "postalCode": "M6M2E9", "twitter": "None", "instagram": "None", "facebook": "None", "youtube": "None", "website": "None", "summary": "None", "logo": "None", "latitude": 43.69517738161471, "longitude": -79.46852152651617}, "841753882RR0001": {"name": "DI Foundation", "designationCode": "C", "categoryCode": "29", "address": "P.O. BOX 8542", "city": "VICTORIA", "province": "BC", "country": "CA", "postalCode": "V8W3S2", "twitter": "None", "instagram": "None", "facebook": "None", "youtube": "None", "website": "None", "summary": "None", "logo": "None", "latitude": 48.42854700000005, "longitude": -123.36445249999994}, "890420045RR0001": {"name": "DIAB\u00c8TE \u00ceLES-DE-LA-MADELEINE INC.", "designationCode": "C", "categoryCode": "11", "address": "7B-315 CH PRINCIPAL", "city": "CAP-AUX-MEULES", "province": "QC", "country": "CA", "postalCode": "G4T1E2", "twitter": "None", "instagram": "None", "facebook": "None", "youtube": "None", "website": "None", "summary": "None", "logo": "None", "latitude": 47.37844823926997, "longitude": -61.865031264928156}, "891639874RR0001": {"name": "DIAB\u00c8TE MONT-LAURIER", "designationCode": "C", "categoryCode": "11", "address": "CP 114", "city": "MONT-LAURIER", "province": "QC", "country": "CA", "postalCode": "J9L3G5", "twitter": "None", "instagram": "None", "facebook": "None", "youtube": "None", "website": "None", "summary": "None", "logo": "None", "latitude": 46.50540000000005, "longitude": -75.44930749999993}, "137718334RR0001": {"name": "DIAB\u00c8TE SAINT-HYACINTHE INC.", "designationCode": "C", "categoryCode": "11", "address": "1955 AVE PRATTE", "city": "ST-HYACINTHE", "province": "QC", "country": "CA", "postalCode": "J2S7W5", "twitter": "None", "instagram": "None", "facebook": "None", "youtube": "None", "website": "None", "summary": "None", "logo": "None", "latitude": 45.6333929200188, "longitude": -72.94472295022761}, "133412155RR0001": {"name": "DIAB\u00c8TE SURO\u00ceT", "designationCode": "C", "categoryCode": "11", "address": "521 BOUL DU HAVRE             BUREAU 16", "city": "SALABERRY-DE-VALLEYFIELD", "province": "QC", "country": "CA", "postalCode": "J6S4Z5", "twitter": "None", "instagram": "None", "facebook": "None", "youtube": "None", "website": "None", "summary": "None", "logo": "None", "latitude": 45.26581253514317, "longitude": -74.12641112825303}, "118885094RR0001": {"name": "DIABETE AMIANTE INC.", "designationCode": "C", "categoryCode": "11", "address": "CP 222", "city": "THETFORD MINES", "province": "QC", "country": "CA", "postalCode": "G6G5S5", "twitter": "None", "instagram": "None", "facebook": "None", "youtube": "None", "website": "None", "summary": "None", "logo": "None", "latitude": 46.09057200000005, "longitude": -71.29926349999994}, "890253990RR0001": {"name": "DIABETE BAS ST-LAURENT INC.", "designationCode": "C", "categoryCode": "09", "address": "C.P. 622", "city": "RIMOUSKI", "province": "QC", "country": "CA", "postalCode": "G5L7C5", "twitter": "None", "instagram": "None", "facebook": "None", "youtube": "None", "website": "None", "summary": "None", "logo": "None", "latitude": 48.44933700000006, "longitude": -68.52474349999993}, "133715110RR0001": {"name": "DIABETE BEAUCE-ETCHEMIN INC.", "designationCode": "C", "categoryCode": "01", "address": "999 17E RUE                   SUITE 101", "city": "ST-GEORGES", "province": "QC", "country": "CA", "postalCode": "G5Y4W1", "twitter": "None", "instagram": "None", "facebook": "None", "youtube": "None", "website": "None", "summary": "None", "logo": "None", "latitude": 46.11151519288483, "longitude": -70.68266636037866}, "893042176RR0001": {"name": "DIABETE BOIS-FRANCS", "designationCode": "C", "categoryCode": "11", "address": "213-59 RUE MONFETTE", "city": "VICTORIAVILLE", "province": "QC", "country": "CA", "postalCode": "G6P1J8", "twitter": "None", "instagram": "None", "facebook": "None", "youtube": "None", "website": "None", "summary": "None", "logo": "None", "latitude": 46.06164779188039, "longitude": -71.9668892342031}, "145387635RR0001": {"name": "DIABETE CHARLEVOIX", "designationCode": "C", "categoryCode": "11", "address": "367 RUE ST-\u00c9TIENNE, BUR. 324", "city": "LA MALBAIE", "province": "QC", "country": "CA", "postalCode": "G5A1M3", "twitter": "None", "instagram": "None", "facebook": "None", "youtube": "None", "website": "None", "summary": "None", "logo": "None", "latitude": 47.65423718847008, "longitude": -70.14977797108924}, "118885102RR0001": {"name": "DIABETE DRUMMOND INC.", "designationCode": "C", "categoryCode": "11", "address": "210 RUE SAINT-MARCEL", "city": "DRUMMONDVILLE", "province": "QC", "country": "CA", "postalCode": "J2B2E2", "twitter": "None", "instagram": "None", "facebook": "None", "youtube": "None", "website": "None", "summary": "None", "logo": "None", "latitude": 45.8744436453055, "longitude": -72.4873767285476}, "133583054RR0001": {"name": "DIABETE ESTRIE", "designationCode": "C", "categoryCode": "11", "address": "600 WOODWARD                  BUREAU 100", "city": "SHERBROOKE", "province": "QC", "country": "CA", "postalCode": "J1G1W3", "twitter": "None", "instagram": "None", "facebook": "None", "youtube": "None", "website": "None", "summary": "None", "logo": "None", "latitude": 45.3985417621329, "longitude": -71.87447667554392}, "106734072RR0001": {"name": "DIABETE SAGUENAY", "designationCode": "C", "categoryCode": "11", "address": "257, RUE SAINT-ARMAND         PORTE 315", "city": "CHICOUTIMI", "province": "QC", "country": "CA", "postalCode": "G7G1S4", "twitter": "None", "instagram": "None", "facebook": "None", "youtube": "None", "website": "None", "summary": "None", "logo": "None", "latitude": 48.44524114797693, "longitude": -71.08687610552447}, "892347378RR0001": {"name": "DIABETES ASSOCIATION (BROOKS & DISTRICT)", "designationCode": "C", "categoryCode": "11", "address": "PO BOX 187", "city": "BROOKS", "province": "AB", "country": "CA", "postalCode": "T1R1B3", "twitter": "None", "instagram": "None", "facebook": "None", "youtube": "None", "website": "None", "summary": "None", "logo": "None", "latitude": 50.56584900000006, "longitude": -111.89848399999994}, "137698866RR0001": {"name": "DIABETES ASSOCIATION (FOOTHILLS)", "designationCode": "B", "categoryCode": "13", "address": "1400-522 UNIVERSITY AVE", "city": "TORONTO", "province": "ON", "country": "CA", "postalCode": "M5G2R5", "twitter": "None", "instagram": "None", "facebook": "None", "youtube": "None", "website": "None", "summary": "None", "logo": "None", "latitude": 43.65597971994926, "longitude": -79.38900529894951}, "118885110RR0001": {"name": "DIABETES CANADA", "designationCode": "C", "categoryCode": "11", "address": "1400 - 522 UNIVERSITY AVE", "city": "TORONTO", "province": "ON", "country": "CA", "postalCode": "M5G2R5", "twitter": "None", "instagram": "None", "facebook": "None", "youtube": "None", "website": "None", "summary": "None", "logo": "None", "latitude": 43.65597971994926, "longitude": -79.38900529894951}, "118885128RR0001": {"name": "DIABETES FOUNDATION OF MANITOBA, INC.", "designationCode": "C", "categoryCode": "11", "address": "43 D'ARCY DR", "city": "WINNIPEG", "province": "MB", "country": "CA", "postalCode": "R3T2K5", "twitter": "None", "instagram": "None", "facebook": "None", "youtube": "None", "website": "None", "summary": "None", "logo": "None", "latitude": 49.81900550346246, "longitude": -97.14416693092481}, "865276372RR0001": {"name": "DIABETES HOPE FOUNDATION", "designationCode": "A", "categoryCode": "13", "address": "6150 DIXIE ROAD               UNIT 1", "city": "MISSISSAUGA", "province": "ON", "country": "CA", "postalCode": "L5T2E2", "twitter": "None", "instagram": "None", "facebook": "None", "youtube": "None", "website": "None", "summary": "None", "logo": "None", "latitude": 43.657998760719266, "longitude": -79.65132807721125}, "886730993RR0001": {"name": "DIABETES RESEARCH AND TREATMENT CENTRE WINNIPEG INC /CENTRE DE RESEARCHE ET TRAITEMENT DE DIABETE WINNIPEG INC", "designationCode": "C", "categoryCode": "11", "address": "4 DEVONSHIRE PLACE(ROOM 2)    BUILDING 3", "city": "TORONTO", "province": "ON", "country": "CA", "postalCode": "M5S2E1", "twitter": "None", "instagram": "None", "facebook": "None", "youtube": "None", "website": "None", "summary": "None", "logo": "None", "latitude": 43.664489738271136, "longitude": -79.3970538094811}, "832018279RR0001": {"name": "DIABETES RESEARCH INSTITUTE FOUNDATION, CANADA, INC.", "designationCode": "A", "categoryCode": "13", "address": "1020 MACEWAN CLOSE SW", "city": "EDMONTON", "province": "AB", "country": "CA", "postalCode": "T6W1K2", "twitter": "None", "instagram": "None", "facebook": "None", "youtube": "None", "website": "None", "summary": "None", "logo": "None", "latitude": 53.430317748542905, "longitude": -113.5233761049395}, "118885144RR0001": {"name": "DIABETIQUES DE LANAUDIERE INC.", "designationCode": "C", "categoryCode": "11", "address": "1000 BOUL.STE-ANNE BUREAU 341", "city": "ST-CHARLES BORROMEE", "province": "QC", "country": "CA", "postalCode": "J6E6J2", "twitter": "None", "instagram": "None", "facebook": "None", "youtube": "None", "website": "None", "summary": "None", "logo": "None", "latitude": 46.03767297827174, "longitude": -73.45490341639764}, "861466423RR0001": {"name": "DIABETIQUES HAUT ST-LAURENT / DIABETICS HAUT ST-LAURENT", "designationCode": "C", "categoryCode": "11", "address": "241, ROUTE 236", "city": "ST-STANISLAS-DE-KOSTKA", "province": "QC", "country": "CA", "postalCode": "J0S1W0", "twitter": "None", "instagram": "None", "facebook": "None", "youtube": "None", "website": "None", "summary": "None", "logo": "None", "latitude": 45.179417738779435, "longitude": -74.11352078510647}, "893093377RR0001": {"name": "DIACONAL MINISTRIES CANADA", "designationCode": "C", "categoryCode": "47", "address": "3475 MAINWAY DR               PO BOX 5070 STN LCD 1", "city": "BURLINGTON", "province": "ON", "country": "CA", "postalCode": "L7R3Y8", "twitter": "None", "instagram": "None", "facebook": "None", "youtube": "None", "website": "None", "summary": "None", "logo": "None", "latitude": 43.37043221262034, "longitude": -79.79729227869441}, "119143436RR0001": {"name": "DIAGEO EMPLOYEES' CHARITY FUND", "designationCode": "B", "categoryCode": "05", "address": "P.O. BOX 2000", "city": "GIMLI", "province": "MB", "country": "CA", "postalCode": "R0C1B0", "twitter": "None", "instagram": "None", "facebook": "None", "youtube": "None", "website": "None", "summary": "None", "logo": "None", "latitude": 50.30677349294383, "longitude": -96.92898988377391}, "101098168RR0001": {"name": "DIAGONALE", "designationCode": "C", "categoryCode": "22", "address": "5455, AVENUE DE GASP\u00c9         RDO #110", "city": "MONTREAL", "province": "QC", "country": "CA", "postalCode": "H2T3B3", "twitter": "None", "instagram": "None", "facebook": "None", "youtube": "None", "website": "None", "summary": "None", "logo": "None", "latitude": 45.52730326146909, "longitude": -73.5965688996481}, "887197085RR0001": {"name": "DIAKONIA OF THE UNITED CHURCH OF CANADA", "designationCode": "C", "categoryCode": "49", "address": "PO BOX 99", "city": "OYEN", "province": "AB", "country": "CA", "postalCode": "T0J2J0", "twitter": "None", "instagram": "None", "facebook": "None", "youtube": "None", "website": "None", "summary": "None", "logo": "None", "latitude": 51.366820000000075, "longitude": -110.46831999999995}, "131135980RR0001": {"name": "DIAL-A-LIFE HOUSING INC.", "designationCode": "C", "categoryCode": "09", "address": "130 WATSON STREET             SUITE 100", "city": "WINNIPEG", "province": "MB", "country": "CA", "postalCode": "R2P1Y4", "twitter": "None", "instagram": "None", "facebook": "None", "youtube": "None", "website": "None", "summary": "None", "logo": "None", "latitude": 49.950352428213094, "longitude": -97.15534912790726}, "118885201RR0001": {"name": "DIAMOND FOUNDATION", "designationCode": "B", "categoryCode": "03", "address": "1292 VENABLES STREET", "city": "VANCOUVER", "province": "BC", "country": "CA", "postalCode": "V6A4B4", "twitter": "None", "instagram": "None", "facebook": "None", "youtube": "None", "website": "None", "summary": "None", "logo": "None", "latitude": 49.27675749841348, "longitude": -123.07839198848747}, "137963476RR0001": {"name": "DIAMOND LOTUS FOUNDATION", "designationCode": "B", "categoryCode": "49", "address": "#1003A, 10109 - 106 STREET NW", "city": "EDMONTON", "province": "AB", "country": "CA", "postalCode": "T5J3L7", "twitter": "None", "instagram": "None", "facebook": "None", "youtube": "None", "website": "None", "summary": "None", "logo": "None", "latitude": 53.54249587226279, "longitude": -113.5028835}, "132774654RR0001": {"name": "DIAMOND VALLEY COMMUNITY CHURCH", "designationCode": "C", "categoryCode": "36", "address": "RR 3", "city": "ECKVILLE", "province": "AB", "country": "CA", "postalCode": "T0M0X0", "twitter": "None", "instagram": "None", "facebook": "None", "youtube": "None", "website": "None", "summary": "None", "logo": "None", "latitude": 52.359560000000045, "longitude": -114.36145999999997}, "119272896RR0001": {"name": "DIAMOND VALLEY PASTORAL CHARGE", "designationCode": "C", "categoryCode": "44", "address": "P O BOX 118", "city": "TURNER VALLEY", "province": "AB", "country": "CA", "postalCode": "T0L2A0", "twitter": "None", "instagram": "None", "facebook": "None", "youtube": "None", "website": "None", "summary": "None", "logo": "None", "latitude": 50.663565, "longitude": -114.28559999999999}, "830336871RR0001": {"name": "DIAMOND WAY BUDDHIST FOUNDATION OF CANADA", "designationCode": "C", "categoryCode": "35", "address": "#200-304002 162 AVE WEST", "city": "FOOTHILLS", "province": "AB", "country": "CA", "postalCode": "T0L1W2", "twitter": "None", "instagram": "None", "facebook": "None", "youtube": "None", "website": "None", "summary": "None", "logo": "None", "latitude": 50.90733210083023, "longitude": -114.44072283428441}, "892545161RR0001": {"name": "DIAMOND WAY BUDDHIST SOCIETY, EDMONTON", "designationCode": "C", "categoryCode": "35", "address": "UNIT 1, 13015-117 AVENUE NW", "city": "EDMONTON", "province": "AB", "country": "CA", "postalCode": "T5M3H4", "twitter": "None", "instagram": "None", "facebook": "None", "youtube": "None", "website": "None", "summary": "None", "logo": "None", "latitude": 53.5684085323159, "longitude": -113.54709166763806}, "897365045RR0001": {"name": "DIAMOND/VALLEY & DISTRICT BOYS AND GIRLS CLUB", "designationCode": "C", "categoryCode": "09", "address": "PO BOX 904", "city": "BLACK DIAMOND", "province": "AB", "country": "CA", "postalCode": "T0H0H0", "twitter": "None", "instagram": "None", "facebook": "None", "youtube": "None", "website": "None", "summary": "None", "logo": "None", "latitude": 50.70011000000005, "longitude": -114.23529999999994}, "837987320RR0001": {"name": "DIANA GEE MEMORIAL TRUST", "designationCode": "C", "categoryCode": "21", "address": "204-56 THE ESPLANADE", "city": "TORONTO", "province": "ON", "country": "CA", "postalCode": "M5E1A7", "twitter": "None", "instagram": "None", "facebook": "None", "youtube": "None", "website": "None", "summary": "None", "logo": "None", "latitude": 43.64700501001199, "longitude": -79.37391652236123}, "869925305RR0001": {"name": "DIANE HARWOOD MEMORIAL TRUST", "designationCode": "B", "categoryCode": "05", "address": "SUITE 1600-333 SEYMOUR STREET", "city": "VANCOUVER", "province": "BC", "country": "CA", "postalCode": "V6B0A4", "twitter": "None", "instagram": "None", "facebook": "None", "youtube": "None", "website": "None", "summary": "None", "logo": "None", "latitude": 49.28514037942167, "longitude": -123.11218777257757}, "123654188RR0001": {"name": "DIANOVA CANADA INC.", "designationCode": "C", "categoryCode": "57", "address": "1273 RUE SAINT ANDR\u00c9", "city": "MONTR\u00c9AL", "province": "QC", "country": "CA", "postalCode": "H2L3T1", "twitter": "None", "instagram": "None", "facebook": "None", "youtube": "None", "website": "None", "summary": "None", "logo": "None", "latitude": 45.51608329032252, "longitude": -73.55739081972423}, "886614452RR0001": {"name": "DIAPASON-JEUNESSE", "designationCode": "C", "categoryCode": "09", "address": "599 ST-ANDRE", "city": "LAVAL", "province": "QC", "country": "CA", "postalCode": "H7G3A4", "twitter": "None", "instagram": "None", "facebook": "None", "youtube": "None", "website": "None", "summary": "None", "logo": "None", "latitude": 45.57339536386978, "longitude": -73.69267128169551}, "874040108RR0001": {"name": "DIASOL", "designationCode": "C", "categoryCode": "21", "address": "1296 AVENUE LEO LACOMBE", "city": "LAVAL", "province": "QC", "country": "CA", "postalCode": "H7N3Y6", "twitter": "None", "instagram": "None", "facebook": "None", "youtube": "None", "website": "None", "summary": "None", "logo": "None", "latitude": 45.55983467669775, "longitude": -73.70788895051608}, "834484271RR0001": {"name": "DIASPORA DIALOGUES CHARITABLE SOCIETY", "designationCode": "C", "categoryCode": "22", "address": "304-14 PRINCE ARTHUR AVE", "city": "TORONTO", "province": "ON", "country": "CA", "postalCode": "M5R1A9", "twitter": "None", "instagram": "None", "facebook": "None", "youtube": "None", "website": "None", "summary": "None", "logo": "None", "latitude": 43.669715216227004, "longitude": -79.39569717805408}, "818554677RR0001": {"name": "DICK BARR CHARITABLE FOUNDATION", "designationCode": "B", "categoryCode": "03", "address": "#200 - 1687 WEST BROADWAY", "city": "VANCOUVER", "province": "BC", "country": "CA", "postalCode": "V6J1X2", "twitter": "None", "instagram": "None", "facebook": "None", "youtube": "None", "website": "None", "summary": "None", "logo": "None", "latitude": 49.26370551154119, "longitude": -123.14294932944775}, "118885250RR0001": {"name": "DICKINSFIELD AMITY HOUSE", "designationCode": "C", "categoryCode": "09", "address": "9213 146 AVE NW", "city": "EDMONTON", "province": "AB", "country": "CA", "postalCode": "T5E2J9", "twitter": "None", "instagram": "None", "facebook": "None", "youtube": "None", "website": "None", "summary": "None", "logo": "None", "latitude": 53.60828674634861, "longitude": -113.48275226330735}, "119229359RR0001": {"name": "DICKSON STORE MUSEUM SOCIETY", "designationCode": "C", "categoryCode": "50", "address": "1928 DICKSON BOX 146", "city": "SPRUCE VIEW", "province": "AB", "country": "CA", "postalCode": "T0M1V0", "twitter": "None", "instagram": "None", "facebook": "None", "youtube": "None", "website": "None", "summary": "None", "logo": "None", "latitude": 52.36139400000006, "longitude": -114.36882649999993}, "133382770RR0001": {"name": "DICTIONARY OF HAMILTON BIOGRAPHY", "designationCode": "C", "categoryCode": "21", "address": "400 - 175 LONGWOOD RD S", "city": "HAMILTON", "province": "ON", "country": "CA", "postalCode": "L8P0A1", "twitter": "None", "instagram": "None", "facebook": "None", "youtube": "None", "website": "None", "summary": "None", "logo": "None", "latitude": 43.25359288916674, "longitude": -79.90272099341341}, "118885292RR0001": {"name": "DIDSBURY AND DISTRICT HISTORICAL SOCIETY", "designationCode": "C", "categoryCode": "50", "address": "BOX 1175", "city": "DIDSBURY", "province": "AB", "country": "CA", "postalCode": "T0M0W0", "twitter": "None", "instagram": "None", "facebook": "None", "youtube": "None", "website": "None", "summary": "None", "logo": "None", "latitude": 51.666270000000054, "longitude": -114.13792999999998}, "871874525RR0001": {"name": "DIDSBURY AND DISTRICT HOME HELP ASSOCIATION", "designationCode": "C", "categoryCode": "09", "address": "PO BOX 790", "city": "DIDSBURY", "province": "AB", "country": "CA", "postalCode": "T0M0W0", "twitter": "None", "instagram": "None", "facebook": "None", "youtube": "None", "website": "None", "summary": "None", "logo": "None", "latitude": 51.666270000000054, "longitude": -114.13792999999998}, "107019358RR0001": {"name": "DIE KLEINE KINDERSCHULE/KINDERGARTEN SOCIETY", "designationCode": "C", "categoryCode": "20", "address": "10304 81 ST NW", "city": "EDMONTON", "province": "AB", "country": "CA", "postalCode": "T6A3X4", "twitter": "None", "instagram": "None", "facebook": "None", "youtube": "None", "website": "None", "summary": "None", "logo": "None", "latitude": 53.54480699999999, "longitude": -113.45252020102089}, "107371577RR0001": {"name": "DIEFENBAKER DRIVE COMMUNITY CHURCH INC.", "designationCode": "C", "categoryCode": "31", "address": "3710 DIEFENBAKER DR", "city": "SASKATOON", "province": "SK", "country": "CA", "postalCode": "S7L6R9", "twitter": "None", "instagram": "None", "facebook": "None", "youtube": "None", "website": "None", "summary": "None", "logo": "None", "latitude": 52.13706247215617, "longitude": -106.74263916902304}, "869747691RR0001": {"name": "DIEFENBUNKER CANADA'S COLD WAR MUSEUM/MUS\u00c9E CANADIEN DE LA GUERRE FROIDE", "designationCode": "C", "categoryCode": "50", "address": "BOX 466                       3929 CARP ROAD", "city": "CARP", "province": "ON", "country": "CA", "postalCode": "K0A1L0", "twitter": "None", "instagram": "None", "facebook": "None", "youtube": "None", "website": "None", "summary": "None", "logo": "None", "latitude": 45.352284269320364, "longitude": -76.04547213612969}, "894503663RR0001": {"name": "DIEMACO (1984) INC. EMPLOYEES CHARITY TRUST", "designationCode": "B", "categoryCode": "75", "address": "1036 WILSON AVENUE", "city": "KITCHENER", "province": "ON", "country": "CA", "postalCode": "N2C1J3", "twitter": "None", "instagram": "None", "facebook": "None", "youtube": "None", "website": "None", "summary": "None", "logo": "None", "latitude": 43.40766156621831, "longitude": -80.43922935521411}, "118885342RR0001": {"name": "DIEPPE BOYS AND GIRLS CLUB INC. / CLUB DES GARCONS ET FILLES DE DIEPPE INC.", "designationCode": "C", "categoryCode": "56", "address": "76 EMMANUEL ST.", "city": "DIEPPE", "province": "NB", "country": "CA", "postalCode": "E1A2J5", "twitter": "None", "instagram": "None", "facebook": "None", "youtube": "None", "website": "None", "summary": "None", "logo": "None", "latitude": 46.100008583386355, "longitude": -64.68063306272721}, "852778273RR0001": {"name": "DIFFUSION AVANT SC\u00c8NE", "designationCode": "C", "categoryCode": "22", "address": "2172 CH. DU FLEUVE", "city": "SAINT-ROMUALD", "province": "QC", "country": "CA", "postalCode": "G6W1Y6", "twitter": "None", "instagram": "None", "facebook": "None", "youtube": "None", "website": "None", "summary": "None", "logo": "None", "latitude": 46.75801614319938, "longitude": -71.24021724588852}, "118885375RR0001": {"name": "DIFFUSION COMMUNAUTAIRE BAIE DES CHALEURS INC.", "designationCode": "C", "categoryCode": "22", "address": "1645 BOUL. PERRON", "city": "CARLETON", "province": "QC", "country": "CA", "postalCode": "G0C1J0", "twitter": "None", "instagram": "None", "facebook": "None", "youtube": "None", "website": "None", "summary": "None", "logo": "None", "latitude": 48.12713025699702, "longitude": -66.04327183608419}, "118885383RR0001": {"name": "DIFFUSION COMMUNAUTAIRE DES ILES INC.", "designationCode": "C", "categoryCode": "56", "address": "CP 8192", "city": "CAP-AUX-MEULES", "province": "QC", "country": "CA", "postalCode": "G4T1R3", "twitter": "None", "instagram": "None", "facebook": "None", "youtube": "None", "website": "None", "summary": "None", "logo": "None", "latitude": 47.37974000000003, "longitude": -61.86138999999997}, "101161115RR0001": {"name": "DIFFUSION CULTURELLE DE LEVIS", "designationCode": "C", "categoryCode": "22", "address": "33 RUE WOLFE, CP 60033", "city": "LEVIS", "province": "QC", "country": "CA", "postalCode": "G6V8W9", "twitter": "None", "instagram": "None", "facebook": "None", "youtube": "None", "website": "None", "summary": "None", "logo": "None", "latitude": 46.80843165999202, "longitude": -71.18448135423316}, "103274528RR0001": {"name": "DIFFUSIONS DE LA COULISSE INC.", "designationCode": "C", "categoryCode": "22", "address": "600 RICHELIEU                 CENTRE CULTUREL BELOEIL", "city": "BELOEIL", "province": "QC", "country": "CA", "postalCode": "J3G5E8", "twitter": "None", "instagram": "None", "facebook": "None", "youtube": "None", "website": "None", "summary": "None", "logo": "None", "latitude": 45.56036005496563, "longitude": -73.2046500705461}, "128332855RR0001": {"name": "DIFFUSIONS GAIES ET LESBIENNES DU QUEBEC INC.", "designationCode": "C", "categoryCode": "22", "address": "4067, BOUL. ST-LAURENT #404", "city": "MONTREAL", "province": "QC", "country": "CA", "postalCode": "H2W1Y7", "twitter": "None", "instagram": "None", "facebook": "None", "youtube": "None", "website": "None", "summary": "None", "logo": "None", "latitude": 45.51719115932819, "longitude": -73.5798487801663}, "890321979RR0001": {"name": "DIGBY AND AREA FOOD BANK", "designationCode": "C", "categoryCode": "09", "address": "PO BOX 32", "city": "DIGBY", "province": "NS", "country": "CA", "postalCode": "B0V1A0", "twitter": "None", "instagram": "None", "facebook": "None", "youtube": "None", "website": "None", "summary": "None", "logo": "None", "latitude": 44.39616000000005, "longitude": -66.20374249999993}, "891289340RR0001": {"name": "DIGBY AND AREA HEALTH SERVICE CHARITABLE FOUNDATION", "designationCode": "A", "categoryCode": "13", "address": "PO BOX 820", "city": "DIGBY", "province": "NS", "country": "CA", "postalCode": "B0V1A0", "twitter": "None", "instagram": "None", "facebook": "None", "youtube": "None", "website": "None", "summary": "None", "logo": "None", "latitude": 44.39616000000005, "longitude": -66.20374249999993}, "889384392RR0001": {"name": "DIGBY AREA LEARNING ASSOCIATION", "designationCode": "C", "categoryCode": "20", "address": "PO BOX 968                    53 MOUNT STREET", "city": "DIGBY", "province": "NS", "country": "CA", "postalCode": "B0V1A0", "twitter": "None", "instagram": "None", "facebook": "None", "youtube": "None", "website": "None", "summary": "None", "logo": "None", "latitude": 44.61936271827583, "longitude": -65.76056648528481}, "853682284RR0001": {"name": "DIGBY DISABILITIES PARTNERSHIP COMMITTEE", "designationCode": "C", "categoryCode": "59", "address": "1 BIRCH STREET, P.O. BOX 1990", "city": "DIGBY", "province": "NS", "country": "CA", "postalCode": "B0V1A0", "twitter": "None", "instagram": "None", "facebook": "None", "youtube": "None", "website": "None", "summary": "None", "logo": "None", "latitude": 44.62591907576896, "longitude": -65.75675984000799}, "118885425RR0001": {"name": "DIGBY FIRE DEPARTMENT", "designationCode": "C", "categoryCode": "29", "address": "P.O. BOX 152", "city": "DIGBY", "province": "NS", "country": "CA", "postalCode": "B0V1A0", "twitter": "None", "instagram": "None", "facebook": "None", "youtube": "None", "website": "None", "summary": "None", "logo": "None", "latitude": 44.39616000000005, "longitude": -66.20374249999993}, "131885436RR0001": {"name": "DIGBY NECK SECOND UNITED BAPTIST CHURCH", "designationCode": "C", "categoryCode": "31", "address": "RR 1", "city": "SANDY COVE", "province": "NS", "country": "CA", "postalCode": "B0V1E0", "twitter": "None", "instagram": "None", "facebook": "None", "youtube": "None", "website": "None", "summary": "None", "logo": "None", "latitude": 44.48980257955857, "longitude": -66.08506940631007}, "107669848RR0010": {"name": "DIGBY SEVENTH-DAY ADVENTIST CHURCH", "designationCode": "C", "categoryCode": "41", "address": "121 SALISBURY RD", "city": "MONCTON", "province": "NB", "country": "CA", "postalCode": "E1E1A6", "twitter": "None", "instagram": "None", "facebook": "None", "youtube": "None", "website": "None", "summary": "None", "logo": "None", "latitude": 46.0711640413756, "longitude": -64.82144086984238}, "118885482RR0001": {"name": "DIGBY TOWN AND MUNICIPAL HOUSING CORPORATION", "designationCode": "C", "categoryCode": "01", "address": "74 PLEASANT STREET", "city": "DIGBY", "province": "NS", "country": "CA", "postalCode": "B0V1A0", "twitter": "None", "instagram": "None", "facebook": "None", "youtube": "None", "website": "None", "summary": "None", "logo": "None", "latitude": 44.61043264006378, "longitude": -65.7645780722707}, "118885490RR0001": {"name": "DIGBY UNITED BAPTIST CHURCH", "designationCode": "C", "categoryCode": "31", "address": "PO BOX 35", "city": "DIGBY", "province": "NS", "country": "CA", "postalCode": "B0V1A0", "twitter": "None", "instagram": "None", "facebook": "None", "youtube": "None", "website": "None", "summary": "None", "logo": "None", "latitude": 44.39616000000005, "longitude": -66.20374249999993}, "118885417RR0001": {"name": "DIGBY/ANNAPOLIS CHRISTMAS DADDIES FUND COMMITTEE", "designationCode": "C", "categoryCode": "09", "address": "BOX 1024", "city": "DIGBY", "province": "NS", "country": "CA", "postalCode": "B0V1A0", "twitter": "None", "instagram": "None", "facebook": "None", "youtube": "None", "website": "None", "summary": "None", "logo": "None", "latitude": 44.39616000000005, "longitude": -66.20374249999993}, "863303137RR0001": {"name": "DIGITAL OPPORTUNITY TRUST", "designationCode": "C", "categoryCode": "21", "address": "5 BLACKBURN AVE", "city": "OTTAWA", "province": "ON", "country": "CA", "postalCode": "K1N8A2", "twitter": "None", "instagram": "None", "facebook": "None", "youtube": "None", "website": "None", "summary": "None", "logo": "None", "latitude": 45.42748808632919, "longitude": -75.67700585703177}, "860333426RR0001": {"name": "DIGNITAS INTERNATIONAL", "designationCode": "C", "categoryCode": "19", "address": "335 - 550 QUEEN ST E", "city": "TORONTO", "province": "ON", "country": "CA", "postalCode": "M5A1V2", "twitter": "None", "instagram": "None", "facebook": "None", "youtube": "None", "website": "None", "summary": "None", "logo": "None", "latitude": 43.65727713240797, "longitude": -79.35708925757393}, "844480467RR0001": {"name": "DIL Canada for Literacy", "designationCode": "C", "categoryCode": "21", "address": "5359 CANOTEK ROAD", "city": "OTTAWA", "province": "ON", "country": "CA", "postalCode": "K1J9E5", "twitter": "None", "instagram": "None", "facebook": "None", "youtube": "None", "website": "None", "summary": "None", "logo": "None", "latitude": 45.455150555109824, "longitude": -75.58376342079725}, "107019812RR0001": {"name": "DILICO ANISHINABEK FAMILY CARE", "designationCode": "C", "categoryCode": "09", "address": "200 ANEMKI PLACE", "city": "FORT WILLIAM FIRST NATION", "province": "ON", "country": "CA", "postalCode": "P7J1L6", "twitter": "None", "instagram": "None", "facebook": "None", "youtube": "None", "website": "None", "summary": "None", "logo": "None", "latitude": 48.34924543724707, "longitude": -89.2646258066982}, "118885508RR0001": {"name": "DILIGENT RIVER UNITED BAPTIST CHURCH", "designationCode": "C", "categoryCode": "31", "address": "10659 HIGHWAY 209             RR3", "city": "PARRSBORO", "province": "NS", "country": "CA", "postalCode": "B0M1S0", "twitter": "None", "instagram": "None", "facebook": "None", "youtube": "None", "website": "None", "summary": "None", "logo": "None", "latitude": 45.4172755855824, "longitude": -64.43208130669841}, "889494597RR0001": {"name": "DILKE AND DISTRICT DONORS CHOICE", "designationCode": "A", "categoryCode": "05", "address": "PO BOX 27", "city": "DILKE", "province": "SK", "country": "CA", "postalCode": "S0G1C0", "twitter": "None", "instagram": "None", "facebook": "None", "youtube": "None", "website": "None", "summary": "None", "logo": "None", "latitude": 50.86569000000003, "longitude": -105.25358999999997}, "118885524RR0001": {"name": "DILKE ATHLETIC CO-OPERATIVE LIMITED", "designationCode": "C", "categoryCode": "56", "address": "P O BOX 156", "city": "DILKE", "province": "SK", "country": "CA", "postalCode": "S0G1C0", "twitter": "None", "instagram": "None", "facebook": "None", "youtube": "None", "website": "None", "summary": "None", "logo": "None", "latitude": 50.86569000000003, "longitude": -105.25358999999997}, "118885532RR0001": {"name": "DILKE CEMETERY FUND", "designationCode": "C", "categoryCode": "59", "address": "BOX 52", "city": "DILKE", "province": "SK", "country": "CA", "postalCode": "S0G1C0", "twitter": "None", "instagram": "None", "facebook": "None", "youtube": "None", "website": "None", "summary": "None", "logo": "None", "latitude": 50.86569000000003, "longitude": -105.25358999999997}, "119288918RR0734": {"name": "DILWORTH MOUNTAIN CONGREGATION OF JEHOVAH'S WITNESSES", "designationCode": "C", "categoryCode": "61", "address": "5 - 1450 UNION RD", "city": "KELOWNA", "province": "BC", "country": "CA", "postalCode": "V1V3E1", "twitter": "None", "instagram": "None", "facebook": "None", "youtube": "None", "website": "None", "summary": "None", "logo": "None", "latitude": 49.94119718364661, "longitude": -119.4427800581981}, "875570327RR0001": {"name": "DIMENSION TRAVAIL", "designationCode": "C", "categoryCode": "59", "address": "1717 ST-MARTIN                BUR. 300", "city": "LAVAL", "province": "QC", "country": "CA", "postalCode": "H7S1N2", "twitter": "None", "instagram": "None", "facebook": "None", "youtube": "None", "website": "None", "summary": "None", "logo": "None", "latitude": 45.56766974802332, "longitude": -73.72847386404266}, "887781664RR0001": {"name": "DINDAYAL DUBE FOUNDATION", "designationCode": "C", "categoryCode": "21", "address": "9 OLD STONE COURT", "city": "GUELPH", "province": "ON", "country": "CA", "postalCode": "N1G4P1", "twitter": "None", "instagram": "None", "facebook": "None", "youtube": "None", "website": "None", "summary": "None", "logo": "None", "latitude": 43.529351280599, "longitude": -80.21999719516386}, "891484560RR0001": {"name": "DINNERS UNLIMITED 2005", "designationCode": "C", "categoryCode": "09", "address": "226 DESCHAMPS AVE", "city": "VANIER", "province": "ON", "country": "CA", "postalCode": "K1L5Y9", "twitter": "None", "instagram": "None", "facebook": "None", "youtube": "None", "website": "None", "summary": "None", "logo": "None", "latitude": 45.43687261613492, "longitude": -75.66298771565009}, "893219972RR0001": {"name": "DINOSAUR RESEARCH INSTITUTE", "designationCode": "C", "categoryCode": "21", "address": "P.O. BOX 6353                 STATION 'D'", "city": "CALGARY", "province": "AB", "country": "CA", "postalCode": "T2P2C9", "twitter": "None", "instagram": "None", "facebook": "None", "youtube": "None", "website": "None", "summary": "None", "logo": "None", "latitude": 51.04531500000006, "longitude": -114.06301099999993}, "890195688RR0001": {"name": "DINSMORE & DISTRICT DONATION DRIVE", "designationCode": "C", "categoryCode": "05", "address": "BOX 454", "city": "DINSMORE", "province": "SK", "country": "CA", "postalCode": "S0L0T0", "twitter": "None", "instagram": "None", "facebook": "None", "youtube": "None", "website": "None", "summary": "None", "logo": "None", "latitude": 51.16329, "longitude": -106.82189550000001}, "893030361RR0001": {"name": "DINSMORE AND DISTRICT HEALTH FOUNDATION INC.", "designationCode": "A", "categoryCode": "13", "address": "BOX 278", "city": "DINSMORE", "province": "SK", "country": "CA", "postalCode": "S0L0T0", "twitter": "None", "instagram": "None", "facebook": "None", "youtube": "None", "website": "None", "summary": "None", "logo": "None", "latitude": 51.16329, "longitude": -106.82189550000001}, "141049775RR0001": {"name": "DINSMORE CHARITABLE TRUST", "designationCode": "B", "categoryCode": "39", "address": "3425 2 AVENUE SOUTH", "city": "LETHBRIDGE", "province": "AB", "country": "CA", "postalCode": "T1J4V1", "twitter": "None", "instagram": "None", "facebook": "None", "youtube": "None", "website": "None", "summary": "None", "logo": "None", "latitude": 49.696839530439966, "longitude": -112.78914308381903}, "118885573RR0001": {"name": "DINSMORE UNITED CHURCH", "designationCode": "C", "categoryCode": "44", "address": "PO BOX 487", "city": "DINSMORE", "province": "SK", "country": "CA", "postalCode": "S0L0T0", "twitter": "None", "instagram": "None", "facebook": "None", "youtube": "None", "website": "None", "summary": "None", "logo": "None", "latitude": 51.16329, "longitude": -106.82189550000001}, "118885581RR0001": {"name": "DIOCESAN COMMISSION ON MISSIONS DIOCESE OF LONDON", "designationCode": "C", "categoryCode": "47", "address": "P.O. BOX 22004                TWIN LAKES POSTAL OUTLET", "city": "SARNIA", "province": "ON", "country": "CA", "postalCode": "N7S6J4", "twitter": "None", "instagram": "None", "facebook": "None", "youtube": "None", "website": "None", "summary": "None", "logo": "None", "latitude": 43.00425701754948, "longitude": -82.36109054594768}, "891317687RR0001": {"name": "DIOCESAN PRIESTHOOD GUILD OF MONTREAL", "designationCode": "C", "categoryCode": "20", "address": "2000 SHERBROOKE ST W", "city": "MONTREAL", "province": "QC", "country": "CA", "postalCode": "H3H1G4", "twitter": "None", "instagram": "None", "facebook": "None", "youtube": "None", "website": "None", "summary": "None", "logo": "None"}, "122341340RR0001": {"name": "DIOCESAN SYNOD OF NOVA SCOTIA AND PRINCE EDWARD ISLAND", "designationCode": "C", "categoryCode": "39", "address": "1340 CATHEDRAL LANE", "city": "HALIFAX", "province": "NS", "country": "CA", "postalCode": "B3H2Z1", "twitter": "None", "instagram": "None", "facebook": "None", "youtube": "None", "website": "None", "summary": "None", "logo": "None", "latitude": 44.63498400000006, "longitude": -63.584094499999935}, "118885664RR0001": {"name": "DIOCESE OF MOOSONEE BISHOPS DISCRETIONARY FUND", "designationCode": "C", "categoryCode": "49", "address": "113 THIRD STREET WEST STE B   PO BOX 735", "city": "COCHRANE", "province": "ON", "country": "CA", "postalCode": "P0L1C0", "twitter": "None", "instagram": "None", "facebook": "None", "youtube": "None", "website": "None", "summary": "None", "logo": "None", "latitude": 49.06161266907716, "longitude": -81.02982928753386}, "889193397RR0001": {"name": "DIOCESE OF MOOSONEE COMBINED TRUST FUND", "designationCode": "A", "categoryCode": "45", "address": "B-113 THIRD STREET WEST       PO BOX 735", "city": "COCHRANE", "province": "ON", "country": "CA", "postalCode": "P0L1C0", "twitter": "None", "instagram": "None", "facebook": "None", "youtube": "None", "website": "None", "summary": "None", "logo": "None", "latitude": 49.0619844676841, "longitude": -81.0270908068267}}