{"857086375RR0001": {"name": "CRESCENT VILLAGE TRUST", "designationCode": "C", "categoryCode": "01", "address": "138 YORKLAND STREET           UNIT 62", "city": "RICHMOND HILL", "province": "ON", "country": "CA", "postalCode": "L4S1J1", "twitter": "None", "instagram": "None", "facebook": "None", "youtube": "None", "website": "None", "summary": "None", "logo": "None", "latitude": 43.89865721787181, "longitude": -79.43930998698693}, "106992589RR0001": {"name": "CRESCENT-FORT ROUGE UNITED CHURCH", "designationCode": "C", "categoryCode": "44", "address": "525 WARDLAW AVENUE            ATTN: OFFICE ADMINISTRATOR", "city": "WINNIPEG", "province": "MB", "country": "CA", "postalCode": "R3L0L9", "twitter": "None", "instagram": "None", "facebook": "None", "youtube": "None", "website": "None", "summary": "None", "logo": "None", "latitude": 49.87597988095088, "longitude": -97.1470626483639}, "106992753RR0001": {"name": "CRESSY - GLENORA PASTORAL CHARGE", "designationCode": "C", "categoryCode": "44", "address": "3835 COUNTY ROAD 10, BOX 102", "city": "MILFORD", "province": "ON", "country": "CA", "postalCode": "K0K2P0", "twitter": "None", "instagram": "None", "facebook": "None", "youtube": "None", "website": "None", "summary": "None", "logo": "None", "latitude": 43.92433596610377, "longitude": -77.08103929895609}, "118879345RR0001": {"name": "CRESSY UNITED CHURCH CEMETERY BOARD", "designationCode": "C", "categoryCode": "59", "address": "195 PRINYERSCOVE CRESCENT", "city": "PICTON", "province": "ON", "country": "CA", "postalCode": "K0K2T0", "twitter": "None", "instagram": "None", "facebook": "None", "youtube": "None", "website": "None", "summary": "None", "logo": "None", "latitude": 44.016009000000054, "longitude": -77.13348649999993}, "119036127RR0001": {"name": "CREST SUPPORT SERVICES (MEADOWCREST) INC.", "designationCode": "C", "categoryCode": "01", "address": "13570 ELGINFIELD RD           R R # 1", "city": "LUCAN", "province": "ON", "country": "CA", "postalCode": "N0M2J0", "twitter": "None", "instagram": "None", "facebook": "None", "youtube": "None", "website": "None", "summary": "None", "logo": "None", "latitude": 43.15454272528214, "longitude": -81.39940149924725}, "106992845RR0001": {"name": "CRESTERAMICS SOCIETY FOR THE HANDICAPPED", "designationCode": "C", "categoryCode": "11", "address": "PO BOX 927", "city": "CRESTON", "province": "BC", "country": "CA", "postalCode": "V0B1G0", "twitter": "None", "instagram": "None", "facebook": "None", "youtube": "None", "website": "None", "summary": "None", "logo": "None", "latitude": 49.738704000000055, "longitude": -115.87167349999993}, "132301326RR0001": {"name": "CRESTON & DISTRICT SOCIETY FOR COMMUNITY LIVING", "designationCode": "C", "categoryCode": "09", "address": "BOX 1820", "city": "CRESTON", "province": "BC", "country": "CA", "postalCode": "V0B1G0", "twitter": "None", "instagram": "None", "facebook": "None", "youtube": "None", "website": "None", "summary": "None", "logo": "None", "latitude": 49.738704000000055, "longitude": -115.87167349999993}, "106992936RR0001": {"name": "CRESTON AND DISTRICT HISTORICAL AND MUSEUM SOCIETY", "designationCode": "C", "categoryCode": "50", "address": "219 DEVON ROAD", "city": "CRESTON", "province": "BC", "country": "CA", "postalCode": "V0B1G3", "twitter": "None", "instagram": "None", "facebook": "None", "youtube": "None", "website": "None", "summary": "None", "logo": "None", "latitude": 49.10632252784385, "longitude": -116.52240249610486}, "118879386RR0001": {"name": "CRESTON COMMUNITY AUDITORIUM SOCIETY", "designationCode": "C", "categoryCode": "53", "address": "320-27 AVE N", "city": "CRESTON", "province": "BC", "country": "CA", "postalCode": "V0B1G1", "twitter": "None", "instagram": "None", "facebook": "None", "youtube": "None", "website": "None", "summary": "None", "logo": "None", "latitude": 49.09830565808522, "longitude": -116.49181107467086}, "871858429RR0001": {"name": "CRESTON DOUKHOBOUR SOCIETY", "designationCode": "C", "categoryCode": "39", "address": "215 33RD AVENUE SOUTH", "city": "CRESTON", "province": "BC", "country": "CA", "postalCode": "V0B1G1", "twitter": "None", "instagram": "None", "facebook": "None", "youtube": "None", "website": "None", "summary": "None", "logo": "None", "latitude": 49.092255617131535, "longitude": -116.47537263441517}, "118879402RR0001": {"name": "CRESTON FAITH CENTRE", "designationCode": "C", "categoryCode": "39", "address": "RR1  4551-40 STREET", "city": "CANYON", "province": "BC", "country": "CA", "postalCode": "V0B1C1", "twitter": "None", "instagram": "None", "facebook": "None", "youtube": "None", "website": "None", "summary": "None", "logo": "None", "latitude": 49.07211647287824, "longitude": -116.43672192656925}, "118879428RR0001": {"name": "CRESTON MINISTERIAL ASSOCIATION", "designationCode": "C", "categoryCode": "49", "address": "BOX 479", "city": "CRESTON", "province": "BC", "country": "CA", "postalCode": "V0B1G0", "twitter": "None", "instagram": "None", "facebook": "None", "youtube": "None", "website": "None", "summary": "None", "logo": "None", "latitude": 49.738704000000055, "longitude": -115.87167349999993}, "118879493RR0001": {"name": "CRESTON NEW LIFE CHRISTIAN CHURCH", "designationCode": "C", "categoryCode": "39", "address": "1821 - ELM STREET", "city": "CRESTON", "province": "BC", "country": "CA", "postalCode": "V0B1G5", "twitter": "None", "instagram": "None", "facebook": "None", "youtube": "None", "website": "None", "summary": "None", "logo": "None", "latitude": 49.09336476761206, "longitude": -116.50388130813579}, "891352569RR0001": {"name": "CRESTON PET ADOPTION AND WELFARE SOCIETY", "designationCode": "C", "categoryCode": "54", "address": "2805 LOWER WYNNDEL ROAD", "city": "CRESTON", "province": "BC", "country": "CA", "postalCode": "V0B1G8", "twitter": "None", "instagram": "None", "facebook": "None", "youtube": "None", "website": "None", "summary": "None", "logo": "None", "latitude": 49.13715761250532, "longitude": -116.54049994949861}, "106992951RR0001": {"name": "CRESTON PUBLIC LIBRARY ASSOCIATION", "designationCode": "C", "categoryCode": "50", "address": "531 16TH AVE S", "city": "CRESTON", "province": "BC", "country": "CA", "postalCode": "V0B1G5", "twitter": "None", "instagram": "None", "facebook": "None", "youtube": "None", "website": "None", "summary": "None", "logo": "None", "latitude": 49.0894589862541, "longitude": -116.50553040226262}, "118818491RR0011": {"name": "CRESTON SEVENTH-DAY ADVENTIST CHURCH", "designationCode": "C", "categoryCode": "41", "address": "PO 1000", "city": "ABBOTSFORD", "province": "BC", "country": "CA", "postalCode": "V2S4P5", "twitter": "None", "instagram": "None", "facebook": "None", "youtube": "None", "website": "None", "summary": "None", "logo": "None", "latitude": 49.03851300000005, "longitude": -122.29441549999993}, "896717311RR0001": {"name": "CRESTON VALLEY AQUATIC SOCIETY", "designationCode": "C", "categoryCode": "56", "address": "808 SELKIRK DR", "city": "CRESTON", "province": "BC", "country": "CA", "postalCode": "V0B1G3", "twitter": "None", "instagram": "None", "facebook": "None", "youtube": "None", "website": "None", "summary": "None", "logo": "None", "latitude": 49.1038702453695, "longitude": -116.52549988352209}, "118879501RR0001": {"name": "CRESTON VALLEY GLEANERS SOCIETY", "designationCode": "C", "categoryCode": "09", "address": "807 CANYON ST", "city": "CRESTON", "province": "BC", "country": "CA", "postalCode": "V0B1G3", "twitter": "None", "instagram": "None", "facebook": "None", "youtube": "None", "website": "None", "summary": "None", "logo": "None", "latitude": 49.095082658218644, "longitude": -116.51604037601744}, "118879535RR0001": {"name": "CRESTON VALLEY HOSPICE SOCIETY", "designationCode": "C", "categoryCode": "01", "address": "#1-1720 BIRCH ST", "city": "CRESTON", "province": "BC", "country": "CA", "postalCode": "V0B1G5", "twitter": "None", "instagram": "None", "facebook": "None", "youtube": "None", "website": "None", "summary": "None", "logo": "None", "latitude": 49.090882567918385, "longitude": -116.50538368266697}, "868131913RR0001": {"name": "CRESTON VALLEY MUSIC TEACHERS' ASSOCIATION", "designationCode": "C", "categoryCode": "22", "address": "213 - 26TH AVENUE NORTH", "city": "CRESTON", "province": "BC", "country": "CA", "postalCode": "V0B1G1", "twitter": "None", "instagram": "None", "facebook": "None", "youtube": "None", "website": "None", "summary": "None", "logo": "None", "latitude": 49.09725891618098, "longitude": -116.49430190230251}, "118879543RR0001": {"name": "CRESTON VALLEY RIGHT TO LIFE SOCIETY", "designationCode": "C", "categoryCode": "09", "address": "BOX 616", "city": "CRESTON", "province": "BC", "country": "CA", "postalCode": "V0B1G0", "twitter": "None", "instagram": "None", "facebook": "None", "youtube": "None", "website": "None", "summary": "None", "logo": "None", "latitude": 49.738704000000055, "longitude": -115.87167349999993}, "119315885RR0001": {"name": "CRESTON VALLEY WILDLIFE MANAGEMENT AUTHORITY TRUST FUND", "designationCode": "C", "categoryCode": "59", "address": "BOX 640", "city": "CRESTON", "province": "BC", "country": "CA", "postalCode": "V0B1G0", "twitter": "None", "instagram": "None", "facebook": "None", "youtube": "None", "website": "None", "summary": "None", "logo": "None", "latitude": 49.738704000000055, "longitude": -115.87167349999993}, "867050528RR0001": {"name": "CRESTON-KOOTENAY FOUNDATION", "designationCode": "A", "categoryCode": "03", "address": "PO BOX 701", "city": "CRESTON", "province": "BC", "country": "CA", "postalCode": "V0B1G0", "twitter": "None", "instagram": "None", "facebook": "None", "youtube": "None", "website": "None", "summary": "None", "logo": "None", "latitude": 49.738704000000055, "longitude": -115.87167349999993}, "868377466RR0001": {"name": "CRESTON-RED HARBOUR PASTORAL CHARGE", "designationCode": "C", "categoryCode": "44", "address": "PO BOX 10", "city": "CRESTON SOUTH", "province": "NL", "country": "CA", "postalCode": "A0E1K0", "twitter": "None", "instagram": "None", "facebook": "None", "youtube": "None", "website": "None", "summary": "None", "logo": "None", "latitude": 47.14120606624959, "longitude": -55.205410937177106}, "118879568RR0001": {"name": "CRESTVIEW CONGREGATION OF JEHOVAH'S WITNESSES", "designationCode": "C", "categoryCode": "61", "address": "62 VALLEY VIEW DRIVE S.W.", "city": "MEDICINE HAT", "province": "AB", "country": "CA", "postalCode": "T1A8E4", "twitter": "None", "instagram": "None", "facebook": "None", "youtube": "None", "website": "None", "summary": "None", "logo": "None", "latitude": 50.03665369747245, "longitude": -110.70907246531817}, "118879576RR0001": {"name": "CRESTVIEW FELLOWSHIP", "designationCode": "C", "categoryCode": "34", "address": "271 HAMILTON AVE.", "city": "WINNIPEG", "province": "MB", "country": "CA", "postalCode": "R2Y0H3", "twitter": "None", "instagram": "None", "facebook": "None", "youtube": "None", "website": "None", "summary": "None", "logo": "None", "latitude": 49.892972362225, "longitude": -97.29888569193253}, "101203941RR0001": {"name": "CRESTVIEW PARK DAY NURSERY INC.", "designationCode": "C", "categoryCode": "01", "address": "37 VOYAGEUR AVE", "city": "WINNIPEG", "province": "MB", "country": "CA", "postalCode": "R2Y0H7", "twitter": "None", "instagram": "None", "facebook": "None", "youtube": "None", "website": "None", "summary": "None", "logo": "None", "latitude": 49.89596948658289, "longitude": -97.30023363350449}, "106993082RR0001": {"name": "CRESTVIEW PARK FREE METHODIST CHURCH", "designationCode": "C", "categoryCode": "39", "address": "928 CAVALIER DRIVE", "city": "WINNIPEG", "province": "MB", "country": "CA", "postalCode": "R2Y1C8", "twitter": "None", "instagram": "None", "facebook": "None", "youtube": "None", "website": "None", "summary": "None", "logo": "None", "latitude": 49.89453502302507, "longitude": -97.30214012147236}, "106993108RR0001": {"name": "CRESTVIEW SCHOOL CHILDREN'S CENTRE INC.", "designationCode": "C", "categoryCode": "01", "address": "9-333 MORGAN CRES", "city": "WINNIPEG", "province": "MB", "country": "CA", "postalCode": "R2Y0C9", "twitter": "None", "instagram": "None", "facebook": "None", "youtube": "None", "website": "None", "summary": "None", "logo": "None", "latitude": 49.88878531070729, "longitude": -97.3039415333712}, "118879592RR0001": {"name": "CRESTVIEW UNITED CHURCH", "designationCode": "C", "categoryCode": "44", "address": "316 HAMILTON AVE", "city": "WINNIPEG", "province": "MB", "country": "CA", "postalCode": "R2X2H5", "twitter": "None", "instagram": "None", "facebook": "None", "youtube": "None", "website": "None", "summary": "None", "logo": "None", "latitude": 49.8920966011313, "longitude": -97.30461992463508}, "118879600RR0001": {"name": "CRESTWICKE BAPTIST CHURCH", "designationCode": "C", "categoryCode": "31", "address": "400 SPEEDVALE AVE E", "city": "GUELPH", "province": "ON", "country": "CA", "postalCode": "N1E1N9", "twitter": "None", "instagram": "None", "facebook": "None", "youtube": "None", "website": "None", "summary": "None", "logo": "None", "latitude": 43.56797022485402, "longitude": -80.25516190235982}, "870491875RR0001": {"name": "CRESTWOOD COMMUNITY LEAGUE BUILDING SOCIETY", "designationCode": "C", "categoryCode": "56", "address": "14325 96 AVENUE", "city": "EDMONTON", "province": "AB", "country": "CA", "postalCode": "T5N0C5", "twitter": "None", "instagram": "None", "facebook": "None", "youtube": "None", "website": "None", "summary": "None", "logo": "None", "latitude": 53.53355991589011, "longitude": -113.56931436747205}, "118879618RR0001": {"name": "CRESTWOOD MENNONITE BRETHREN CHURCH", "designationCode": "C", "categoryCode": "34", "address": "2348 DUNMORE ROAD SE", "city": "MEDICINE HAT", "province": "AB", "country": "CA", "postalCode": "T1A2A2", "twitter": "None", "instagram": "None", "facebook": "None", "youtube": "None", "website": "None", "summary": "None", "logo": "None", "latitude": 50.017812506520876, "longitude": -110.66008281502103}, "893728311RR0001": {"name": "CREW MINISTRIES INC.", "designationCode": "C", "categoryCode": "47", "address": "PO BOX 4208", "city": "QUESNEL", "province": "BC", "country": "CA", "postalCode": "V2J3J3", "twitter": "None", "instagram": "None", "facebook": "None", "youtube": "None", "website": "None", "summary": "None", "logo": "None", "latitude": 52.978128000000055, "longitude": -122.49828349999993}, "844902825RR0001": {"name": "CRIB CANADA", "designationCode": "C", "categoryCode": "09", "address": "6 - 11 MEADOWBROOK RD", "city": "NORTH YORK", "province": "ON", "country": "CA", "postalCode": "M6B2S3", "twitter": "None", "instagram": "None", "facebook": "None", "youtube": "None", "website": "None", "summary": "None", "logo": "None", "latitude": 43.714722867592016, "longitude": -79.43901517984308}, "873952964RR0002": {"name": "CRICHTON PARK HOME AND SCHOOL ASSOCIATION", "designationCode": "C", "categoryCode": "21", "address": "49 LYNGBY AVENUE", "city": "DARTMOUTH", "province": "NS", "country": "CA", "postalCode": "B3A3V1", "twitter": "None", "instagram": "None", "facebook": "None", "youtube": "None", "website": "None", "summary": "None", "logo": "None", "latitude": 44.682872035575876, "longitude": -63.56413281773273}, "106993272RR0001": {"name": "CRIEFF HILLS COMMUNITY", "designationCode": "C", "categoryCode": "56", "address": "RR 2                          7098 CONC 1", "city": "PUSLINCH", "province": "ON", "country": "CA", "postalCode": "N0B2J0", "twitter": "None", "instagram": "None", "facebook": "None", "youtube": "None", "website": "None", "summary": "None", "logo": "None", "latitude": 43.42202493529123, "longitude": -80.16162122306329}, "823471073RR0001": {"name": "CRIME PREVENTION AND SAFETY BOARD CHATHAM-KENT", "designationCode": "C", "categoryCode": "59", "address": "PO BOX 21007                  SOUTHSIDE", "city": "CHATHAM", "province": "ON", "country": "CA", "postalCode": "N7M6H6", "twitter": "None", "instagram": "None", "facebook": "None", "youtube": "None", "website": "None", "summary": "None", "logo": "None", "latitude": 42.372665301733605, "longitude": -82.14858058282887}, "893016378RR0001": {"name": "CRIME STOPPERS ASSOCIATION - CAPE BRETON", "designationCode": "C", "categoryCode": "59", "address": "24 CEILIDH DR", "city": "ALBERT BRIDGE", "province": "NS", "country": "CA", "postalCode": "B1K2N4", "twitter": "None", "instagram": "None", "facebook": "None", "youtube": "None", "website": "None", "summary": "None", "logo": "None", "latitude": 46.01447283758473, "longitude": -60.069666251341516}, "118879642RR0001": {"name": "CRIME STOPPERS ASSOCIATION OF EDMONTON AND NORTHERN ALBERTA", "designationCode": "C", "categoryCode": "59", "address": "P.O. BOX 76089", "city": "EDMONTON", "province": "AB", "country": "CA", "postalCode": "T6H5Y7", "twitter": "None", "instagram": "None", "facebook": "None", "youtube": "None", "website": "None", "summary": "None", "logo": "None", "latitude": 53.494935000000055, "longitude": -113.54074099999994}, "118879659RR0001": {"name": "CRIME STOPPERS KINGSTON / 1000 ISLANDS INC.", "designationCode": "C", "categoryCode": "59", "address": "PO BOX 22056", "city": "KINGSTON", "province": "ON", "country": "CA", "postalCode": "K7M8S5", "twitter": "None", "instagram": "None", "facebook": "None", "youtube": "None", "website": "None", "summary": "None", "logo": "None", "latitude": 44.24262900000005, "longitude": -76.57032499999994}, "118879667RR0001": {"name": "CRIME STOPPERS OF BRANTFORD INC.", "designationCode": "C", "categoryCode": "59", "address": "344 ELGIN ST", "city": "BRANTFORD", "province": "ON", "country": "CA", "postalCode": "N3S7P6", "twitter": "None", "instagram": "None", "facebook": "None", "youtube": "None", "website": "None", "summary": "None", "logo": "None", "latitude": 43.151031343325535, "longitude": -80.23401994881573}, "136193984RR0001": {"name": "CRIME STOPPERS OF GREY BRUCE INC.", "designationCode": "C", "categoryCode": "59", "address": "P.O. BOX 1119", "city": "OWEN SOUND", "province": "ON", "country": "CA", "postalCode": "N4K6K6", "twitter": "None", "instagram": "None", "facebook": "None", "youtube": "None", "website": "None", "summary": "None", "logo": "None", "latitude": 44.56423500000005, "longitude": -80.94243049999993}, "134475375RR0001": {"name": "CRIME STOPPERS OF HALTON INC.", "designationCode": "C", "categoryCode": "59", "address": "1151 BRONTE RD                BOX 2700", "city": "OAKVILLE", "province": "ON", "country": "CA", "postalCode": "L6J5C7", "twitter": "None", "instagram": "None", "facebook": "None", "youtube": "None", "website": "None", "summary": "None", "logo": "None", "latitude": 43.413624993911824, "longitude": -79.74540880942378}, "118879675RR0001": {"name": "CRIME STOPPERS OF HAMILTON INC.", "designationCode": "C", "categoryCode": "59", "address": "PO BOX 1060 STN LCD 1", "city": "HAMILTON", "province": "ON", "country": "CA", "postalCode": "L8N4C1", "twitter": "None", "instagram": "None", "facebook": "None", "youtube": "None", "website": "None", "summary": "None", "logo": "None", "latitude": 43.261962000000054, "longitude": -79.88800399999994}, "892958646RR0001": {"name": "CRIME STOPPERS OF HURON COUNTY INC.", "designationCode": "C", "categoryCode": "59", "address": "PO BOX 1029", "city": "MITCHELL", "province": "ON", "country": "CA", "postalCode": "N0K1N0", "twitter": "None", "instagram": "None", "facebook": "None", "youtube": "None", "website": "None", "summary": "None", "logo": "None", "latitude": 43.461771000000056, "longitude": -81.20430349999994}, "118879683RR0001": {"name": "CRIME STOPPERS OF KIRKLAND LAKE INC.", "designationCode": "C", "categoryCode": "59", "address": "PO BOX 154", "city": "KIRKLAND LAKE", "province": "ON", "country": "CA", "postalCode": "P2N3H7", "twitter": "None", "instagram": "None", "facebook": "None", "youtube": "None", "website": "None", "summary": "None", "logo": "None", "latitude": 48.15028500000005, "longitude": -80.03540149999994}, "118879691RR0001": {"name": "CRIME STOPPERS OF NIAGARA INC.", "designationCode": "C", "categoryCode": "59", "address": "2-198 CUSHMAN RD", "city": "ST CATHARINES", "province": "ON", "country": "CA", "postalCode": "L2M6T3", "twitter": "None", "instagram": "None", "facebook": "None", "youtube": "None", "website": "None", "summary": "None", "logo": "None", "latitude": 43.18148828864909, "longitude": -79.19998242238472}, "131738593RR0001": {"name": "CRIME STOPPERS OF OXFORD INC.", "designationCode": "C", "categoryCode": "59", "address": "PO BOX 1607", "city": "WOODSTOCK", "province": "ON", "country": "CA", "postalCode": "N4S0A8", "twitter": "None", "instagram": "None", "facebook": "None", "youtube": "None", "website": "None", "summary": "None", "logo": "None", "latitude": 43.13010300000006, "longitude": -80.75657149999994}, "886136993RR0001": {"name": "CRIME STOPPERS OF P E I INC", "designationCode": "C", "categoryCode": "59", "address": "PO BOX 2708 STN CENTRAL", "city": "CHARLOTTETOWN", "province": "PE", "country": "CA", "postalCode": "C1A8C3", "twitter": "None", "instagram": "None", "facebook": "None", "youtube": "None", "website": "None", "summary": "None", "logo": "None", "latitude": 46.23659700000006, "longitude": -63.12815449999994}, "136161320RR0001": {"name": "CRIME STOPPERS OF PERTH COUNTY INC.", "designationCode": "C", "categoryCode": "59", "address": "132 ST. GEORGE ST.            P.O. BOX 1029", "city": "MITCHELL", "province": "ON", "country": "CA", "postalCode": "N0K1N0", "twitter": "None", "instagram": "None", "facebook": "None", "youtube": "None", "website": "None", "summary": "None", "logo": "None", "latitude": 43.46869797365673, "longitude": -81.19744797299289}, "118879709RR0001": {"name": "CRIME STOPPERS OF PETERBOROUGH - NORTHUMBERLAND INC.", "designationCode": "C", "categoryCode": "59", "address": "500 WATER STREET              3RD FLOOR", "city": "PETERBOROUGH", "province": "ON", "country": "CA", "postalCode": "K9H3M4", "twitter": "None", "instagram": "None", "facebook": "None", "youtube": "None", "website": "None", "summary": "None", "logo": "None", "latitude": 44.30931487538231, "longitude": -78.31913584675999}, "118879717RR0001": {"name": "CRIME STOPPERS OF SAULT STE. MARIE AND DISTRICT OF ALGOMA INC.", "designationCode": "C", "categoryCode": "59", "address": "580 SECOND LINE EAST", "city": "SAULT STE. MARIE", "province": "ON", "country": "CA", "postalCode": "P6B4K1", "twitter": "None", "instagram": "None", "facebook": "None", "youtube": "None", "website": "None", "summary": "None", "logo": "None", "latitude": 46.53840752380355, "longitude": -84.3221028820474}, "118879725RR0001": {"name": "CRIME STOPPERS OF SIMCOE-DUFFERIN-MUSKOKA", "designationCode": "C", "categoryCode": "59", "address": "20 ROSE ST", "city": "BARRIE", "province": "ON", "country": "CA", "postalCode": "L4M2T2", "twitter": "None", "instagram": "None", "facebook": "None", "youtube": "None", "website": "None", "summary": "None", "logo": "None", "latitude": 44.400770297535885, "longitude": -79.69471535221301}, "130918279RR0001": {"name": "CRIME STOPPERS OF ST THOMAS", "designationCode": "C", "categoryCode": "59", "address": "RPO ELMWOOD SQUARE            PO BOX 22101", "city": "ST THOMAS", "province": "ON", "country": "CA", "postalCode": "N5R6A1", "twitter": "None", "instagram": "None", "facebook": "None", "youtube": "None", "website": "None", "summary": "None", "logo": "None", "latitude": 42.765196447384525, "longitude": -81.15500253399657}, "891497943RR0001": {"name": "CRIME STOPPERS OF THE DISTRICT OF COCHRANE", "designationCode": "C", "categoryCode": "59", "address": "185 SPRUCE ST S", "city": "TIMMINS", "province": "ON", "country": "CA", "postalCode": "P4N2M7", "twitter": "None", "instagram": "None", "facebook": "None", "youtube": "None", "website": "None", "summary": "None", "logo": "None", "latitude": 48.4726712607895, "longitude": -81.3270972191902}, "893181776RR0001": {"name": "CRIME STOPPERS OF THE SOUTH CARIBOO SOCIETY", "designationCode": "C", "categoryCode": "59", "address": "BOX 290", "city": "108 MILE RANCH", "province": "BC", "country": "CA", "postalCode": "V0K2Z0", "twitter": "None", "instagram": "None", "facebook": "None", "youtube": "None", "website": "None", "summary": "None", "logo": "None", "latitude": 51.75124800000006, "longitude": -121.34758399999993}, "866859812RR0001": {"name": "CRIME STOPPERS OF YORK REGION INC.", "designationCode": "C", "categoryCode": "59", "address": "16715-12 YONGE STREET,        BOX 286", "city": "NEWMARKET", "province": "ON", "country": "CA", "postalCode": "L3X1X4", "twitter": "None", "instagram": "None", "facebook": "None", "youtube": "None", "website": "None", "summary": "None", "logo": "None", "latitude": 44.02910184814723, "longitude": -79.4744072046704}, "118879741RR0001": {"name": "CRIME STOPPERS QUINTE INC.", "designationCode": "C", "categoryCode": "59", "address": "PO BOX 726  STN MAIN", "city": "BELLEVILLE", "province": "ON", "country": "CA", "postalCode": "K8N5B3", "twitter": "None", "instagram": "None", "facebook": "None", "youtube": "None", "website": "None", "summary": "None", "logo": "None", "latitude": 44.16104400000006, "longitude": -77.38183249999993}, "118879758RR0001": {"name": "CRIME STOPPERS SASKATOON INC.", "designationCode": "C", "categoryCode": "59", "address": "PO BOX 62", "city": "SASKATOON", "province": "SK", "country": "CA", "postalCode": "S7K3K1", "twitter": "None", "instagram": "None", "facebook": "None", "youtube": "None", "website": "None", "summary": "None", "logo": "None", "latitude": 52.13049000000005, "longitude": -106.65926449999994}, "895327088RR0001": {"name": "CRIME STOPPERS TRI-TOWN REGION INC./ECHEC AU CRIME DES REGION TRI-TOWN INC.", "designationCode": "C", "categoryCode": "59", "address": "P.O. BOX 1086", "city": "NEW LISKEARD", "province": "ON", "country": "CA", "postalCode": "P0J1P0", "twitter": "None", "instagram": "None", "facebook": "None", "youtube": "None", "website": "None", "summary": "None", "logo": "None", "latitude": 47.50254600000005, "longitude": -79.69562449999994}, "890159643RR0001": {"name": "CRIME STOPPERS, CENTRAL ALBERTA ASSOCIATION", "designationCode": "C", "categoryCode": "59", "address": "PO BOX 33 STN POSTAL BOX CTR", "city": "RED DEER", "province": "AB", "country": "CA", "postalCode": "T4N5E7", "twitter": "None", "instagram": "None", "facebook": "None", "youtube": "None", "website": "None", "summary": "None", "logo": "None", "latitude": 52.26852300000006, "longitude": -113.80901299999994}, "890115546RR0001": {"name": "CRIMESTOPPERS OF HALDIMAND-NORFOLK AND TILLSONBURG INC", "designationCode": "C", "categoryCode": "59", "address": "PO BOX 66", "city": "SIMCOE", "province": "ON", "country": "CA", "postalCode": "N3Y4K8", "twitter": "None", "instagram": "None", "facebook": "None", "youtube": "None", "website": "None", "summary": "None", "logo": "None", "latitude": 42.83590200000006, "longitude": -80.30531149999993}, "865734297RR0001": {"name": "CRIMSON COAST DANCE SOCIETY", "designationCode": "C", "categoryCode": "22", "address": "10 B-150 COMMERCIAL ST", "city": "NANAIMO", "province": "BC", "country": "CA", "postalCode": "V9R5G6", "twitter": "None", "instagram": "None", "facebook": "None", "youtube": "None", "website": "None", "summary": "None", "logo": "None", "latitude": 49.16615209325409, "longitude": -123.93682140354326}, "120970520RR0001": {"name": "CRISIS ASSOCIATION OF VEGREVILLE", "designationCode": "C", "categoryCode": "59", "address": "PO BOX 1022", "city": "VEGREVILLE", "province": "AB", "country": "CA", "postalCode": "T9C1S1", "twitter": "None", "instagram": "None", "facebook": "None", "youtube": "None", "website": "None", "summary": "None", "logo": "None", "latitude": 53.49528600000005, "longitude": -112.05415249999993}, "101205888RR0001": {"name": "CRISIS CENTRE NORTH BAY", "designationCode": "C", "categoryCode": "01", "address": "PO BOX 1407", "city": "NORTH BAY", "province": "ON", "country": "CA", "postalCode": "P1B8K6", "twitter": "None", "instagram": "None", "facebook": "None", "youtube": "None", "website": "None", "summary": "None", "logo": "None", "latitude": 46.30661700000006, "longitude": -79.45993249999994}, "106993322RR0001": {"name": "CRISIS INTERVENTION & SUICIDE PREVENTION CENTRE OF BRITISH COLUMBIA", "designationCode": "C", "categoryCode": "09", "address": "763 BROADWAY E", "city": "VANCOUVER", "province": "BC", "country": "CA", "postalCode": "V5T1X8", "twitter": "None", "instagram": "None", "facebook": "None", "youtube": "None", "website": "None", "summary": "None", "logo": "None", "latitude": 49.26247752986307, "longitude": -123.0876994715506}, "118879790RR0001": {"name": "CRISIS INTERVENTION AND PUBLIC INFORMATION SOCIETY OF GREATER VICTORIA", "designationCode": "C", "categoryCode": "09", "address": "1524 FORT ST.", "city": "VICTORIA", "province": "BC", "country": "CA", "postalCode": "V8S5J2", "twitter": "None", "instagram": "None", "facebook": "None", "youtube": "None", "website": "None", "summary": "None", "logo": "None", "latitude": 48.42571183377557, "longitude": -123.33896135985906}, "885010645RR0001": {"name": "CRISIS PREGNANCY CENTRE OF NANAIMO SOCIETY", "designationCode": "C", "categoryCode": "09", "address": "1717 KERRISDALE RD", "city": "NANAIMO", "province": "BC", "country": "CA", "postalCode": "V9S1N4", "twitter": "None", "instagram": "None", "facebook": "None", "youtube": "None", "website": "None", "summary": "None", "logo": "None", "latitude": 49.181905732125635, "longitude": -123.98209847864838}, "106993348RR0001": {"name": "CRISIS PREGNANCY CENTRE OF VANCOUVER SOCIETY", "designationCode": "C", "categoryCode": "09", "address": "7879 EDMONDS ST", "city": "BURNABY", "province": "BC", "country": "CA", "postalCode": "V3N1B9", "twitter": "None", "instagram": "None", "facebook": "None", "youtube": "None", "website": "None", "summary": "None", "logo": "None", "latitude": 49.22605992619294, "longitude": -122.93736484182564}, "892903469RR0001": {"name": "CRISIS PREGNANCY CENTRE WESTMAN INCORPORATED", "designationCode": "C", "categoryCode": "09", "address": "229 PRINCESS AVENUE", "city": "BRANDON", "province": "MB", "country": "CA", "postalCode": "R7A0N5", "twitter": "None", "instagram": "None", "facebook": "None", "youtube": "None", "website": "None", "summary": "None", "logo": "None", "latitude": 49.84694153318127, "longitude": -99.9412605}, "131346066RR0001": {"name": "CRISIS PREVENTION, INTERVENTION AND INFORMATION CENTRE FOR NORTHERN BC", "designationCode": "C", "categoryCode": "09", "address": "1600 - 3RD AVE                5TH FLOOR", "city": "PRINCE GEORGE", "province": "BC", "country": "CA", "postalCode": "V2L3G6", "twitter": "None", "instagram": "None", "facebook": "None", "youtube": "None", "website": "None", "summary": "None", "logo": "None", "latitude": 53.91866787050817, "longitude": -122.75158176464869}, "861955128RR0001": {"name": "CRISTA MINISTRIES CANADA", "designationCode": "C", "categoryCode": "49", "address": "100-32160 S. FRASER WAY", "city": "ABBOTSFORD", "province": "BC", "country": "CA", "postalCode": "V2T1W5", "twitter": "None", "instagram": "None", "facebook": "None", "youtube": "None", "website": "None", "summary": "None", "logo": "None", "latitude": 49.05119019175965, "longitude": -122.33323211890487}, "891127581RR0001": {"name": "CRISTO PARA TODOS EL TABERNACULO DE DIOS CON LOS HOMBRES B C O Q", "designationCode": "C", "categoryCode": "31", "address": "361 KING STREET EAST", "city": "CAMBRIDGE", "province": "ON", "country": "CA", "postalCode": "N3H3M7", "twitter": "None", "instagram": "None", "facebook": "None", "youtube": "None", "website": "None", "summary": "None", "logo": "None", "latitude": 43.39806355427311, "longitude": -80.36259942893425}, "896439387RR0001": {"name": "CRITTER CARE WILDLIFE SOCIETY", "designationCode": "C", "categoryCode": "54", "address": "481-216 TH ST", "city": "LANGLEY", "province": "BC", "country": "CA", "postalCode": "V2Z1R6", "twitter": "None", "instagram": "None", "facebook": "None", "youtube": "None", "website": "None", "summary": "None", "logo": "None", "latitude": 49.010993970648855, "longitude": -122.6251826418244}, "120300561RR0001": {"name": "CRIVERT INC", "designationCode": "C", "categoryCode": "53", "address": "222 RUE ALPHONSE-DESJARDINS", "city": "SALABERRY-DE-VALLEYFIELD", "province": "QC", "country": "CA", "postalCode": "J6S2N9", "twitter": "None", "instagram": "None", "facebook": "None", "youtube": "None", "website": "None", "summary": "None", "logo": "None", "latitude": 45.26010219175965, "longitude": -74.12101330056564}, "129950804RR0003": {"name": "CROATIAN CATHOLIC CHURCH", "designationCode": "C", "categoryCode": "38", "address": "4081 GORDON HEAD ROAD", "city": "VICTORIA", "province": "BC", "country": "CA", "postalCode": "V8N3X7", "twitter": "None", "instagram": "None", "facebook": "None", "youtube": "None", "website": "None", "summary": "None", "logo": "None", "latitude": 48.476545136534256, "longitude": -123.31072990489957}, "107876476RR0075": {"name": "CROATIAN CATHOLIC CHURCH SVETI MARKO", "designationCode": "C", "categoryCode": "38", "address": "140 ALDER STREET", "city": "SUDBURY", "province": "ON", "country": "CA", "postalCode": "P3C4J8", "twitter": "None", "instagram": "None", "facebook": "None", "youtube": "None", "website": "None", "summary": "None", "logo": "None", "latitude": 46.4942961618097, "longitude": -81.00468012709919}, "107909939RR0008": {"name": "CROATIAN CATHOLIC MISSION", "designationCode": "C", "categoryCode": "38", "address": "14680 DEER RIDGE DR SE", "city": "CALGARY", "province": "AB", "country": "CA", "postalCode": "T2J5Y4", "twitter": "None", "instagram": "None", "facebook": "None", "youtube": "None", "website": "None", "summary": "None", "logo": "None", "latitude": 50.925437528997676, "longitude": -114.02198564654624}, "118879881RR0001": {"name": "CROATIAN LANGUAGE SCHOOL #65 & CROATIAN FOLKLORE \"ZAGREB\" SOCIETY", "designationCode": "C", "categoryCode": "20", "address": "3974 BELNOR PLACE", "city": "VICTORIA", "province": "BC", "country": "CA", "postalCode": "V8N6B6", "twitter": "None", "instagram": "None", "facebook": "None", "youtube": "None", "website": "None", "summary": "None", "logo": "None", "latitude": 48.47227090915103, "longitude": -123.3375569933959}, "865789317RR0001": {"name": "CROATIAN-CANADIAN LIBRARY", "designationCode": "C", "categoryCode": "50", "address": "5230 DUNDAS ST. WEST          P.O. BOX 40571", "city": "ETOBICOKE", "province": "ON", "country": "CA", "postalCode": "M9B6K8", "twitter": "None", "instagram": "None", "facebook": "None", "youtube": "None", "website": "None", "summary": "None", "logo": "None", "latitude": 43.63930416856076, "longitude": -79.53733820379085}, "118879915RR0001": {"name": "CROCUS CO-OPERATIVE", "designationCode": "C", "categoryCode": "09", "address": "135 AVE B S", "city": "SASKATOON", "province": "SK", "country": "CA", "postalCode": "S7M1M2", "twitter": "None", "instagram": "None", "facebook": "None", "youtube": "None", "website": "None", "summary": "None", "logo": "None", "latitude": 52.12787419900167, "longitude": -106.67188870944635}, "866336472RR0001": {"name": "CROCUS TRAIL INC", "designationCode": "C", "categoryCode": "56", "address": "P.O. BOX 730", "city": "ROBLIN", "province": "MB", "country": "CA", "postalCode": "R0L1P0", "twitter": "None", "instagram": "None", "facebook": "None", "youtube": "None", "website": "None", "summary": "None", "logo": "None", "latitude": 51.22816000000006, "longitude": -101.35248999999999}, "118879923RR0001": {"name": "CROFTON COMMUNITY CENTRE SOCIETY", "designationCode": "C", "categoryCode": "56", "address": "PRESIDENT                     BOX 406-8104 MUSGRAVE", "city": "CROFTON", "province": "BC", "country": "CA", "postalCode": "V0R1R0", "twitter": "None", "instagram": "None", "facebook": "None", "youtube": "None", "website": "None", "summary": "None", "logo": "None", "latitude": 48.86354730778345, "longitude": -123.64931225762425}, "118879931RR0001": {"name": "CROFTON HOUSE SCHOOL", "designationCode": "C", "categoryCode": "20", "address": "3200 41ST AVE W", "city": "VANCOUVER", "province": "BC", "country": "CA", "postalCode": "V6N3E1", "twitter": "None", "instagram": "None", "facebook": "None", "youtube": "None", "website": "None", "summary": "None", "logo": "None", "latitude": 49.23468328401109, "longitude": -123.17676123067866}, "866879034RR0001": {"name": "CROFTON HOUSE SCHOOL FOUNDATION", "designationCode": "A", "categoryCode": "23", "address": "3200 WEST 41 ST AVE", "city": "VANCOUVER", "province": "BC", "country": "CA", "postalCode": "V6N3E1", "twitter": "None", "instagram": "None", "facebook": "None", "youtube": "None", "website": "None", "summary": "None", "logo": "None", "latitude": 49.23468328401109, "longitude": -123.17676123067866}, "118879956RR0001": {"name": "CROFTON SENIORS SOCIETY", "designationCode": "C", "categoryCode": "56", "address": "P.O.BOX 8                     1507 JOAN AVENUE", "city": "CROFTON", "province": "BC", "country": "CA", "postalCode": "V0R1R0", "twitter": "None", "instagram": "None", "facebook": "None", "youtube": "None", "website": "None", "summary": "None", "logo": "None", "latitude": 48.864699511541204, "longitude": -123.64027216763806}, "118831486RR0001": {"name": "CROHN'S AND COLITIS CANADA / CROHN ET COLITE CANADA", "designationCode": "C", "categoryCode": "11", "address": "600-60 ST CLAIR AVE E", "city": "TORONTO", "province": "ON", "country": "CA", "postalCode": "M4T1N5", "twitter": "None", "instagram": "None", "facebook": "None", "youtube": "None", "website": "None", "summary": "None", "logo": "None", "latitude": 43.6886955, "longitude": -79.39122524999999}, "135709780RR0001": {"name": "CROISSANCE-TRAVAIL", "designationCode": "C", "categoryCode": "09", "address": "215 RUE CARON", "city": "QU\u00c9BEC", "province": "QC", "country": "CA", "postalCode": "G1K5V6", "twitter": "None", "instagram": "None", "facebook": "None", "youtube": "None", "website": "None", "summary": "None", "logo": "None", "latitude": 46.815288484332534, "longitude": -71.23078313959267}, "118879998RR0001": {"name": "CROMARTY PRESBYTERIAN CHURCH", "designationCode": "C", "categoryCode": "37", "address": "7017 LINE 21                  RR2", "city": "STAFFA", "province": "ON", "country": "CA", "postalCode": "N0K1Y0", "twitter": "None", "instagram": "None", "facebook": "None", "youtube": "None", "website": "None", "summary": "None", "logo": "None", "latitude": 43.4279047597232, "longitude": -81.3530169370586}, "118880004RR0001": {"name": "CROMER UNITED CHURCH", "designationCode": "C", "categoryCode": "44", "address": "BOX 106", "city": "CROMER", "province": "MB", "country": "CA", "postalCode": "R0M0J0", "twitter": "None", "instagram": "None", "facebook": "None", "youtube": "None", "website": "None", "summary": "None", "logo": "None", "latitude": 49.73090000000008, "longitude": -101.23581999999999}, "877861161RR0001": {"name": "CROOKED CREEK CONSERVANCY SOCIETY OF ATHABASCA", "designationCode": "C", "categoryCode": "52", "address": "BOX 2072", "city": "ATHABASCA", "province": "AB", "country": "CA", "postalCode": "T9S2B6", "twitter": "None", "instagram": "None", "facebook": "None", "youtube": "None", "website": "None", "summary": "None", "logo": "None", "latitude": 54.721284000000054, "longitude": -113.28321049999994}, "892998519RR0001": {"name": "CROOKED FIGURE DANCE PRODUCTIONS INC.", "designationCode": "C", "categoryCode": "22", "address": "154 BROCK AVENUE", "city": "TORONTO", "province": "ON", "country": "CA", "postalCode": "M6K2L4", "twitter": "None", "instagram": "None", "facebook": "None", "youtube": "None", "website": "None", "summary": "None", "logo": "None", "latitude": 43.64635362753188, "longitude": -79.43433594338963}, "131775223RR0001": {"name": "CROOKED LAKE LADIES AID", "designationCode": "C", "categoryCode": "59", "address": "R. R. # 2", "city": "GWYNNE", "province": "AB", "country": "CA", "postalCode": "T0C1L0", "twitter": "None", "instagram": "None", "facebook": "None", "youtube": "None", "website": "None", "summary": "None", "logo": "None", "latitude": 52.98767000000004, "longitude": -113.20020999999997}, "118880020RR0001": {"name": "CROOKED RIVER LUTHERAN CHURCH, INC.", "designationCode": "C", "categoryCode": "32", "address": "PO 775", "city": "TISDALE", "province": "SK", "country": "CA", "postalCode": "S0E1T0", "twitter": "None", "instagram": "None", "facebook": "None", "youtube": "None", "website": "None", "summary": "None", "logo": "None", "latitude": 52.84785000000005, "longitude": -104.04749999999996}, "812160075RR0001": {"name": "CROQUARIUM", "designationCode": "C", "categoryCode": "29", "address": "36, RUE WELLINGTON S          PORTE 200", "city": "SHERBROOKE", "province": "QC", "country": "CA", "postalCode": "J1H5C7", "twitter": "None", "instagram": "None", "facebook": "None", "youtube": "None", "website": "None", "summary": "None", "logo": "None", "latitude": 45.400708497922544, "longitude": -71.88983165110521}, "132743162RR0001": {"name": "CROSS CANADA MINISTRIES, INC.", "designationCode": "C", "categoryCode": "39", "address": "BOX 239", "city": "RAPID CITY", "province": "MB", "country": "CA", "postalCode": "R0K1W0", "twitter": "None", "instagram": "None", "facebook": "None", "youtube": "None", "website": "None", "summary": "None", "logo": "None", "latitude": 50.119980000000055, "longitude": -100.03727999999995}, "863376737RR0001": {"name": "CROSS COMMUNITY", "designationCode": "C", "categoryCode": "39", "address": "5659 CORTINA CRES", "city": "MISSISAUGA", "province": "ON", "country": "CA", "postalCode": "L4Z3R4", "twitter": "None", "instagram": "None", "facebook": "None", "youtube": "None", "website": "None", "summary": "None", "logo": "None", "latitude": 43.61872192033592, "longitude": -79.66460372941297}, "118880038RR0001": {"name": "CROSS COUNTRY CHRISTIAN ENTERPRISES", "designationCode": "C", "categoryCode": "49", "address": "PO BOX 771 STN M", "city": "CALGARY", "province": "AB", "country": "CA", "postalCode": "T2P2J3", "twitter": "None", "instagram": "None", "facebook": "None", "youtube": "None", "website": "None", "summary": "None", "logo": "None", "latitude": 51.04531500000006, "longitude": -114.06301099999993}, "118880046RR0001": {"name": "CROSS CREEK BAPTIST CHURCH INC.", "designationCode": "C", "categoryCode": "31", "address": "1280 ROUTE 107", "city": "CROSS CREEK", "province": "NB", "country": "CA", "postalCode": "E6B1V6", "twitter": "None", "instagram": "None", "facebook": "None", "youtube": "None", "website": "None", "summary": "None", "logo": "None", "latitude": 46.30978896612003, "longitude": -66.7173290884145}}