{"138905757RR0001": {"name": "CHRISTIAN AID & RELATIONAL EVANGELISM INCORPORATED", "designationCode": "C", "categoryCode": "47", "address": "11 MCQUEEN DR", "city": "PARIS", "province": "ON", "country": "CA", "postalCode": "N3L0A6", "twitter": "None", "instagram": "None", "facebook": "None", "youtube": "None", "website": "None", "summary": "None", "logo": "None", "latitude": 43.17767186037867, "longitude": -80.38847467984309}, "132219494RR0001": {"name": "CHRISTIAN AID MINISTRIES OF WATERLOO", "designationCode": "C", "categoryCode": "49", "address": "1 PARKVIEW DR                 PO BOX 46", "city": "MOOREFIELD", "province": "ON", "country": "CA", "postalCode": "N0G2K0", "twitter": "None", "instagram": "None", "facebook": "None", "youtube": "None", "website": "None", "summary": "None", "logo": "None", "latitude": 43.76297143869078, "longitude": -80.74604947638817}, "106919483RR0001": {"name": "CHRISTIAN AND MISSIONARY ALLIANCE CHURCH", "designationCode": "C", "categoryCode": "39", "address": "BOX 370", "city": "CHURCHILL", "province": "MB", "country": "CA", "postalCode": "R0B0E0", "twitter": "None", "instagram": "None", "facebook": "None", "youtube": "None", "website": "None", "summary": "None", "logo": "None", "latitude": 53.705411999999995, "longitude": -100.31297540286681}, "118855493RR0001": {"name": "CHRISTIAN AND MISSIONARY ALLIANCE CHURCH", "designationCode": "C", "categoryCode": "39", "address": "BOX 262", "city": "ASSINIBOIA", "province": "SK", "country": "CA", "postalCode": "S0H0B0", "twitter": "None", "instagram": "None", "facebook": "None", "youtube": "None", "website": "None", "summary": "None", "logo": "None", "latitude": 49.63287300000006, "longitude": -105.99348049999993}, "130565963RR0001": {"name": "CHRISTIAN AND MISSIONARY ALLIANCE-CANADIAN PACIFIC DISTRICT", "designationCode": "C", "categoryCode": "39", "address": "9210 WILLIAMS ST", "city": "CHILLIWACK", "province": "BC", "country": "CA", "postalCode": "V2P5E5", "twitter": "None", "instagram": "None", "facebook": "None", "youtube": "None", "website": "None", "summary": "None", "logo": "None", "latitude": 49.16885352844943, "longitude": -121.9456214400141}, "883286809RR0001": {"name": "CHRISTIAN APOLOGETICS RESEARCH AND EVANGELISM MINISTRIES OF WINNIPEG", "designationCode": "C", "categoryCode": "39", "address": "124 MANILA ROAD", "city": "WINNIPEG", "province": "MB", "country": "CA", "postalCode": "R2P0S9", "twitter": "None", "instagram": "None", "facebook": "None", "youtube": "None", "website": "None", "summary": "None", "logo": "None", "latitude": 49.95887506800734, "longitude": -97.17451091329544}, "107451163RR0001": {"name": "CHRISTIAN ASSEMBLY AT GREENLAND", "designationCode": "C", "categoryCode": "39", "address": "376 GREENLAND ROAD            RR 1", "city": "BEAR RIVER", "province": "NS", "country": "CA", "postalCode": "B0S1B0", "twitter": "None", "instagram": "None", "facebook": "None", "youtube": "None", "website": "None", "summary": "None", "logo": "None", "latitude": 44.581230487853226, "longitude": -65.57679609914072}, "852800432RR0001": {"name": "CHRISTIAN ASSEMBLY OF WINDSOR", "designationCode": "C", "categoryCode": "39", "address": "4397 GOLFCOURSE CRES", "city": "WINDSOR", "province": "ON", "country": "CA", "postalCode": "N9G2P4", "twitter": "None", "instagram": "None", "facebook": "None", "youtube": "None", "website": "None", "summary": "None", "logo": "None", "latitude": 42.24465728143573, "longitude": -82.99810081429987}, "118855576RR0001": {"name": "CHRISTIAN BAPTIST CHURCH NEWMARKET", "designationCode": "C", "categoryCode": "31", "address": "127 MAIN ST S", "city": "NEWMARKET", "province": "ON", "country": "CA", "postalCode": "L3Y3Y8", "twitter": "None", "instagram": "None", "facebook": "None", "youtube": "None", "website": "None", "summary": "None", "logo": "None", "latitude": 44.05508917153322, "longitude": -79.45869604437668}, "872101985RR0001": {"name": "CHRISTIAN BIBLICAL CHURCH OF GOD", "designationCode": "C", "categoryCode": "39", "address": "PO BOX 125", "city": "BROCKVILLE", "province": "ON", "country": "CA", "postalCode": "K6V5V2", "twitter": "None", "instagram": "None", "facebook": "None", "youtube": "None", "website": "None", "summary": "None", "logo": "None", "latitude": 44.59037100000006, "longitude": -75.68301049999994}, "106918329RR0001": {"name": "CHRISTIAN BLIND MISSION INTERNATIONAL", "designationCode": "C", "categoryCode": "11", "address": "BOX 800", "city": "STOUFFVILLE", "province": "ON", "country": "CA", "postalCode": "L4A7Z9", "twitter": "None", "instagram": "None", "facebook": "None", "youtube": "None", "website": "None", "summary": "None", "logo": "None", "latitude": 43.97107200000005, "longitude": -79.24805449999994}, "118855618RR0001": {"name": "CHRISTIAN BRETHREN ASSEMBLY", "designationCode": "C", "categoryCode": "39", "address": "P O BOX 507", "city": "MONTAGUE", "province": "PE", "country": "CA", "postalCode": "C0A1R0", "twitter": "None", "instagram": "None", "facebook": "None", "youtube": "None", "website": "None", "summary": "None", "logo": "None", "latitude": 46.14343222329997, "longitude": -62.75594020244682}, "118855626RR0001": {"name": "CHRISTIAN BRETHREN ASSEMBLY OF AYERS CLIFF", "designationCode": "C", "categoryCode": "39", "address": "873 CLOUGH ST", "city": "AYER'S CLIFF", "province": "QC", "country": "CA", "postalCode": "J0B1C0", "twitter": "None", "instagram": "None", "facebook": "None", "youtube": "None", "website": "None", "summary": "None", "logo": "None", "latitude": 45.169082307259394, "longitude": -72.04551546266379}, "860845858RR0001": {"name": "CHRISTIAN BRETHREN BIBLE CHURCH", "designationCode": "C", "categoryCode": "39", "address": "PO BOX 88033,                 7235 BELLSHIRE GATE", "city": "MISSISSAUGA", "province": "ON", "country": "CA", "postalCode": "L5N8M1", "twitter": "None", "instagram": "None", "facebook": "None", "youtube": "None", "website": "None", "summary": "None", "logo": "None", "latitude": 43.62130450822298, "longitude": -79.7431214701656}, "118855659RR0001": {"name": "CHRISTIAN BRETHREN CHURCH", "designationCode": "C", "categoryCode": "39", "address": "116 VETERAN STREET", "city": "NEW RICHMOND", "province": "QC", "country": "CA", "postalCode": "G0C2B0", "twitter": "None", "instagram": "None", "facebook": "None", "youtube": "None", "website": "None", "summary": "None", "logo": "None", "latitude": 48.16945757172958, "longitude": -65.86934181481948}, "118855667RR0001": {"name": "CHRISTIAN BRETHREN FELLOWSHIP MASSEY", "designationCode": "C", "categoryCode": "39", "address": "PO BOX 599", "city": "MASSEY", "province": "ON", "country": "CA", "postalCode": "P0P1P0", "twitter": "None", "instagram": "None", "facebook": "None", "youtube": "None", "website": "None", "summary": "None", "logo": "None", "latitude": 46.21236000000006, "longitude": -82.07723599999993}, "118855683RR0001": {"name": "CHRISTIAN BRETHREN OF DUNCAN", "designationCode": "C", "categoryCode": "39", "address": "321 BRAE ROAD", "city": "DUNCAN", "province": "BC", "country": "CA", "postalCode": "V9L3T9", "twitter": "None", "instagram": "None", "facebook": "None", "youtube": "None", "website": "None", "summary": "None", "logo": "None", "latitude": 48.77744883014023, "longitude": -123.70469110173686}, "106918352RR0001": {"name": "CHRISTIAN BROADCASTING ASSOCIATES INC.", "designationCode": "C", "categoryCode": "47", "address": "680 PROGRESS AVE #2", "city": "SCARBOROUGH", "province": "ON", "country": "CA", "postalCode": "M1H3A5", "twitter": "None", "instagram": "None", "facebook": "None", "youtube": "None", "website": "None", "summary": "None", "logo": "None", "latitude": 43.77712172831647, "longitude": -79.24864146199995}, "844669341RR0001": {"name": "CHRISTIAN CAMPING INTERNATIONAL / CANADA", "designationCode": "C", "categoryCode": "56", "address": "51505 RANGE ROAD 215", "city": "SHERWOOD PARK", "province": "AB", "country": "CA", "postalCode": "T8E1H1", "twitter": "None", "instagram": "None", "facebook": "None", "youtube": "None", "website": "None", "summary": "None", "logo": "None", "latitude": 53.439723366639726, "longitude": -113.07422796214512}, "890919723RR0001": {"name": "CHRISTIAN CAMPING MINISTRIES (LATVIA) SOCIETY", "designationCode": "A", "categoryCode": "49", "address": "10255 MCLEOD COURT", "city": "RICHMOND", "province": "BC", "country": "CA", "postalCode": "V6X3L3", "twitter": "None", "instagram": "None", "facebook": "None", "youtube": "None", "website": "None", "summary": "None", "logo": "None", "latitude": 49.193583555946134, "longitude": -123.10933828621644}, "106918485RR0001": {"name": "CHRISTIAN CENTRE CHURCH (TORONTO)", "designationCode": "C", "categoryCode": "39", "address": "4545 JANE ST", "city": "NORTH YORK", "province": "ON", "country": "CA", "postalCode": "M3N2K7", "twitter": "None", "instagram": "None", "facebook": "None", "youtube": "None", "website": "None", "summary": "None", "logo": "None", "latitude": 43.768010240377265, "longitude": -79.52014523391557}, "891191744RR0001": {"name": "CHRISTIAN CHAPLAINCY (RRCC) INC.", "designationCode": "C", "categoryCode": "49", "address": "301 1850 HENDERSON HIGHWAY", "city": "WINNIPEG", "province": "MB", "country": "CA", "postalCode": "R2G1P2", "twitter": "None", "instagram": "None", "facebook": "None", "youtube": "None", "website": "None", "summary": "None", "logo": "None", "latitude": 49.9568468532234, "longitude": -97.07233658408296}, "106918543RR0001": {"name": "CHRISTIAN CHILDREN'S FUND OF CANADA", "designationCode": "C", "categoryCode": "01", "address": "1200 DENISON ST", "city": "MARKHAM", "province": "ON", "country": "CA", "postalCode": "L3R8G6", "twitter": "None", "instagram": "None", "facebook": "None", "youtube": "None", "website": "None", "summary": "None", "logo": "None", "latitude": 43.830881915084454, "longitude": -79.32278512023161}, "131215832RR0001": {"name": "CHRISTIAN CHURCH", "designationCode": "C", "categoryCode": "39", "address": "83 CENTRAL ST", "city": "SUMMERSIDE", "province": "PE", "country": "CA", "postalCode": "C1N3L2", "twitter": "None", "instagram": "None", "facebook": "None", "youtube": "None", "website": "None", "summary": "None", "logo": "None", "latitude": 46.39468636219633, "longitude": -63.79176373229851}, "879427300RR0001": {"name": "CHRISTIAN CHURCH (DISCIPLES OF CHRIST) IN CANADA", "designationCode": "C", "categoryCode": "39", "address": "1161 HAMILTON ST", "city": "CAMBRIDGE", "province": "ON", "country": "CA", "postalCode": "N3H3G1", "twitter": "None", "instagram": "None", "facebook": "None", "youtube": "None", "website": "None", "summary": "None", "logo": "None", "latitude": 43.39104986069577, "longitude": -80.35419012404078}, "130189632RR0001": {"name": "CHRISTIAN CHURCH DISCIPLES OF CHRIST", "designationCode": "C", "categoryCode": "39", "address": "BOX 744", "city": "RIDGETOWN", "province": "ON", "country": "CA", "postalCode": "N0P2C0", "twitter": "None", "instagram": "None", "facebook": "None", "youtube": "None", "website": "None", "summary": "None", "logo": "None", "latitude": 42.42687003390246, "longitude": -81.90498998889144}, "858018971RR0001": {"name": "CHRISTIAN CHURCH JESUS IS LORD", "designationCode": "C", "categoryCode": "39", "address": "1990 COCKLIN CRES", "city": "OSHAWA", "province": "ON", "country": "CA", "postalCode": "L1K0T6", "twitter": "None", "instagram": "None", "facebook": "None", "youtube": "None", "website": "None", "summary": "None", "logo": "None", "latitude": 43.957972456527315, "longitude": -78.84224537822368}, "118856079RR0001": {"name": "CHRISTIAN CHURCH SWEETS CORNERS", "designationCode": "C", "categoryCode": "39", "address": "5330 RAINHAM RD", "city": "SELKIRK", "province": "ON", "country": "CA", "postalCode": "N0A1P0", "twitter": "None", "instagram": "None", "facebook": "None", "youtube": "None", "website": "None", "summary": "None", "logo": "None", "latitude": 42.855751688845466, "longitude": -79.8009973277743}, "863962916RR0001": {"name": "CHRISTIAN CHURCHES NETWORK OF LONDON", "designationCode": "C", "categoryCode": "39", "address": "1717 OXFORD ST E", "city": "LONDON", "province": "ON", "country": "CA", "postalCode": "N5V2Z5", "twitter": "None", "instagram": "None", "facebook": "None", "youtube": "None", "website": "None", "summary": "None", "logo": "None", "latitude": 43.01342111847221, "longitude": -81.19153634635597}, "867592545RR0001": {"name": "CHRISTIAN CITY CHURCH CALGARY", "designationCode": "C", "categoryCode": "39", "address": "91 COMMERCIAL CRT.", "city": "CALGARY", "province": "AB", "country": "CA", "postalCode": "T3Z2A6", "twitter": "None", "instagram": "None", "facebook": "None", "youtube": "None", "website": "None", "summary": "None", "logo": "None", "latitude": 51.08673904709918, "longitude": -114.34666239251004}, "856346101RR0001": {"name": "CHRISTIAN CITY CHURCH EDMONTON", "designationCode": "C", "categoryCode": "39", "address": "10545 - 81 AVENUE", "city": "EDMONTON", "province": "AB", "country": "CA", "postalCode": "T6E1X7", "twitter": "None", "instagram": "None", "facebook": "None", "youtube": "None", "website": "None", "summary": "None", "logo": "None", "latitude": 53.51703953952926, "longitude": -113.50250036081135}, "864764733RR0001": {"name": "CHRISTIAN CITY CHURCH OF CANADA SOCIETY", "designationCode": "C", "categoryCode": "39", "address": "BOX 328                       1641 LONSDALE AVENUE", "city": "NORTH VANCOUVER", "province": "BC", "country": "CA", "postalCode": "V7M2J5", "twitter": "None", "instagram": "None", "facebook": "None", "youtube": "None", "website": "None", "summary": "None", "logo": "None", "latitude": 49.323529833130316, "longitude": -123.07236431983682}, "899481360RR0001": {"name": "CHRISTIAN COMMUNITY CHURCH (IN BURDETT)", "designationCode": "C", "categoryCode": "39", "address": "BOX 67", "city": "BURDETT", "province": "AB", "country": "CA", "postalCode": "T0K0J0", "twitter": "None", "instagram": "None", "facebook": "None", "youtube": "None", "website": "None", "summary": "None", "logo": "None", "latitude": 49.82875000000007, "longitude": -111.51953999999995}, "869968446RR0001": {"name": "CHRISTIAN COMMUNITY CONCERN CENTRE (4C'S FOOD BANK)", "designationCode": "C", "categoryCode": "09", "address": "BOX 1003 33 YORK ST.", "city": "HALIBURTON", "province": "ON", "country": "CA", "postalCode": "K0M1S0", "twitter": "None", "instagram": "None", "facebook": "None", "youtube": "None", "website": "None", "summary": "None", "logo": "None", "latitude": 45.046286279970325, "longitude": -78.51111745293052}, "118856137RR0001": {"name": "CHRISTIAN COMMUNITY COUNCIL OF NOVA SCOTIA", "designationCode": "C", "categoryCode": "39", "address": "BOX 744", "city": "BRIDGETOWN", "province": "NS", "country": "CA", "postalCode": "B0S1C0", "twitter": "None", "instagram": "None", "facebook": "None", "youtube": "None", "website": "None", "summary": "None", "logo": "None", "latitude": 44.81087000000008, "longitude": -65.38092999999998}, "824247928RR0001": {"name": "CHRISTIAN COMMUNITY INFRASTRUCTURE PROGRAMS CORPORATION (CCIP)", "designationCode": "C", "categoryCode": "49", "address": "133 CRERAR CRT", "city": "FREDERICTON", "province": "NB", "country": "CA", "postalCode": "E3A2W5", "twitter": "None", "instagram": "None", "facebook": "None", "youtube": "None", "website": "None", "summary": "None", "logo": "None", "latitude": 45.96967681516526, "longitude": -66.63040459270583}, "118856178RR0001": {"name": "CHRISTIAN COUNCIL OF THE CAPITAL AREA", "designationCode": "C", "categoryCode": "49", "address": "1247 KILBORN PLACE", "city": "OTTAWA", "province": "ON", "country": "CA", "postalCode": "K1H6K9", "twitter": "None", "instagram": "None", "facebook": "None", "youtube": "None", "website": "None", "summary": "None", "logo": "None", "latitude": 45.38617910467131, "longitude": -75.67189246282967}, "106918634RR0001": {"name": "CHRISTIAN COUNSELLING CENTRE", "designationCode": "C", "categoryCode": "59", "address": "7038 LONGWOODS RD             PO BOX 503 LAMBETH STN", "city": "LONDON", "province": "ON", "country": "CA", "postalCode": "N6P1R1", "twitter": "None", "instagram": "None", "facebook": "None", "youtube": "None", "website": "None", "summary": "None", "logo": "None", "latitude": 42.90943314351647, "longitude": -81.30085983516055}, "118856186RR0001": {"name": "CHRISTIAN COUNSELLING SERVICES", "designationCode": "C", "categoryCode": "59", "address": "617-3RD AVENUE NORTH", "city": "SASKATOON", "province": "SK", "country": "CA", "postalCode": "S7K2J8", "twitter": "None", "instagram": "None", "facebook": "None", "youtube": "None", "website": "None", "summary": "None", "logo": "None", "latitude": 52.13730004884874, "longitude": -106.65831676813417}, "130326424RR0001": {"name": "CHRISTIAN DIRECTION INC. DIRECTION CHRETIENNE INC.", "designationCode": "C", "categoryCode": "29", "address": "520-1450 RUE CITY COUNCILLORS", "city": "MONTREAL", "province": "QC", "country": "CA", "postalCode": "H3A2E6", "twitter": "None", "instagram": "None", "facebook": "None", "youtube": "None", "website": "None", "summary": "None", "logo": "None", "latitude": 45.50517696834794, "longitude": -73.56927370442602}, "868396474RR0001": {"name": "CHRISTIAN EDUCATION MINISTRIES INTERNATIONAL", "designationCode": "C", "categoryCode": "39", "address": "2050 WINDSOR STREET", "city": "ABBOTSFORD", "province": "BC", "country": "CA", "postalCode": "V2T6L9", "twitter": "None", "instagram": "None", "facebook": "None", "youtube": "None", "website": "None", "summary": "None", "logo": "None", "latitude": 49.03935296863639, "longitude": -122.35545212150195}, "886679687RR0001": {"name": "CHRISTIAN FAITH CENTRE NEWMARKET", "designationCode": "C", "categoryCode": "39", "address": "108-137 CHURCH ST", "city": "ST. CATHARINES", "province": "ON", "country": "CA", "postalCode": "L2R3E3", "twitter": "None", "instagram": "None", "facebook": "None", "youtube": "None", "website": "None", "summary": "None", "logo": "None", "latitude": 43.163056085809586, "longitude": -79.24246778700429}, "865664031RR0001": {"name": "CHRISTIAN FAITH FELLOWSHIP OF FOX VALLEY INC.", "designationCode": "C", "categoryCode": "39", "address": "P.O. BOX 7", "city": "FOX VALLEY", "province": "SK", "country": "CA", "postalCode": "S0N0V0", "twitter": "None", "instagram": "None", "facebook": "None", "youtube": "None", "website": "None", "summary": "None", "logo": "None", "latitude": 50.46387000000004, "longitude": -109.48692999999997}, "888804242RR0001": {"name": "CHRISTIAN FAMILY HOLIDAY INCORPORATED", "designationCode": "C", "categoryCode": "09", "address": "15 HUMBER RIDGE DR", "city": "ETOBICOKE", "province": "ON", "country": "CA", "postalCode": "M8Y1Z9", "twitter": "None", "instagram": "None", "facebook": "None", "youtube": "None", "website": "None", "summary": "None", "logo": "None", "latitude": 43.640311119049116, "longitude": -79.49368225921872}, "891264541RR0001": {"name": "CHRISTIAN FAMILY WORSHIP CENTRE", "designationCode": "C", "categoryCode": "39", "address": "83 SUNRISE AVE", "city": "NORTH YORK", "province": "ON", "country": "CA", "postalCode": "M4A1A9", "twitter": "None", "instagram": "None", "facebook": "None", "youtube": "None", "website": "None", "summary": "None", "logo": "None", "latitude": 43.718304827053146, "longitude": -79.3070244755613}, "118856335RR0001": {"name": "CHRISTIAN FELLOWSHIP ASSEMBLY OF GRANDE PRAIRIE ALBERTA", "designationCode": "C", "categoryCode": "39", "address": "11449 92ND ST", "city": "GRANDE PRAIRIE", "province": "AB", "country": "CA", "postalCode": "T8X1P4", "twitter": "None", "instagram": "None", "facebook": "None", "youtube": "None", "website": "None", "summary": "None", "logo": "None", "latitude": 55.18431950291421, "longitude": -118.76918542048107}, "108174061RR0001": {"name": "CHRISTIAN FELLOWSHIP CENTRE", "designationCode": "C", "categoryCode": "39", "address": "UNIT 1 7331 JAMES ST", "city": "MISSION", "province": "BC", "country": "CA", "postalCode": "V2V3V5", "twitter": "None", "instagram": "None", "facebook": "None", "youtube": "None", "website": "None", "summary": "None", "logo": "None", "latitude": 49.134968947544564, "longitude": -122.30719546116323}, "888355674RR0001": {"name": "CHRISTIAN FELLOWSHIP CENTRE", "designationCode": "C", "categoryCode": "39", "address": "20 SHARON ST.", "city": "ST. CATHARINES", "province": "ON", "country": "CA", "postalCode": "L2N3J4", "twitter": "None", "instagram": "None", "facebook": "None", "youtube": "None", "website": "None", "summary": "None", "logo": "None", "latitude": 43.199029707744245, "longitude": -79.23357450678067}, "888483245RR0001": {"name": "CHRISTIAN FELLOWSHIP CENTRE", "designationCode": "C", "categoryCode": "47", "address": "333 CHURCH STREET", "city": "BELLEVILLE", "province": "ON", "country": "CA", "postalCode": "K8P3C8", "twitter": "None", "instagram": "None", "facebook": "None", "youtube": "None", "website": "None", "summary": "None", "logo": "None", "latitude": 44.17045129069982, "longitude": -77.38385001108044}, "134389972RR0001": {"name": "CHRISTIAN FELLOWSHIP CENTRE (QUALICUM BEACH CHURCH)", "designationCode": "C", "categoryCode": "39", "address": "825 VILLAGE WAY", "city": "QUALICUM BEACH", "province": "BC", "country": "CA", "postalCode": "V9K1A1", "twitter": "None", "instagram": "None", "facebook": "None", "youtube": "None", "website": "None", "summary": "None", "logo": "None", "latitude": 49.34986043551243, "longitude": -124.40747363641869}, "106918923RR0001": {"name": "CHRISTIAN FELLOWSHIP CHAPEL", "designationCode": "C", "categoryCode": "34", "address": "A - 1296 CAMBRIAN RD", "city": "SEVERN", "province": "ON", "country": "CA", "postalCode": "L3V0W5", "twitter": "None", "instagram": "None", "facebook": "None", "youtube": "None", "website": "None", "summary": "None", "logo": "None", "latitude": 44.70005832480188, "longitude": -79.47703265687534}, "106918931RR0001": {"name": "CHRISTIAN FELLOWSHIP CHAPEL", "designationCode": "C", "categoryCode": "34", "address": "465 OSBORNE STREET", "city": "WINNIPEG", "province": "MB", "country": "CA", "postalCode": "R3L2A4", "twitter": "None", "instagram": "None", "facebook": "None", "youtube": "None", "website": "None", "summary": "None", "logo": "None", "latitude": 49.86801751289752, "longitude": -97.13680810064034}, "106918980RR0001": {"name": "CHRISTIAN FELLOWSHIP CHURCH", "designationCode": "C", "categoryCode": "34", "address": "RR 1, COMP 2", "city": "SWAN RIVER", "province": "MB", "country": "CA", "postalCode": "R0L1Z0", "twitter": "None", "instagram": "None", "facebook": "None", "youtube": "None", "website": "None", "summary": "None", "logo": "None", "latitude": 52.103742466205304, "longitude": -101.25905455224493}, "106919012RR0001": {"name": "CHRISTIAN FELLOWSHIP CHURCH", "designationCode": "C", "categoryCode": "39", "address": "600 NIMPKISH DRIVE PO BOX 229", "city": "GOLD RIVER", "province": "BC", "country": "CA", "postalCode": "V0P1G0", "twitter": "None", "instagram": "None", "facebook": "None", "youtube": "None", "website": "None", "summary": "None", "logo": "None", "latitude": 49.780711377541216, "longitude": -126.05407787754122}, "118856442RR0001": {"name": "CHRISTIAN FELLOWSHIP CHURCH", "designationCode": "C", "categoryCode": "39", "address": "PO BOX 979", "city": "NEW GLASGOW", "province": "NS", "country": "CA", "postalCode": "B2H5K7", "twitter": "None", "instagram": "None", "facebook": "None", "youtube": "None", "website": "None", "summary": "None", "logo": "None", "latitude": 45.591837000000055, "longitude": -62.643414499999935}, "118856467RR0001": {"name": "CHRISTIAN FELLOWSHIP CHURCH", "designationCode": "C", "categoryCode": "34", "address": "BOX 484", "city": "LANIGAN", "province": "SK", "country": "CA", "postalCode": "S0K2M0", "twitter": "None", "instagram": "None", "facebook": "None", "youtube": "None", "website": "None", "summary": "None", "logo": "None", "latitude": 51.84617000000003, "longitude": -105.03797999999995}, "889141842RR0001": {"name": "CHRISTIAN FELLOWSHIP CHURCH MENNONITE BRETHREN", "designationCode": "C", "categoryCode": "34", "address": "BOX 152", "city": "LUCKY LAKE", "province": "SK", "country": "CA", "postalCode": "S0L1Z0", "twitter": "None", "instagram": "None", "facebook": "None", "youtube": "None", "website": "None", "summary": "None", "logo": "None", "latitude": 50.980002000000056, "longitude": -107.13611149999993}, "846978708RR0001": {"name": "CHRISTIAN FELLOWSHIP CHURCH OF KITCHENER-WATERLOO", "designationCode": "C", "categoryCode": "32", "address": "315 NORTHLAKE DRIVE", "city": "WATERLOO", "province": "ON", "country": "CA", "postalCode": "N2V1W5", "twitter": "None", "instagram": "None", "facebook": "None", "youtube": "None", "website": "None", "summary": "None", "logo": "None", "latitude": 43.50008943020366, "longitude": -80.55447894416903}, "118856509RR0001": {"name": "CHRISTIAN FELLOWSHIP CHURCH OF RHINELAND", "designationCode": "C", "categoryCode": "34", "address": "RR 1", "city": "WYMARK", "province": "SK", "country": "CA", "postalCode": "S0N2Y0", "twitter": "None", "instagram": "None", "facebook": "None", "youtube": "None", "website": "None", "summary": "None", "logo": "None", "latitude": 50.106087, "longitude": -107.73609307712503}, "135507861RR0001": {"name": "CHRISTIAN FELLOWSHIP CHURCH OF SPRUCE GROVE", "designationCode": "C", "categoryCode": "39", "address": "445 KING ST.", "city": "SPRUCE GROVE", "province": "AB", "country": "CA", "postalCode": "T7X2C6", "twitter": "None", "instagram": "None", "facebook": "None", "youtube": "None", "website": "None", "summary": "None", "logo": "None", "latitude": 53.547156, "longitude": -113.90045772987433}, "891197147RR0001": {"name": "CHRISTIAN FELLOWSHIP OF INDIA AND SRI LANKA", "designationCode": "C", "categoryCode": "49", "address": "27 ALLENBURY GARDENS", "city": "WILLOWDALE", "province": "ON", "country": "CA", "postalCode": "M2J2Z2", "twitter": "None", "instagram": "None", "facebook": "None", "youtube": "None", "website": "None", "summary": "None", "logo": "None", "latitude": 43.78143541271852, "longitude": -79.3418863011139}, "889357976RR0001": {"name": "CHRISTIAN FELLOWSHIP UNION (CANADA)", "designationCode": "C", "categoryCode": "47", "address": "85 ARBOUR VISTA ROAD NW", "city": "CALGARY", "province": "AB", "country": "CA", "postalCode": "T3G4N9", "twitter": "None", "instagram": "None", "facebook": "None", "youtube": "None", "website": "None", "summary": "None", "logo": "None", "latitude": 51.133672897022386, "longitude": -114.19618980336426}, "890559479RR0001": {"name": "CHRISTIAN HAITIAN MINISTRIES SOCIETY", "designationCode": "C", "categoryCode": "49", "address": "29115 TAMARIC AVE", "city": "ABBOTSFORD", "province": "BC", "country": "CA", "postalCode": "V4X2C9", "twitter": "None", "instagram": "None", "facebook": "None", "youtube": "None", "website": "None", "summary": "None", "logo": "None", "latitude": 49.114807318765905, "longitude": -122.4185115261076}, "106692833RR0001": {"name": "CHRISTIAN HEALTH ASSOCIATION OF ALBERTA", "designationCode": "C", "categoryCode": "19", "address": "3200 - 10180 101 ST NW", "city": "EDMONTON", "province": "AB", "country": "CA", "postalCode": "T5J3W8", "twitter": "None", "instagram": "None", "facebook": "None", "youtube": "None", "website": "None", "summary": "None", "logo": "None", "latitude": 53.54247641909515, "longitude": -113.49376771934274}, "118856574RR0001": {"name": "CHRISTIAN HERITAGE SCHOOL SOCIETY OF BRANDON", "designationCode": "C", "categoryCode": "20", "address": "2025 26TH STREET", "city": "BRANDON", "province": "MB", "country": "CA", "postalCode": "R7B3Y2", "twitter": "None", "instagram": "None", "facebook": "None", "youtube": "None", "website": "None", "summary": "None", "logo": "None", "latitude": 49.81704574146595, "longitude": -99.97325338208778}, "898357579RR0001": {"name": "CHRISTIAN HIT RADIO INC.", "designationCode": "C", "categoryCode": "49", "address": "1010 THOMAS SPRATT PL         SUITE 3", "city": "OTTAWA", "province": "ON", "country": "CA", "postalCode": "K1G5L5", "twitter": "None", "instagram": "None", "facebook": "None", "youtube": "None", "website": "None", "summary": "None", "logo": "None", "latitude": 45.381549648046786, "longitude": -75.61789227015431}, "106919137RR0001": {"name": "CHRISTIAN HOME ASSOCIATION OF MOUNT HAMILTON", "designationCode": "C", "categoryCode": "09", "address": "261 STONE CHURCH RD E", "city": "HAMILTON", "province": "ON", "country": "CA", "postalCode": "L9B2X3", "twitter": "None", "instagram": "None", "facebook": "None", "youtube": "None", "website": "None", "summary": "None", "logo": "None", "latitude": 43.2081190669108, "longitude": -79.87751534886613}, "886864214RR0001": {"name": "CHRISTIAN HORIZONS", "designationCode": "C", "categoryCode": "49", "address": "4278 KING ST E", "city": "KITCHENER", "province": "ON", "country": "CA", "postalCode": "N2P2G5", "twitter": "None", "instagram": "None", "facebook": "None", "youtube": "None", "website": "None", "summary": "None", "logo": "None", "latitude": 43.4096658632258, "longitude": -80.3985101221191}, "118856608RR0002": {"name": "CHRISTIAN HORIZONS (CANADA)", "designationCode": "C", "categoryCode": "49", "address": "4278 KING ST E", "city": "KITCHENER", "province": "ON", "country": "CA", "postalCode": "N2P2G5", "twitter": "None", "instagram": "None", "facebook": "None", "youtube": "None", "website": "None", "summary": "None", "logo": "None", "latitude": 43.4096658632258, "longitude": -80.3985101221191}, "140964032RR0001": {"name": "CHRISTIAN HORIZONS FOUNDATION", "designationCode": "A", "categoryCode": "43", "address": "4278 KING ST E", "city": "KITCHENER", "province": "ON", "country": "CA", "postalCode": "N2P2G5", "twitter": "None", "instagram": "None", "facebook": "None", "youtube": "None", "website": "None", "summary": "None", "logo": "None", "latitude": 43.4096658632258, "longitude": -80.3985101221191}, "133000117RR0001": {"name": "CHRISTIAN HORIZONS GLOBAL", "designationCode": "C", "categoryCode": "01", "address": "4278 KING ST E", "city": "KITCHENER", "province": "ON", "country": "CA", "postalCode": "N2P2G5", "twitter": "None", "instagram": "None", "facebook": "None", "youtube": "None", "website": "None", "summary": "None", "logo": "None", "latitude": 43.4096658632258, "longitude": -80.3985101221191}, "106919160RR0001": {"name": "CHRISTIAN INDIGENOUS DEVELOPMENT OVERSEAS", "designationCode": "C", "categoryCode": "09", "address": "142 DALHOUSIE RD. N.W.", "city": "CALGARY", "province": "AB", "country": "CA", "postalCode": "T3A2H1", "twitter": "None", "instagram": "None", "facebook": "None", "youtube": "None", "website": "None", "summary": "None", "logo": "None", "latitude": 51.108465153211355, "longitude": -114.1659317325583}, "894144864RR0001": {"name": "CHRISTIAN INTERNATIONAL OF CANADA INC.", "designationCode": "C", "categoryCode": "39", "address": "81 ALLAN DR", "city": "ST CATHARINES", "province": "ON", "country": "CA", "postalCode": "L2N1G1", "twitter": "None", "instagram": "None", "facebook": "None", "youtube": "None", "website": "None", "summary": "None", "logo": "None", "latitude": 43.18349823149045, "longitude": -79.2329892885335}, "118856665RR0001": {"name": "CHRISTIAN INVESTORS IN EDUCATION INC", "designationCode": "C", "categoryCode": "21", "address": "23 TOLCROSS GATE", "city": "WINNIPEG", "province": "MB", "country": "CA", "postalCode": "R3Y1M2", "twitter": "None", "instagram": "None", "facebook": "None", "youtube": "None", "website": "None", "summary": "None", "logo": "None", "latitude": 49.81765681155858, "longitude": -97.20135059515867}, "118856699RR0001": {"name": "CHRISTIAN LEADERSHIP COUNCIL OF DOWNTOWN TORONTO", "designationCode": "C", "categoryCode": "49", "address": "40 HOMEWOOD AVENUE  509", "city": "TORONTO", "province": "ON", "country": "CA", "postalCode": "M4Y2K2", "twitter": "None", "instagram": "None", "facebook": "None", "youtube": "None", "website": "None", "summary": "None", "logo": "None", "latitude": 43.66433528253224, "longitude": -79.37496288764464}, "118856707RR0001": {"name": "CHRISTIAN LEGAL FELLOWSHIP", "designationCode": "C", "categoryCode": "47", "address": "202 - 285 KING ST", "city": "LONDON", "province": "ON", "country": "CA", "postalCode": "N6B3M6", "twitter": "None", "instagram": "None", "facebook": "None", "youtube": "None", "website": "None", "summary": "None", "logo": "None", "latitude": 42.983848049656814, "longitude": -81.2442353531653}, "106919277RR0001": {"name": "CHRISTIAN LIFE ASSEMBLY", "designationCode": "C", "categoryCode": "36", "address": "1042 JEFFERSON AVENUE", "city": "WINNIPEG", "province": "MB", "country": "CA", "postalCode": "R2P0L1", "twitter": "None", "instagram": "None", "facebook": "None", "youtube": "None", "website": "None", "summary": "None", "logo": "None", "latitude": 49.947150020226445, "longitude": -97.16150924585985}, "107409377RR0001": {"name": "CHRISTIAN LIFE ASSEMBLY", "designationCode": "C", "categoryCode": "36", "address": "484 BARRICK RD.", "city": "PORT COLBORNE", "province": "ON", "country": "CA", "postalCode": "L3K4B7", "twitter": "None", "instagram": "None", "facebook": "None", "youtube": "None", "website": "None", "summary": "None", "logo": "None", "latitude": 42.91011252827746, "longitude": -79.26370114640201}, "118856749RR0001": {"name": "CHRISTIAN LIFE ASSEMBLY", "designationCode": "C", "categoryCode": "36", "address": "21277 56 AVE", "city": "LANGLEY", "province": "BC", "country": "CA", "postalCode": "V2Y1M3", "twitter": "None", "instagram": "None", "facebook": "None", "youtube": "None", "website": "None", "summary": "None", "logo": "None", "latitude": 49.10457325172703, "longitude": -122.63348620689717}, "118856756RR0001": {"name": "CHRISTIAN LIFE ASSEMBLY OF PEACE RIVER", "designationCode": "C", "categoryCode": "36", "address": "9910 82 ST", "city": "PEACE RIVER", "province": "AB", "country": "CA", "postalCode": "T8S1W3", "twitter": "None", "instagram": "None", "facebook": "None", "youtube": "None", "website": "None", "summary": "None", "logo": "None", "latitude": 56.232885513105316, "longitude": -117.32499451577917}, "890964448RR0001": {"name": "CHRISTIAN LIFE ASSEMBLY SOCIETY OF CALGARY", "designationCode": "C", "categoryCode": "36", "address": "3214-28 ST SW", "city": "CALGARY", "province": "AB", "country": "CA", "postalCode": "T3E2J6", "twitter": "None", "instagram": "None", "facebook": "None", "youtube": "None", "website": "None", "summary": "None", "logo": "None", "latitude": 51.02615624562873, "longitude": -114.12792987688285}, "879429215RR0001": {"name": "CHRISTIAN LIFE CENTER", "designationCode": "C", "categoryCode": "36", "address": "10123 PRINCESS ELIZABETH AVE", "city": "EDMONTON", "province": "AB", "country": "CA", "postalCode": "T5G0X9", "twitter": "None", "instagram": "None", "facebook": "None", "youtube": "None", "website": "None", "summary": "None", "logo": "None", "latitude": 53.569579475965334, "longitude": -113.4955415837044}, "118856764RR0001": {"name": "CHRISTIAN LIFE CENTRE", "designationCode": "C", "categoryCode": "36", "address": "1030 RAVENSCROFT RD", "city": "AJAX", "province": "ON", "country": "CA", "postalCode": "L1S4S7", "twitter": "None", "instagram": "None", "facebook": "None", "youtube": "None", "website": "None", "summary": "None", "logo": "None", "latitude": 43.874453630850105, "longitude": -79.05329456168799}, "118897354RR0001": {"name": "CHRISTIAN LIFE CENTRE", "designationCode": "C", "categoryCode": "36", "address": "155 16TH STR CORNER PRINCESS", "city": "BRANDON", "province": "MB", "country": "CA", "postalCode": "R7A4X3", "twitter": "None", "instagram": "None", "facebook": "None", "youtube": "None", "website": "None", "summary": "None", "logo": "None", "latitude": 49.84761948945148, "longitude": -99.95958164570573}, "129986238RR0001": {"name": "CHRISTIAN LIFE CENTRE (MORDEN) INC.", "designationCode": "C", "categoryCode": "36", "address": "605 1 STREET NORTH", "city": "MORDEN", "province": "MB", "country": "CA", "postalCode": "R6M1V7", "twitter": "None", "instagram": "None", "facebook": "None", "youtube": "None", "website": "None", "summary": "None", "logo": "None", "latitude": 49.20040437402047, "longitude": -98.09163658839502}, "886589670RR0001": {"name": "CHRISTIAN LIFE CENTRE - UNITED PENTECOSTAL CHURCH", "designationCode": "C", "categoryCode": "39", "address": "15 - 235 MARTINDALE RD", "city": "ST CATHARINES", "province": "ON", "country": "CA", "postalCode": "L2W1A5", "twitter": "None", "instagram": "None", "facebook": "None", "youtube": "None", "website": "None", "summary": "None", "logo": "None", "latitude": 43.17284114458435, "longitude": -79.27361225748702}, "107395956RR0001": {"name": "CHRISTIAN LIFE CENTRE OF FORT ST. JOHN", "designationCode": "C", "categoryCode": "39", "address": "8923 - 112 AVENUE", "city": "FORT ST. JOHN", "province": "BC", "country": "CA", "postalCode": "V1J5H8", "twitter": "None", "instagram": "None", "facebook": "None", "youtube": "None", "website": "None", "summary": "None", "logo": "None", "latitude": 56.25744653505721, "longitude": -120.82827052553523}, "894702679RR0001": {"name": "CHRISTIAN LIFE CHILDREN'S CENTRE SOCIETY", "designationCode": "C", "categoryCode": "01", "address": "445 MERECROFT RD", "city": "CAMPBELL RIVER", "province": "BC", "country": "CA", "postalCode": "V9W6K6", "twitter": "None", "instagram": "None", "facebook": "None", "youtube": "None", "website": "None", "summary": "None", "logo": "None", "latitude": 50.00018513788629, "longitude": -125.24378286211369}, "140958943RR0001": {"name": "CHRISTIAN LIFE COMMUNITY CANADA", "designationCode": "C", "categoryCode": "47", "address": "4533 MILLVALE RD", "city": "BREADALBANE", "province": "PE", "country": "CA", "postalCode": "C0A1E0", "twitter": "None", "instagram": "None", "facebook": "None", "youtube": "None", "website": "None", "summary": "None", "logo": "None", "latitude": 46.40176925618896, "longitude": -63.435679040250406}, "139842504RR0001": {"name": "CHRISTIAN LIFE COMMUNITY CHURCH", "designationCode": "C", "categoryCode": "36", "address": "35131 STRAITON ROAD", "city": "ABBOTSFORD", "province": "BC", "country": "CA", "postalCode": "V2S7Z1", "twitter": "None", "instagram": "None", "facebook": "None", "youtube": "None", "website": "None", "summary": "None", "logo": "None", "latitude": 49.0824860939287, "longitude": -122.25269380202377}, "131983470RR0001": {"name": "CHRISTIAN LIFE FELLOWSHIP", "designationCode": "C", "categoryCode": "36", "address": "445 MERECROFT RD", "city": "CAMPBELL RIVER", "province": "BC", "country": "CA", "postalCode": "V9W7H7", "twitter": "None", "instagram": "None", "facebook": "None", "youtube": "None", "website": "None", "summary": "None", "logo": "None", "latitude": 50.00018513788629, "longitude": -125.24378286211369}, "118856822RR0001": {"name": "CHRISTIAN LIFE TV INTERNATIONAL", "designationCode": "C", "categoryCode": "47", "address": "2452 NEWPORT ST", "city": "BURLINGTON", "province": "ON", "country": "CA", "postalCode": "L7M3Y1", "twitter": "None", "instagram": "None", "facebook": "None", "youtube": "None", "website": "None", "summary": "None", "logo": "None", "latitude": 43.38622595862443, "longitude": -79.82327715113387}, "877473918RR0001": {"name": "CHRISTIAN LIGHT PUBLICATIONS OF CANADA", "designationCode": "C", "categoryCode": "47", "address": "676568 - 16TH LINE            R.R. #1", "city": "TAVISTOCK", "province": "ON", "country": "CA", "postalCode": "N0B2R0", "twitter": "None", "instagram": "None", "facebook": "None", "youtube": "None", "website": "None", "summary": "None", "logo": "None", "latitude": 43.32363000000005, "longitude": -80.82729799999993}, "866716533RR0001": {"name": "CHRISTIAN MEDIA ASSOCIATION", "designationCode": "C", "categoryCode": "47", "address": "P.O. BOX 483", "city": "TRURO", "province": "NS", "country": "CA", "postalCode": "B2N5C7", "twitter": "None", "instagram": "None", "facebook": "None", "youtube": "None", "website": "None", "summary": "None", "logo": "None", "latitude": 45.36602700000006, "longitude": -63.289042999999936}, "129895066RR0001": {"name": "CHRISTIAN MEDICAL DENTAL SOCIETY OF CANADA", "designationCode": "C", "categoryCode": "49", "address": "9A - 1000 WINDMILL RD", "city": "DARTMOUTH", "province": "NS", "country": "CA", "postalCode": "B3B1L7", "twitter": "None", "instagram": "None", "facebook": "None", "youtube": "None", "website": "None", "summary": "None", "logo": "None", "latitude": 44.71410671629573, "longitude": -63.630533927719505}, "118856871RR0001": {"name": "CHRISTIAN MINISTERS' ASSOCIATION", "designationCode": "C", "categoryCode": "39", "address": "102 - 17802 66 AVE", "city": "SURREY", "province": "BC", "country": "CA", "postalCode": "V3S7X1", "twitter": "None", "instagram": "None", "facebook": "None", "youtube": "None", "website": "None", "summary": "None", "logo": "None", "latitude": 49.12233149235394, "longitude": -122.72895369317328}, "118856889RR0001": {"name": "CHRISTIAN MINISTRIES ASSOCIATION OF MANITOBA INC.", "designationCode": "C", "categoryCode": "39", "address": "2 ROSEWOOD PLACE", "city": "STEINBACH", "province": "MB", "country": "CA", "postalCode": "R5G0H6", "twitter": "None", "instagram": "None", "facebook": "None", "youtube": "None", "website": "None", "summary": "None", "logo": "None", "latitude": 49.528395008737874, "longitude": -96.67028899623347}, "886331396RR0001": {"name": "CHRISTIAN MINISTRIES TO CENTRAL AMERICA, SOCIETY", "designationCode": "C", "categoryCode": "47", "address": "17-3440B TENNYSON AVE", "city": "VICTORIA", "province": "BC", "country": "CA", "postalCode": "V8Z3P3", "twitter": "None", "instagram": "None", "facebook": "None", "youtube": "None", "website": "None", "summary": "None", "logo": "None", "latitude": 48.452313234398005, "longitude": -123.37829069764129}, "898136569RR0001": {"name": "CHRISTIAN MISSION AND TRAINING COMMISSION", "designationCode": "C", "categoryCode": "47", "address": "225 SHUSWAP RD                RR 1", "city": "MONETVILLE", "province": "ON", "country": "CA", "postalCode": "P0M2K0", "twitter": "None", "instagram": "None", "facebook": "None", "youtube": "None", "website": "None", "summary": "None", "logo": "None", "latitude": 46.169580790193955, "longitude": -80.35674289104405}, "855432720RR0001": {"name": "CHRISTIAN MISSIONARY FELLOWSHIP", "designationCode": "C", "categoryCode": "39", "address": "P.O. BOX 471", "city": "FORT VERMILION", "province": "AB", "country": "CA", "postalCode": "T0H1N0", "twitter": "None", "instagram": "None", "facebook": "None", "youtube": "None", "website": "None", "summary": "None", "logo": "None", "latitude": 58.387350000000026, "longitude": -116.01808999999997}}