{"121030068RR0001": {"name": "CLUB DE L'AGE D'OR DE PLESSISVILLE", "designationCode": "C", "categoryCode": "56", "address": "1745 FOURNIER, C.P. 126", "city": "PLESSISVILLE", "province": "QC", "country": "CA", "postalCode": "G6L2Y6", "twitter": "None", "instagram": "None", "facebook": "None", "youtube": "None", "website": "None", "summary": "None", "logo": "None", "latitude": 46.21940528668718, "longitude": -71.77733256543891}, "118865856RR0001": {"name": "CLUB DE L'AGE D'OR DE SENNETERRE INC.", "designationCode": "C", "categoryCode": "56", "address": "320 4E RUE OUEST", "city": "SENNETERRE", "province": "QC", "country": "CA", "postalCode": "J0Y2M0", "twitter": "None", "instagram": "None", "facebook": "None", "youtube": "None", "website": "None", "summary": "None", "logo": "None", "latitude": 48.38948052844941, "longitude": -77.24467338885674}, "118865864RR0001": {"name": "CLUB DE L'AGE D'OR DE SHIPPAGAN INC.", "designationCode": "C", "categoryCode": "56", "address": "150 RUE DE GRACE", "city": "SHIPPAGAN", "province": "NB", "country": "CA", "postalCode": "E8S1H6", "twitter": "None", "instagram": "None", "facebook": "None", "youtube": "None", "website": "None", "summary": "None", "logo": "None", "latitude": 47.74263000000006, "longitude": -64.71473299999994}, "892883760RR0001": {"name": "CLUB DE L'AGE D'OR DE ST-COLOMBAN", "designationCode": "C", "categoryCode": "56", "address": "C.P. 52", "city": "SAINT-COLOMBAN", "province": "QC", "country": "CA", "postalCode": "J5K2T1", "twitter": "None", "instagram": "None", "facebook": "None", "youtube": "None", "website": "None", "summary": "None", "logo": "None", "latitude": 45.73979700000005, "longitude": -74.13769249999993}, "134747906RR0001": {"name": "CLUB DE L'AGE D'OR DE ST-VICTOR DE BEAUCE INC", "designationCode": "C", "categoryCode": "56", "address": "154 RUE HOULE", "city": "SAINT-VICTOR", "province": "QC", "country": "CA", "postalCode": "G0M2B0", "twitter": "None", "instagram": "None", "facebook": "None", "youtube": "None", "website": "None", "summary": "None", "logo": "None", "latitude": 46.14511131141434, "longitude": -70.90271396099034}, "890631542RR0001": {"name": "CLUB DE L'AGE D'OR DES JOYEUX MERCREDIS", "designationCode": "C", "categoryCode": "09", "address": "639 RUE LAPOINTE", "city": "CHICOUTIMI", "province": "QC", "country": "CA", "postalCode": "G7J3E3", "twitter": "None", "instagram": "None", "facebook": "None", "youtube": "None", "website": "None", "summary": "None", "logo": "None", "latitude": 48.420854822090156, "longitude": -71.07671131681003}, "130058464RR0001": {"name": "CLUB DE L'AGE D'OR DU CUIVRE ROUYN-NORANDA INC", "designationCode": "C", "categoryCode": "56", "address": "215 AVENUE DALLAIRE", "city": "ROUYN-NORANDA", "province": "QC", "country": "CA", "postalCode": "J9X4T5", "twitter": "None", "instagram": "None", "facebook": "None", "youtube": "None", "website": "None", "summary": "None", "logo": "None", "latitude": 48.236714580904845, "longitude": -79.02257871934368}, "101021483RR0001": {"name": "CLUB DE L'AGE D'OR HARRICANA INC.", "designationCode": "C", "categoryCode": "56", "address": "CP 1023                       120 OUEST 6IEME AVENUE", "city": "AMOS", "province": "QC", "country": "CA", "postalCode": "J9T3X6", "twitter": "None", "instagram": "None", "facebook": "None", "youtube": "None", "website": "None", "summary": "None", "logo": "None", "latitude": 48.57729949624909, "longitude": -78.119001}, "118865880RR0001": {"name": "CLUB DE L'AGE D'OR L'ECHO DE BROMPTONVILLE INC.", "designationCode": "C", "categoryCode": "56", "address": "133 LAVAL", "city": "SHERBROOKE", "province": "QC", "country": "CA", "postalCode": "J1C0P9", "twitter": "None", "instagram": "None", "facebook": "None", "youtube": "None", "website": "None", "summary": "None", "logo": "None", "latitude": 45.47271629254422, "longitude": -71.94495648531347}, "118865906RR0001": {"name": "CLUB DE L'AGE D'OR LE FOYER POINTE-AUX-ROCHES", "designationCode": "C", "categoryCode": "56", "address": "7500 RUE TECUMSEH CP 99", "city": "POINTE-AUX ROCHES", "province": "ON", "country": "CA", "postalCode": "N0R1N0", "twitter": "None", "instagram": "None", "facebook": "None", "youtube": "None", "website": "None", "summary": "None", "logo": "None", "latitude": 42.30461046047075, "longitude": -82.54450869164407}, "890596992RR0001": {"name": "CLUB DE L'AGE D'OR MARIEVILLE", "designationCode": "C", "categoryCode": "56", "address": "400 RUE DR. POULIN", "city": "MARIEVILLE", "province": "QC", "country": "CA", "postalCode": "J3M1J5", "twitter": "None", "instagram": "None", "facebook": "None", "youtube": "None", "website": "None", "summary": "None", "logo": "None", "latitude": 45.43398600000006, "longitude": -73.15894699999993}, "118865922RR0001": {"name": "CLUB DE L'AGE D'OR RIVIERE-DU-LOUP INC.", "designationCode": "C", "categoryCode": "09", "address": "15 RUE FRONTENAC", "city": "RIVIERE-DU-LOUP", "province": "QC", "country": "CA", "postalCode": "G5R4C4", "twitter": "None", "instagram": "None", "facebook": "None", "youtube": "None", "website": "None", "summary": "None", "logo": "None", "latitude": 47.83058532777431, "longitude": -69.53282543836931}, "118865948RR0001": {"name": "CLUB DE L'AMITIE DE LA BROQUERIE INC.", "designationCode": "C", "categoryCode": "56", "address": "PO BOX 533", "city": "LA BROQUERIE", "province": "MB", "country": "CA", "postalCode": "R0A0W0", "twitter": "None", "instagram": "None", "facebook": "None", "youtube": "None", "website": "None", "summary": "None", "logo": "None", "latitude": 49.52287000000007, "longitude": -96.51056999999997}, "863958252RR0001": {"name": "CLUB DE LA JOIE DE VIVRE POUR PERSONNE HANDICAPEE DE VALLEYFIELD", "designationCode": "C", "categoryCode": "09", "address": "66 RUE DU MARCH\u00c9", "city": "SALABERRY-DE-VALLEYFIELD", "province": "QC", "country": "CA", "postalCode": "J6T1P5", "twitter": "None", "instagram": "None", "facebook": "None", "youtube": "None", "website": "None", "summary": "None", "logo": "None", "latitude": 45.254056567314855, "longitude": -74.13475056217895}, "132484361RR0001": {"name": "CLUB DE RECHERCHE D'EMPLOI MONTREAL CENTRE-NORD (CREMCN) INC.", "designationCode": "C", "categoryCode": "09", "address": "1600 HENRI-BOURASSA OUEST     BUREAU 450", "city": "MONTREAL", "province": "QC", "country": "CA", "postalCode": "H3M3E2", "twitter": "None", "instagram": "None", "facebook": "None", "youtube": "None", "website": "None", "summary": "None", "logo": "None", "latitude": 45.53653775630453, "longitude": -73.67905408947452}, "125135251RR0001": {"name": "CLUB DE RECHERCHE D'EMPLOI MONTREAL CENTRE-VILLE", "designationCode": "C", "categoryCode": "59", "address": "550 RUE SHERBROOKE OUEST      SUITE 1000", "city": "MONTREAL", "province": "QC", "country": "CA", "postalCode": "H3A1B9", "twitter": "None", "instagram": "None", "facebook": "None", "youtube": "None", "website": "None", "summary": "None", "logo": "None", "latitude": 45.505973483755604, "longitude": -73.57239137191985}, "890924475RR0001": {"name": "CLUB DES BENEVOLES DE SQUATEC INC", "designationCode": "C", "categoryCode": "09", "address": "C.P 242", "city": "SQUATEC", "province": "QC", "country": "CA", "postalCode": "G0L4H0", "twitter": "None", "instagram": "None", "facebook": "None", "youtube": "None", "website": "None", "summary": "None", "logo": "None", "latitude": 47.88089211529137, "longitude": -68.71819782706295}, "879973071RR0001": {"name": "CLUB DES CITOYENS SENIORS DE CHEVERY", "designationCode": "C", "categoryCode": "09", "address": "C.P. 29", "city": "CHEVERY", "province": "QC", "country": "CA", "postalCode": "G0G1G0", "twitter": "None", "instagram": "None", "facebook": "None", "youtube": "None", "website": "None", "summary": "None", "logo": "None", "latitude": 50.68358000000006, "longitude": -59.24160999999998}, "137148185RR0001": {"name": "CLUB DES HANDICAPES DE VAL D'OR INC", "designationCode": "C", "categoryCode": "09", "address": "201 9E RUE", "city": "VAL-D'OR", "province": "QC", "country": "CA", "postalCode": "J9P3K5", "twitter": "None", "instagram": "None", "facebook": "None", "youtube": "None", "website": "None", "summary": "None", "logo": "None", "latitude": 48.102784333891144, "longitude": -77.78191146768411}, "863686754RR0001": {"name": "CLUB DES JEUNES 12-17 D'ALBANEL", "designationCode": "C", "categoryCode": "09", "address": "160-C RUE PRINCIPALE", "city": "ALBANEL", "province": "QC", "country": "CA", "postalCode": "G8M3J6", "twitter": "None", "instagram": "None", "facebook": "None", "youtube": "None", "website": "None", "summary": "None", "logo": "None", "latitude": 48.88317236496629, "longitude": -72.4414648235038}, "107607418RR0001": {"name": "CLUB DES ORNITHOLOGUES DE LA GASPESIE", "designationCode": "C", "categoryCode": "54", "address": "428 BOULEVARD PABOS", "city": "PABOS", "province": "QC", "country": "CA", "postalCode": "G0C2H0", "twitter": "None", "instagram": "None", "facebook": "None", "youtube": "None", "website": "None", "summary": "None", "logo": "None", "latitude": 48.36257354867587, "longitude": -64.60661935481008}, "101023059RR0001": {"name": "CLUB DES PERSONNES HANDICAPEES DU LAC ST-LOUIS", "designationCode": "C", "categoryCode": "56", "address": "3195 RUE REMEMBRANCE", "city": "LACHINE", "province": "QC", "country": "CA", "postalCode": "H8S1X9", "twitter": "None", "instagram": "None", "facebook": "None", "youtube": "None", "website": "None", "summary": "None", "logo": "None", "latitude": 45.4376015350572, "longitude": -73.69000900998331}, "893215178RR0001": {"name": "CLUB DU BONHEUR DE SAINT-LEONARD", "designationCode": "C", "categoryCode": "09", "address": "#107-6905 BOUL.GOUIN EST", "city": "MONTR\u00c9AL", "province": "QC", "country": "CA", "postalCode": "H1G6L5", "twitter": "None", "instagram": "None", "facebook": "None", "youtube": "None", "website": "None", "summary": "None", "logo": "None", "latitude": 45.62267369463332, "longitude": -73.62909822581686}, "101023703RR0001": {"name": "CLUB ECLIPSE' 79 INC.", "designationCode": "C", "categoryCode": "56", "address": "255 DE LA CATHEDRALE", "city": "ST BONIFACE", "province": "MB", "country": "CA", "postalCode": "R2H0J1", "twitter": "None", "instagram": "None", "facebook": "None", "youtube": "None", "website": "None", "summary": "None", "logo": "None", "latitude": 49.889649973311, "longitude": -97.12234995614286}, "889057063RR0001": {"name": "CLUB ETOILE D'AGE D'OR DE GIROUXVILLE", "designationCode": "C", "categoryCode": "56", "address": "BOX 334", "city": "GIROUXVILLE", "province": "AB", "country": "CA", "postalCode": "T0H1S0", "twitter": "None", "instagram": "None", "facebook": "None", "youtube": "None", "website": "None", "summary": "None", "logo": "None", "latitude": 58.390100000000075, "longitude": -116.01802999999995}, "887760734RR0001": {"name": "CLUB GAR\u00c7ONS ET FILLES DE LACHINE / BOYS AND GIRLS CLUB OF LACHINE", "designationCode": "C", "categoryCode": "09", "address": "800 SHERBROOKE", "city": "LACHINE", "province": "QC", "country": "CA", "postalCode": "H8S1H2", "twitter": "None", "instagram": "None", "facebook": "None", "youtube": "None", "website": "None", "summary": "None", "logo": "None", "latitude": 45.444989460470744, "longitude": -73.67116461226844}, "893180158RR0001": {"name": "CLUB INTERGENERATION LA PETITE PATRIE", "designationCode": "C", "categoryCode": "09", "address": "5718 RUE ST-ANDRE", "city": "MONTREAL", "province": "QC", "country": "CA", "postalCode": "H2S2K1", "twitter": "None", "instagram": "None", "facebook": "None", "youtube": "None", "website": "None", "summary": "None", "logo": "None", "latitude": 45.53330781513661, "longitude": -73.59497305219563}, "888485760RR0001": {"name": "CLUB JEUNESSE DE LANORAIE INC.", "designationCode": "C", "categoryCode": "09", "address": "12, LOUIS-JOSEPH DOUCET       LOCAL 150", "city": "LANORAIE", "province": "QC", "country": "CA", "postalCode": "J0K1E0", "twitter": "None", "instagram": "None", "facebook": "None", "youtube": "None", "website": "None", "summary": "None", "logo": "None", "latitude": 45.95831881845483, "longitude": -73.21884202334218}, "888311461RR0001": {"name": "CLUB JOLYS INC", "designationCode": "C", "categoryCode": "59", "address": "PO BOX 231", "city": "ST PIERRE JOLYS", "province": "MB", "country": "CA", "postalCode": "R0A1V0", "twitter": "None", "instagram": "None", "facebook": "None", "youtube": "None", "website": "None", "summary": "None", "logo": "None", "latitude": 49.44079000000005, "longitude": -96.98512999999997}, "886205798RR0001": {"name": "CLUB KINOCOEUR", "designationCode": "C", "categoryCode": "11", "address": "1190 AV DU MUGUET", "city": "ALMA", "province": "QC", "country": "CA", "postalCode": "G8C1L7", "twitter": "None", "instagram": "None", "facebook": "None", "youtube": "None", "website": "None", "summary": "None", "logo": "None", "latitude": 48.534003628368616, "longitude": -71.65587920457025}, "130311715RR0001": {"name": "CLUB L'AGE D'OR DE NORMETAL INC", "designationCode": "C", "categoryCode": "56", "address": "32 7E AVE", "city": "NORMETAL", "province": "QC", "country": "CA", "postalCode": "J0Z3A0", "twitter": "None", "instagram": "None", "facebook": "None", "youtube": "None", "website": "None", "summary": "None", "logo": "None", "latitude": 48.99798737991262, "longitude": -79.36563717880388}, "888514866RR0001": {"name": "CLUB MARANATHA MOTOCYCLISME", "designationCode": "C", "categoryCode": "47", "address": "475 ROUTE 257", "city": "LINGWICK", "province": "QC", "country": "CA", "postalCode": "J0B3B1", "twitter": "None", "instagram": "None", "facebook": "None", "youtube": "None", "website": "None", "summary": "None", "logo": "None", "latitude": 45.547146187019585, "longitude": -71.32380454533808}, "118866136RR0001": {"name": "CLUB MUSICAL DE QUEBEC", "designationCode": "C", "categoryCode": "22", "address": "1021 AV DE SALABERRY", "city": "QUEBEC", "province": "QC", "country": "CA", "postalCode": "G1R2V6", "twitter": "None", "instagram": "None", "facebook": "None", "youtube": "None", "website": "None", "summary": "None", "logo": "None", "latitude": 46.80475892506776, "longitude": -71.22519311267247}, "890282551RR0001": {"name": "CLUB OASIS DES AVEUGLES DE SHERBROOKE INC", "designationCode": "C", "categoryCode": "09", "address": "838, RUE ST-CHARLES", "city": "SHERBROOKE", "province": "QC", "country": "CA", "postalCode": "J1H4Z2", "twitter": "None", "instagram": "None", "facebook": "None", "youtube": "None", "website": "None", "summary": "None", "logo": "None", "latitude": 45.39333157868313, "longitude": -71.88772545669117}, "118866144RR0001": {"name": "CLUB OASIS SAINT-NORBERT INC.", "designationCode": "C", "categoryCode": "56", "address": "80 RUE SAINT-PIERRE", "city": "SAINT-NORBERT", "province": "MB", "country": "CA", "postalCode": "R3V1J8", "twitter": "None", "instagram": "None", "facebook": "None", "youtube": "None", "website": "None", "summary": "None", "logo": "None", "latitude": 49.764045414391965, "longitude": -97.14362536603416}, "898020078RR0001": {"name": "CLUB PARENTAIDE BEAUCE-CENTRE", "designationCode": "C", "categoryCode": "59", "address": "A-390 RUE PRINCIPALE", "city": "SAINT-JULES", "province": "QC", "country": "CA", "postalCode": "G0N1R0", "twitter": "None", "instagram": "None", "facebook": "None", "youtube": "None", "website": "None", "summary": "None", "logo": "None", "latitude": 46.22161894724875, "longitude": -70.94585621724302}, "899191258RR0001": {"name": "CLUB PLEIN AIR LE MORILLON", "designationCode": "C", "categoryCode": "56", "address": "190 ROUTE 138", "city": "GRANDES BERGERONNES", "province": "QC", "country": "CA", "postalCode": "G0T1G0", "twitter": "None", "instagram": "None", "facebook": "None", "youtube": "None", "website": "None", "summary": "None", "logo": "None", "latitude": 48.26288846667925, "longitude": -69.50810356683004}, "140481961RR0001": {"name": "CLUB PLEIN-AIR VAL-DAVID INC.", "designationCode": "C", "categoryCode": "52", "address": "100 - 2579 RUE DE L'EGLISE", "city": "VAL-DAVID", "province": "QC", "country": "CA", "postalCode": "J0T2N0", "twitter": "None", "instagram": "None", "facebook": "None", "youtube": "None", "website": "None", "summary": "None", "logo": "None", "latitude": 46.03155316599328, "longitude": -74.20510134932748}, "119125052RR0001": {"name": "CLUB ROTARY DE MONTREAL FONDS DE BIENFAISANCE / ROTARY CLUB OF MONTREAL WELFARE FUND", "designationCode": "A", "categoryCode": "03", "address": "P.O. BOX 205, STATION B", "city": "MONTREAL", "province": "QC", "country": "CA", "postalCode": "H3B3J7", "twitter": "None", "instagram": "None", "facebook": "None", "youtube": "None", "website": "None", "summary": "None", "logo": "None", "latitude": 45.49987500000006, "longitude": -73.56867649999994}, "120584768RR0001": {"name": "CLUB ROUE INTERIEURE ST-GEORGES DE BEAUCE", "designationCode": "C", "categoryCode": "09", "address": "CP 841", "city": "ST-GEORGES DE BEAUCE", "province": "QC", "country": "CA", "postalCode": "G5Y7C9", "twitter": "None", "instagram": "None", "facebook": "None", "youtube": "None", "website": "None", "summary": "None", "logo": "None", "latitude": 46.113530000000026, "longitude": -70.66525999999993}, "118866219RR0001": {"name": "CLUB ST-LUC DE VERCHERES INC.", "designationCode": "C", "categoryCode": "09", "address": "1045 BOUL MARIE VICTORIN", "city": "VERCHERES", "province": "QC", "country": "CA", "postalCode": "J0L2R0", "twitter": "None", "instagram": "None", "facebook": "None", "youtube": "None", "website": "None", "summary": "None", "logo": "None", "latitude": 45.79349681733507, "longitude": -73.32903775329267}, "106949464RR0001": {"name": "CLUB 2/3", "designationCode": "C", "categoryCode": "21", "address": "2330 RUE NOTRE-DAME OUEST     BUREAU 200", "city": "MONTREAL", "province": "QC", "country": "CA", "postalCode": "H3J2Y2", "twitter": "None", "instagram": "None", "facebook": "None", "youtube": "None", "website": "None", "summary": "None", "logo": "None", "latitude": 45.483977704397354, "longitude": -73.57343716054028}, "892157363RR0001": {"name": "CLUB 24", "designationCode": "C", "categoryCode": "09", "address": "P.O. BOX 3                    MAIN P.O.", "city": "DARTMOUTH", "province": "NS", "country": "CA", "postalCode": "B2Y3Y2", "twitter": "None", "instagram": "None", "facebook": "None", "youtube": "None", "website": "None", "summary": "None", "logo": "None", "latitude": 44.67403500000006, "longitude": -63.57535099999993}, "135178036RR0001": {"name": "CLUB 60, ANTIGONISH", "designationCode": "C", "categoryCode": "56", "address": "PO BOX 1012", "city": "ANTIGONISH", "province": "NS", "country": "CA", "postalCode": "B2G2L3", "twitter": "None", "instagram": "None", "facebook": "None", "youtube": "None", "website": "None", "summary": "None", "logo": "None", "latitude": 45.39103800000005, "longitude": -62.04217399999993}, "894472752RR0001": {"name": "CLUBHOUSE OF WINNIPEG INC.", "designationCode": "C", "categoryCode": "09", "address": "172 SHERBROOK STREET", "city": "WINNIPEG", "province": "MB", "country": "CA", "postalCode": "R3C2B6", "twitter": "None", "instagram": "None", "facebook": "None", "youtube": "None", "website": "None", "summary": "None", "logo": "None", "latitude": 49.884148875382294, "longitude": -97.1594529496507}, "874092224RR0001": {"name": "CLUCULZ LAKE VOLUNTEER FIRE DEPARTMENT", "designationCode": "C", "categoryCode": "55", "address": "3395 LUND ROAD", "city": "VANDERHOOF", "province": "BC", "country": "CA", "postalCode": "V0J3A3", "twitter": "None", "instagram": "None", "facebook": "None", "youtube": "None", "website": "None", "summary": "None", "logo": "None", "latitude": 53.89466386069015, "longitude": -123.57152630747494}, "811174374RR0001": {"name": "CLYDE AVENUE BAPTIST CHURCH", "designationCode": "C", "categoryCode": "31", "address": "46 GOLDEN DR", "city": "SYDNEY MINES", "province": "NS", "country": "CA", "postalCode": "B1V3K4", "twitter": "None", "instagram": "None", "facebook": "None", "youtube": "None", "website": "None", "summary": "None", "logo": "None", "latitude": 46.24734780826902, "longitude": -60.24685581689695}, "118866292RR0001": {"name": "CLYDE CARLETON PASTORAL CHARGE", "designationCode": "C", "categoryCode": "44", "address": "CAROLE BLADES                 R.R.#3", "city": "SHELBURNE", "province": "NS", "country": "CA", "postalCode": "B0T1W0", "twitter": "None", "instagram": "None", "facebook": "None", "youtube": "None", "website": "None", "summary": "None", "logo": "None", "latitude": 43.57026600000006, "longitude": -65.35813399999994}, "118807643RR0001": {"name": "CLYDE CHRISTIAN BIBLE CHURCH", "designationCode": "C", "categoryCode": "39", "address": "PO BOX 5266", "city": "WESTLOCK", "province": "AB", "country": "CA", "postalCode": "T7P2P4", "twitter": "None", "instagram": "None", "facebook": "None", "youtube": "None", "website": "None", "summary": "None", "logo": "None", "latitude": 54.15543600000005, "longitude": -113.86003399999993}, "118866300RR0001": {"name": "CLYDE FORKS PASTORAL CHARGE", "designationCode": "C", "categoryCode": "44", "address": "600 CALDWELL LANE, RR 1", "city": "CLAYTON", "province": "ON", "country": "CA", "postalCode": "K0A1P0", "twitter": "None", "instagram": "None", "facebook": "None", "youtube": "None", "website": "None", "summary": "None", "logo": "None", "latitude": 45.177514284480054, "longitude": -76.47611480202224}, "858450117RR0001": {"name": "CLYDE RIVER BUSY BEE CLUB", "designationCode": "C", "categoryCode": "56", "address": "PO BOX 54", "city": "CLYDE RIVER", "province": "NS", "country": "CA", "postalCode": "B0W1R0", "twitter": "None", "instagram": "None", "facebook": "None", "youtube": "None", "website": "None", "summary": "None", "logo": "None", "latitude": 43.63133000000005, "longitude": -65.47742999999997}, "107856551RR0001": {"name": "CLYDE RIVER PRESBYTERIAN CHURCH", "designationCode": "C", "categoryCode": "37", "address": "2438 WEST RIVER ROAD - RTE 9", "city": "NEW HAVEN", "province": "PE", "country": "CA", "postalCode": "C0A1H3", "twitter": "None", "instagram": "None", "facebook": "None", "youtube": "None", "website": "None", "summary": "None", "logo": "None", "latitude": 46.21385413988114, "longitude": -63.29286442022033}, "118866334RR0001": {"name": "CLYDE RIVER UNITED BAPTIST CHURCH", "designationCode": "C", "categoryCode": "31", "address": "631 UPPER MEADOW BANK ROAD    RTE 265", "city": "MEADOW BANK", "province": "PE", "country": "CA", "postalCode": "C0A1H1", "twitter": "None", "instagram": "None", "facebook": "None", "youtube": "None", "website": "None", "summary": "None", "logo": "None", "latitude": 46.213604193173296, "longitude": -63.24416042812618}, "818396962RR0001": {"name": "CM Foundation", "designationCode": "B", "categoryCode": "03", "address": "800 - 630 3 AVE SW", "city": "CALGARY", "province": "AB", "country": "CA", "postalCode": "T2P4L4", "twitter": "None", "instagram": "None", "facebook": "None", "youtube": "None", "website": "None", "summary": "None", "logo": "None", "latitude": 51.05065546826101, "longitude": -114.07541302553523}, "820429678RR0001": {"name": "CMA Foundation / Fondation AMC", "designationCode": "B", "categoryCode": "03", "address": "1870 ALTA VISTA DRIVE", "city": "OTTAWA", "province": "ON", "country": "CA", "postalCode": "K1G6R7", "twitter": "None", "instagram": "None", "facebook": "None", "youtube": "None", "website": "None", "summary": "None", "logo": "None", "latitude": 45.39950230001739, "longitude": -75.66193704059617}, "870771508RR0001": {"name": "CMAC CHRISTIAN MISSION AID CANADA", "designationCode": "C", "categoryCode": "09", "address": "1072 BURGUNDY LANE", "city": "OTTAWA", "province": "ON", "country": "CA", "postalCode": "K1C2M8", "twitter": "None", "instagram": "None", "facebook": "None", "youtube": "None", "website": "None", "summary": "None", "logo": "None", "latitude": 45.4683610896474, "longitude": -75.55079313295623}, "851226498RR0001": {"name": "CMAT Canadian Medical Assistance Teams", "designationCode": "C", "categoryCode": "02", "address": "SUITE 1604-4160 SARDIS ST", "city": "BURNABY", "province": "BC", "country": "CA", "postalCode": "V5H1K2", "twitter": "None", "instagram": "None", "facebook": "None", "youtube": "None", "website": "None", "summary": "None", "logo": "None", "latitude": 49.233949958540634, "longitude": -123.01201683136127}, "863603957RR0001": {"name": "CML DE MONTREAL", "designationCode": "C", "categoryCode": "35", "address": "2-4051 EMILE-VANIER", "city": "MONTREAL", "province": "QC", "country": "CA", "postalCode": "H1Y3P7", "twitter": "None", "instagram": "None", "facebook": "None", "youtube": "None", "website": "None", "summary": "None", "logo": "None", "latitude": 45.54622390259096, "longitude": -73.56169324909116}, "118866383RR0001": {"name": "CN EMPLOYEES' AND PENSIONERS' COMMUNITY FUND", "designationCode": "A", "categoryCode": "05", "address": "935 DE LA GAUCHETIERE ST WEST", "city": "MONTREAL", "province": "QC", "country": "CA", "postalCode": "H3B2M9", "twitter": "None", "instagram": "None", "facebook": "None", "youtube": "None", "website": "None", "summary": "None", "logo": "None", "latitude": 45.497783956194546, "longitude": -73.56866214408058}, "867757502RR0001": {"name": "CNEWA CANADA", "designationCode": "C", "categoryCode": "47", "address": "1247 KILBORN PL", "city": "OTTAWA", "province": "ON", "country": "CA", "postalCode": "K1H6K9", "twitter": "None", "instagram": "None", "facebook": "None", "youtube": "None", "website": "None", "summary": "None", "logo": "None", "latitude": 45.38617910467131, "longitude": -75.67189246282967}, "119217990RR0001": {"name": "CO-OP COMMUNITY FOUNDATION", "designationCode": "B", "categoryCode": "21", "address": "#110, 151 - 86TH AVENUE S.E.", "city": "CALGARY", "province": "AB", "country": "CA", "postalCode": "T2H3A5", "twitter": "None", "instagram": "None", "facebook": "None", "youtube": "None", "website": "None", "summary": "None", "logo": "None", "latitude": 50.97589650000002, "longitude": -114.06990375}, "101136885RR0001": {"name": "CO-OP D'HABITATION LA PETITE MAISON DE POINTE ST-CHARLES", "designationCode": "C", "categoryCode": "59", "address": "C.P. 65009                    SUCCURSALE CHARLEVOIX", "city": "MONTR\u00c9AL", "province": "QC", "country": "CA", "postalCode": "H3K0K4", "twitter": "None", "instagram": "None", "facebook": "None", "youtube": "None", "website": "None", "summary": "None", "logo": "None", "latitude": 45.477250643954996, "longitude": -73.56718479149605}, "118875517RR0001": {"name": "CO-OPERATIVE DEVELOPMENT FOUNDATION OF CANADA/FONDATION DU DEVELOPPEMENT COOPERATIF DU CANADA", "designationCode": "C", "categoryCode": "21", "address": "400 - 275 BANK ST", "city": "OTTAWA", "province": "ON", "country": "CA", "postalCode": "K2P2L6", "twitter": "None", "instagram": "None", "facebook": "None", "youtube": "None", "website": "None", "summary": "None", "logo": "None", "latitude": 45.415614079115834, "longitude": -75.69654734592328}, "872672134RR0001": {"name": "CO-OPERATORS FIFTIETH ANNIVERSARY COMMUNITY FUND", "designationCode": "B", "categoryCode": "03", "address": "PRIORY SQUARE", "city": "GUELPH", "province": "ON", "country": "CA", "postalCode": "N1H6P8", "twitter": "None", "instagram": "None", "facebook": "None", "youtube": "None", "website": "None", "summary": "None", "logo": "None", "latitude": 43.54657200000001, "longitude": -80.24493824999999}, "118875871RR0001": {"name": "CO-RENA INC.", "designationCode": "C", "categoryCode": "56", "address": "3850 RUE EDGAR", "city": "ST HUBERT", "province": "QC", "country": "CA", "postalCode": "J4T3C8", "twitter": "None", "instagram": "None", "facebook": "None", "youtube": "None", "website": "None", "summary": "None", "logo": "None", "latitude": 45.49418243673593, "longitude": -73.46011245166859}, "888099058RR0001": {"name": "CO-RESTO-POP-BEC LES JEUNES ETOILES SCINTILLANTES DU NORD", "designationCode": "C", "categoryCode": "23", "address": "6011, RUE ARTHUR CHEVRIER", "city": "MONTR\u00c9AL-NORD", "province": "QC", "country": "CA", "postalCode": "H1G1R5", "twitter": "None", "instagram": "None", "facebook": "None", "youtube": "None", "website": "None", "summary": "None", "logo": "None", "latitude": 45.61639183126541, "longitude": -73.62468445158393}, "830879532RR0001": {"name": "CO:Here Foundation", "designationCode": "A", "categoryCode": "03", "address": "1148 ODLUM DRIVE", "city": "VANCOUVER", "province": "BC", "country": "CA", "postalCode": "V5L3L7", "twitter": "None", "instagram": "None", "facebook": "None", "youtube": "None", "website": "None", "summary": "None", "logo": "None", "latitude": 49.27412599417161, "longitude": -123.07583144390924}, "106950280RR0001": {"name": "COALDALE CANADIAN REFORMED SCHOOL SOCIETY", "designationCode": "C", "categoryCode": "20", "address": "2008 - 8TH STREET", "city": "COALDALE", "province": "AB", "country": "CA", "postalCode": "T1M1L1", "twitter": "None", "instagram": "None", "facebook": "None", "youtube": "None", "website": "None", "summary": "None", "logo": "None", "latitude": 49.72707, "longitude": -112.6007140073576}, "118866441RR0001": {"name": "COALDALE COMMUNITY WELLNESS ASSOCIATION LTD.", "designationCode": "C", "categoryCode": "10", "address": "BOX 1334", "city": "COALDALE", "province": "AB", "country": "CA", "postalCode": "T1M1N2", "twitter": "None", "instagram": "None", "facebook": "None", "youtube": "None", "website": "None", "summary": "None", "logo": "None", "latitude": 49.73194500000005, "longitude": -112.60066399999994}, "118866458RR0001": {"name": "COALDALE MENNONITE BRETHREN CHURCH", "designationCode": "C", "categoryCode": "34", "address": "2114 18 ST", "city": "COALDALE", "province": "AB", "country": "CA", "postalCode": "T1M1G2", "twitter": "None", "instagram": "None", "facebook": "None", "youtube": "None", "website": "None", "summary": "None", "logo": "None", "latitude": 49.72485507799067, "longitude": -112.61960650014423}, "118866466RR0001": {"name": "COALDALE MENNONITE CHURCH", "designationCode": "C", "categoryCode": "34", "address": "2316-17 ST", "city": "COALDALE", "province": "AB", "country": "CA", "postalCode": "T1M1G3", "twitter": "None", "instagram": "None", "facebook": "None", "youtube": "None", "website": "None", "summary": "None", "logo": "None", "latitude": 49.72096699417162, "longitude": -112.61801544907378}, "118866482RR0001": {"name": "COALDALE SENIOR CITIZENS CENTRE", "designationCode": "C", "categoryCode": "56", "address": "1806-21 AVE", "city": "COALDALE", "province": "AB", "country": "CA", "postalCode": "T1M1E9", "twitter": "None", "instagram": "None", "facebook": "None", "youtube": "None", "website": "None", "summary": "None", "logo": "None", "latitude": 49.725780485429055, "longitude": -112.6202625}, "129856639RR0001": {"name": "COALDALE UNITED CHURCH", "designationCode": "C", "categoryCode": "44", "address": "2022-18ST", "city": "COALDALE", "province": "AB", "country": "CA", "postalCode": "T1M1E9", "twitter": "None", "instagram": "None", "facebook": "None", "youtube": "None", "website": "None", "summary": "None", "logo": "None", "latitude": 49.72612458090484, "longitude": -112.61962450014423}, "890684145RR0001": {"name": "COALITION FOR FAR NORTHWEST ALBERTA BRIGHTER FUTURES SOCIETY", "designationCode": "C", "categoryCode": "09", "address": "PO BOX 789", "city": "FORT VERMILION", "province": "AB", "country": "CA", "postalCode": "T0H1N0", "twitter": "None", "instagram": "None", "facebook": "None", "youtube": "None", "website": "None", "summary": "None", "logo": "None", "latitude": 58.387350000000026, "longitude": -116.01808999999997}, "889776340RR0001": {"name": "COALITION FOR MUSIC EDUCATION IN CANADA", "designationCode": "C", "categoryCode": "29", "address": "P.O. BOX 556", "city": "AGINCOURT", "province": "ON", "country": "CA", "postalCode": "M1S3C5", "twitter": "None", "instagram": "None", "facebook": "None", "youtube": "None", "website": "None", "summary": "None", "logo": "None", "latitude": 43.78831849068517, "longitude": -79.28420095516262}, "891520660RR0001": {"name": "COALITION OF PERSONS WITH DISABILITIES - NEWFOUNDLAND AND LABRADOR INC", "designationCode": "C", "categoryCode": "59", "address": "460 TORBAY RD", "city": "ST. JOHN'S", "province": "NL", "country": "CA", "postalCode": "A1A5J3", "twitter": "None", "instagram": "None", "facebook": "None", "youtube": "None", "website": "None", "summary": "None", "logo": "None", "latitude": 47.607126421430706, "longitude": -52.72040405120418}, "861552495RR0001": {"name": "COALITION POUR L'ACQUISITION DE SAINES HABITUDES (CASH) INC.", "designationCode": "C", "categoryCode": "11", "address": "104 BAIE DES OUTARDES", "city": "SAINT-MARC DE FIGUERY", "province": "QC", "country": "CA", "postalCode": "J0Y1J0", "twitter": "None", "instagram": "None", "facebook": "None", "youtube": "None", "website": "None", "summary": "None", "logo": "None", "latitude": 48.44226155006084, "longitude": -78.06186402276526}, "897534343RR0001": {"name": "COALITION SHERBROOKOISE POUR LE TRAVAIL DE RUE", "designationCode": "C", "categoryCode": "09", "address": "61, RUE WELLINGTON SUD", "city": "SHERBROOKE", "province": "QC", "country": "CA", "postalCode": "J1H5C8", "twitter": "None", "instagram": "None", "facebook": "None", "youtube": "None", "website": "None", "summary": "None", "logo": "None", "latitude": 45.40018374326279, "longitude": -71.88960790510112}, "138440524RR0001": {"name": "COALITION SIDA DES SOURDS DU QUEBEC", "designationCode": "C", "categoryCode": "09", "address": "2075 RUE PLESSIS              BUREAU 320", "city": "MONTREAL", "province": "QC", "country": "CA", "postalCode": "H2L2Y4", "twitter": "None", "instagram": "None", "facebook": "None", "youtube": "None", "website": "None", "summary": "None", "logo": "None", "latitude": 45.52417507550915, "longitude": -73.56204988660637}, "891784787RR0001": {"name": "COALITION TO SAVE THE ELMS, MANITOBA INC", "designationCode": "C", "categoryCode": "59", "address": "1539 WAVERLEY ST", "city": "WINNIPEG", "province": "MB", "country": "CA", "postalCode": "R3T4V7", "twitter": "None", "instagram": "None", "facebook": "None", "youtube": "None", "website": "None", "summary": "None", "logo": "None", "latitude": 49.82207794210781, "longitude": -97.17948597862599}, "873551816RR0001": {"name": "COAST ANIMAL WELFARE & EDUCATION SOCIETY (C.A.W.E.S.)", "designationCode": "C", "categoryCode": "54", "address": "258 SMUGGLER'S COVE RD", "city": "BOWEN ISLAND", "province": "BC", "country": "CA", "postalCode": "V0N1G1", "twitter": "None", "instagram": "None", "facebook": "None", "youtube": "None", "website": "None", "summary": "None", "logo": "None", "latitude": 49.41532211077175, "longitude": -123.31985173094334}, "856298377RR0001": {"name": "COAST CONSERVATION ENDOWMENT FUND FOUNDATION", "designationCode": "A", "categoryCode": "03", "address": "750 - 475 GEORGIA ST W", "city": "VANCOUVER", "province": "BC", "country": "CA", "postalCode": "V6B4M9", "twitter": "None", "instagram": "None", "facebook": "None", "youtube": "None", "website": "None", "summary": "None", "logo": "None", "latitude": 49.28107337552653, "longitude": -123.11582762585846}, "859383341RR0001": {"name": "COAST HILLS COMMUNITY CHURCH", "designationCode": "C", "categoryCode": "39", "address": "108-17828 65A AVE", "city": "SURREY", "province": "BC", "country": "CA", "postalCode": "V3S1Z3", "twitter": "None", "instagram": "None", "facebook": "None", "youtube": "None", "website": "None", "summary": "None", "logo": "None", "latitude": 49.12115850678068, "longitude": -122.72872419317329}, "861508018RR0001": {"name": "COAST MENTAL HEALTH FOUNDATION", "designationCode": "A", "categoryCode": "03", "address": "293 EAST 11TH AVENUE.", "city": "VANCOUVER", "province": "BC", "country": "CA", "postalCode": "V5T2C4", "twitter": "None", "instagram": "None", "facebook": "None", "youtube": "None", "website": "None", "summary": "None", "logo": "None", "latitude": 49.26115546378896, "longitude": -123.09865166472387}, "860862812RR0001": {"name": "COAST MERIDIAN PARENT ADVISORY COMMITTEE", "designationCode": "C", "categoryCode": "21", "address": "8222 168A ST", "city": "SURREY", "province": "BC", "country": "CA", "postalCode": "V4N4T8", "twitter": "None", "instagram": "None", "facebook": "None", "youtube": "None", "website": "None", "summary": "None", "logo": "None", "latitude": 49.152420419095165, "longitude": -122.75511049166145}, "828252346RR0001": {"name": "COAST TO COAST AGAINST CANCER", "designationCode": "A", "categoryCode": "13", "address": "PO BOX 17                     20 QUEEN ST W", "city": "TORONTO", "province": "ON", "country": "CA", "postalCode": "M5H3R3", "twitter": "None", "instagram": "None", "facebook": "None", "youtube": "None", "website": "None", "summary": "None", "logo": "None", "latitude": 43.652165216227004, "longitude": -79.38052670358928}, "899226682RR0001": {"name": "COASTAL CHURCH", "designationCode": "C", "categoryCode": "39", "address": "P.O. BOX 2801", "city": "VANCOUVER", "province": "BC", "country": "CA", "postalCode": "V6B3X2", "twitter": "None", "instagram": "None", "facebook": "None", "youtube": "None", "website": "None", "summary": "None", "logo": "None", "latitude": 49.28024400000005, "longitude": -123.11294749999993}, "106950561RR0001": {"name": "COASTAL MISSIONS SOCIETY", "designationCode": "C", "categoryCode": "47", "address": "P O BOX 77", "city": "CHEMAINUS", "province": "BC", "country": "CA", "postalCode": "V0R1K0", "twitter": "None", "instagram": "None", "facebook": "None", "youtube": "None", "website": "None", "summary": "None", "logo": "None", "latitude": 48.90353545217932, "longitude": -123.70279429748639}, "890176043RR0001": {"name": "COASTAL SOUND MUSIC ACADEMY SOCIETY", "designationCode": "C", "categoryCode": "22", "address": "P.O. BOX 64528", "city": "COQUITLAM", "province": "BC", "country": "CA", "postalCode": "V3J7V7", "twitter": "None", "instagram": "None", "facebook": "None", "youtube": "None", "website": "None", "summary": "None", "logo": "None", "latitude": 49.25877900000006, "longitude": -122.86348549999994}, "137992137RR0001": {"name": "COASTAL ZONE CANADA ASSOCIATION/ASSOCIATION ZONE COTIERE CANADA", "designationCode": "C", "categoryCode": "59", "address": "6414 COBURG ROAD", "city": "HALIFAX", "province": "NS", "country": "CA", "postalCode": "B3H4R2", "twitter": "None", "instagram": "None", "facebook": "None", "youtube": "None", "website": "None", "summary": "None", "logo": "None", "latitude": 44.637546228403366, "longitude": -63.59697436995795}, "139921563RR0001": {"name": "COASTARTS ASSOCIATION", "designationCode": "C", "categoryCode": "22", "address": "BOX 190", "city": "CANNING", "province": "NS", "country": "CA", "postalCode": "B0P1H0", "twitter": "None", "instagram": "None", "facebook": "None", "youtube": "None", "website": "None", "summary": "None", "logo": "None", "latitude": 45.15015000000005, "longitude": -64.41545999999994}, "889413571RR0001": {"name": "COATES MILLS UNITED CHURCH", "designationCode": "C", "categoryCode": "44", "address": "P.O. BOX 1067", "city": "MONCTON", "province": "NB", "country": "CA", "postalCode": "E1C8P2", "twitter": "None", "instagram": "None", "facebook": "None", "youtube": "None", "website": "None", "summary": "None", "logo": "None", "latitude": 46.08834900000005, "longitude": -64.77824149999994}, "890849052RR0001": {"name": "COB CHARITABLE FOUNDATION", "designationCode": "B", "categoryCode": "53", "address": "6025 CARNARVON  STREET", "city": "VANCOUVER", "province": "BC", "country": "CA", "postalCode": "V6N1J9", "twitter": "None", "instagram": "None", "facebook": "None", "youtube": "None", "website": "None", "summary": "None", "logo": "None", "latitude": 49.23162807799065, "longitude": -123.17313203776891}, "118866557RR0001": {"name": "COBALT PUBLIC LIBRARY", "designationCode": "C", "categoryCode": "50", "address": "30 LANG ST                    P.O.BOX 170", "city": "COBALT", "province": "ON", "country": "CA", "postalCode": "P0J1C0", "twitter": "None", "instagram": "None", "facebook": "None", "youtube": "None", "website": "None", "summary": "None", "logo": "None", "latitude": 47.39708275494715, "longitude": -79.68365735913831}, "821933876RR0001": {"name": "COBALT, COLEMAN, LATCHFORD AND AREA FOOD BANK", "designationCode": "C", "categoryCode": "09", "address": "P.O. BOX 11", "city": "COBALT", "province": "ON", "country": "CA", "postalCode": "P0J1C0", "twitter": "None", "instagram": "None", "facebook": "None", "youtube": "None", "website": "None", "summary": "None", "logo": "None", "latitude": 47.395081709725446, "longitude": -79.68712898233666}, "129864021RR0001": {"name": "COBBLE HILL-MILL BAY-SHAWNIGAN LAKE FOOD BANK SOCIETY", "designationCode": "C", "categoryCode": "09", "address": "2740 LASHBURN RD", "city": "MILL BAY", "province": "BC", "country": "CA", "postalCode": "V0R2P1", "twitter": "None", "instagram": "None", "facebook": "None", "youtube": "None", "website": "None", "summary": "None", "logo": "None", "latitude": 48.652801627531886, "longitude": -123.55752194771746}, "824482079RR0001": {"name": "COBDEN AND DISTRICT FOOD BANK", "designationCode": "C", "categoryCode": "09", "address": "P.O. BOX 460", "city": "COBDEN", "province": "ON", "country": "CA", "postalCode": "K0J1K0", "twitter": "None", "instagram": "None", "facebook": "None", "youtube": "None", "website": "None", "summary": "None", "logo": "None", "latitude": 45.58931694899529, "longitude": -76.94864445565497}, "134949569RR0001": {"name": "COBDEN PASTORAL CHARGE,", "designationCode": "C", "categoryCode": "44", "address": "1264 WEST ROSS RD             RR 1", "city": "COBDEN", "province": "ON", "country": "CA", "postalCode": "K0J1K0", "twitter": "None", "instagram": "None", "facebook": "None", "youtube": "None", "website": "None", "summary": "None", "logo": "None", "latitude": 45.627291733129034, "longitude": -76.89033138554666}, "124275322RR0001": {"name": "COBDEN PENTECOSTAL CHURCH", "designationCode": "C", "categoryCode": "36", "address": "PO BOX 219", "city": "COBDEN", "province": "ON", "country": "CA", "postalCode": "K0J1K0", "twitter": "None", "instagram": "None", "facebook": "None", "youtube": "None", "website": "None", "summary": "None", "logo": "None", "latitude": 45.58931694899529, "longitude": -76.94864445565497}, "118866623RR0001": {"name": "COBDEN PRESBYTERIAN CHURCH", "designationCode": "C", "categoryCode": "37", "address": "PO BOX 258", "city": "COBDEN", "province": "ON", "country": "CA", "postalCode": "K0J1K0", "twitter": "None", "instagram": "None", "facebook": "None", "youtube": "None", "website": "None", "summary": "None", "logo": "None", "latitude": 45.58931694899529, "longitude": -76.94864445565497}}