{"882548902RR0001": {"name": "SQUAMISH COMMUNITY FOUNDATION", "designationCode": "A", "categoryCode": "03", "address": "PO BOX 555", "city": "SQUAMISH", "province": "BC", "country": "CA", "postalCode": "V8B0A5", "twitter": "None", "instagram": "None", "facebook": "None", "youtube": "None", "website": "None", "summary": "None", "logo": "None", "latitude": 49.69853700000006, "longitude": -123.15505399999994}, "886946433RR0001": {"name": "SQUAMISH FOOD BANK SOCIETY", "designationCode": "C", "categoryCode": "09", "address": "202 - 1200 ALPHA LAKE RD", "city": "WHISTLER", "province": "BC", "country": "CA", "postalCode": "V0N1B1", "twitter": "None", "instagram": "None", "facebook": "None", "youtube": "None", "website": "None", "summary": "None", "logo": "None", "latitude": 50.088647294477454, "longitude": -123.03893455568674}, "140773672RR0001": {"name": "SQUAMISH GENERAL HOSPITAL WOMEN'S AUXILIARY SOCIETY", "designationCode": "A", "categoryCode": "13", "address": "38140 BEHRNER DR", "city": "SQUAMISH", "province": "BC", "country": "CA", "postalCode": "V8B0J3", "twitter": "None", "instagram": "None", "facebook": "None", "youtube": "None", "website": "None", "summary": "None", "logo": "None", "latitude": 49.69880152400601, "longitude": -123.14152500929082}, "833791320RR0001": {"name": "SQUAMISH HELPING HANDS SOCIETY", "designationCode": "C", "categoryCode": "09", "address": "37930 THIRD AVE               BOX 994", "city": "SQUAMISH", "province": "BC", "country": "CA", "postalCode": "V8B0A7", "twitter": "None", "instagram": "None", "facebook": "None", "youtube": "None", "website": "None", "summary": "None", "logo": "None", "latitude": 49.69807191361845, "longitude": -123.15686519234933}, "845821727RR0001": {"name": "SQUAMISH HOSPICE SOCIETY", "designationCode": "C", "categoryCode": "11", "address": "38140 BEHRNER DR.", "city": "SQUAMISH", "province": "BC", "country": "CA", "postalCode": "V8B0J3", "twitter": "None", "instagram": "None", "facebook": "None", "youtube": "None", "website": "None", "summary": "None", "logo": "None", "latitude": 49.69880152400601, "longitude": -123.14152500929082}, "883207631RR0001": {"name": "SQUAMISH NATION YOUTH CENTRE", "designationCode": "C", "categoryCode": "09", "address": "PO BOX 86131", "city": "NORTH VANCOUVER", "province": "BC", "country": "CA", "postalCode": "V7L4J5", "twitter": "None", "instagram": "None", "facebook": "None", "youtube": "None", "website": "None", "summary": "None", "logo": "None", "latitude": 49.32107700000006, "longitude": -123.07521049999994}, "833105901RR0001": {"name": "SQUAMISH NEIGHBOURHOOD ANIMAL PARTNERSHIP & PROTECTION SOCIETY", "designationCode": "C", "categoryCode": "54", "address": "717 - 333 BROOKSBANK AVE", "city": "NORTH VANCOUVER", "province": "BC", "country": "CA", "postalCode": "V7J3S8", "twitter": "None", "instagram": "None", "facebook": "None", "youtube": "None", "website": "None", "summary": "None", "logo": "None", "latitude": 49.30863593213054, "longitude": -123.04051515363922}, "887658664RR0001": {"name": "SQUAMISH SEARCH AND RESCUE SOCIETY", "designationCode": "C", "categoryCode": "59", "address": "P.O. BOX 1666", "city": "GARIBALDI HIGHLANDS", "province": "BC", "country": "CA", "postalCode": "V0N1T0", "twitter": "None", "instagram": "None", "facebook": "None", "youtube": "None", "website": "None", "summary": "None", "logo": "None", "latitude": 49.742860000000064, "longitude": -123.11049999999994}, "140396714RR0001": {"name": "SQUAMISH SENIORS CENTRE SOCIETY", "designationCode": "C", "categoryCode": "56", "address": "1201 VILLAGE GREEN WAY", "city": "SQUAMISH", "province": "BC", "country": "CA", "postalCode": "V8B0R7", "twitter": "None", "instagram": "None", "facebook": "None", "youtube": "None", "website": "None", "summary": "None", "logo": "None", "latitude": 49.70336474147656, "longitude": -123.15587757718336}, "898299862RR0001": {"name": "SQUAMISH SIKH SOCIETY", "designationCode": "C", "categoryCode": "62", "address": "BOX 556", "city": "SQUAMISH", "province": "BC", "country": "CA", "postalCode": "V8B0A5", "twitter": "None", "instagram": "None", "facebook": "None", "youtube": "None", "website": "None", "summary": "None", "logo": "None", "latitude": 49.69853700000006, "longitude": -123.15505399999994}, "119161172RR0001": {"name": "SQUAMISH UNITED CHURCH", "designationCode": "C", "categoryCode": "44", "address": "P.O. BOX 286", "city": "SQUAMISH", "province": "BC", "country": "CA", "postalCode": "V8B0A3", "twitter": "None", "instagram": "None", "facebook": "None", "youtube": "None", "website": "None", "summary": "None", "logo": "None"}, "867280562RR0001": {"name": "SQUAMISH VOLUNTEER CENTRE SOCIETY", "designationCode": "C", "categoryCode": "59", "address": "PO BOX 2676", "city": "SQUAMISH", "province": "BC", "country": "CA", "postalCode": "V8B0B8", "twitter": "None", "instagram": "None", "facebook": "None", "youtube": "None", "website": "None", "summary": "None", "logo": "None", "latitude": 49.69853700000006, "longitude": -123.15505399999994}, "119288918RR1114": {"name": "SQUAMISH, B C , CONGREGATION OF JEHOVAH'S WITNESSES,", "designationCode": "C", "categoryCode": "61", "address": "P.O. BOX 3198", "city": "GARIBALDI HIGHLANDS", "province": "BC", "country": "CA", "postalCode": "V0N1T0", "twitter": "None", "instagram": "None", "facebook": "None", "youtube": "None", "website": "None", "summary": "None", "logo": "None", "latitude": 49.742860000000064, "longitude": -123.11049999999994}, "819595893RR0001": {"name": "SQUARE ONE OLDER ADULT CENTRE", "designationCode": "C", "categoryCode": "09", "address": "100 CITY CENTRE DRIVE         PO BOX 2214", "city": "MISSISSAUGA", "province": "ON", "country": "CA", "postalCode": "L5B2C9", "twitter": "None", "instagram": "None", "facebook": "None", "youtube": "None", "website": "None", "summary": "None", "logo": "None", "latitude": 43.5949848353917, "longitude": -79.64038587610345}, "834049728RR0001": {"name": "SQUARE ONE WORLD MEDIA INC.", "designationCode": "C", "categoryCode": "47", "address": "225 RIVERTON AVE", "city": "WINNIPEG", "province": "MB", "country": "CA", "postalCode": "R2L0N1", "twitter": "None", "instagram": "None", "facebook": "None", "youtube": "None", "website": "None", "summary": "None", "logo": "None", "latitude": 49.90939632558128, "longitude": -97.11468488314392}, "868101486RR0001": {"name": "SQUAT BASSE-VILLE", "designationCode": "C", "categoryCode": "01", "address": "97 RUE NOTRE-DAME-DES-ANGES", "city": "QU\u00c9BEC", "province": "QC", "country": "CA", "postalCode": "G1K3E4", "twitter": "None", "instagram": "None", "facebook": "None", "youtube": "None", "website": "None", "summary": "None", "logo": "None", "latitude": 46.812219130157615, "longitude": -71.22948427892555}, "889979480RR0005": {"name": "SR DRAKE MEMORIAL BRITISH METHODIST EPISCOPAL CHURCH", "designationCode": "C", "categoryCode": "39", "address": "165 MURRAY STREET", "city": "BRANTFORD", "province": "ON", "country": "CA", "postalCode": "N3S5R3", "twitter": "None", "instagram": "None", "facebook": "None", "youtube": "None", "website": "None", "summary": "None", "logo": "None", "latitude": 43.14052481487681, "longitude": -80.25229548707382}, "132264607RR0001": {"name": "SRI AYYAPPA SAMAJAM OF ONTARIO", "designationCode": "C", "categoryCode": "39", "address": "635 MIDDLEFIELD ROAD", "city": "SCARBOROUGH", "province": "ON", "country": "CA", "postalCode": "M1B5V8", "twitter": "None", "instagram": "None", "facebook": "None", "youtube": "None", "website": "None", "summary": "None", "logo": "None", "latitude": 43.81566951569612, "longitude": -79.26016114412299}, "869571026RR0001": {"name": "SRI GANESH TEMPLE SOCIETY OF BRITISH COLUMBIA", "designationCode": "C", "categoryCode": "48", "address": "3525 FRASER ST", "city": "VANCOUVER", "province": "BC", "country": "CA", "postalCode": "V5V4C5", "twitter": "None", "instagram": "None", "facebook": "None", "youtube": "None", "website": "None", "summary": "None", "logo": "None", "latitude": 49.25349794423942, "longitude": -123.09006528509794}, "865316004RR0001": {"name": "SRI GANESHA DURGA HINDU TEMPLE OF MISSISSAUGA", "designationCode": "C", "categoryCode": "48", "address": "7220 TRANMERE DRIVE", "city": "MISSISSAUGA", "province": "ON", "country": "CA", "postalCode": "L5S1L6", "twitter": "None", "instagram": "None", "facebook": "None", "youtube": "None", "website": "None", "summary": "None", "logo": "None", "latitude": 43.68718482679337, "longitude": -79.6698501421315}, "893253369RR0001": {"name": "SRI GURU HAR RAI SAHIB FOUNDATION", "designationCode": "B", "categoryCode": "43", "address": "2861 NORTHCREST DR", "city": "SURREY", "province": "BC", "country": "CA", "postalCode": "V4P2H7", "twitter": "None", "instagram": "None", "facebook": "None", "youtube": "None", "website": "None", "summary": "None", "logo": "None", "latitude": 49.05416532361937, "longitude": -122.8276623079519}, "891731051RR0001": {"name": "SRI GURU NANAK SIKH CENTRE BRAMPTON", "designationCode": "C", "categoryCode": "62", "address": "99 GLIDDEN RD", "city": "BRAMPTON", "province": "ON", "country": "CA", "postalCode": "L6T2H8", "twitter": "None", "instagram": "None", "facebook": "None", "youtube": "None", "website": "None", "summary": "None", "logo": "None", "latitude": 43.69372044413946, "longitude": -79.71522889670432}, "884320920RR0001": {"name": "SRI GURU SINGH CHARITABLE ASSOCIATION MALTON", "designationCode": "C", "categoryCode": "62", "address": "5 VALLEYWEST ROAD", "city": "BRAMPTON", "province": "ON", "country": "CA", "postalCode": "L6P2J9", "twitter": "None", "instagram": "None", "facebook": "None", "youtube": "None", "website": "None", "summary": "None", "logo": "None", "latitude": 43.77546100692491, "longitude": -79.71736473423175}, "119161230RR0001": {"name": "SRI GURU SINGH SABHA (TORONTO)", "designationCode": "C", "categoryCode": "62", "address": "331 OLD WESTON RD", "city": "TORONTO", "province": "ON", "country": "CA", "postalCode": "M6N3A7", "twitter": "None", "instagram": "None", "facebook": "None", "youtube": "None", "website": "None", "summary": "None", "logo": "None", "latitude": 43.67288170858096, "longitude": -79.46280539797468}, "889198446RR0001": {"name": "SRI GURU SINGH SABHA CANADA (MALTON)", "designationCode": "C", "categoryCode": "59", "address": "7280 AIRPORT ROAD", "city": "MISSISSAUGA", "province": "ON", "country": "CA", "postalCode": "L4T2H3", "twitter": "None", "instagram": "None", "facebook": "None", "youtube": "None", "website": "None", "summary": "None", "logo": "None", "latitude": 43.708869405175875, "longitude": -79.64942767793133}, "861819993RR0001": {"name": "SRI JAIN MANDIR", "designationCode": "C", "categoryCode": "39", "address": "21 - 59 LEXINGTON AVE", "city": "ETOBICOKE", "province": "ON", "country": "CA", "postalCode": "M9V2G9", "twitter": "None", "instagram": "None", "facebook": "None", "youtube": "None", "website": "None", "summary": "None", "logo": "None", "latitude": 43.74390749956733, "longitude": -79.60043152553523}, "865884357RR0001": {"name": "SRI LANKA-CANADA SCHOLARSHIP FOUNDATION", "designationCode": "C", "categoryCode": "21", "address": "118-8655 KING GEORGE BLVD", "city": "SURREY", "province": "BC", "country": "CA", "postalCode": "V3W5C4", "twitter": "None", "instagram": "None", "facebook": "None", "youtube": "None", "website": "None", "summary": "None", "logo": "None", "latitude": 49.16001685178407, "longitude": -122.84585878655294}, "892273442RR0001": {"name": "SRI MURUGAN SOCIETY OF ALBERTA", "designationCode": "C", "categoryCode": "39", "address": "292090 WAGON WHEEL BLVD", "city": "ROCKY VIEW COUNTY", "province": "AB", "country": "CA", "postalCode": "T4A0E2", "twitter": "None", "instagram": "None", "facebook": "None", "youtube": "None", "website": "None", "summary": "None", "logo": "None", "latitude": 51.21054807765797, "longitude": -113.96629842054165}, "868674870RR0001": {"name": "SRI MUTHU MAARI AMBAL TEMPLE", "designationCode": "C", "categoryCode": "39", "address": "1 UTOPIA WAY", "city": "BRAMPTON", "province": "ON", "country": "CA", "postalCode": "L6P4A6", "twitter": "None", "instagram": "None", "facebook": "None", "youtube": "None", "website": "None", "summary": "None", "logo": "None", "latitude": 43.783401719949254, "longitude": -79.6984011680421}, "862531134RR0001": {"name": "SRI MUTHUVINAYAGAR HINDU SOCIETY", "designationCode": "C", "categoryCode": "48", "address": "468 GERRARD ST E", "city": "TORONTO", "province": "ON", "country": "CA", "postalCode": "M5A2H3", "twitter": "None", "instagram": "None", "facebook": "None", "youtube": "None", "website": "None", "summary": "None", "logo": "None", "latitude": 43.66354996476993, "longitude": -79.35978037275657}, "842823593RR0001": {"name": "SRI Self Regulation Institute", "designationCode": "C", "categoryCode": "11", "address": "B101-2140 EAST BANK DR        SYMONS CAMPUS-DNA BLDG-BLOCK B", "city": "PETERBOROUGH", "province": "ON", "country": "CA", "postalCode": "K9J7B8", "twitter": "None", "instagram": "None", "facebook": "None", "youtube": "None", "website": "None", "summary": "None", "logo": "None", "latitude": 44.30591700000005, "longitude": -78.31950199999993}, "134127281RR0001": {"name": "SRI SANATAN DHARAM SOCIETY OF BRITISH COLUMBIA", "designationCode": "C", "categoryCode": "39", "address": "4332 SCOTT ST", "city": "PORT ALBERNI", "province": "BC", "country": "CA", "postalCode": "V9Y2P9", "twitter": "None", "instagram": "None", "facebook": "None", "youtube": "None", "website": "None", "summary": "None", "logo": "None", "latitude": 49.222481530008224, "longitude": -124.79815252553522}, "119161255RR0001": {"name": "SRI SATHYA SAI BABA CENTER OF B.C.", "designationCode": "C", "categoryCode": "39", "address": "2215 EAST PENDER ST.", "city": "VANCOUVER", "province": "BC", "country": "CA", "postalCode": "V5L1X5", "twitter": "None", "instagram": "None", "facebook": "None", "youtube": "None", "website": "None", "summary": "None", "logo": "None", "latitude": 49.28034450043269, "longitude": -123.05934352553523}, "846321164RR0001": {"name": "SRI SATHYA SAI BABA CENTRE OF COOKSVILLE", "designationCode": "C", "categoryCode": "48", "address": "2061 FOLKWAY DRIVE", "city": "MISSISSAUGA", "province": "ON", "country": "CA", "postalCode": "L5L3G3", "twitter": "None", "instagram": "None", "facebook": "None", "youtube": "None", "website": "None", "summary": "None", "logo": "None", "latitude": 43.55695631115454, "longitude": -79.68822596557797}, "872084223RR0001": {"name": "SRI SATHYA SAI BABA CENTRE OF SCARBOROUGH, CANADA", "designationCode": "C", "categoryCode": "49", "address": "5321 FINCH AVE E", "city": "SCARBOROUGH", "province": "ON", "country": "CA", "postalCode": "M1S5W2", "twitter": "None", "instagram": "None", "facebook": "None", "youtube": "None", "website": "None", "summary": "None", "logo": "None", "latitude": 43.810949747129264, "longitude": -79.25240458061639}, "889967626RR0001": {"name": "SRI SATHYA SAI BABA CENTRE OF TORONTO EAST", "designationCode": "C", "categoryCode": "49", "address": "345 MEADOWS BOULEVARD         UNIT #32", "city": "MISSISSAUGA", "province": "ON", "country": "CA", "postalCode": "L4Z1G5", "twitter": "None", "instagram": "None", "facebook": "None", "youtube": "None", "website": "None", "summary": "None", "logo": "None", "latitude": 43.60536301912992, "longitude": -79.62760806402527}, "854171378RR0001": {"name": "SRI SATHYA SAI BABA CENTRE OF TORONTO-YORK", "designationCode": "C", "categoryCode": "39", "address": "40 VOYAGER COURT NORTH", "city": "TORONTO", "province": "ON", "country": "CA", "postalCode": "M9W4Y3", "twitter": "None", "instagram": "None", "facebook": "None", "youtube": "None", "website": "None", "summary": "None", "logo": "None", "latitude": 43.67887317236991, "longitude": -79.58811543949449}, "140755745RR0001": {"name": "SRI SATHYA SAI BABA FOUNDATION OF EDMONTON", "designationCode": "C", "categoryCode": "49", "address": "9619-82ND AVENUE", "city": "EDMONTON", "province": "AB", "country": "CA", "postalCode": "T6C0Z9", "twitter": "None", "instagram": "None", "facebook": "None", "youtube": "None", "website": "None", "summary": "None", "logo": "None", "latitude": 53.5179685100989, "longitude": -113.47765102553522}, "893191643RR0001": {"name": "SRI SATHYA SAI BABA SPIRITUAL COUNCIL OF CANADA", "designationCode": "C", "categoryCode": "39", "address": "5 - 270 VAN DUSEN BLVD", "city": "ETOBICOKE", "province": "ON", "country": "CA", "postalCode": "M8Z3J1", "twitter": "None", "instagram": "None", "facebook": "None", "youtube": "None", "website": "None", "summary": "None", "logo": "None", "latitude": 43.639861095764246, "longitude": -79.52944879753588}, "864741897RR0001": {"name": "SRI SATHYA SAI EDUCATION TRUST OF CANADA", "designationCode": "C", "categoryCode": "25", "address": "451 ELLESMERE ROAD", "city": "TORONTO", "province": "ON", "country": "CA", "postalCode": "M1R4E5", "twitter": "None", "instagram": "None", "facebook": "None", "youtube": "None", "website": "None", "summary": "None", "logo": "None", "latitude": 43.762124917508636, "longitude": -79.29661505978436}, "887910362RR0001": {"name": "SRI SATHYA SAI FOUNDATION OF CALGARY", "designationCode": "C", "categoryCode": "43", "address": "330 SHERWOOD PL NW", "city": "CALGARY", "province": "AB", "country": "CA", "postalCode": "T3R0Y3", "twitter": "None", "instagram": "None", "facebook": "None", "youtube": "None", "website": "None", "summary": "None", "logo": "None", "latitude": 51.15971375005451, "longitude": -114.15362203961531}, "889987285RR0001": {"name": "SRI SATHYA SAI SPIRITUAL CENTRE (OTTAWA-CARLETON)", "designationCode": "C", "categoryCode": "39", "address": "1694 HUNT CLUB ROAD", "city": "OTTAWA", "province": "ON", "country": "CA", "postalCode": "K1T3R9", "twitter": "None", "instagram": "None", "facebook": "None", "youtube": "None", "website": "None", "summary": "None", "logo": "None", "latitude": 45.360015592532946, "longitude": -75.63096258462708}, "890060080RR0001": {"name": "SRI SRI RADHA GOPINATH TEMPLE INC.", "designationCode": "C", "categoryCode": "39", "address": "3390 MIDLAND AVE SUITE#200", "city": "TORONTO", "province": "ON", "country": "CA", "postalCode": "M1V5K3", "twitter": "None", "instagram": "None", "facebook": "None", "youtube": "None", "website": "None", "summary": "None", "logo": "None", "latitude": 43.81003463751522, "longitude": -79.29017243190576}, "889780391RR0001": {"name": "SRI SRI RADHA GOVINDAJI VEDIC CULTURAL SOCIETY", "designationCode": "C", "categoryCode": "39", "address": "9353 35 AVE NW", "city": "EDMONTON", "province": "AB", "country": "CA", "postalCode": "T6E5R5", "twitter": "None", "instagram": "None", "facebook": "None", "youtube": "None", "website": "None", "summary": "None", "logo": "None", "latitude": 53.46854946956004, "longitude": -113.475582}, "811355296RR0001": {"name": "SRI SRI SRI SHIVABALAYOGI PARVATTAMA MEDITATION FELLOWSHIP OF CANADA", "designationCode": "C", "categoryCode": "48", "address": "10 LOGGERHEAD GROVE", "city": "SCARBOROUGH", "province": "ON", "country": "CA", "postalCode": "M1X1T7", "twitter": "None", "instagram": "None", "facebook": "None", "youtube": "None", "website": "None", "summary": "None", "logo": "None", "latitude": 43.82335213211952, "longitude": -79.21748513892885}, "889186391RR0001": {"name": "SRI SUALAL PODDAR CHARITABLE FOUNDATION", "designationCode": "B", "categoryCode": "09", "address": "301A HOUNSLOW AVENUE", "city": "TORONTO", "province": "ON", "country": "CA", "postalCode": "M2R1H4", "twitter": "None", "instagram": "None", "facebook": "None", "youtube": "None", "website": "None", "summary": "None", "logo": "None", "latitude": 43.77231219657209, "longitude": -79.4287014131404}, "842256844RR0001": {"name": "SRI Venkateswara Hindu Heritage and Cultural Centre of Hamilton", "designationCode": "B", "categoryCode": "48", "address": "55 WINDEMERE AVE", "city": "STONEY CREEK", "province": "ON", "country": "CA", "postalCode": "L8E5G5", "twitter": "None", "instagram": "None", "facebook": "None", "youtube": "None", "website": "None", "summary": "None", "logo": "None", "latitude": 43.226957900657716, "longitude": -79.62604139381973}, "868057746RR0001": {"name": "SRI VARASITHTHIVINAAYAGAR HINDU TEMPLE OF TORONTO", "designationCode": "C", "categoryCode": "48", "address": "628 BIRCHMOUNT ROAD", "city": "SCARBOROUGH", "province": "ON", "country": "CA", "postalCode": "M1K1P9", "twitter": "None", "instagram": "None", "facebook": "None", "youtube": "None", "website": "None", "summary": "None", "logo": "None", "latitude": 43.71707143712855, "longitude": -79.27247573483733}, "119161271RR0001": {"name": "SRI VENKATESWARA TEMPLE SOCIETY", "designationCode": "C", "categoryCode": "39", "address": "1123 BELMONT ON THE ARM", "city": "HALIFAX", "province": "NS", "country": "CA", "postalCode": "B3H1J2", "twitter": "None", "instagram": "None", "facebook": "None", "youtube": "None", "website": "None", "summary": "None", "logo": "None", "latitude": 44.630366603958564, "longitude": -63.58991238634656}, "139030043RR0001": {"name": "SRIDURKA HINDU TEMPLE", "designationCode": "C", "categoryCode": "48", "address": "30 CARNFORTH RD", "city": "NORTH YORK", "province": "ON", "country": "CA", "postalCode": "M4A2K7", "twitter": "None", "instagram": "None", "facebook": "None", "youtube": "None", "website": "None", "summary": "None", "logo": "None", "latitude": 43.73965752625638, "longitude": -79.31556478357051}, "879274652RR0001": {"name": "SRILANKAN BUDDHIST SOCIETY - CALGARY", "designationCode": "C", "categoryCode": "35", "address": "15150 PARK LANE", "city": "CALGARY", "province": "AB", "country": "CA", "postalCode": "T3P1A6", "twitter": "None", "instagram": "None", "facebook": "None", "youtube": "None", "website": "None", "summary": "None", "logo": "None", "latitude": 51.20115749761182, "longitude": -114.1312051010255}, "135758399RR0001": {"name": "SRINGERI VIDYA BHARATI FOUNDATION, CANADA", "designationCode": "C", "categoryCode": "48", "address": "80-84 BRYDON DR", "city": "ETOBICOKE", "province": "ON", "country": "CA", "postalCode": "M9W4N6", "twitter": "None", "instagram": "None", "facebook": "None", "youtube": "None", "website": "None", "summary": "None", "logo": "None", "latitude": 43.7202071673496, "longitude": -79.57362549838388}, "818595639RR0001": {"name": "SSFPA Foundation", "designationCode": "C", "categoryCode": "29", "address": "2214 SUN VALLEY DRIVE", "city": "NANAIMO", "province": "BC", "country": "CA", "postalCode": "V9T6E8", "twitter": "None", "instagram": "None", "facebook": "None", "youtube": "None", "website": "None", "summary": "None", "logo": "None", "latitude": 49.19351785895945, "longitude": -124.00969042151974}, "891319345RR0001": {"name": "SSG SUPPORT SERVICES GROUP CO-OPERATIVE LTD", "designationCode": "C", "categoryCode": "09", "address": "207 - 82 TACOMA DR", "city": "DARTMOUTH", "province": "NS", "country": "CA", "postalCode": "B2W3E5", "twitter": "None", "instagram": "None", "facebook": "None", "youtube": "None", "website": "None", "summary": "None", "logo": "None", "latitude": 44.68070793787873, "longitude": -63.535786194128974}, "859202228RR0001": {"name": "SSHS Sport & Cultural Association Inc.", "designationCode": "C", "categoryCode": "21", "address": "201 DOVER ST", "city": "CAMPBELLTON", "province": "NB", "country": "CA", "postalCode": "E3N1R3", "twitter": "None", "instagram": "None", "facebook": "None", "youtube": "None", "website": "None", "summary": "None", "logo": "None", "latitude": 47.99770377812962, "longitude": -66.67640150582656}, "889896171RR0001": {"name": "SSJ FOUNDATION", "designationCode": "A", "categoryCode": "03", "address": "1200 - 410 - 22ND STREET", "city": "SASKATOON", "province": "SK", "country": "CA", "postalCode": "S7K5T6", "twitter": "None", "instagram": "None", "facebook": "None", "youtube": "None", "website": "None", "summary": "None", "logo": "None", "latitude": 52.12809633668976, "longitude": -106.65979759074392}, "108021528RR0001": {"name": "ST . JAMES ROSEMOUNT UNITED CHURCH", "designationCode": "C", "categoryCode": "44", "address": "171 SHERWOOD AVE", "city": "KITCHENER", "province": "ON", "country": "CA", "postalCode": "N2B1K2", "twitter": "None", "instagram": "None", "facebook": "None", "youtube": "None", "website": "None", "summary": "None", "logo": "None", "latitude": 43.45653365361538, "longitude": -80.46027789309858}, "880172614RR0002": {"name": "ST ADOLPHE BIBLE FELLOWSHIP INC.", "designationCode": "C", "categoryCode": "39", "address": "BOX 16", "city": "ST ADOLPHE", "province": "MB", "country": "CA", "postalCode": "R5A1A1", "twitter": "None", "instagram": "None", "facebook": "None", "youtube": "None", "website": "None", "summary": "None", "logo": "None", "latitude": 49.674977600490465, "longitude": -97.10658509643498}, "119264174RR0022": {"name": "ST AGNES PARISH", "designationCode": "C", "categoryCode": "38", "address": "1019 BROWN ST", "city": "THUNDER BAY", "province": "ON", "country": "CA", "postalCode": "P7E2L7", "twitter": "None", "instagram": "None", "facebook": "None", "youtube": "None", "website": "None", "summary": "None", "logo": "None", "latitude": 48.370013329447744, "longitude": -89.28154432004135}, "133056804RR0001": {"name": "ST AGNES' CHURCH", "designationCode": "C", "categoryCode": "30", "address": "BOX 991", "city": "CARBERRY", "province": "MB", "country": "CA", "postalCode": "R0K0H0", "twitter": "None", "instagram": "None", "facebook": "None", "youtube": "None", "website": "None", "summary": "None", "logo": "None", "latitude": 49.84164228965453, "longitude": -99.31431075066462}, "131965238RR0002": {"name": "ST AIDAN'S ANGLICAN CHURCH", "designationCode": "C", "categoryCode": "30", "address": "1246 OXFORD ST W", "city": "LONDON", "province": "ON", "country": "CA", "postalCode": "N6H1V7", "twitter": "None", "instagram": "None", "facebook": "None", "youtube": "None", "website": "None", "summary": "None", "logo": "None", "latitude": 42.97373351355247, "longitude": -81.32690776826219}, "891811457RR0001": {"name": "ST AIDAN'S CHRISTIAN SCHOOL INC", "designationCode": "C", "categoryCode": "20", "address": "418 ABERDEEN AVENUE", "city": "WINNIPEG", "province": "MB", "country": "CA", "postalCode": "R2W1V7", "twitter": "None", "instagram": "None", "facebook": "None", "youtube": "None", "website": "None", "summary": "None", "logo": "None"}, "129144549RR0027": {"name": "ST AIDAN'S CHURCH", "designationCode": "C", "categoryCode": "30", "address": "380 LEATHEAD ROAD", "city": "KELOWNA", "province": "BC", "country": "CA", "postalCode": "V1X2H8", "twitter": "None", "instagram": "None", "facebook": "None", "youtube": "None", "website": "None", "summary": "None", "logo": "None", "latitude": 49.89537349711448, "longitude": -119.39283}, "137723748RR0001": {"name": "ST AIDAN'S CHURCH", "designationCode": "C", "categoryCode": "30", "address": "70 SILVERBIRCH AVE", "city": "TORONTO", "province": "ON", "country": "CA", "postalCode": "M4E3K9", "twitter": "None", "instagram": "None", "facebook": "None", "youtube": "None", "website": "None", "summary": "None", "logo": "None", "latitude": 43.67236593282941, "longitude": -79.28494320832115}, "119212421RR0001": {"name": "ST ALBAN'S ANGLICAN CHURCH", "designationCode": "C", "categoryCode": "30", "address": "375 FORTY FT. RD", "city": "STELLA", "province": "ON", "country": "CA", "postalCode": "K0H2S0", "twitter": "None", "instagram": "None", "facebook": "None", "youtube": "None", "website": "None", "summary": "None", "logo": "None", "latitude": 44.17195200000006, "longitude": -76.70292649999993}, "888055860RR0001": {"name": "ST ALBAN'S CHAPEL, BFC VALCARTIER", "designationCode": "A", "categoryCode": "39", "address": "C.P 1000, SUCC. FORCES", "city": "COURCELETTE", "province": "QC", "country": "CA", "postalCode": "G0A4Z0", "twitter": "None", "instagram": "None", "facebook": "None", "youtube": "None", "website": "None", "summary": "None", "logo": "None", "latitude": 46.88734200000006, "longitude": -71.50947199999993}, "135216026RR0001": {"name": "ST ALBAN'S CHURCH", "designationCode": "C", "categoryCode": "30", "address": "19 TALBOT ROAD", "city": "DELHI", "province": "ON", "country": "CA", "postalCode": "N4B1Z7", "twitter": "None", "instagram": "None", "facebook": "None", "youtube": "None", "website": "None", "summary": "None", "logo": "None", "latitude": 42.85589443963873, "longitude": -80.49491383957529}, "868755646RR0001": {"name": "ST ALBERT COMMUNITY FOUNDATION", "designationCode": "A", "categoryCode": "03", "address": "2700 COMMERCE PLACE           10155 - 102 STREET", "city": "EDMONTON", "province": "AB", "country": "CA", "postalCode": "T5J4G8", "twitter": "None", "instagram": "None", "facebook": "None", "youtube": "None", "website": "None", "summary": "None", "logo": "None", "latitude": 53.54123374854291, "longitude": -113.49552380345118}, "119287183RR0001": {"name": "ST ALBERT COMMUNITY INFORMATION AND VOLUNTEER CENTRE", "designationCode": "C", "categoryCode": "59", "address": "10-215 CARNEGIE DRIVE", "city": "ST. ALBERT", "province": "AB", "country": "CA", "postalCode": "T8N5B1", "twitter": "None", "instagram": "None", "facebook": "None", "youtube": "None", "website": "None", "summary": "None", "logo": "None", "latitude": 53.637282, "longitude": -113.57477984817271}, "131637936RR0001": {"name": "ST ALBERT DAY CARE SOCIETY", "designationCode": "C", "categoryCode": "01", "address": "6 CUNNINGHAM RD", "city": "ST ALBERT", "province": "AB", "country": "CA", "postalCode": "T8N2E9", "twitter": "None", "instagram": "None", "facebook": "None", "youtube": "None", "website": "None", "summary": "None", "logo": "None", "latitude": 53.63290568388246, "longitude": -113.61413868774893}, "120971304RR0001": {"name": "ST ALBERT STOP ABUSE IN FAMILIES SOCIETY", "designationCode": "C", "categoryCode": "09", "address": "22 SIR WINSTON CHURCHILL AVE  ROOM 402", "city": "ST ALBERT", "province": "AB", "country": "CA", "postalCode": "T8N1B4", "twitter": "None", "instagram": "None", "facebook": "None", "youtube": "None", "website": "None", "summary": "None", "logo": "None", "latitude": 53.629733005222796, "longitude": -113.62918401910127}, "892492497RR0001": {"name": "ST ALBERT VICTIM SERVICE ASSOCIATION", "designationCode": "C", "categoryCode": "59", "address": "96 BELLEROSE DR", "city": "ST. ALBERT", "province": "AB", "country": "CA", "postalCode": "T8N7A4", "twitter": "None", "instagram": "None", "facebook": "None", "youtube": "None", "website": "None", "summary": "None", "logo": "None", "latitude": 53.64978022644147, "longitude": -113.61863636115807}, "847342128RR0001": {"name": "ST ALBERT'S PARISH", "designationCode": "C", "categoryCode": "38", "address": "BOX 90", "city": "MANKOTA", "province": "SK", "country": "CA", "postalCode": "S0H2W0", "twitter": "None", "instagram": "None", "facebook": "None", "youtube": "None", "website": "None", "summary": "None", "logo": "None", "latitude": 49.421700000000044, "longitude": -107.06683999999996}, "815436704RR0001": {"name": "ST ALCUIN COLLEGE FOR THE LIBERAL ARTS SOCIETY", "designationCode": "C", "categoryCode": "20", "address": "200 - 1046 ST. GEORGES AVE", "city": "NORTH VANCOUVER", "province": "BC", "country": "CA", "postalCode": "V7L3H6", "twitter": "None", "instagram": "None", "facebook": "None", "youtube": "None", "website": "None", "summary": "None", "logo": "None", "latitude": 49.317418224039514, "longitude": -123.0693246852909}, "119109791RR0045": {"name": "ST ALFRED'S CHURCH", "designationCode": "C", "categoryCode": "38", "address": "272 VINE ST", "city": "ST CATHARINES", "province": "ON", "country": "CA", "postalCode": "L2M4T3", "twitter": "None", "instagram": "None", "facebook": "None", "youtube": "None", "website": "None", "summary": "None", "logo": "None", "latitude": 43.1799390313636, "longitude": -79.230545863524}, "128977048RR0001": {"name": "ST ALOYSIUS GONZAGA'S PARISH", "designationCode": "C", "categoryCode": "38", "address": "300 ABBE-MURRAY ST", "city": "GATINEAU", "province": "QC", "country": "CA", "postalCode": "J8P4Z4", "twitter": "None", "instagram": "None", "facebook": "None", "youtube": "None", "website": "None", "summary": "None", "logo": "None", "latitude": 45.48805435720467, "longitude": -75.64659301869723}, "883782427RR0001": {"name": "ST ALPHONSE PERPETUAL CARE", "designationCode": "C", "categoryCode": "59", "address": "BOX 160                       NW 2-6-13", "city": "CYPRESS RIVER", "province": "MB", "country": "CA", "postalCode": "R0K0P0", "twitter": "None", "instagram": "None", "facebook": "None", "youtube": "None", "website": "None", "summary": "None", "logo": "None", "latitude": 50.04757803653237, "longitude": -99.55971609548558}, "869109694RR0001": {"name": "ST ALPHONSUS' PARISH", "designationCode": "C", "categoryCode": "38", "address": "4609 50 AVE", "city": "ST PAUL", "province": "AB", "country": "CA", "postalCode": "T0A3A3", "twitter": "None", "instagram": "None", "facebook": "None", "youtube": "None", "website": "None", "summary": "None", "logo": "None", "latitude": 53.99135148730496, "longitude": -111.28695202553523}, "130010200RR0001": {"name": "ST AMBROSE ANGLICAN CHURCH", "designationCode": "C", "categoryCode": "30", "address": "505  5TH STREET, S.E.", "city": "REDCLIFF", "province": "AB", "country": "CA", "postalCode": "T0J2P2", "twitter": "None", "instagram": "None", "facebook": "None", "youtube": "None", "website": "None", "summary": "None", "logo": "None", "latitude": 50.07024299592424, "longitude": -110.78180986697507}, "888669041RR0001": {"name": "ST ANARGYREE GREEK ORTHODOX CHURCH", "designationCode": "C", "categoryCode": "39", "address": "17 MARCONI STREET", "city": "GLACE BAY", "province": "NS", "country": "CA", "postalCode": "B1A2P2", "twitter": "None", "instagram": "None", "facebook": "None", "youtube": "None", "website": "None", "summary": "None", "logo": "None", "latitude": 46.19485594725611, "longitude": -59.95777138147048}, "134870088RR0001": {"name": "ST ANDREW AND DISTRICT VOLUNTEER FIRE DEPARTMENT", "designationCode": "C", "categoryCode": "59", "address": "PO BOX 58", "city": "ST ANDREWS", "province": "NS", "country": "CA", "postalCode": "B0H1X0", "twitter": "None", "instagram": "None", "facebook": "None", "youtube": "None", "website": "None", "summary": "None", "logo": "None", "latitude": 45.55525000000006, "longitude": -61.88908999999995}, "128967353RR0125": {"name": "ST ANDREW ROMAN CATHOLIC COMMUNITY", "designationCode": "C", "categoryCode": "39", "address": "828 TARADALE DR.", "city": "NEPEAN", "province": "ON", "country": "CA", "postalCode": "K2J5P4", "twitter": "None", "instagram": "None", "facebook": "None", "youtube": "None", "website": "None", "summary": "None", "logo": "None", "latitude": 45.27300694419768, "longitude": -75.72413431320335}, "889911848RR0001": {"name": "ST ANDREW S PRESBYTERIAN CHURCH", "designationCode": "C", "categoryCode": "37", "address": "PO BOX 384, 39 BRIDGE ST.", "city": "CARLETON PLACE", "province": "ON", "country": "CA", "postalCode": "K7C3P5", "twitter": "None", "instagram": "None", "facebook": "None", "youtube": "None", "website": "None", "summary": "None", "logo": "None", "latitude": 45.13773396560663, "longitude": -76.14335087368019}, "889455192RR0001": {"name": "ST ANDREW S UNITED CHURCH", "designationCode": "C", "categoryCode": "44", "address": "PO BOX 8", "city": "GLENAVON", "province": "SK", "country": "CA", "postalCode": "S0G1Y0", "twitter": "None", "instagram": "None", "facebook": "None", "youtube": "None", "website": "None", "summary": "None", "logo": "None", "latitude": 50.194980000000044, "longitude": -103.14260999999999}, "134491539RR0001": {"name": "ST ANDREW'S (BOLSOVER) PRESBYTERIAN CEMETERY", "designationCode": "C", "categoryCode": "59", "address": "54 BOLSOVER RD", "city": "BOLSOVER", "province": "ON", "country": "CA", "postalCode": "K0M1B0", "twitter": "None", "instagram": "None", "facebook": "None", "youtube": "None", "website": "None", "summary": "None", "logo": "None", "latitude": 44.5311999425529, "longitude": -79.06633374479199}, "129797080RR0001": {"name": "ST ANDREW'S - KNOX PRESBYTERIAN CHURCH, SPENCERVILLE", "designationCode": "C", "categoryCode": "37", "address": "PO BOX 33                     7068 COUNTY ROAD 44", "city": "SPENCERVILLE", "province": "ON", "country": "CA", "postalCode": "K0E1X0", "twitter": "None", "instagram": "None", "facebook": "None", "youtube": "None", "website": "None", "summary": "None", "logo": "None", "latitude": 44.85802893319642, "longitude": -75.54974250506586}, "133684175RR0001": {"name": "ST ANDREW'S - ST MARK'S UNITED CHURCH", "designationCode": "C", "categoryCode": "44", "address": "18 JOHNSON CRES.              P.O. BOX 9", "city": "LONG SAULT", "province": "ON", "country": "CA", "postalCode": "K0C1P0", "twitter": "None", "instagram": "None", "facebook": "None", "youtube": "None", "website": "None", "summary": "None", "logo": "None", "latitude": 45.03129279017829, "longitude": -74.89681138245143}, "119229896RR0022": {"name": "ST ANDREW'S ANGLICAN CHURCH", "designationCode": "C", "categoryCode": "30", "address": "P.O. BOX 130", "city": "HAPPY VALLEY LABRADOR", "province": "NL", "country": "CA", "postalCode": "A0P1E0", "twitter": "None", "instagram": "None", "facebook": "None", "youtube": "None", "website": "None", "summary": "None", "logo": "None", "latitude": 53.30952000000008, "longitude": -60.37716999999998}, "129209680RR0001": {"name": "ST ANDREW'S ANGLICAN CHURCH", "designationCode": "C", "categoryCode": "30", "address": "1611 ST. ANDREW'S PLACE N.W.", "city": "CALGARY", "province": "AB", "country": "CA", "postalCode": "T2N3Y4", "twitter": "None", "instagram": "None", "facebook": "None", "youtube": "None", "website": "None", "summary": "None", "logo": "None", "latitude": 51.06537342521199, "longitude": -114.12830314322802}, "129673489RR0001": {"name": "ST ANDREW'S ANGLICAN CHURCH", "designationCode": "C", "categoryCode": "30", "address": "205 LAURIER DR", "city": "LASALLE", "province": "ON", "country": "CA", "postalCode": "N9J1L7", "twitter": "None", "instagram": "None", "facebook": "None", "youtube": "None", "website": "None", "summary": "None", "logo": "None", "latitude": 42.23554604215493, "longitude": -83.09837156132987}, "132021999RR0001": {"name": "ST ANDREW'S ANGLICAN CHURCH", "designationCode": "C", "categoryCode": "30", "address": "P.O. BOX 233", "city": "SHELLBROOK", "province": "SK", "country": "CA", "postalCode": "S0J2E0", "twitter": "None", "instagram": "None", "facebook": "None", "youtube": "None", "website": "None", "summary": "None", "logo": "None", "latitude": 53.22621000000004, "longitude": -106.39020999999997}, "872526769RR0001": {"name": "ST ANDREW'S ANGLICAN CHURCH", "designationCode": "C", "categoryCode": "30", "address": "8  LOCKS ROAD", "city": "DARTMOUTH", "province": "NS", "country": "CA", "postalCode": "B2X2J4", "twitter": "None", "instagram": "None", "facebook": "None", "youtube": "None", "website": "None", "summary": "None", "logo": "None", "latitude": 44.69866453621105, "longitude": -63.548620878988984}, "130402019RR0027": {"name": "ST ANDREW'S ANGLICAN PARISH", "designationCode": "C", "categoryCode": "30", "address": "69 WOODLAND DRIVE", "city": "HAY RIVER", "province": "NT", "country": "CA", "postalCode": "X0E0R8", "twitter": "None", "instagram": "None", "facebook": "None", "youtube": "None", "website": "None", "summary": "None", "logo": "None", "latitude": 60.81116636674271, "longitude": -115.78772230363887}, "889242392RR0002": {"name": "ST ANDREW'S BY THE LAKE", "designationCode": "C", "categoryCode": "30", "address": "400 SOUTHCOTE RD", "city": "ANCASTER", "province": "ON", "country": "CA", "postalCode": "L9G2W3", "twitter": "None", "instagram": "None", "facebook": "None", "youtube": "None", "website": "None", "summary": "None", "logo": "None", "latitude": 43.21061333666112, "longitude": -79.95905774551314}, "129950804RR0015": {"name": "ST ANDREW'S CATHEDRAL", "designationCode": "C", "categoryCode": "38", "address": "740 VIEW STREET", "city": "VICTORIA", "province": "BC", "country": "CA", "postalCode": "V8W1J8", "twitter": "None", "instagram": "None", "facebook": "None", "youtube": "None", "website": "None", "summary": "None", "logo": "None", "latitude": 48.42527144214888, "longitude": -123.36306035483874}, "868328766RR0001": {"name": "ST ANDREW'S CEMETERY", "designationCode": "C", "categoryCode": "59", "address": "BOX 716", "city": "PORCUPINE PLAIN", "province": "SK", "country": "CA", "postalCode": "S0E1H0", "twitter": "None", "instagram": "None", "facebook": "None", "youtube": "None", "website": "None", "summary": "None", "logo": "None", "latitude": 52.59907000000004, "longitude": -103.26022999999998}, "119264174RR0013": {"name": "ST ANDREW'S CHURCH", "designationCode": "C", "categoryCode": "38", "address": "292 RED RIVER ROAD", "city": "THUNDER BAY", "province": "ON", "country": "CA", "postalCode": "P7B1A8", "twitter": "None", "instagram": "None", "facebook": "None", "youtube": "None", "website": "None", "summary": "None", "logo": "None", "latitude": 48.43675551514787, "longitude": -89.22371964648893}, "129144549RR0026": {"name": "ST ANDREW'S CHURCH", "designationCode": "C", "categoryCode": "30", "address": "4619 LAKESHORE ROAD", "city": "KELOWNA", "province": "BC", "country": "CA", "postalCode": "V1W1X3", "twitter": "None", "instagram": "None", "facebook": "None", "youtube": "None", "website": "None", "summary": "None", "logo": "None", "latitude": 49.81745393115594, "longitude": -119.49450980454769}, "129144549RR0042": {"name": "ST ANDREW'S CHURCH", "designationCode": "C", "categoryCode": "30", "address": "1347 PINE AVE", "city": "TRAIL", "province": "BC", "country": "CA", "postalCode": "V1R4E7", "twitter": "None", "instagram": "None", "facebook": "None", "youtube": "None", "website": "None", "summary": "None", "logo": "None", "latitude": 49.09507566639733, "longitude": -117.70982262556998}, "131554388RR0001": {"name": "ST ANDREW'S CHURCH", "designationCode": "C", "categoryCode": "30", "address": "481 BOUL DE YORK O", "city": "GASPE", "province": "QC", "country": "CA", "postalCode": "G4X2M5", "twitter": "None", "instagram": "None", "facebook": "None", "youtube": "None", "website": "None", "summary": "None", "logo": "None", "latitude": 48.81433550620376, "longitude": -64.54198944601535}}