{"106693047RR0024": {"name": "SHERWOOD PARK SEVENTH-DAY ADVENTIST CHURCH", "designationCode": "C", "categoryCode": "41", "address": "5816 HIGHWAY, 2A", "city": "LACOMBE", "province": "AB", "country": "CA", "postalCode": "T4L2G5", "twitter": "None", "instagram": "None", "facebook": "None", "youtube": "None", "website": "None", "summary": "None", "logo": "None", "latitude": 52.474063600197404, "longitude": -113.71692568401835}, "132148339RR0001": {"name": "SHERWOOD PARK UNITED CHURCH", "designationCode": "C", "categoryCode": "44", "address": "20 FIR STREET", "city": "SHERWOOD PARK", "province": "AB", "country": "CA", "postalCode": "T8A1Z6", "twitter": "None", "instagram": "None", "facebook": "None", "youtube": "None", "website": "None", "summary": "None", "logo": "None", "latitude": 53.51374950764605, "longitude": -113.3184105}, "868840893RR0001": {"name": "SHEVCHENKO DANCE ENSEMBLE", "designationCode": "C", "categoryCode": "22", "address": "PO BOX 281", "city": "SANDY LAKE", "province": "MB", "country": "CA", "postalCode": "R0J1X0", "twitter": "None", "instagram": "None", "facebook": "None", "youtube": "None", "website": "None", "summary": "None", "logo": "None", "latitude": 50.52604802382196, "longitude": -100.17807618143935}, "890033269RR0001": {"name": "SHI FONG FORN DIN TEMPLE", "designationCode": "C", "categoryCode": "39", "address": "201-121 WILLOWDALE AVE", "city": "TORONTO", "province": "ON", "country": "CA", "postalCode": "M2N6A3", "twitter": "None", "instagram": "None", "facebook": "None", "youtube": "None", "website": "None", "summary": "None", "logo": "None", "latitude": 43.765044285879114, "longitude": -79.40007744099505}, "119148930RR0001": {"name": "SHIBELITH (EATON) INC.", "designationCode": "C", "categoryCode": "09", "address": "5-288 WORTHINGTON ST WEST", "city": "NORTH BAY", "province": "ON", "country": "CA", "postalCode": "P1B8K5", "twitter": "None", "instagram": "None", "facebook": "None", "youtube": "None", "website": "None", "summary": "None", "logo": "None", "latitude": 46.3137814012462, "longitude": -79.46392160253778}, "119148971RR0001": {"name": "SHIBELITH (MAIN & FORAN) INC.", "designationCode": "C", "categoryCode": "09", "address": "PO BOX 1324", "city": "NORTH BAY", "province": "ON", "country": "CA", "postalCode": "P1B8K5", "twitter": "None", "instagram": "None", "facebook": "None", "youtube": "None", "website": "None", "summary": "None", "logo": "None", "latitude": 46.30661700000006, "longitude": -79.45993249999994}, "119148989RR0001": {"name": "SHIBELITH (MOSS) INC.", "designationCode": "C", "categoryCode": "03", "address": "PO BOX 1324", "city": "NORTH BAY", "province": "ON", "country": "CA", "postalCode": "P1B8K5", "twitter": "None", "instagram": "None", "facebook": "None", "youtube": "None", "website": "None", "summary": "None", "logo": "None", "latitude": 46.30661700000006, "longitude": -79.45993249999994}, "859049041RR0001": {"name": "SHIBOGAMA KANAWAYNEEMIDOWIN", "designationCode": "C", "categoryCode": "01", "address": "81 KING STREET                PO BOX 449", "city": "SIOUX LOOKOUT", "province": "ON", "country": "CA", "postalCode": "P8T1A5", "twitter": "None", "instagram": "None", "facebook": "None", "youtube": "None", "website": "None", "summary": "None", "logo": "None", "latitude": 50.098906289699684, "longitude": -91.92098145640422}, "822460929RR0001": {"name": "SHIFA MINISTRIES", "designationCode": "C", "categoryCode": "01", "address": "7898 ISLAND HWY", "city": "BLACK CREEK", "province": "BC", "country": "CA", "postalCode": "V9J1G5", "twitter": "None", "instagram": "None", "facebook": "None", "youtube": "None", "website": "None", "summary": "None", "logo": "None", "latitude": 49.81508511764102, "longitude": -125.1188286126066}, "891413247RR0001": {"name": "SHIFF FAMILY CHARITABLE FOUNDATION", "designationCode": "B", "categoryCode": "03", "address": "2788 BATHURST STREET          SUITE 230", "city": "TORONTO", "province": "ON", "country": "CA", "postalCode": "M6B3A3", "twitter": "None", "instagram": "None", "facebook": "None", "youtube": "None", "website": "None", "summary": "None", "logo": "None", "latitude": 43.71182629141906, "longitude": -79.42802706206338}, "119149003RR0001": {"name": "SHIKTEHAWK BIBLE CAMP INC.", "designationCode": "C", "categoryCode": "56", "address": "POST OFFICE BOX 869", "city": "FLORENCEVILLE-BRISTOL", "province": "NB", "country": "CA", "postalCode": "E7L2X8", "twitter": "None", "instagram": "None", "facebook": "None", "youtube": "None", "website": "None", "summary": "None", "logo": "None", "latitude": 46.44196800000006, "longitude": -67.61212099999993}, "887612059RR0001": {"name": "SHILO MILITARY FAMILY RESOURCE CENTRE INC.", "designationCode": "C", "categoryCode": "59", "address": "PO BOX 5000 STN MAIN", "city": "SHILO", "province": "MB", "country": "CA", "postalCode": "R0K2A0", "twitter": "None", "instagram": "None", "facebook": "None", "youtube": "None", "website": "None", "summary": "None", "logo": "None", "latitude": 49.81876586957927, "longitude": -99.6498745254249}, "892141243RR0001": {"name": "SHILOH APOSTOLIC CHURCH INC", "designationCode": "C", "categoryCode": "39", "address": "6060 KING ST", "city": "CALEDON EAST", "province": "ON", "country": "CA", "postalCode": "L0N1E0", "twitter": "None", "instagram": "None", "facebook": "None", "youtube": "None", "website": "None", "summary": "None", "logo": "None", "latitude": 43.831919304201, "longitude": -79.81191881017358}, "107977548RR0001": {"name": "SHILOH ASSEMBLY APOSTOLIC CORP.", "designationCode": "C", "categoryCode": "39", "address": "1600 BROADWAY AVE", "city": "REGINA", "province": "SK", "country": "CA", "postalCode": "S4P1E2", "twitter": "None", "instagram": "None", "facebook": "None", "youtube": "None", "website": "None", "summary": "None", "logo": "None", "latitude": 50.437723533758195, "longitude": -104.60495080252754}, "119149045RR0001": {"name": "SHILOH BAPTIST CHURCH", "designationCode": "C", "categoryCode": "31", "address": "10727 114 ST NW", "city": "EDMONTON", "province": "AB", "country": "CA", "postalCode": "T5H3K1", "twitter": "None", "instagram": "None", "facebook": "None", "youtube": "None", "website": "None", "summary": "None", "logo": "None", "latitude": 53.552448, "longitude": -113.517587737954}, "899711634RR0001": {"name": "SHILOH BAPTIST CHURCH", "designationCode": "C", "categoryCode": "31", "address": "1940 FAYLEE CRES", "city": "PICKERING", "province": "ON", "country": "CA", "postalCode": "L1V2V6", "twitter": "None", "instagram": "None", "facebook": "None", "youtube": "None", "website": "None", "summary": "None", "logo": "None", "latitude": 43.842223991113215, "longitude": -79.09247528492683}, "891920605RR0001": {"name": "SHILOH CEMETERY BOARD", "designationCode": "C", "categoryCode": "59", "address": "277 CENTRE STREET NORTH       P.O. BOX 96", "city": "WILLIAMSFORD", "province": "ON", "country": "CA", "postalCode": "N0H2V0", "twitter": "None", "instagram": "None", "facebook": "None", "youtube": "None", "website": "None", "summary": "None", "logo": "None", "latitude": 44.375863147398654, "longitude": -80.86359733269238}, "893181560RR0001": {"name": "SHILOH CEMETERY BOARD", "designationCode": "C", "categoryCode": "59", "address": "14051 COUNTY RD. 21", "city": "COLBORNE", "province": "ON", "country": "CA", "postalCode": "K0K1S0", "twitter": "None", "instagram": "None", "facebook": "None", "youtube": "None", "website": "None", "summary": "None", "logo": "None", "latitude": 44.07033095992529, "longitude": -77.84944581911958}, "119149052RR0001": {"name": "SHILOH CHRISTIAN CENTRE", "designationCode": "C", "categoryCode": "49", "address": "P.O. BOX 158", "city": "FENELON FALLS", "province": "ON", "country": "CA", "postalCode": "K0M1N0", "twitter": "None", "instagram": "None", "facebook": "None", "youtube": "None", "website": "None", "summary": "None", "logo": "None", "latitude": 44.53758000000005, "longitude": -78.73584999999997}, "108221730RR0001": {"name": "SHILOH CHRISTIAN CHURCH OF CALGARY", "designationCode": "C", "categoryCode": "39", "address": "121 GLAMIS TERRACE SW", "city": "CALGARY", "province": "AB", "country": "CA", "postalCode": "T3E6V3", "twitter": "None", "instagram": "None", "facebook": "None", "youtube": "None", "website": "None", "summary": "None", "logo": "None", "latitude": 51.01114851012756, "longitude": -114.16150067234126}, "899333850RR0001": {"name": "SHILOH CHRISTIAN INSTITUTE OF ONTARIO", "designationCode": "C", "categoryCode": "20", "address": "7811 WILDFERN DRIVE", "city": "MISSISSAUGA", "province": "ON", "country": "CA", "postalCode": "L4T3P8", "twitter": "None", "instagram": "None", "facebook": "None", "youtube": "None", "website": "None", "summary": "None", "logo": "None", "latitude": 43.73373658782976, "longitude": -79.64127703401799}, "888749397RR0001": {"name": "SHILOH CHURCH OF GOD SEVENTH-DAY", "designationCode": "C", "categoryCode": "41", "address": "123 WENDELL AVE.", "city": "TORONTO", "province": "ON", "country": "CA", "postalCode": "M9N3K9", "twitter": "None", "instagram": "None", "facebook": "None", "youtube": "None", "website": "None", "summary": "None", "logo": "None", "latitude": 43.71356863364873, "longitude": -79.5256799447173}, "871157830RR0001": {"name": "SHILOH CONSERVATIVE MENNONITE CHURCH", "designationCode": "C", "categoryCode": "39", "address": "5457 IMPERIAL RD", "city": "AYLMER", "province": "ON", "country": "CA", "postalCode": "N5H2R2", "twitter": "None", "instagram": "None", "facebook": "None", "youtube": "None", "website": "None", "summary": "None", "logo": "None", "latitude": 42.68547483337394, "longitude": -80.98525971989511}, "869334540RR0001": {"name": "SHILOH HOUSE OF PRAYER INCORPORATED", "designationCode": "C", "categoryCode": "39", "address": "447 QUEENS DR", "city": "NORTH YORK", "province": "ON", "country": "CA", "postalCode": "M6L1M7", "twitter": "None", "instagram": "None", "facebook": "None", "youtube": "None", "website": "None", "summary": "None", "logo": "None", "latitude": 43.70934580209485, "longitude": -79.4969643985516}, "122440951RR0001": {"name": "SHILOH HOUSING SOCIETY", "designationCode": "C", "categoryCode": "09", "address": "2700 EAST BROADWAY", "city": "VANCOUVER", "province": "BC", "country": "CA", "postalCode": "V5M1Y8", "twitter": "None", "instagram": "None", "facebook": "None", "youtube": "None", "website": "None", "summary": "None", "logo": "None", "latitude": 49.261982548907014, "longitude": -123.04891171870852}, "119149078RR0001": {"name": "SHILOH MINISTRIES INC.", "designationCode": "C", "categoryCode": "43", "address": "PO BOX 22026", "city": "WALLACEBURG", "province": "ON", "country": "CA", "postalCode": "N8A5G4", "twitter": "None", "instagram": "None", "facebook": "None", "youtube": "None", "website": "None", "summary": "None", "logo": "None", "latitude": 42.592929000000055, "longitude": -82.39503049999993}, "865491898RR0001": {"name": "SHILOH OUTREACH MINISTRIES", "designationCode": "C", "categoryCode": "39", "address": "868 CABOT TRAIL", "city": "MILTON", "province": "ON", "country": "CA", "postalCode": "L9T3S8", "twitter": "None", "instagram": "None", "facebook": "None", "youtube": "None", "website": "None", "summary": "None", "logo": "None", "latitude": 43.529816502654384, "longitude": -79.87037035633928}, "892582651RR0001": {"name": "SHILOH PENTECOSTAL CHURCH OF ST ALBERT", "designationCode": "C", "categoryCode": "39", "address": "P.O. BOX 5634", "city": "FT MCMURRAY", "province": "AB", "country": "CA", "postalCode": "T9H3G6", "twitter": "None", "instagram": "None", "facebook": "None", "youtube": "None", "website": "None", "summary": "None", "logo": "None", "latitude": 56.72059001832189, "longitude": -111.35877005886067}, "864264122RR0001": {"name": "SHILOH REBMAN YOUTH RANCH SOCIETY", "designationCode": "C", "categoryCode": "56", "address": "#10 9625 -60TH AVENUE", "city": "EDMONTON", "province": "AB", "country": "CA", "postalCode": "T6E5N1", "twitter": "None", "instagram": "None", "facebook": "None", "youtube": "None", "website": "None", "summary": "None", "logo": "None", "latitude": 53.49573753563413, "longitude": -113.47784108381903}, "825390412RR0001": {"name": "SHILOH REDEMPTION CHURCH OF JESUS CHRIST APOSTOLIC", "designationCode": "C", "categoryCode": "39", "address": "21-905 DILLINGHAM RD", "city": "PICKERING", "province": "ON", "country": "CA", "postalCode": "L1W3X1", "twitter": "None", "instagram": "None", "facebook": "None", "youtube": "None", "website": "None", "summary": "None", "logo": "None", "latitude": 43.82715991785441, "longitude": -79.06817716010758}, "107797383RR0030": {"name": "SHILOH SEVENTH-DAY ADVENTIST CHURCH", "designationCode": "C", "categoryCode": "41", "address": "1090 BELLEMY RD. N", "city": "SCARBOROUGH", "province": "ON", "country": "CA", "postalCode": "M1H1H2", "twitter": "None", "instagram": "None", "facebook": "None", "youtube": "None", "website": "None", "summary": "None", "logo": "None", "latitude": 43.775756036903545, "longitude": -79.24215706930539}, "888199445RR0001": {"name": "SHILOH TABERNACLE OF ATHABASCA", "designationCode": "C", "categoryCode": "39", "address": "PO BOX 5634", "city": "FT MCMURRAY", "province": "AB", "country": "CA", "postalCode": "T9H3G6", "twitter": "None", "instagram": "None", "facebook": "None", "youtube": "None", "website": "None", "summary": "None", "logo": "None", "latitude": 56.72059001832189, "longitude": -111.35877005886067}, "864469234RR0001": {"name": "SHILOH-FIFTH AVENUE UNITED CHURCH", "designationCode": "C", "categoryCode": "44", "address": "1010 FIFTH AVE", "city": "NEW WESTMINSTER", "province": "BC", "country": "CA", "postalCode": "V3M1Y5", "twitter": "None", "instagram": "None", "facebook": "None", "youtube": "None", "website": "None", "summary": "None", "logo": "None", "latitude": 49.2078630083099, "longitude": -122.92560983360268}, "893220764RR0001": {"name": "SHIMON & DEENA SMURSZ CHARITABLE FOUNDATION", "designationCode": "B", "categoryCode": "03", "address": "1 MADOC DRIVE", "city": "TORONTO", "province": "ON", "country": "CA", "postalCode": "M6B2R8", "twitter": "None", "instagram": "None", "facebook": "None", "youtube": "None", "website": "None", "summary": "None", "logo": "None", "latitude": 43.71624484205682, "longitude": -79.43228776366212}, "140855867RR0001": {"name": "SHINGWAUK EDUCATION TRUST", "designationCode": "C", "categoryCode": "21", "address": "200 - 677 MACDONALD AVE", "city": "SAULT STE. MARIE", "province": "ON", "country": "CA", "postalCode": "P6B1J4", "twitter": "None", "instagram": "None", "facebook": "None", "youtube": "None", "website": "None", "summary": "None", "logo": "None", "latitude": 46.51695866472389, "longitude": -84.28944409709192}, "860731777RR0001": {"name": "SHINING LIGHT MINISTRIES INC.", "designationCode": "C", "categoryCode": "39", "address": "PO BOX 568", "city": "SPRINGDALE", "province": "NL", "country": "CA", "postalCode": "A0J1T0", "twitter": "None", "instagram": "None", "facebook": "None", "youtube": "None", "website": "None", "summary": "None", "logo": "None", "latitude": 49.497243000000054, "longitude": -56.07671299999993}, "889533576RR0001": {"name": "SHINING LIGHT MINISTRY", "designationCode": "C", "categoryCode": "47", "address": "PO BOX 30035", "city": "NIAGARA FALLS", "province": "ON", "country": "CA", "postalCode": "L2H1K7", "twitter": "None", "instagram": "None", "facebook": "None", "youtube": "None", "website": "None", "summary": "None", "logo": "None", "latitude": 43.09334700000005, "longitude": -79.12349899999994}, "899170260RR0001": {"name": "SHINING MOUNTAINS LIVING COMMUNITY SERVICES", "designationCode": "C", "categoryCode": "57", "address": "4925 46 STREET", "city": "RED DEER", "province": "AB", "country": "CA", "postalCode": "T4N1N2", "twitter": "None", "instagram": "None", "facebook": "None", "youtube": "None", "website": "None", "summary": "None", "logo": "None", "latitude": 52.26520554674261, "longitude": -113.8131315}, "864022769RR0001": {"name": "SHINING THROUGH CENTRE FOR CHILDREN WITH AUTISM", "designationCode": "C", "categoryCode": "11", "address": "7365 MARTIN  GROVE RD", "city": "WOODBRIDGE", "province": "ON", "country": "CA", "postalCode": "L4L9E4", "twitter": "None", "instagram": "None", "facebook": "None", "youtube": "None", "website": "None", "summary": "None", "logo": "None", "latitude": 43.765820695539226, "longitude": -79.60686536837142}, "891365744RR0001": {"name": "SHINKI-KAI FOUNDATION", "designationCode": "A", "categoryCode": "23", "address": "200 - 2581 YONGE ST", "city": "TORONTO", "province": "ON", "country": "CA", "postalCode": "M4P2J1", "twitter": "None", "instagram": "None", "facebook": "None", "youtube": "None", "website": "None", "summary": "None", "logo": "None", "latitude": 43.714272562034715, "longitude": -79.39992394321673}, "869280438RR0001": {"name": "SHIPS POINT VOLUNTEER FIREFIGHTERS ASSOCIATION", "designationCode": "C", "categoryCode": "55", "address": "7729 VIVIAN WAY", "city": "FANNY BAY", "province": "BC", "country": "CA", "postalCode": "V0R1W0", "twitter": "None", "instagram": "None", "facebook": "None", "youtube": "None", "website": "None", "summary": "None", "logo": "None", "latitude": 49.50131322319016, "longitude": -124.80243000525644}, "816341747RR0001": {"name": "SHIRETOWN COMMUNITY SERVICES INC.", "designationCode": "C", "categoryCode": "56", "address": "75 KING ST", "city": "ST. ANDREWS", "province": "NB", "country": "CA", "postalCode": "E5B1X7", "twitter": "None", "instagram": "None", "facebook": "None", "youtube": "None", "website": "None", "summary": "None", "logo": "None", "latitude": 45.074813868428755, "longitude": -67.05210653756735}, "889293577RR0001": {"name": "SHIRLEY COMMUNITY ASSOCIATION", "designationCode": "C", "categoryCode": "56", "address": "2795 SHERINGHAM POINT RD", "city": "SHIRLEY", "province": "BC", "country": "CA", "postalCode": "V9Z1G4", "twitter": "None", "instagram": "None", "facebook": "None", "youtube": "None", "website": "None", "summary": "None", "logo": "None", "latitude": 48.382490856061395, "longitude": -123.91004432578023}, "139626915RR0001": {"name": "SHIRLEY FIRE PROTECTION SOCIETY", "designationCode": "C", "categoryCode": "59", "address": "2795B SHERINGHAM PT RD", "city": "SHIRLEY", "province": "BC", "country": "CA", "postalCode": "V9Z1G4", "twitter": "None", "instagram": "None", "facebook": "None", "youtube": "None", "website": "None", "summary": "None", "logo": "None", "latitude": 48.382490856061395, "longitude": -123.91004432578023}, "874870413RR0001": {"name": "SHIVA GANESH MANDIR", "designationCode": "B", "categoryCode": "48", "address": "6862 CAMPBELL SETTLER COURT", "city": "MISSISSAUGA", "province": "ON", "country": "CA", "postalCode": "L5V1L7", "twitter": "None", "instagram": "None", "facebook": "None", "youtube": "None", "website": "None", "summary": "None", "logo": "None", "latitude": 43.62529184788519, "longitude": -79.72325526798994}, "136787884RR0001": {"name": "SHIVA MILAN MANDIR OF CANADA", "designationCode": "C", "categoryCode": "39", "address": "2 LUCINDA COURT", "city": "BRAMPTON", "province": "ON", "country": "CA", "postalCode": "L6P0K6", "twitter": "None", "instagram": "None", "facebook": "None", "youtube": "None", "website": "None", "summary": "None", "logo": "None", "latitude": 43.79942909328275, "longitude": -79.74634894134083}, "890542046RR0001": {"name": "SHIVA SHAKTI CULTURAL SABHA ONTARIO CANADA", "designationCode": "C", "categoryCode": "39", "address": "8861 SHEPPARD AVENUE EAST", "city": "SCARBOROUGH", "province": "ON", "country": "CA", "postalCode": "M1B5R7", "twitter": "None", "instagram": "None", "facebook": "None", "youtube": "None", "website": "None", "summary": "None", "logo": "None", "latitude": 43.8057858636969, "longitude": -79.182637135986}, "874515323RR0001": {"name": "SHIVA SHANKAR BHAWAN INC", "designationCode": "C", "categoryCode": "48", "address": "25 SHIER DRIVE", "city": "SCARBOROUGH", "province": "ON", "country": "CA", "postalCode": "M1J2T1", "twitter": "None", "instagram": "None", "facebook": "None", "youtube": "None", "website": "None", "summary": "None", "logo": "None", "latitude": 43.74588387261234, "longitude": -79.22711046944445}, "885700344RR0001": {"name": "SHKODAY ABINOJIIWAK OBIMIWEDOON", "designationCode": "C", "categoryCode": "20", "address": "1610 JOHN ST RD", "city": "THUNDER BAY", "province": "ON", "country": "CA", "postalCode": "P7G1J9", "twitter": "None", "instagram": "None", "facebook": "None", "youtube": "None", "website": "None", "summary": "None", "logo": "None", "latitude": 48.44470446941488, "longitude": -89.2921210881182}, "119288918RR0673": {"name": "SHOAL HARBOUR CONGREGATION OF JEHOVAH'S WITNESSES", "designationCode": "C", "categoryCode": "61", "address": "PO BOX 13107", "city": "SHOAL HARBOUR", "province": "NL", "country": "CA", "postalCode": "A5A4R2", "twitter": "None", "instagram": "None", "facebook": "None", "youtube": "None", "website": "None", "summary": "None", "logo": "None", "latitude": 48.175619825039874, "longitude": -53.98833382465799}, "884374620RR0001": {"name": "SHOAL HARBOUR PASTORAL CHARGE", "designationCode": "C", "categoryCode": "44", "address": "18 HUNTLEY DR", "city": "CLARENVILLE", "province": "NL", "country": "CA", "postalCode": "A5A4K2", "twitter": "None", "instagram": "None", "facebook": "None", "youtube": "None", "website": "None", "summary": "None", "logo": "None", "latitude": 48.18523416018538, "longitude": -53.993323697506064}, "890218373RR0001": {"name": "SHOAL LAKE AGRICULTURAL SOCIETY", "designationCode": "C", "categoryCode": "56", "address": "BOX 612", "city": "SHOAL LAKE", "province": "MB", "country": "CA", "postalCode": "R0J1Z0", "twitter": "None", "instagram": "None", "facebook": "None", "youtube": "None", "website": "None", "summary": "None", "logo": "None", "latitude": 50.437670000000026, "longitude": -100.59073999999998}, "862769833RR0001": {"name": "SHOAL LAKE AND AREA FOOD BANK", "designationCode": "C", "categoryCode": "09", "address": "BOX 584", "city": "SHOAL LAKE", "province": "MB", "country": "CA", "postalCode": "R0J1Z0", "twitter": "None", "instagram": "None", "facebook": "None", "youtube": "None", "website": "None", "summary": "None", "logo": "None", "latitude": 50.437670000000026, "longitude": -100.59073999999998}, "882999600RR0001": {"name": "SHOAL LAKE BAPTIST CHURCH INC.", "designationCode": "C", "categoryCode": "31", "address": "326 STATION RD                BOX 623", "city": "SHOAL LAKE", "province": "MB", "country": "CA", "postalCode": "R0J1Z0", "twitter": "None", "instagram": "None", "facebook": "None", "youtube": "None", "website": "None", "summary": "None", "logo": "None", "latitude": 50.43731535218945, "longitude": -100.59079116958182}, "891316945RR0001": {"name": "SHOAL LAKE COMMUNITY HANDI-VAN SERVICE INC.", "designationCode": "C", "categoryCode": "09", "address": "BOX 653", "city": "SHOAL LAKE", "province": "MB", "country": "CA", "postalCode": "R0J1Z0", "twitter": "None", "instagram": "None", "facebook": "None", "youtube": "None", "website": "None", "summary": "None", "logo": "None", "latitude": 50.437670000000026, "longitude": -100.59073999999998}, "862170081RR0001": {"name": "SHOAL LAKE KIDS' CLUB INC.", "designationCode": "C", "categoryCode": "01", "address": "PO BOX 655", "city": "SHOAL LAKE", "province": "MB", "country": "CA", "postalCode": "R0J1Z0", "twitter": "None", "instagram": "None", "facebook": "None", "youtube": "None", "website": "None", "summary": "None", "logo": "None", "latitude": 50.437670000000026, "longitude": -100.59073999999998}, "107978512RR0001": {"name": "SHOAL LAKE-DECKER PASTORAL CHARGE", "designationCode": "C", "categoryCode": "44", "address": "PO BOX 517", "city": "SHOAL LAKE", "province": "MB", "country": "CA", "postalCode": "R0J1Z0", "twitter": "None", "instagram": "None", "facebook": "None", "youtube": "None", "website": "None", "summary": "None", "logo": "None", "latitude": 50.437670000000026, "longitude": -100.59073999999998}, "898211396RR0001": {"name": "SHOAL LAKE-STRATHCLAIR DISTRICT HEALTH FOUNDATION INC.", "designationCode": "A", "categoryCode": "13", "address": "P O BOX 517", "city": "SHOAL LAKE", "province": "MB", "country": "CA", "postalCode": "R0J1Z0", "twitter": "None", "instagram": "None", "facebook": "None", "youtube": "None", "website": "None", "summary": "None", "logo": "None", "latitude": 50.437670000000026, "longitude": -100.59073999999998}, "895094761RR0001": {"name": "SHOCK TRAUMA AIR RESCUE SERVICE FOUNDATION", "designationCode": "A", "categoryCode": "53", "address": "1441 AVIATION PARK NE         BOX 570", "city": "CALGARY", "province": "AB", "country": "CA", "postalCode": "T2E8M7", "twitter": "None", "instagram": "None", "facebook": "None", "youtube": "None", "website": "None", "summary": "None", "logo": "None", "latitude": 51.099969624052925, "longitude": -114.03055748645824}, "118781103RR0001": {"name": "SHOCK TRAUMA AIR RESCUE SOCIETY", "designationCode": "C", "categoryCode": "09", "address": "BOX 570 1441 AVIATION PARK NE", "city": "CALGARY", "province": "AB", "country": "CA", "postalCode": "T2E8M7", "twitter": "None", "instagram": "None", "facebook": "None", "youtube": "None", "website": "None", "summary": "None", "logo": "None", "latitude": 51.099969624052925, "longitude": -114.03055748645824}, "896576048RR0001": {"name": "SHOLEM ALEICHEM COMMUNITY INC.", "designationCode": "C", "categoryCode": "39", "address": "BOX C 105                     123 DONCASTER ST", "city": "WINNIPEG", "province": "MB", "country": "CA", "postalCode": "R3N2B2", "twitter": "None", "instagram": "None", "facebook": "None", "youtube": "None", "website": "None", "summary": "None", "logo": "None", "latitude": 49.872266622540245, "longitude": -97.20828227653004}, "119149219RR0001": {"name": "SHOMER ISRAEL CONGREGATION", "designationCode": "C", "categoryCode": "42", "address": "800 STEELES AVE W. B10-#104", "city": "THORNHILL", "province": "ON", "country": "CA", "postalCode": "L4J7L2", "twitter": "None", "instagram": "None", "facebook": "None", "youtube": "None", "website": "None", "summary": "None", "logo": "None", "latitude": 43.792138562489335, "longitude": -79.44756045834043}, "119149227RR0001": {"name": "SHOMRAI SHABOTH-CHEVRAH MISHNAYOTH CONGREGATION", "designationCode": "C", "categoryCode": "42", "address": "583-585 GLENGROVE AVENUE WEST", "city": "TORONTO", "province": "ON", "country": "CA", "postalCode": "M6B2H5", "twitter": "None", "instagram": "None", "facebook": "None", "youtube": "None", "website": "None", "summary": "None", "logo": "None", "latitude": 43.712564816521585, "longitude": -79.43573582194591}, "106968001RR0001": {"name": "SHOMRIM LABOKER BETH YEHUDAH CONGREGATION & AFFILIATED CONGREGATION SHAARE TEFILAH", "designationCode": "C", "categoryCode": "42", "address": "5150 AV PLAMONDON", "city": "MONTREAL", "province": "QC", "country": "CA", "postalCode": "H3W1G1", "twitter": "None", "instagram": "None", "facebook": "None", "youtube": "None", "website": "None", "summary": "None", "logo": "None", "latitude": 45.49254679349652, "longitude": -73.6437817359052}, "131975575RR0001": {"name": "SHON YEE HOUSING SOCIETY", "designationCode": "C", "categoryCode": "01", "address": "628 EAST HASTINGS STREET", "city": "VANCOUVER", "province": "BC", "country": "CA", "postalCode": "V6A1R1", "twitter": "None", "instagram": "None", "facebook": "None", "youtube": "None", "website": "None", "summary": "None", "logo": "None", "latitude": 49.28107822023209, "longitude": -123.09085255733456}, "892377847RR0001": {"name": "SHOOTING STAR FOUNDATION", "designationCode": "B", "categoryCode": "53", "address": "#413, 2020 32 STREET SOUTH", "city": "LETHBRIDGE", "province": "AB", "country": "CA", "postalCode": "T1K7T9", "twitter": "None", "instagram": "None", "facebook": "None", "youtube": "None", "website": "None", "summary": "None", "logo": "None", "latitude": 49.670968500000015, "longitude": -112.794498}, "860661149RR0001": {"name": "SHOPPERS DRUG MART/PHARMAPRIX LIFE FOUNDATION - LA FONDATION LIFE DE PHARMAPRIX/SHOPPERS DRUG MART", "designationCode": "B", "categoryCode": "03", "address": "243 CONSUMERS ROAD", "city": "NORTH YORK", "province": "ON", "country": "CA", "postalCode": "M2J4W8", "twitter": "None", "instagram": "None", "facebook": "None", "youtube": "None", "website": "None", "summary": "None", "logo": "None", "latitude": 43.77042003739449, "longitude": -79.33083079283267}, "119149268RR0001": {"name": "SHOREACRES BIBLE CHAPEL PROPERTIES INC.", "designationCode": "C", "categoryCode": "39", "address": "3160 WOODBURN RD", "city": "BINBROOK", "province": "ON", "country": "CA", "postalCode": "L0R1C0", "twitter": "None", "instagram": "None", "facebook": "None", "youtube": "None", "website": "None", "summary": "None", "logo": "None", "latitude": 43.105862356656424, "longitude": -79.75746537653613}, "858830904RR0001": {"name": "SHOREFAST FOUNDATION", "designationCode": "C", "categoryCode": "09", "address": "PO BOX 82", "city": "JOE BATTS ARM", "province": "NL", "country": "CA", "postalCode": "A0G2X0", "twitter": "None", "instagram": "None", "facebook": "None", "youtube": "None", "website": "None", "summary": "None", "logo": "None", "latitude": 49.72267500000005, "longitude": -54.14982199999993}, "889211462RR0001": {"name": "SHOREHAM VILLAGE FOUNDATION", "designationCode": "A", "categoryCode": "03", "address": "50 SHOREHAM CRES, RR#1", "city": "CHESTER", "province": "NS", "country": "CA", "postalCode": "B0J1J0", "twitter": "None", "instagram": "None", "facebook": "None", "youtube": "None", "website": "None", "summary": "None", "logo": "None", "latitude": 44.54528564830661, "longitude": -64.23208690772685}, "886475904RR0001": {"name": "SHOREHAM VILLAGE SENIOR CITIZENS APARTMENTS ASSOCIATION", "designationCode": "C", "categoryCode": "09", "address": "21 YOUDEN LANE                RR 1", "city": "CHESTER", "province": "NS", "country": "CA", "postalCode": "B0J1J0", "twitter": "None", "instagram": "None", "facebook": "None", "youtube": "None", "website": "None", "summary": "None", "logo": "None", "latitude": 44.54621654342441, "longitude": -64.23350282653355}, "107978702RR0001": {"name": "SHOREHAM VILLAGE SENIOR CITIZENS ASSOCIATION", "designationCode": "C", "categoryCode": "01", "address": "3777 NORTH ST RR 1", "city": "CHESTER", "province": "NS", "country": "CA", "postalCode": "B0J1J0", "twitter": "None", "instagram": "None", "facebook": "None", "youtube": "None", "website": "None", "summary": "None", "logo": "None", "latitude": 44.546260599604544, "longitude": -64.23740845634657}, "119288918RR0803": {"name": "SHORELINE CONGREGATION OF JEHOVAH'S WITNESSES", "designationCode": "C", "categoryCode": "61", "address": "583 TOURNAMENT TOUR", "city": "QUALICUM BEACH", "province": "BC", "country": "CA", "postalCode": "V9K2J1", "twitter": "None", "instagram": "None", "facebook": "None", "youtube": "None", "website": "None", "summary": "None", "logo": "None", "latitude": 49.35157524730216, "longitude": -124.40112353133495}, "107431611RR0001": {"name": "SHORT-STOP REC CLUB INC.", "designationCode": "C", "categoryCode": "01", "address": "BOX 1184", "city": "PORTAGE LA PRAIRIE", "province": "MB", "country": "CA", "postalCode": "R1N3J9", "twitter": "None", "instagram": "None", "facebook": "None", "youtube": "None", "website": "None", "summary": "None", "logo": "None", "latitude": 49.97301900000005, "longitude": -98.29058299999993}, "124619248RR0001": {"name": "SHORTGRASS LIBRARY SYSTEM", "designationCode": "C", "categoryCode": "50", "address": "2375 10 AVE SW", "city": "MEDICINE HAT", "province": "AB", "country": "CA", "postalCode": "T1A8G2", "twitter": "None", "instagram": "None", "facebook": "None", "youtube": "None", "website": "None", "summary": "None", "logo": "None", "latitude": 50.01693283236193, "longitude": -110.70946923729016}, "119149300RR0001": {"name": "SHOTZER CONGREGATION", "designationCode": "C", "categoryCode": "39", "address": "5599 JEANNE MANCE", "city": "MONTREAL", "province": "QC", "country": "CA", "postalCode": "H2V4K7", "twitter": "None", "instagram": "None", "facebook": "None", "youtube": "None", "website": "None", "summary": "None", "logo": "None", "latitude": 45.523380341392965, "longitude": -73.60254062946512}, "872351804RR0001": {"name": "SHOUTERS COMMUNITY CENTRE", "designationCode": "C", "categoryCode": "56", "address": "9-63 MACK AVE", "city": "TORONTO", "province": "ON", "country": "CA", "postalCode": "M1L1M5", "twitter": "None", "instagram": "None", "facebook": "None", "youtube": "None", "website": "None", "summary": "None", "logo": "None", "latitude": 43.700645790409446, "longitude": -79.27008715041272}, "119149334RR0001": {"name": "SHOWERS OF BLESSING APOSTOLIC CHURCH OF CALGARY", "designationCode": "C", "categoryCode": "39", "address": "3915 34TH STREET NE", "city": "CALGARY", "province": "AB", "country": "CA", "postalCode": "T1Y6Z8", "twitter": "None", "instagram": "None", "facebook": "None", "youtube": "None", "website": "None", "summary": "None", "logo": "None", "latitude": 51.08810324562873, "longitude": -113.9855477102544}, "134916691RR0001": {"name": "SHOWERS OF BLESSING EVANGELISTIC MINISTRY", "designationCode": "C", "categoryCode": "39", "address": "3410 MIDLAND AVE UNIT 11", "city": "SCARBOROUGH", "province": "ON", "country": "CA", "postalCode": "M1V4V5", "twitter": "None", "instagram": "None", "facebook": "None", "youtube": "None", "website": "None", "summary": "None", "logo": "None", "latitude": 43.811037346096164, "longitude": -79.29063325647742}, "870820388RR0001": {"name": "SHOWERS OF BLESSING INTERNATIONAL", "designationCode": "A", "categoryCode": "09", "address": "36406 CARNARVON COURT", "city": "ABBOTSFORD", "province": "BC", "country": "CA", "postalCode": "V3G3G4", "twitter": "None", "instagram": "None", "facebook": "None", "youtube": "None", "website": "None", "summary": "None", "logo": "None", "latitude": 49.05437185316529, "longitude": -122.21679977938692}, "119149342RR0001": {"name": "SHOWMEN'S LEAGUE OF AMERICA-ONTARIO CHAPTER FOUNDATION", "designationCode": "C", "categoryCode": "21", "address": "126 ST GEORGE ST", "city": "BRANTFORD", "province": "ON", "country": "CA", "postalCode": "N3R1V6", "twitter": "None", "instagram": "None", "facebook": "None", "youtube": "None", "website": "None", "summary": "None", "logo": "None", "latitude": 43.15560753814428, "longitude": -80.27382110603604}, "135829505RR0001": {"name": "SHOWPLACE PETERBOROUGH PERFORMANCE CENTRE", "designationCode": "C", "categoryCode": "22", "address": "290 GEORGE STREET NORTH       POST OFFICE BOX 242", "city": "PETERBOROUGH", "province": "ON", "country": "CA", "postalCode": "K9J6Y8", "twitter": "None", "instagram": "None", "facebook": "None", "youtube": "None", "website": "None", "summary": "None", "logo": "None", "latitude": 44.3024656239252, "longitude": -78.31978376294097}, "865235691RR0001": {"name": "SHREE GANESH YAG PARIWAR", "designationCode": "C", "categoryCode": "59", "address": "34 ALEXANDRIA CRESCENT", "city": "BRAMPTON", "province": "ON", "country": "CA", "postalCode": "L6T1N3", "twitter": "None", "instagram": "None", "facebook": "None", "youtube": "None", "website": "None", "summary": "None", "logo": "None", "latitude": 43.710055595071765, "longitude": -79.70099314420897}, "836326561RR0001": {"name": "SHREE HARANARAIN MANDIR", "designationCode": "C", "categoryCode": "48", "address": "1043 BLUEHERON BLVD", "city": "MISSISSAUGA", "province": "ON", "country": "CA", "postalCode": "L5V2J8", "twitter": "None", "instagram": "None", "facebook": "None", "youtube": "None", "website": "None", "summary": "None", "logo": "None", "latitude": 43.596577130734545, "longitude": -79.68766058731013}, "860871078RR0001": {"name": "SHREE MARIYAMAA MANDIR", "designationCode": "C", "categoryCode": "48", "address": "UNIT 40,18 STRATHEARN AVENUE", "city": "BRAMPTON", "province": "ON", "country": "CA", "postalCode": "L6T4L8", "twitter": "None", "instagram": "None", "facebook": "None", "youtube": "None", "website": "None", "summary": "None", "logo": "None", "latitude": 43.6949195370191, "longitude": -79.69772875711165}, "892308537RR0001": {"name": "SHREE SANATAN DHARAM SABHA (FIJI) OF B C", "designationCode": "C", "categoryCode": "39", "address": "12-8473 124TH STREET", "city": "SURREY", "province": "BC", "country": "CA", "postalCode": "V3V5Y5", "twitter": "None", "instagram": "None", "facebook": "None", "youtube": "None", "website": "None", "summary": "None", "logo": "None", "latitude": 49.208892732478404, "longitude": -122.87859274105851}, "892851437RR0001": {"name": "SHREE VIDYA PITHA HINDU TEMPLE", "designationCode": "C", "categoryCode": "48", "address": "#201-5990 FRASER STREET", "city": "VANCOUVER", "province": "BC", "country": "CA", "postalCode": "V5W2Z7", "twitter": "None", "instagram": "None", "facebook": "None", "youtube": "None", "website": "None", "summary": "None", "logo": "None", "latitude": 49.23047705245543, "longitude": -123.09061044001409}, "861645687RR0001": {"name": "SHREVE MINISTRIES INTERNATIONAL", "designationCode": "C", "categoryCode": "47", "address": "P.O. BOX 381", "city": "STONEY POINT", "province": "ON", "country": "CA", "postalCode": "N0R1N0", "twitter": "None", "instagram": "None", "facebook": "None", "youtube": "None", "website": "None", "summary": "None", "logo": "None", "latitude": 41.7545842566157, "longitude": -82.631111875236}, "891830044RR0001": {"name": "SHREWSBURY AND RAGLAN ASSEMBLY", "designationCode": "C", "categoryCode": "56", "address": "112 NEW SCOTLAND LINE         RR 4", "city": "BLENHEIM", "province": "ON", "country": "CA", "postalCode": "N0P1A0", "twitter": "None", "instagram": "None", "facebook": "None", "youtube": "None", "website": "None", "summary": "None", "logo": "None", "latitude": 42.297687713284176, "longitude": -81.93177695348852}, "119149367RR0001": {"name": "SHREWSBURY BAPTIST CHURCH", "designationCode": "C", "categoryCode": "31", "address": "153 PRINCE ST. RR#4           SHREWSBURY", "city": "BLENHEIM", "province": "ON", "country": "CA", "postalCode": "N0P1A0", "twitter": "None", "instagram": "None", "facebook": "None", "youtube": "None", "website": "None", "summary": "None", "logo": "None", "latitude": 42.296335312251074, "longitude": -81.92252692994386}, "886272087RR0001": {"name": "SHRI DURGA BHAMASHWARI MANDIR SOCIETY", "designationCode": "C", "categoryCode": "48", "address": "7565 - 122A STREET", "city": "SURREY", "province": "BC", "country": "CA", "postalCode": "V3W0K7", "twitter": "None", "instagram": "None", "facebook": "None", "youtube": "None", "website": "None", "summary": "None", "logo": "None", "latitude": 49.140660572854756, "longitude": -122.88316454789647}, "872213095RR0001": {"name": "SHRI DURGA MANDIR OF NEW BRUNSWICK INC.", "designationCode": "C", "categoryCode": "48", "address": "986 RUE DE CHALETS", "city": "TRACADIE-SHEILA", "province": "NB", "country": "CA", "postalCode": "E1X1C4", "twitter": "None", "instagram": "None", "facebook": "None", "youtube": "None", "website": "None", "summary": "None", "logo": "None", "latitude": 47.473646180074226, "longitude": -64.92541123218294}, "119149383RR0001": {"name": "SHRI GURU RAVIDASS SABHA (VANCOUVER)", "designationCode": "C", "categoryCode": "62", "address": "7271 GILLEY AVE", "city": "BURNABY", "province": "BC", "country": "CA", "postalCode": "V5J4W9", "twitter": "None", "instagram": "None", "facebook": "None", "youtube": "None", "website": "None", "summary": "None", "logo": "None", "latitude": 49.217787000000015, "longitude": -122.97212352723731}, "888519204RR0001": {"name": "SHRI GURU RAVIDASS SABHA, ONTARIO", "designationCode": "C", "categoryCode": "62", "address": "6795 STEELES AVENUE W", "city": "TORONTO", "province": "ON", "country": "CA", "postalCode": "M9V4R9", "twitter": "None", "instagram": "None", "facebook": "None", "youtube": "None", "website": "None", "summary": "None", "logo": "None", "latitude": 43.75654688533698, "longitude": -79.60906528238802}, "811215078RR0001": {"name": "SHRI JI DHAM TEMPLE", "designationCode": "C", "categoryCode": "48", "address": "236 FINCH AVE. WEST", "city": "TORONTO", "province": "ON", "country": "CA", "postalCode": "M2R1M7", "twitter": "None", "instagram": "None", "facebook": "None", "youtube": "None", "website": "None", "summary": "None", "logo": "None", "latitude": 43.775213132407984, "longitude": -79.43612895504639}, "892469370RR0001": {"name": "SHRI MAA BHAMESHWRI KALI MANDIR TRUST", "designationCode": "C", "categoryCode": "39", "address": "4336 FOSTER RD", "city": "PRINCE GEORGE", "province": "BC", "country": "CA", "postalCode": "V2N5H7", "twitter": "None", "instagram": "None", "facebook": "None", "youtube": "None", "website": "None", "summary": "None", "logo": "None", "latitude": 53.87327868916258, "longitude": -122.78230826827841}, "119149417RR0001": {"name": "SHRI PARAM HANS ADVAIT MAT ONTARIO", "designationCode": "C", "categoryCode": "39", "address": "260  INGLETON  BLVD", "city": "SCARBOROUGH", "province": "ON", "country": "CA", "postalCode": "M1V3R1", "twitter": "None", "instagram": "None", "facebook": "None", "youtube": "None", "website": "None", "summary": "None", "logo": "None", "latitude": 43.82700127869443, "longitude": -79.26648376758592}, "119149425RR0001": {"name": "SHRI RAM CHANDRA MISSION", "designationCode": "C", "categoryCode": "39", "address": "161 PALMDALE DRIVE", "city": "TORONTO", "province": "ON", "country": "CA", "postalCode": "M1T1P2", "twitter": "None", "instagram": "None", "facebook": "None", "youtube": "None", "website": "None", "summary": "None", "logo": "None", "latitude": 43.7766010088868, "longitude": -79.30854824782176}, "889027991RR0001": {"name": "SHRI RAM SHARNAM (A PRAYER AND MEDITATION CENTER OF EK NAAM RATNA DHARA)", "designationCode": "C", "categoryCode": "39", "address": "12 STEINWAY BLVD UNIT 19", "city": "ETOBICOKE", "province": "ON", "country": "CA", "postalCode": "M9W6M5", "twitter": "None", "instagram": "None", "facebook": "None", "youtube": "None", "website": "None", "summary": "None", "logo": "None", "latitude": 43.75286592423106, "longitude": -79.61967728602335}, "889952974RR0001": {"name": "SHRI S S JAIN FOUNDATION", "designationCode": "C", "categoryCode": "39", "address": "276 CARLAW AVENUE             SUITE #200", "city": "TORONTO", "province": "ON", "country": "CA", "postalCode": "M4M3L1", "twitter": "None", "instagram": "None", "facebook": "None", "youtube": "None", "website": "None", "summary": "None", "logo": "None", "latitude": 43.66339335192457, "longitude": -79.34107399252683}}