{"134318674RR0001": {"name": "THE GUELPH CREATIVE ARTS ASSOCIATION", "designationCode": "C", "categoryCode": "22", "address": "79 WENDY CRT", "city": "CAMBRIDGE", "province": "ON", "country": "CA", "postalCode": "N1R8A6", "twitter": "None", "instagram": "None", "facebook": "None", "youtube": "None", "website": "None", "summary": "None", "logo": "None", "latitude": 43.37436337996994, "longitude": -80.30041670304104}, "861236917RR0001": {"name": "THE GUELPH ENABLING GARDEN", "designationCode": "C", "categoryCode": "09", "address": "P O BOX 15", "city": "GUELPH", "province": "ON", "country": "CA", "postalCode": "N1H6J6", "twitter": "None", "instagram": "None", "facebook": "None", "youtube": "None", "website": "None", "summary": "None", "logo": "None", "latitude": 43.54455300000005, "longitude": -80.24788249999993}, "119236305RR0001": {"name": "THE GUELPH HUMANE SOCIETY INCORPORATED", "designationCode": "C", "categoryCode": "54", "address": "500 WELLINGTON STREET WEST    P.O. BOX 684", "city": "GUELPH", "province": "ON", "country": "CA", "postalCode": "N1H6L3", "twitter": "None", "instagram": "None", "facebook": "None", "youtube": "None", "website": "None", "summary": "None", "logo": "None", "latitude": 43.525863677146035, "longitude": -80.26584688061573}, "898180294RR0001": {"name": "THE GUELPH JAZZ FESTIVAL", "designationCode": "C", "categoryCode": "22", "address": "301 - 6 DUBLIN ST S", "city": "GUELPH", "province": "ON", "country": "CA", "postalCode": "N1H4L5", "twitter": "None", "instagram": "None", "facebook": "None", "youtube": "None", "website": "None", "summary": "None", "logo": "None", "latitude": 43.54106344298561, "longitude": -80.2507747288074}, "118949254RR0001": {"name": "THE GUELPH LITTLE THEATRE", "designationCode": "C", "categoryCode": "22", "address": "176, MORRIS ST", "city": "GUELPH", "province": "ON", "country": "CA", "postalCode": "N1E5M7", "twitter": "None", "instagram": "None", "facebook": "None", "youtube": "None", "website": "None", "summary": "None", "logo": "None", "latitude": 43.54744268333419, "longitude": -80.23177515179769}, "119236347RR0001": {"name": "THE GUILD OF THE ROYAL CANADIAN DRAGOONS", "designationCode": "C", "categoryCode": "52", "address": "CANADIAN FORCES BASE PETAWAWA", "city": "PETAWAWA", "province": "ON", "country": "CA", "postalCode": "K8H2X3", "twitter": "None", "instagram": "None", "facebook": "None", "youtube": "None", "website": "None", "summary": "None", "logo": "None", "latitude": 45.909910000000025, "longitude": -77.28948999999994}, "872409826RR0001": {"name": "THE GUILD RENAISSANCE GROUP", "designationCode": "C", "categoryCode": "22", "address": "1859 KINGSTON ROAD", "city": "SCARBOROUGH", "province": "ON", "country": "CA", "postalCode": "M1N1T3", "twitter": "None", "instagram": "None", "facebook": "None", "youtube": "None", "website": "None", "summary": "None", "logo": "None", "latitude": 43.695512896185676, "longitude": -79.25893380347983}, "887382190RR0001": {"name": "THE GUITAR SOCIETY OF TORONTO", "designationCode": "C", "categoryCode": "22", "address": "28 PALERMO CRT", "city": "BRAMPTON", "province": "ON", "country": "CA", "postalCode": "L6Z3G1", "twitter": "None", "instagram": "None", "facebook": "None", "youtube": "None", "website": "None", "summary": "None", "logo": "None", "latitude": 43.73240653401801, "longitude": -79.79752966905171}, "119236370RR0001": {"name": "THE GUJARATI CULTURAL ASSOCIATION OF OTTAWA", "designationCode": "C", "categoryCode": "39", "address": "395 CRESTHAVEN DR", "city": "NEPEAN", "province": "ON", "country": "CA", "postalCode": "K2G6Z4", "twitter": "None", "instagram": "None", "facebook": "None", "youtube": "None", "website": "None", "summary": "None", "logo": "None", "latitude": 45.27094861613493, "longitude": -75.71343904939701}, "118782697RR0001": {"name": "THE GULL LAKE ALLIANCE CHURCH OF THE CHRISTIAN & MISSIONARY", "designationCode": "C", "categoryCode": "39", "address": "BOX 696", "city": "GULL LAKE", "province": "SK", "country": "CA", "postalCode": "S0N1A0", "twitter": "None", "instagram": "None", "facebook": "None", "youtube": "None", "website": "None", "summary": "None", "logo": "None", "latitude": 50.09796000000006, "longitude": -108.48363999999998}, "119236396RR0001": {"name": "THE GULL LAKE AND DISTRICT CULTURAL CO-OPERATIVE", "designationCode": "C", "categoryCode": "22", "address": "BOX 715", "city": "GULL LAKE", "province": "SK", "country": "CA", "postalCode": "S0N1A0", "twitter": "None", "instagram": "None", "facebook": "None", "youtube": "None", "website": "None", "summary": "None", "logo": "None", "latitude": 50.09796000000006, "longitude": -108.48363999999998}, "882944028RR0001": {"name": "THE GUNN FOUNDATION", "designationCode": "B", "categoryCode": "03", "address": "828 WEST BROADWAY", "city": "VANCOUVER", "province": "BC", "country": "CA", "postalCode": "V5Z1J8", "twitter": "None", "instagram": "None", "facebook": "None", "youtube": "None", "website": "None", "summary": "None", "logo": "None", "latitude": 49.26331653563411, "longitude": -123.12267163780368}, "118949809RR0001": {"name": "THE GURDJIEFF FOUNDATION: THE SOCIETY FOR TRADITIONAL STUDIES", "designationCode": "C", "categoryCode": "21", "address": "113 MERTON", "city": "TORONTO", "province": "ON", "country": "CA", "postalCode": "M4S1A8", "twitter": "None", "instagram": "None", "facebook": "None", "youtube": "None", "website": "None", "summary": "None", "logo": "None", "latitude": 43.696725790986356, "longitude": -79.39298679641071}, "125119073RR0001": {"name": "THE GURU NANAK SIKH SOCIETY", "designationCode": "C", "categoryCode": "62", "address": "735 PINECREST ROAD", "city": "CAMPBELL RIVER", "province": "BC", "country": "CA", "postalCode": "V9W7N2", "twitter": "None", "instagram": "None", "facebook": "None", "youtube": "None", "website": "None", "summary": "None", "logo": "None", "latitude": 50.00386847561956, "longitude": -125.25041152553523}, "118949940RR0001": {"name": "THE GUSTAV LEVINSCHI FOUNDATION-LA FONDATION GUSTAV LEVINSCHI", "designationCode": "B", "categoryCode": "03", "address": "1820 DOCTEUR PENFIELD, STE 110", "city": "MONTREAL", "province": "QC", "country": "CA", "postalCode": "H3H1B4", "twitter": "None", "instagram": "None", "facebook": "None", "youtube": "None", "website": "None", "summary": "None", "logo": "None", "latitude": 45.49499770716732, "longitude": -73.58990785622372}, "863555520RR0001": {"name": "THE GUYSBOROUGH WATERFRONT DEVELOPMENT SOCIETY", "designationCode": "C", "categoryCode": "59", "address": "BOX 283", "city": "GUYSBOROUGH", "province": "NS", "country": "CA", "postalCode": "B0H1N0", "twitter": "None", "instagram": "None", "facebook": "None", "youtube": "None", "website": "None", "summary": "None", "logo": "None", "latitude": 45.37026600000006, "longitude": -61.50474349999993}, "861840395RR0001": {"name": "THE GWD FOUNDATION FOR KIDS", "designationCode": "B", "categoryCode": "05", "address": "1455 LAKESHORE RD.,SUITE 201N", "city": "BURLINGTON", "province": "ON", "country": "CA", "postalCode": "L7S2J1", "twitter": "None", "instagram": "None", "facebook": "None", "youtube": "None", "website": "None", "summary": "None", "logo": "None", "latitude": 43.32409260672853, "longitude": -79.79729353523008}, "853519270RR0001": {"name": "THE GWYN MORGAN AND PATRICIA TROTTIER FOUNDATION", "designationCode": "B", "categoryCode": "03", "address": "200 DOLL BLOCK, 116-8TH AVE SE", "city": "CALGARY", "province": "AB", "country": "CA", "postalCode": "T2G0K6", "twitter": "None", "instagram": "None", "facebook": "None", "youtube": "None", "website": "None", "summary": "None", "logo": "None", "latitude": 51.04519282943797, "longitude": -114.05143117605162}, "882038094RR0001": {"name": "THE GWYNNE-VAUGHAN PARK SOCIETY", "designationCode": "C", "categoryCode": "56", "address": "PO BOX 530", "city": "CHILLIWACK", "province": "BC", "country": "CA", "postalCode": "V2P7V5", "twitter": "None", "instagram": "None", "facebook": "None", "youtube": "None", "website": "None", "summary": "None", "logo": "None", "latitude": 49.15747500000006, "longitude": -121.95172249999993}, "118950088RR0001": {"name": "THE GYRO CLUB OF VANCOUVER CHARITABLE FOUNDATION", "designationCode": "A", "categoryCode": "03", "address": "P.O. BOX 68                   STATION A", "city": "VANCOUVER", "province": "BC", "country": "CA", "postalCode": "V6C2L8", "twitter": "None", "instagram": "None", "facebook": "None", "youtube": "None", "website": "None", "summary": "None", "logo": "None", "latitude": 49.28625600000005, "longitude": -123.11574199999993}, "831249636RR0001": {"name": "THE G12 NETWORK CANADA", "designationCode": "C", "categoryCode": "39", "address": "48 MASSEYGROVE CRES", "city": "ETOBICOKE", "province": "ON", "country": "CA", "postalCode": "M9V3C9", "twitter": "None", "instagram": "None", "facebook": "None", "youtube": "None", "website": "None", "summary": "None", "logo": "None", "latitude": 43.737163941716204, "longitude": -79.58254511278804}, "862286374RR0001": {"name": "THE H & R MIDA CHARITABLE FOUNDATION", "designationCode": "B", "categoryCode": "03", "address": "19 LOWER VILLAGE GATE         SUITE 704", "city": "TORONTO", "province": "ON", "country": "CA", "postalCode": "M5P3L9", "twitter": "None", "instagram": "None", "facebook": "None", "youtube": "None", "website": "None", "summary": "None", "logo": "None", "latitude": 43.68789110046747, "longitude": -79.41520381767542}, "119237550RR0001": {"name": "THE H G BERTRAM FOUNDATION", "designationCode": "B", "categoryCode": "25", "address": "155 WELLINGTON STREET WEST    20TH FL", "city": "TORONTO", "province": "ON", "country": "CA", "postalCode": "M5V3K7", "twitter": "None", "instagram": "None", "facebook": "None", "youtube": "None", "website": "None", "summary": "None", "logo": "None", "latitude": 43.64596585316531, "longitude": -79.38574575644876}, "119237733RR0001": {"name": "THE H L TURNER FOUNDATION", "designationCode": "B", "categoryCode": "03", "address": "#12-500 LAKEVIEW DRIVE", "city": "WOODSTOCK", "province": "ON", "country": "CA", "postalCode": "N4T1W4", "twitter": "None", "instagram": "None", "facebook": "None", "youtube": "None", "website": "None", "summary": "None", "logo": "None", "latitude": 43.15320433804608, "longitude": -80.76608932540837}, "872076294RR0001": {"name": "THE H. LAWRENCE FEIN FAMILY FOUNDATION", "designationCode": "B", "categoryCode": "53", "address": "272 LAWRENCE AVENUE           3RD FLOOR", "city": "TORONTO", "province": "ON", "country": "CA", "postalCode": "M5M4M1", "twitter": "None", "instagram": "None", "facebook": "None", "youtube": "None", "website": "None", "summary": "None", "logo": "None", "latitude": 43.72258909576425, "longitude": -79.41416779753588}, "892972449RR0001": {"name": "THE H.I.K.E. FUND (CANADA)", "designationCode": "C", "categoryCode": "09", "address": "2912 9 AVE", "city": "CASTLEGAR", "province": "BC", "country": "CA", "postalCode": "V1N2Z1", "twitter": "None", "instagram": "None", "facebook": "None", "youtube": "None", "website": "None", "summary": "None", "logo": "None", "latitude": 49.27617137722811, "longitude": -117.6511531475982}, "877247213RR0001": {"name": "THE H&L BRACHFELD CHARITABLE FOUNDATION", "designationCode": "B", "categoryCode": "03", "address": "22 ST. CLAIR AVEENUE EAST     SUITE 1200", "city": "TORONTO", "province": "ON", "country": "CA", "postalCode": "M4T2S3", "twitter": "None", "instagram": "None", "facebook": "None", "youtube": "None", "website": "None", "summary": "None", "logo": "None", "latitude": 43.688336132408, "longitude": -79.39301839967676}, "858573009RR0001": {"name": "THE HABENDUM CHARITABLE COMPANY", "designationCode": "C", "categoryCode": "22", "address": "66 WELLINGTON ST. W SUITE 4100PO BOX 35, TORONTO DOMINION CT", "city": "TORONTO", "province": "ON", "country": "CA", "postalCode": "M5K1B7", "twitter": "None", "instagram": "None", "facebook": "None", "youtube": "None", "website": "None", "summary": "None", "logo": "None", "latitude": 43.6468467508999, "longitude": -79.3819558202305}, "119236461RR0001": {"name": "THE HAICHEL HATORAH B'ZION FOUNDATION", "designationCode": "C", "categoryCode": "21", "address": "45 FRONTENAC AVENUE", "city": "TORONTO", "province": "ON", "country": "CA", "postalCode": "M5N1Z6", "twitter": "None", "instagram": "None", "facebook": "None", "youtube": "None", "website": "None", "summary": "None", "logo": "None", "latitude": 43.71785283484344, "longitude": -79.42415528919734}, "135837821RR0001": {"name": "THE HALFMOON BAY CHILD CARE CENTRE SOCIETY", "designationCode": "C", "categoryCode": "01", "address": "8090 NORTHWOOD RD", "city": "HALFMOON BAY", "province": "BC", "country": "CA", "postalCode": "V0N1Y1", "twitter": "None", "instagram": "None", "facebook": "None", "youtube": "None", "website": "None", "summary": "None", "logo": "None", "latitude": 49.481785486005975, "longitude": -123.88538211226845}, "118950666RR0001": {"name": "THE HALIBURTON HIGHLANDS HEALTH SERVICES, HALIBURTON SITE AUXILIARY", "designationCode": "C", "categoryCode": "19", "address": "7199 GELERT ROAD, BOX 115", "city": "HALIBURTON", "province": "ON", "country": "CA", "postalCode": "K0M1S0", "twitter": "None", "instagram": "None", "facebook": "None", "youtube": "None", "website": "None", "summary": "None", "logo": "None", "latitude": 45.0383543458651, "longitude": -78.5285040789443}, "871598660RR0001": {"name": "THE HALIFAX ARK OUTREACH ASSOCIATION", "designationCode": "C", "categoryCode": "56", "address": "2151 GOTTINGEN STREET         P.O. BOX 47025", "city": "HALIFAX", "province": "NS", "country": "CA", "postalCode": "B3K3B5", "twitter": "None", "instagram": "None", "facebook": "None", "youtube": "None", "website": "None", "summary": "None", "logo": "None", "latitude": 44.652463595620034, "longitude": -63.58398481320335}, "139636575RR0001": {"name": "THE HALIFAX FIELD NATURALISTS", "designationCode": "C", "categoryCode": "52", "address": "5 PARKHILL RD", "city": "HALIFAX", "province": "NS", "country": "CA", "postalCode": "B3P1R2", "twitter": "None", "instagram": "None", "facebook": "None", "youtube": "None", "website": "None", "summary": "None", "logo": "None", "latitude": 44.62410305770689, "longitude": -63.60074744653496}, "107461394RR0001": {"name": "THE HALIFAX GRAMMAR SCHOOL", "designationCode": "C", "categoryCode": "20", "address": "945 TOWER RD", "city": "HALIFAX", "province": "NS", "country": "CA", "postalCode": "B3H2Y2", "twitter": "None", "instagram": "None", "facebook": "None", "youtube": "None", "website": "None", "summary": "None", "logo": "None", "latitude": 44.632638408275135, "longitude": -63.57812209764017}, "894863679RR0001": {"name": "THE HALIFAX KOREAN CHURCH", "designationCode": "C", "categoryCode": "39", "address": "2021 OXFORD STREET", "city": "HALIFAX", "province": "NS", "country": "CA", "postalCode": "B3L2T3", "twitter": "None", "instagram": "None", "facebook": "None", "youtube": "None", "website": "None", "summary": "None", "logo": "None", "latitude": 44.64501036969817, "longitude": -63.60048905464846}, "888652864RR0001": {"name": "THE HALIFAX LADIES' MUSICAL CLUB", "designationCode": "A", "categoryCode": "25", "address": "518-1326 LR. WATER STREET", "city": "HALIFAX", "province": "NS", "country": "CA", "postalCode": "B3J3R3", "twitter": "None", "instagram": "None", "facebook": "None", "youtube": "None", "website": "None", "summary": "None", "logo": "None", "latitude": 44.64244500000005, "longitude": -63.56883049999993}, "843657339RR0001": {"name": "THE HALIFAX REGION UNITED BAPTIST ASSOCIATION", "designationCode": "C", "categoryCode": "31", "address": "51 GASTON ROAD APT 4", "city": "DARTMOUTH", "province": "NS", "country": "CA", "postalCode": "B2Y3W5", "twitter": "None", "instagram": "None", "facebook": "None", "youtube": "None", "website": "None", "summary": "None", "logo": "None", "latitude": 44.665798964769934, "longitude": -63.539985594494844}, "833726870RR0001": {"name": "THE HALLIDAY FOUNDATION", "designationCode": "B", "categoryCode": "03", "address": "344 CRYSTAL BAY DRIVE", "city": "AMHERSTBURG", "province": "ON", "country": "CA", "postalCode": "N9V4A7", "twitter": "None", "instagram": "None", "facebook": "None", "youtube": "None", "website": "None", "summary": "None", "logo": "None", "latitude": 42.10177690766653, "longitude": -83.12371848524475}, "119236552RR0001": {"name": "THE HALLMAN CHAPEL INC", "designationCode": "C", "categoryCode": "34", "address": "RR#3", "city": "ALLENFORD", "province": "ON", "country": "CA", "postalCode": "N0H1A0", "twitter": "None", "instagram": "None", "facebook": "None", "youtube": "None", "website": "None", "summary": "None", "logo": "None", "latitude": 44.62278604951637, "longitude": -81.1841292835491}, "867955122RR0001": {"name": "THE HALLMARK EDUCATIONAL FOUNDATION", "designationCode": "B", "categoryCode": "49", "address": "244191 RANGE ROAD 31", "city": "CALGARY", "province": "AB", "country": "CA", "postalCode": "T3Z3L8", "twitter": "None", "instagram": "None", "facebook": "None", "youtube": "None", "website": "None", "summary": "None", "logo": "None", "latitude": 51.077619251457094, "longitude": -114.30400675526532}, "107462483RR0001": {"name": "THE HALTON REGION CONSERVATION AUTHORITY", "designationCode": "C", "categoryCode": "52", "address": "2596 BRITANNIA ROAD W.", "city": "BURLINGTON", "province": "ON", "country": "CA", "postalCode": "L7P0G3", "twitter": "None", "instagram": "None", "facebook": "None", "youtube": "None", "website": "None", "summary": "None", "logo": "None", "latitude": 43.424261226181684, "longitude": -79.90320024545582}, "133143099RR0001": {"name": "THE HALTON REGION CONSERVATION FOUNDATION", "designationCode": "C", "categoryCode": "52", "address": "2596 BRITANNIA ROAD WEST", "city": "BURLINGTON", "province": "ON", "country": "CA", "postalCode": "L7P0G3", "twitter": "None", "instagram": "None", "facebook": "None", "youtube": "None", "website": "None", "summary": "None", "logo": "None", "latitude": 43.424261226181684, "longitude": -79.90320024545582}, "119236586RR0001": {"name": "THE HALTON WALDORF SCHOOL", "designationCode": "C", "categoryCode": "20", "address": "2193 ORCHARD RD", "city": "BURLINGTON", "province": "ON", "country": "CA", "postalCode": "L7L7J8", "twitter": "None", "instagram": "None", "facebook": "None", "youtube": "None", "website": "None", "summary": "None", "logo": "None", "latitude": 43.403029530699776, "longitude": -79.79210650911794}, "869778761RR0001": {"name": "THE HALTON/NORTH PEEL NATURALIST CLUB", "designationCode": "C", "categoryCode": "52", "address": "PO BOX 115                    STATION MAIN", "city": "GEORGETOWN", "province": "ON", "country": "CA", "postalCode": "L7G4T1", "twitter": "None", "instagram": "None", "facebook": "None", "youtube": "None", "website": "None", "summary": "None", "logo": "None", "latitude": 43.65006000000005, "longitude": -79.89909199999994}, "119236594RR0001": {"name": "THE HAMBER FOUNDATION", "designationCode": "B", "categoryCode": "03", "address": "PO BOX 10085 PACIFIC CENTRE   700 WEST GEORGIA STREET", "city": "VANCOUVER", "province": "BC", "country": "CA", "postalCode": "V7Y1B6", "twitter": "None", "instagram": "None", "facebook": "None", "youtube": "None", "website": "None", "summary": "None", "logo": "None", "latitude": 49.28277258451152, "longitude": -123.11866899500833}, "119236602RR0001": {"name": "THE HAMILTON ACADEMY OF MEDICINE FOUNDATION", "designationCode": "A", "categoryCode": "15", "address": "1 YOUNG STREET SUITE 206", "city": "HAMILTON", "province": "ON", "country": "CA", "postalCode": "L8N1T8", "twitter": "None", "instagram": "None", "facebook": "None", "youtube": "None", "website": "None", "summary": "None", "logo": "None", "latitude": 43.25126996087477, "longitude": -79.87107463835193}, "107462699RR0001": {"name": "THE HAMILTON AND DISTRICT LITERACY COUNCIL", "designationCode": "C", "categoryCode": "21", "address": "75 MACNAB ST S, 3RD FLOOR", "city": "HAMILTON", "province": "ON", "country": "CA", "postalCode": "L8P3C1", "twitter": "None", "instagram": "None", "facebook": "None", "youtube": "None", "website": "None", "summary": "None", "logo": "None", "latitude": 43.25444953926945, "longitude": -79.87173986398534}, "119236651RR0001": {"name": "THE HAMILTON ASSOCIATION FOR THE ADVANCEMENT OF LITERATURE SCIENCE AND ART", "designationCode": "C", "categoryCode": "59", "address": "42 HEAD ST", "city": "HAMILTON", "province": "ON", "country": "CA", "postalCode": "L8R1P9", "twitter": "None", "instagram": "None", "facebook": "None", "youtube": "None", "website": "None", "summary": "None", "logo": "None", "latitude": 43.26304581545372, "longitude": -79.88630148652557}, "869633586RR0001": {"name": "THE HAMILTON CHURCH OF CHRIST", "designationCode": "C", "categoryCode": "39", "address": "ATT PATTY PETTER              128 STANLEY AVENUE", "city": "HAMILTON", "province": "ON", "country": "CA", "postalCode": "L8P2L4", "twitter": "None", "instagram": "None", "facebook": "None", "youtube": "None", "website": "None", "summary": "None", "logo": "None", "latitude": 43.25185614351647, "longitude": -79.88838801941839}, "108083841RR0001": {"name": "THE HAMILTON FRIENDS OF ISRAEL", "designationCode": "C", "categoryCode": "47", "address": "PO BOX 220                    423 KING ST WEST", "city": "HAMILTON", "province": "ON", "country": "CA", "postalCode": "L8P4Y1", "twitter": "None", "instagram": "None", "facebook": "None", "youtube": "None", "website": "None", "summary": "None", "logo": "None", "latitude": 43.26027720286815, "longitude": -79.88170054622302}, "107463077RR0001": {"name": "THE HAMILTON HEBREW ACADEMY ZICHRON MEIR", "designationCode": "C", "categoryCode": "20", "address": "60 DOW AVENUE", "city": "HAMILTON", "province": "ON", "country": "CA", "postalCode": "L8S1W4", "twitter": "None", "instagram": "None", "facebook": "None", "youtube": "None", "website": "None", "summary": "None", "logo": "None", "latitude": 43.256295070805955, "longitude": -79.91025718122806}, "890430093RR0001": {"name": "THE HAMILTON PHILHARMONIC ORCHESTRA (2000) INC.", "designationCode": "C", "categoryCode": "22", "address": "10 MACNAB ST S", "city": "HAMILTON", "province": "ON", "country": "CA", "postalCode": "L8P4Y3", "twitter": "None", "instagram": "None", "facebook": "None", "youtube": "None", "website": "None", "summary": "None", "logo": "None", "latitude": 43.256400673610685, "longitude": -79.87093372664302}, "119236792RR0001": {"name": "THE HAMILTON YOUNG WOMEN'S CHRISTIAN ASSOCIATION", "designationCode": "C", "categoryCode": "49", "address": "75 MACNAB STREET S", "city": "HAMILTON", "province": "ON", "country": "CA", "postalCode": "L8P3C1", "twitter": "None", "instagram": "None", "facebook": "None", "youtube": "None", "website": "None", "summary": "None", "logo": "None", "latitude": 43.25444953926945, "longitude": -79.87173986398534}, "890896046RR0001": {"name": "THE HAMILTON-WENTWORTH DISTRICT SCHOOL BOARD FOUNDATION", "designationCode": "C", "categoryCode": "23", "address": "PO BOX 2558", "city": "HAMILTON", "province": "ON", "country": "CA", "postalCode": "L8N3L1", "twitter": "None", "instagram": "None", "facebook": "None", "youtube": "None", "website": "None", "summary": "None", "logo": "None", "latitude": 43.261962000000054, "longitude": -79.88800399999994}, "119236750RR0001": {"name": "THE HAMILTON/BURLINGTON SOCIETY FOR THE PREVENTION OF CRUELTY TO ANIMALS", "designationCode": "C", "categoryCode": "54", "address": "245 DARTNALL RD", "city": "HAMILTON", "province": "ON", "country": "CA", "postalCode": "L8W3V9", "twitter": "None", "instagram": "None", "facebook": "None", "youtube": "None", "website": "None", "summary": "None", "logo": "None", "latitude": 43.18372334941439, "longitude": -79.83447161760682}, "890555998RR0001": {"name": "THE HAMIOTA DONOR'S CHOICE", "designationCode": "C", "categoryCode": "05", "address": "BOX 312", "city": "HAMIOTA", "province": "MB", "country": "CA", "postalCode": "R0M0T0", "twitter": "None", "instagram": "None", "facebook": "None", "youtube": "None", "website": "None", "summary": "None", "logo": "None", "latitude": 50.182510000000036, "longitude": -100.59984999999995}, "895122711RR0001": {"name": "THE HAMPTON JOHN PETERS HUMPHREY FOUNDATION INC.", "designationCode": "C", "categoryCode": "29", "address": "PO BOX 1152", "city": "HAMPTON", "province": "NB", "country": "CA", "postalCode": "E5N8H2", "twitter": "None", "instagram": "None", "facebook": "None", "youtube": "None", "website": "None", "summary": "None", "logo": "None", "latitude": 45.52417500000006, "longitude": -65.82911299999994}, "119236818RR0001": {"name": "THE HANDEL SOCIETY OF MUSIC", "designationCode": "C", "categoryCode": "22", "address": "151-10090 152ND ST            SUITE 165", "city": "SURREY", "province": "BC", "country": "CA", "postalCode": "V3R8X8", "twitter": "None", "instagram": "None", "facebook": "None", "youtube": "None", "website": "None", "summary": "None", "logo": "None", "latitude": 49.1629776455881, "longitude": -122.80142957892734}, "870086931RR0001": {"name": "THE HANDI-BOAT SOCIETY OF ALBERTA", "designationCode": "C", "categoryCode": "56", "address": "224 CEDARPARK DR SW", "city": "CALGARY", "province": "AB", "country": "CA", "postalCode": "T2W2J4", "twitter": "None", "instagram": "None", "facebook": "None", "youtube": "None", "website": "None", "summary": "None", "logo": "None", "latitude": 50.95931307799066, "longitude": -114.11889744295694}, "138619408RR0001": {"name": "THE HANDS ON SUMMER CAMP SOCIETY", "designationCode": "C", "categoryCode": "56", "address": "1309 HILLSIDE AVE", "city": "VICTORIA", "province": "BC", "country": "CA", "postalCode": "V8T2B3", "twitter": "None", "instagram": "None", "facebook": "None", "youtube": "None", "website": "None", "summary": "None", "logo": "None", "latitude": 48.440656751024406, "longitude": -123.34997615722205}, "119236834RR0001": {"name": "THE HANDY CIRCLE RESOURCE SOCIETY", "designationCode": "C", "categoryCode": "09", "address": "101-490 QUEBEC ST", "city": "PRINCE GEORGE", "province": "BC", "country": "CA", "postalCode": "V2L5N5", "twitter": "None", "instagram": "None", "facebook": "None", "youtube": "None", "website": "None", "summary": "None", "logo": "None", "latitude": 53.915429835717475, "longitude": -122.7471186814038}, "882315807RR0001": {"name": "THE HANK BYRNE FOUNDATION", "designationCode": "B", "categoryCode": "21", "address": "1459 BAYSHIRE DRIVE", "city": "OAKVILLE", "province": "ON", "country": "CA", "postalCode": "L6H6E8", "twitter": "None", "instagram": "None", "facebook": "None", "youtube": "None", "website": "None", "summary": "None", "logo": "None", "latitude": 43.49627756815155, "longitude": -79.68916138966479}, "859719775RR0001": {"name": "THE HANN FAMILY CHARITABLE FOUNDATION", "designationCode": "B", "categoryCode": "03", "address": "130 KING ST. WEST, 20TH FLOOR", "city": "TORONTO", "province": "ON", "country": "CA", "postalCode": "M5X1K1", "twitter": "None", "instagram": "None", "facebook": "None", "youtube": "None", "website": "None", "summary": "None", "logo": "None", "latitude": 43.64798216515656, "longitude": -79.38336717805407}, "119236842RR0001": {"name": "THE HANNA AND DISTRICT AGRICULTURAL SOCIETY", "designationCode": "C", "categoryCode": "56", "address": "BOX 1664", "city": "HANNA", "province": "AB", "country": "CA", "postalCode": "T0J1P0", "twitter": "None", "instagram": "None", "facebook": "None", "youtube": "None", "website": "None", "summary": "None", "logo": "None", "latitude": 51.64780345530559, "longitude": -111.93814762829588}, "899967012RR0001": {"name": "THE HANNA CONGREGATION OF JEHOVAH'S WITNESSES", "designationCode": "C", "categoryCode": "61", "address": "BOX 924", "city": "HANNA", "province": "AB", "country": "CA", "postalCode": "T0J1P0", "twitter": "None", "instagram": "None", "facebook": "None", "youtube": "None", "website": "None", "summary": "None", "logo": "None", "latitude": 51.64780345530559, "longitude": -111.93814762829588}, "131983934RR0001": {"name": "THE HANNA MUNICIPAL LIBRARY BOARD", "designationCode": "C", "categoryCode": "50", "address": "BOX 878", "city": "HANNA", "province": "AB", "country": "CA", "postalCode": "T0J1P0", "twitter": "None", "instagram": "None", "facebook": "None", "youtube": "None", "website": "None", "summary": "None", "logo": "None", "latitude": 51.64780345530559, "longitude": -111.93814762829588}, "119236867RR0001": {"name": "THE HANNAFORD STREET SILVER BAND", "designationCode": "C", "categoryCode": "22", "address": "42 FRATER AVENUE", "city": "TORONTO", "province": "ON", "country": "CA", "postalCode": "M4C2H6", "twitter": "None", "instagram": "None", "facebook": "None", "youtube": "None", "website": "None", "summary": "None", "logo": "None", "latitude": 43.690951172369914, "longitude": -79.31938757161402}, "119236883RR0001": {"name": "THE HANS KLINKENBERG MEMORIAL SCHOLARSHIP FUND", "designationCode": "B", "categoryCode": "25", "address": "900 DYNES ROAD                SUITE 100D", "city": "OTTAWA", "province": "ON", "country": "CA", "postalCode": "K2C3L6", "twitter": "None", "instagram": "None", "facebook": "None", "youtube": "None", "website": "None", "summary": "None", "logo": "None", "latitude": 45.36989079017828, "longitude": -75.70540039575297}, "870747664RR0001": {"name": "THE HANSENS' VIKINGS SCHOLARSHIP FUND", "designationCode": "B", "categoryCode": "23", "address": "PO BOX 68578                  360A BLOOR ST W", "city": "TORONTO", "province": "ON", "country": "CA", "postalCode": "M5S3C9", "twitter": "None", "instagram": "None", "facebook": "None", "youtube": "None", "website": "None", "summary": "None", "logo": "None", "latitude": 43.6665077600754, "longitude": -79.40499142685711}, "852567171RR0001": {"name": "THE HANSON FAMILY CHARITABLE FOUNDATION", "designationCode": "B", "categoryCode": "03", "address": "5000 YONGE STREET             SUITE 1401", "city": "TORONTO", "province": "ON", "country": "CA", "postalCode": "M2N7E9", "twitter": "None", "instagram": "None", "facebook": "None", "youtube": "None", "website": "None", "summary": "None", "logo": "None", "latitude": 43.76604959394658, "longitude": -79.41210571137957}, "119236891RR0001": {"name": "THE HANSON FOUNDATION", "designationCode": "B", "categoryCode": "03", "address": "5691 PEARL COURT", "city": "RICHMOND", "province": "BC", "country": "CA", "postalCode": "V7C5E5", "twitter": "None", "instagram": "None", "facebook": "None", "youtube": "None", "website": "None", "summary": "None", "logo": "None", "latitude": 49.16805440328347, "longitude": -123.16272853883676}, "895789915RR0001": {"name": "THE HANT'S HARBOUR WILLOW TREE HERITAGE SOCIETY INC.", "designationCode": "C", "categoryCode": "50", "address": "P.O. BOX 202", "city": "HANT'S HARBOUR", "province": "NL", "country": "CA", "postalCode": "A0B1Y0", "twitter": "None", "instagram": "None", "facebook": "None", "youtube": "None", "website": "None", "summary": "None", "logo": "None", "latitude": 48.006789000000055, "longitude": -53.26317349999994}, "899206304RR0001": {"name": "THE HANUMAN TEMPLE AND CENTER FOR RELIGIOUS & CULTURAL RESEARCH", "designationCode": "C", "categoryCode": "48", "address": "2 SHARP CRESCENT", "city": "AJAX", "province": "ON", "country": "CA", "postalCode": "L1T3R1", "twitter": "None", "instagram": "None", "facebook": "None", "youtube": "None", "website": "None", "summary": "None", "logo": "None", "latitude": 43.87380717958328, "longitude": -79.03838702054355}, "889262176RR0001": {"name": "THE HAPPY GANG SOCIETY OF STRATHMORE, ALBERTA", "designationCode": "C", "categoryCode": "56", "address": "P.O. BOX 2054", "city": "STRATHMORE", "province": "AB", "country": "CA", "postalCode": "T1P1K1", "twitter": "None", "instagram": "None", "facebook": "None", "youtube": "None", "website": "None", "summary": "None", "logo": "None", "latitude": 51.041247000000055, "longitude": -113.40029149999994}, "130624497RR0001": {"name": "THE HAPPY TOTS PLACE INC.", "designationCode": "C", "categoryCode": "01", "address": "BOX 773                       5 WALNUT STREET", "city": "PINE FALLS", "province": "MB", "country": "CA", "postalCode": "R0E1M0", "twitter": "None", "instagram": "None", "facebook": "None", "youtube": "None", "website": "None", "summary": "None", "logo": "None", "latitude": 50.56673378356884, "longitude": -96.21548644109667}, "898975958RR0001": {"name": "THE HARBINGER FOUNDATION", "designationCode": "B", "categoryCode": "03", "address": "308-1 BENVENUTO PLACE", "city": "TORONTO", "province": "ON", "country": "CA", "postalCode": "M4V2L1", "twitter": "None", "instagram": "None", "facebook": "None", "youtube": "None", "website": "None", "summary": "None", "logo": "None", "latitude": 43.68179746292358, "longitude": -79.40027870534965}, "119236917RR0001": {"name": "THE HARBORD CHARITABLE FOUNDATION", "designationCode": "C", "categoryCode": "21", "address": "286 HARBORD STREET", "city": "TORONTO", "province": "ON", "country": "CA", "postalCode": "M6G1G5", "twitter": "None", "instagram": "None", "facebook": "None", "youtube": "None", "website": "None", "summary": "None", "logo": "None", "latitude": 43.660693231807564, "longitude": -79.4139869160654}, "813442506RR0001": {"name": "THE HARBOUR CHURCH (NORTH BAY) INC.", "designationCode": "C", "categoryCode": "39", "address": "30 LEES ROAD", "city": "NORTH BAY", "province": "ON", "country": "CA", "postalCode": "P1B8G4", "twitter": "None", "instagram": "None", "facebook": "None", "youtube": "None", "website": "None", "summary": "None", "logo": "None", "latitude": 46.3321617599112, "longitude": -79.40381565508727}, "865993794RR0001": {"name": "THE HARDER FOUNDATION", "designationCode": "B", "categoryCode": "23", "address": "20302 91B AVE", "city": "LANGLEY", "province": "BC", "country": "CA", "postalCode": "V1M2G1", "twitter": "None", "instagram": "None", "facebook": "None", "youtube": "None", "website": "None", "summary": "None", "logo": "None", "latitude": 49.16966558612766, "longitude": -122.65988675411148}, "119236933RR0001": {"name": "THE HARDWOOD HILL CEMETERY COMPANY", "designationCode": "C", "categoryCode": "59", "address": "PO BOX 1836 STN A", "city": "SYDNEY", "province": "NS", "country": "CA", "postalCode": "B1P6W4", "twitter": "None", "instagram": "None", "facebook": "None", "youtube": "None", "website": "None", "summary": "None", "logo": "None", "latitude": 46.137372000000056, "longitude": -60.19552249999994}, "889809190RR0001": {"name": "THE HAROLD AND PAUL CHITEL CHARITABLE FOUNDATION", "designationCode": "B", "categoryCode": "03", "address": "ATTN: MAXWELL GOTLIEB         40 KING ST. WEST, SUITE 2100", "city": "TORONTO", "province": "ON", "country": "CA", "postalCode": "M5H3C2", "twitter": "None", "instagram": "None", "facebook": "None", "youtube": "None", "website": "None", "summary": "None", "logo": "None", "latitude": 43.64886300000006, "longitude": -79.37941399999994}, "890454192RR0001": {"name": "THE HAROLD E. BALLARD FOUNDATION", "designationCode": "B", "categoryCode": "03", "address": "PO BOX 31089 -725 COLLEGE ST", "city": "TORONTO", "province": "ON", "country": "CA", "postalCode": "M6G4A7", "twitter": "None", "instagram": "None", "facebook": "None", "youtube": "None", "website": "None", "summary": "None", "logo": "None", "latitude": 43.65508779315075, "longitude": -79.41934570771558}, "889150280RR0001": {"name": "THE HAROLD G. FOX EDUCATION FUND", "designationCode": "C", "categoryCode": "21", "address": "390 BAY STREET, SUITE 1000", "city": "TORONTO", "province": "ON", "country": "CA", "postalCode": "M5H2Y2", "twitter": "None", "instagram": "None", "facebook": "None", "youtube": "None", "website": "None", "summary": "None", "logo": "None", "latitude": 43.651353688585644, "longitude": -79.38143494243734}, "119236990RR0001": {"name": "THE HAROLD INNIS FOUNDATION", "designationCode": "C", "categoryCode": "03", "address": "2 SUSSEX AVE", "city": "TORONTO", "province": "ON", "country": "CA", "postalCode": "M5S1J5", "twitter": "None", "instagram": "None", "facebook": "None", "youtube": "None", "website": "None", "summary": "None", "logo": "None", "latitude": 43.665339183478416, "longitude": -79.3994669521322}, "119237014RR0001": {"name": "THE HAROLD SHENKMAN FOUNDATION INC", "designationCode": "B", "categoryCode": "03", "address": "4899 UPLANDS DR", "city": "OTTAWA", "province": "ON", "country": "CA", "postalCode": "K1V2N6", "twitter": "None", "instagram": "None", "facebook": "None", "youtube": "None", "website": "None", "summary": "None", "logo": "None", "latitude": 45.330943145426744, "longitude": -75.65752165407346}, "119237055RR0001": {"name": "THE HARRY AND MAX KOROLNEK FAMILY FOUNDATION", "designationCode": "B", "categoryCode": "23", "address": "77 UNION STREET", "city": "TORONTO", "province": "ON", "country": "CA", "postalCode": "M6N3N2", "twitter": "None", "instagram": "None", "facebook": "None", "youtube": "None", "website": "None", "summary": "None", "logo": "None", "latitude": 43.67486318486341, "longitude": -79.46621076943318}, "879713014RR0001": {"name": "THE HARRY AND SHIRLEY YOUNG CHARITABLE FOUNDATION", "designationCode": "B", "categoryCode": "03", "address": "135 WEST BEAVER CREEK         BOX 26", "city": "RICHMOND HILL", "province": "ON", "country": "CA", "postalCode": "L4B4R4", "twitter": "None", "instagram": "None", "facebook": "None", "youtube": "None", "website": "None", "summary": "None", "logo": "None", "latitude": 43.849951897339515, "longitude": -79.39048822949988}, "888914991RR0001": {"name": "THE HARRY BROWN V C LEGION (ONT NO 497) BRANCH POPPY FUND", "designationCode": "C", "categoryCode": "09", "address": "BOX 264", "city": "OMEMEE", "province": "ON", "country": "CA", "postalCode": "K0L2W0", "twitter": "None", "instagram": "None", "facebook": "None", "youtube": "None", "website": "None", "summary": "None", "logo": "None", "latitude": 44.29912000000007, "longitude": -78.55888999999996}, "132116914RR0001": {"name": "THE HARRY E FOSTER CHARITABLE FOUNDATION", "designationCode": "A", "categoryCode": "03", "address": "204 SHIPWAY AVENUE", "city": "NEWCASTLE", "province": "ON", "country": "CA", "postalCode": "L1B1M9", "twitter": "None", "instagram": "None", "facebook": "None", "youtube": "None", "website": "None", "summary": "None", "logo": "None", "latitude": 43.89842744936225, "longitude": -78.58474235636794}, "119237071RR0001": {"name": "THE HARRY F PATTERSON MEMORIAL TRUST FUND", "designationCode": "C", "categoryCode": "21", "address": "1709 HOLLIS STREET            PO BOX 457", "city": "HALIFAX", "province": "NS", "country": "CA", "postalCode": "B3J2P8", "twitter": "None", "instagram": "None", "facebook": "None", "youtube": "None", "website": "None", "summary": "None", "logo": "None", "latitude": 44.647722827370295, "longitude": -63.57286089243476}, "892615246RR0001": {"name": "THE HARRY P WARD FOUNDATION/LA FONDATION HARRY P WARD", "designationCode": "B", "categoryCode": "03", "address": "1400-340 ALBERT ST.", "city": "OTTAWA", "province": "ON", "country": "CA", "postalCode": "K1R0A5", "twitter": "None", "instagram": "None", "facebook": "None", "youtube": "None", "website": "None", "summary": "None", "logo": "None", "latitude": 45.41332607969947, "longitude": -75.71158691322}, "891127995RR0001": {"name": "THE HARRY PAIKIN DISTRICT 21 STUDENT BENEVOLENT FUND", "designationCode": "C", "categoryCode": "21", "address": "1423 UPPER OTTAWA ST UNIT 2", "city": "HAMILTON", "province": "ON", "country": "CA", "postalCode": "L8W3J6", "twitter": "None", "instagram": "None", "facebook": "None", "youtube": "None", "website": "None", "summary": "None", "logo": "None", "latitude": 43.19763284373025, "longitude": -79.84114788253834}, "119237139RR0001": {"name": "THE HARRY STEINER FOUNDATION", "designationCode": "B", "categoryCode": "03", "address": "9 GLENAYR ROAD", "city": "TORONTO", "province": "ON", "country": "CA", "postalCode": "M5P3B7", "twitter": "None", "instagram": "None", "facebook": "None", "youtube": "None", "website": "None", "summary": "None", "logo": "None", "latitude": 43.690461977523185, "longitude": -79.4178889279533}, "869981175RR0001": {"name": "THE HARVEST CHURCH OF MEDICINE HAT", "designationCode": "C", "categoryCode": "39", "address": "350 FIRST AVE NE", "city": "MEDICINE HAT", "province": "AB", "country": "CA", "postalCode": "T1A5Z2", "twitter": "None", "instagram": "None", "facebook": "None", "youtube": "None", "website": "None", "summary": "None", "logo": "None", "latitude": 50.04553399417162, "longitude": -110.68515477713655}, "887773356RR0001": {"name": "THE HARVEST GROUP OF CHURCHES AND MINISTRIES, INC.", "designationCode": "C", "categoryCode": "43", "address": "413 LAKESHORE ROAD            PO BOX 352", "city": "MINDEMOYA", "province": "ON", "country": "CA", "postalCode": "P0P1S0", "twitter": "None", "instagram": "None", "facebook": "None", "youtube": "None", "website": "None", "summary": "None", "logo": "None", "latitude": 45.59355720303955, "longitude": -81.99653404607936}, "119237147RR0001": {"name": "THE HARVEY AND SHEILA HECKER FAMILY FOUNDATION", "designationCode": "B", "categoryCode": "03", "address": "1 EGLINTON AVENUE EAST        SUITE 502", "city": "TORONTO", "province": "ON", "country": "CA", "postalCode": "M4P3A1", "twitter": "None", "instagram": "None", "facebook": "None", "youtube": "None", "website": "None", "summary": "None", "logo": "None", "latitude": 43.706805874805376, "longitude": -79.39787468705644}, "119237154RR0001": {"name": "THE HARVEY BAY VIEW CEMETERY COMPANY", "designationCode": "C", "categoryCode": "59", "address": "207 - 56 MILL ST", "city": "HILLSBOROUGH", "province": "NB", "country": "CA", "postalCode": "E4H4Z7", "twitter": "None", "instagram": "None", "facebook": "None", "youtube": "None", "website": "None", "summary": "None", "logo": "None", "latitude": 45.925081369185996, "longitude": -64.64436688189859}, "817751944RR0001": {"name": "THE HARVEY FAMILY FOUNDATION", "designationCode": "B", "categoryCode": "03", "address": "6391 WALKER'S LINE", "city": "BURLINGTON", "province": "ON", "country": "CA", "postalCode": "L7M0R2", "twitter": "None", "instagram": "None", "facebook": "None", "youtube": "None", "website": "None", "summary": "None", "logo": "None", "latitude": 43.44783140360058, "longitude": -79.902356071124}, "140751546RR0001": {"name": "THE HARWEG FOUNDATION", "designationCode": "B", "categoryCode": "03", "address": "407-90 EGLINTON AVE E", "city": "TORONTO", "province": "ON", "country": "CA", "postalCode": "M4P2Y3", "twitter": "None", "instagram": "None", "facebook": "None", "youtube": "None", "website": "None", "summary": "None", "logo": "None", "latitude": 43.7089009100495, "longitude": -79.38780176683875}, "107470288RR0001": {"name": "THE HASKELL LIBRARY FOUNDATION/LA FONDATION DE LA BIBLIOTHEQUE HASKELL", "designationCode": "C", "categoryCode": "50", "address": "10 ST JOSEPH", "city": "STANSTEAD", "province": "QC", "country": "CA", "postalCode": "J0B3E0", "twitter": "None", "instagram": "None", "facebook": "None", "youtube": "None", "website": "None", "summary": "None", "logo": "None", "latitude": 45.01871895202227, "longitude": -72.08687845711535}}