{"864119094RR0001": {"name": "COMPUCORPS MENTORING INC/LES MENTORS DE COMPUCORPS INC", "designationCode": "C", "categoryCode": "59", "address": "1040 SOMERSET ST W", "city": "OTTAWA", "province": "ON", "country": "CA", "postalCode": "K1Y4L3", "twitter": "None", "instagram": "None", "facebook": "None", "youtube": "None", "website": "None", "summary": "None", "logo": "None", "latitude": 45.4068230935139, "longitude": -75.71932529900776}, "896456720RR0001": {"name": "COMPUTERS FOR EDUCATION TECHNOLOGY NEW BRUNSWICK LTD./LA TECHNOLOGIE INFORMATIQUE AU SERVICE DE L'EDUCATION NOUVEAU-BRUNSWICK LTEE.", "designationCode": "C", "categoryCode": "21", "address": "125 HILTON ROAD", "city": "FREDERICTON", "province": "NB", "country": "CA", "postalCode": "E3B6B1", "twitter": "None", "instagram": "None", "facebook": "None", "youtube": "None", "website": "None", "summary": "None", "logo": "None", "latitude": 45.91880019372154, "longitude": -66.6225201354664}, "131033045RR0001": {"name": "COMQUAT INC.", "designationCode": "C", "categoryCode": "20", "address": "34 GRAND BOULEVARD", "city": "ILE PERROT", "province": "QC", "country": "CA", "postalCode": "J7V4W1", "twitter": "None", "instagram": "None", "facebook": "None", "youtube": "None", "website": "None", "summary": "None", "logo": "None", "latitude": 45.39727874464776, "longitude": -73.95879699849945}, "124336843RR0001": {"name": "COMRA MARINE RESCUE ASSOCIATION", "designationCode": "C", "categoryCode": "59", "address": "PO BOX 841                    STATION A", "city": "OSHAWA", "province": "ON", "country": "CA", "postalCode": "L1H7N1", "twitter": "None", "instagram": "None", "facebook": "None", "youtube": "None", "website": "None", "summary": "None", "logo": "None", "latitude": 43.88868600000005, "longitude": -78.85951999999993}, "868714882RR0001": {"name": "COMTRANS FOUNDATION", "designationCode": "B", "categoryCode": "03", "address": "204-68 RICHMOND STREET", "city": "NEW WESTMINSTER", "province": "BC", "country": "CA", "postalCode": "V3L5S2", "twitter": "None", "instagram": "None", "facebook": "None", "youtube": "None", "website": "None", "summary": "None", "logo": "None", "latitude": 49.21849442350767, "longitude": -122.89641421402982}, "850894072RR0001": {"name": "COMUNIDAD CRISTIANA DE AMOR", "designationCode": "C", "categoryCode": "39", "address": "73 NEWLIN CRES", "city": "TORONTO", "province": "ON", "country": "CA", "postalCode": "M3L1X5", "twitter": "None", "instagram": "None", "facebook": "None", "youtube": "None", "website": "None", "summary": "None", "logo": "None", "latitude": 43.73939346768411, "longitude": -79.4985014701656}, "887886539RR0001": {"name": "COMUNN FEIS AN EILEIN", "designationCode": "C", "categoryCode": "20", "address": "P O BOX 317", "city": "CHRISTMAS ISLAND", "province": "NS", "country": "CA", "postalCode": "B1T1R7", "twitter": "None", "instagram": "None", "facebook": "None", "youtube": "None", "website": "None", "summary": "None", "logo": "None", "latitude": 45.97496700000005, "longitude": -60.743293999999935}, "833691728RR0001": {"name": "CON BRIO FOUNDATION", "designationCode": "B", "categoryCode": "03", "address": "1250-1500 WEST GEORGIA ST. BOX62", "city": "VANCOUVER", "province": "BC", "country": "CA", "postalCode": "V6G2Z6", "twitter": "None", "instagram": "None", "facebook": "None", "youtube": "None", "website": "None", "summary": "None", "logo": "None", "latitude": 49.290187500000016, "longitude": -123.130035}, "106966112RR0001": {"name": "CONAYT FRIENSHIP SOCIETY", "designationCode": "C", "categoryCode": "09", "address": "BOX 1989", "city": "MERRITT", "province": "BC", "country": "CA", "postalCode": "V1K1B8", "twitter": "None", "instagram": "None", "facebook": "None", "youtube": "None", "website": "None", "summary": "None", "logo": "None", "latitude": 50.111565000000056, "longitude": -120.78738349999993}, "118871698RR0001": {"name": "CONCACAN INC.", "designationCode": "C", "categoryCode": "49", "address": "2500 PROMENADE DON REID", "city": "OTTAWA", "province": "ON", "country": "CA", "postalCode": "K1H2J2", "twitter": "None", "instagram": "None", "facebook": "None", "youtube": "None", "website": "None", "summary": "None", "logo": "None", "latitude": 45.37690531112589, "longitude": -75.63707885405934}, "809044514RR0001": {"name": "CONCEIVING MIRACLES", "designationCode": "C", "categoryCode": "11", "address": "200-955 GREEN VALLEY CRESCENT", "city": "OTTAWA", "province": "ON", "country": "CA", "postalCode": "K2C3V4", "twitter": "None", "instagram": "None", "facebook": "None", "youtube": "None", "website": "None", "summary": "None", "logo": "None", "latitude": 45.377068392146306, "longitude": -75.70464339122266}, "843553942RR0001": {"name": "CONCEPT FAMILIARIS", "designationCode": "C", "categoryCode": "49", "address": "260-1 RUE MAIN E", "city": "HAWKESBURY", "province": "ON", "country": "CA", "postalCode": "K6A1A1", "twitter": "None", "instagram": "None", "facebook": "None", "youtube": "None", "website": "None", "summary": "None", "logo": "None", "latitude": 45.60938894149434, "longitude": -74.61242922968644}, "888116639RR0001": {"name": "CONCEPTION BAY SOUTH LITERACY COUNCIL", "designationCode": "C", "categoryCode": "21", "address": "1155 CONCEPTION BAY HWY", "city": "CONCEPTION BAY SOUTH", "province": "NL", "country": "CA", "postalCode": "A1X4E7", "twitter": "None", "instagram": "None", "facebook": "None", "youtube": "None", "website": "None", "summary": "None", "logo": "None", "latitude": 47.48214000324987, "longitude": -53.04853303698935}, "890667397RR0001": {"name": "CONCEPTION BAY SOUTH MUSIC SCHOOL AUXILIARY", "designationCode": "C", "categoryCode": "22", "address": "62 SPRUCE HILL ROAD", "city": "CONCEPTION BAY SOUTH", "province": "NL", "country": "CA", "postalCode": "A1W5N9", "twitter": "None", "instagram": "None", "facebook": "None", "youtube": "None", "website": "None", "summary": "None", "logo": "None", "latitude": 47.535345419095165, "longitude": -52.93410319276925}, "890967607RR0001": {"name": "CONCEPTION BAY SOUTH PARKS COMMISSION INC.", "designationCode": "C", "categoryCode": "52", "address": "PO BOX 14212 STN MAIN", "city": "MANUELS", "province": "NL", "country": "CA", "postalCode": "A1W3J1", "twitter": "None", "instagram": "None", "facebook": "None", "youtube": "None", "website": "None", "summary": "None", "logo": "None", "latitude": 47.51259900000005, "longitude": -52.96882399999993}, "118871771RR0001": {"name": "CONCERNED FRIENDS OF ONTARIO CITIZENS IN CARE FACILITIES", "designationCode": "C", "categoryCode": "09", "address": "2ND FLR                       140 MERTON ST", "city": "TORONTO", "province": "ON", "country": "CA", "postalCode": "M4S1A1", "twitter": "None", "instagram": "None", "facebook": "None", "youtube": "None", "website": "None", "summary": "None", "logo": "None", "latitude": 43.69710515852013, "longitude": -79.39148876576824}, "887628089RR0001": {"name": "CONCERNED PARENTS AND TEACHERSOF WHYCOCOMAGH AND AREA", "designationCode": "C", "categoryCode": "21", "address": "PO BOX 406", "city": "WHYCOCOMAGH", "province": "NS", "country": "CA", "postalCode": "B0E3M0", "twitter": "None", "instagram": "None", "facebook": "None", "youtube": "None", "website": "None", "summary": "None", "logo": "None", "latitude": 45.986578959739866, "longitude": -61.09164516623389}, "870722865RR0001": {"name": "CONCERT'ACTION PORTNEUF", "designationCode": "C", "categoryCode": "57", "address": "350 RUE DE L'EGLISE           CP 3009", "city": "SAINT-BASILE", "province": "QC", "country": "CA", "postalCode": "G0A3G0", "twitter": "None", "instagram": "None", "facebook": "None", "youtube": "None", "website": "None", "summary": "None", "logo": "None", "latitude": 46.75699715098965, "longitude": -71.82361321772756}, "887981041RR0001": {"name": "CONCERTA FINANCIAL SERVICES ASSOCIATION EMPLOYEES' CHARITY TRUST", "designationCode": "B", "categoryCode": "75", "address": "2055 ALBERT STREET            PO BOX 3030", "city": "REGINA", "province": "SK", "country": "CA", "postalCode": "S4P3G8", "twitter": "None", "instagram": "None", "facebook": "None", "youtube": "None", "website": "None", "summary": "None", "logo": "None"}, "106966328RR0001": {"name": "CONCERTATION-FEMME", "designationCode": "C", "categoryCode": "09", "address": "1405 HENRI-BOURASSA OUEST     BUREAU 012", "city": "MONTREAL", "province": "QC", "country": "CA", "postalCode": "H3M3B2", "twitter": "None", "instagram": "None", "facebook": "None", "youtube": "None", "website": "None", "summary": "None", "logo": "None", "latitude": 45.539125050522195, "longitude": -73.6783205526283}, "891430845RR0001": {"name": "CONCORD CHARITABLE TRUST", "designationCode": "B", "categoryCode": "39", "address": "2500-201 PORTAGE AVENUE", "city": "WINNIPEG", "province": "MB", "country": "CA", "postalCode": "R3B3K6", "twitter": "None", "instagram": "None", "facebook": "None", "youtube": "None", "website": "None", "summary": "None", "logo": "None", "latitude": 49.895359615067065, "longitude": -97.13919299627776}, "118871953RR0001": {"name": "CONCORD LODGE ASSOCIATION OF OTTAWA", "designationCode": "C", "categoryCode": "49", "address": "280 GILMOUR ST", "city": "OTTAWA", "province": "ON", "country": "CA", "postalCode": "K2P0P8", "twitter": "None", "instagram": "None", "facebook": "None", "youtube": "None", "website": "None", "summary": "None", "logo": "None", "latitude": 45.41554864028516, "longitude": -75.69156177878132}, "833682727RR0001": {"name": "CONCORD PACIFIC FOUNDATION", "designationCode": "B", "categoryCode": "03", "address": "9TH FLOOR,                    1095 WEST PENDER STREET", "city": "VANCOUVER", "province": "BC", "country": "CA", "postalCode": "V6E2M6", "twitter": "None", "instagram": "None", "facebook": "None", "youtube": "None", "website": "None", "summary": "None", "logo": "None", "latitude": 49.28738612519462, "longitude": -123.1198538531653}, "106966518RR0001": {"name": "CONCORDIA HOSPITAL", "designationCode": "C", "categoryCode": "10", "address": "1095 CONCORDIA AVENUE", "city": "WINNIPEG", "province": "MB", "country": "CA", "postalCode": "R2K3S8", "twitter": "None", "instagram": "None", "facebook": "None", "youtube": "None", "website": "None", "summary": "None", "logo": "None", "latitude": 49.912856557818635, "longitude": -97.06577252667546}, "889243796RR0001": {"name": "CONCORDIA HOSPITAL FUND INC.", "designationCode": "A", "categoryCode": "13", "address": "100-1115 MOLSON ST", "city": "WINNIPEG", "province": "MB", "country": "CA", "postalCode": "R2K2N5", "twitter": "None", "instagram": "None", "facebook": "None", "youtube": "None", "website": "None", "summary": "None", "logo": "None", "latitude": 49.911704744839895, "longitude": -97.06301736832738}, "106966559RR0001": {"name": "CONCORDIA LUTHERAN CHURCH", "designationCode": "C", "categoryCode": "32", "address": "2800 SOUTH MAIN STREET", "city": "PENTICTON", "province": "BC", "country": "CA", "postalCode": "V2A6W3", "twitter": "None", "instagram": "None", "facebook": "None", "youtube": "None", "website": "None", "summary": "None", "logo": "None", "latitude": 49.46017768220901, "longitude": -119.57801653621104}, "106966534RR0001": {"name": "CONCORDIA LUTHERAN CHURCH OF CHURCHBRIDGE", "designationCode": "C", "categoryCode": "32", "address": "PO BOX 212", "city": "CHURCHBRIDGE", "province": "SK", "country": "CA", "postalCode": "S0A0M0", "twitter": "None", "instagram": "None", "facebook": "None", "youtube": "None", "website": "None", "summary": "None", "logo": "None", "latitude": 50.897380000000055, "longitude": -101.89767999999998}, "892559469RR0001": {"name": "CONCORDIA LUTHERAN CHURCH OF EDMONTON, ALBERTA", "designationCode": "C", "categoryCode": "32", "address": "5420 19 A AVE", "city": "EDMONTON", "province": "AB", "country": "CA", "postalCode": "T6L3Z8", "twitter": "None", "instagram": "None", "facebook": "None", "youtube": "None", "website": "None", "summary": "None", "logo": "None"}, "897594826RR0001": {"name": "CONCORDIA LUTHERAN MISSION SOCIETY INC.", "designationCode": "C", "categoryCode": "47", "address": "147 HOMEWOOD AVE", "city": "KITCHENER", "province": "ON", "country": "CA", "postalCode": "N2M1X1", "twitter": "None", "instagram": "None", "facebook": "None", "youtube": "None", "website": "None", "summary": "None", "logo": "None", "latitude": 43.442881576173, "longitude": -80.50282486525474}, "106966575RR0001": {"name": "CONCORDIA LUTHERAN SEMINARY", "designationCode": "C", "categoryCode": "20", "address": "7040 ADA BLVD", "city": "EDMONTON", "province": "AB", "country": "CA", "postalCode": "T5B4E3", "twitter": "None", "instagram": "None", "facebook": "None", "youtube": "None", "website": "None", "summary": "None", "logo": "None", "latitude": 53.559889227335525, "longitude": -113.44391996185573}, "118871938RR0001": {"name": "CONCORDIA LUTHERAN THEOLOGICAL SEMINARY-ONTARIO", "designationCode": "C", "categoryCode": "20", "address": "470 GLENRIDGE AVENUE", "city": "ST CATHARINES", "province": "ON", "country": "CA", "postalCode": "L2T4C3", "twitter": "None", "instagram": "None", "facebook": "None", "youtube": "None", "website": "None", "summary": "None", "logo": "None", "latitude": 43.12448249785025, "longitude": -79.2424632349166}, "106966468RR0001": {"name": "CONCORDIA UNIVERSITY COLLEGE OF ALBERTA", "designationCode": "C", "categoryCode": "20", "address": "7128 ADA BLVD", "city": "EDMONTON", "province": "AB", "country": "CA", "postalCode": "T5B4E4", "twitter": "None", "instagram": "None", "facebook": "None", "youtube": "None", "website": "None", "summary": "None", "logo": "None", "latitude": 53.55944946243265, "longitude": -113.4451323447685}, "890800188RR0001": {"name": "CONCORDIA UNIVERSITY FOUNDATION FONDATION DE L'UNIVERSITE CONCORDIA", "designationCode": "A", "categoryCode": "21", "address": "1455 BOUL DE MAISONNEUVEOUEST BUREAU GM700", "city": "MONTREAL", "province": "QC", "country": "CA", "postalCode": "H3G1M8", "twitter": "None", "instagram": "None", "facebook": "None", "youtube": "None", "website": "None", "summary": "None", "logo": "None", "latitude": 45.52916857761363, "longitude": -73.57168159897779}, "106966591RR0001": {"name": "CONCORDIA UNIVERSITY-UNIVERSITE CONCORDIA", "designationCode": "C", "categoryCode": "20", "address": "BUREAU GM, 720-13             1455 DE MAISONNEUVE W. BLVD", "city": "MONTREAL", "province": "QC", "country": "CA", "postalCode": "H3G1M8", "twitter": "None", "instagram": "None", "facebook": "None", "youtube": "None", "website": "None", "summary": "None", "logo": "None", "latitude": 45.496936779098455, "longitude": -73.57860649056494}, "855447405RR0001": {"name": "CONCORDIA WELLNESS PROJECTS INC.", "designationCode": "C", "categoryCode": "09", "address": "100-1115 MOLSON ST", "city": "WINNIPEG", "province": "MB", "country": "CA", "postalCode": "R2K2N5", "twitter": "None", "instagram": "None", "facebook": "None", "youtube": "None", "website": "None", "summary": "None", "logo": "None", "latitude": 49.911704744839895, "longitude": -97.06301736832738}, "893474668RR0001": {"name": "CONCOURS DE MUSIQUE DE LA CAPITALE", "designationCode": "C", "categoryCode": "22", "address": "1229 AV. DU CHANOINE-MOREL", "city": "QU\u00c9BEC", "province": "QC", "country": "CA", "postalCode": "G1S4B1", "twitter": "None", "instagram": "None", "facebook": "None", "youtube": "None", "website": "None", "summary": "None", "logo": "None", "latitude": 46.78552808546382, "longitude": -71.24941376412346}, "144249182RR0001": {"name": "CONCOURS MUSICAL INTERNATIONAL DE MONTREAL", "designationCode": "C", "categoryCode": "22", "address": "305, AVENUE MONT-ROYAL EST", "city": "MONTREAL", "province": "QC", "country": "CA", "postalCode": "H2T1P8", "twitter": "None", "instagram": "None", "facebook": "None", "youtube": "None", "website": "None", "summary": "None", "logo": "None", "latitude": 45.523047268393995, "longitude": -73.5837473437589}, "142845676RR0001": {"name": "CONCOURS QUEBECOIS EN ENTREPRENEURIAT / QUEBEC ENTREPRENEURSHIP CONTEST", "designationCode": "C", "categoryCode": "21", "address": "1035 RUE DE LA CHEVROTIERE", "city": "QUEBEC", "province": "QC", "country": "CA", "postalCode": "G1R5A5", "twitter": "None", "instagram": "None", "facebook": "None", "youtube": "None", "website": "None", "summary": "None", "logo": "None", "latitude": 46.807935904524214, "longitude": -71.21802251151253}, "891997843RR0001": {"name": "CONCREGATION DES TEMOINS DE JEHOVAH DE SHERBROOKE-NORD", "designationCode": "C", "categoryCode": "61", "address": "2775 PROSPECT SUITE 1", "city": "SHERBROOKE", "province": "QC", "country": "CA", "postalCode": "J1L2K1", "twitter": "None", "instagram": "None", "facebook": "None", "youtube": "None", "website": "None", "summary": "None", "logo": "None", "latitude": 45.4107614643659, "longitude": -71.942391}, "897387478RR0001": {"name": "CONCRETE THEATRE SOCIETY", "designationCode": "C", "categoryCode": "22", "address": "102 - 10033 80 AVE NW", "city": "EDMONTON", "province": "AB", "country": "CA", "postalCode": "T6E1T4", "twitter": "None", "instagram": "None", "facebook": "None", "youtube": "None", "website": "None", "summary": "None", "logo": "None", "latitude": 53.51613252670717, "longitude": -113.5033312636718}, "118871987RR0001": {"name": "CONESTOGA BIBLE CAMP", "designationCode": "C", "categoryCode": "56", "address": "6791 LESLIE LANE              RR 3", "city": "MOOREFIELD", "province": "ON", "country": "CA", "postalCode": "N0G2K0", "twitter": "None", "instagram": "None", "facebook": "None", "youtube": "None", "website": "None", "summary": "None", "logo": "None"}, "871000626RR0001": {"name": "CONF\u00c9RENCE COMPTOIR NOTRE-DAME D'AYLMER", "designationCode": "C", "categoryCode": "09", "address": "56 RUE PRINCIPALE", "city": "GATINEAU", "province": "QC", "country": "CA", "postalCode": "J9H3L3", "twitter": "None", "instagram": "None", "facebook": "None", "youtube": "None", "website": "None", "summary": "None", "logo": "None", "latitude": 45.394622572277854, "longitude": -75.84903116319465}, "118874429RR0001": {"name": "CONF\u00c9RENCE RELIGIEUSE CANADIENNE CANADIAN RELIGIOUS CONFERENCE", "designationCode": "C", "categoryCode": "49", "address": "2715 CH C\u00d4TE STE-CATHERINE", "city": "MONTR\u00c9AL", "province": "QC", "country": "CA", "postalCode": "H3T1B6", "twitter": "None", "instagram": "None", "facebook": "None", "youtube": "None", "website": "None", "summary": "None", "logo": "None", "latitude": 45.50668659703366, "longitude": -73.62023772932606}, "119154433RR0001": {"name": "CONF\u00c9RENCE ST-VINCENT-DE-PAUL DE SAINT-LUC", "designationCode": "C", "categoryCode": "09", "address": "55 RUE DES \u00c9CHEVINS", "city": "SAINT-JEAN-SUR-RICHELIEU", "province": "QC", "country": "CA", "postalCode": "J2W2N6", "twitter": "None", "instagram": "None", "facebook": "None", "youtube": "None", "website": "None", "summary": "None", "logo": "None", "latitude": 45.352763290005406, "longitude": -73.2912223376134}, "131195224RR0001": {"name": "CONFEDERATION COURT COMMUNITY ORGANIZATION", "designationCode": "C", "categoryCode": "09", "address": "2483A WALKLEY RD.", "city": "OTTAWA", "province": "ON", "country": "CA", "postalCode": "K1G3H2", "twitter": "None", "instagram": "None", "facebook": "None", "youtube": "None", "website": "None", "summary": "None", "logo": "None", "latitude": 45.392267559680185, "longitude": -75.60960569144005}, "135459782RR0001": {"name": "CONFEDERATION OF CANADIAN CHRISTIAN SCHOOLS", "designationCode": "C", "categoryCode": "21", "address": "1 WENDEN COURT RR2", "city": "MINESING", "province": "ON", "country": "CA", "postalCode": "L9X0G7", "twitter": "None", "instagram": "None", "facebook": "None", "youtube": "None", "website": "None", "summary": "None", "logo": "None", "latitude": 44.443192110922986, "longitude": -79.75482105070014}, "132171638RR0001": {"name": "CONFEDERATION PARK 55+ ACTIVITY CENTRE", "designationCode": "C", "categoryCode": "56", "address": "2212 13 STREET NW", "city": "CALGARY", "province": "AB", "country": "CA", "postalCode": "T2M4P7", "twitter": "None", "instagram": "None", "facebook": "None", "youtube": "None", "website": "None", "summary": "None", "logo": "None", "latitude": 51.07156808450673, "longitude": -114.0922815428188}, "891614869RR0001": {"name": "CONFEDERATION SENIORS' ASSOCIATION", "designationCode": "C", "categoryCode": "56", "address": "4585 ALBERT STREET", "city": "BURNABY", "province": "BC", "country": "CA", "postalCode": "V5C2G6", "twitter": "None", "instagram": "None", "facebook": "None", "youtube": "None", "website": "None", "summary": "None", "logo": "None", "latitude": 49.28195752140113, "longitude": -123.00071621180734}, "132410671RR0165": {"name": "CONFERENCE DE LA SOCIETE SAINT-VINCENT-DE-PAUL NOTRE-DAME DE GRACE", "designationCode": "C", "categoryCode": "09", "address": "81 RUE CEDAR", "city": "MONCTON", "province": "NB", "country": "CA", "postalCode": "E1C7L3", "twitter": "None", "instagram": "None", "facebook": "None", "youtube": "None", "website": "None", "summary": "None", "logo": "None", "latitude": 46.10457168665243, "longitude": -64.81402795738366}, "890456791RR0001": {"name": "CONFERENCE DES PRETRES ITALIENS DU DIOCESE DE MONTREAL INC.", "designationCode": "C", "categoryCode": "49", "address": "8550 AV JOLIOT-CURIE", "city": "MONTREAL", "province": "QC", "country": "CA", "postalCode": "H1E4C3", "twitter": "None", "instagram": "None", "facebook": "None", "youtube": "None", "website": "None", "summary": "None", "logo": "None", "latitude": 45.63864165583708, "longitude": -73.58152414695027}, "124752775RR0001": {"name": "CONFERENCE LAURENTIENNE DE RHUMATOLOGIE/LAURENTIAN CONFERENCE OF RHEUMTOLOGY", "designationCode": "C", "categoryCode": "19", "address": "1551 ONTARIO EST", "city": "MONTREAL", "province": "QC", "country": "CA", "postalCode": "H2L1S6", "twitter": "None", "instagram": "None", "facebook": "None", "youtube": "None", "website": "None", "summary": "None", "logo": "None", "latitude": 45.52449358618496, "longitude": -73.56036237818093}, "118872100RR0001": {"name": "CONFERENCE OF DEFENCE ASSOCIATIONS INSTITUTE-INSTITUT DE LA CONGRES DES ASSOCIATIONS DE LA DEFENSE", "designationCode": "C", "categoryCode": "29", "address": "412 - 151 SLATER ST", "city": "OTTAWA", "province": "ON", "country": "CA", "postalCode": "K1P5H3", "twitter": "None", "instagram": "None", "facebook": "None", "youtube": "None", "website": "None", "summary": "None", "logo": "None", "latitude": 45.42039844353388, "longitude": -75.69735141147775}, "132410671RR0263": {"name": "CONFERENCE OF HOLY MARTYRS OF JAPAN - BRADFORD - DIOCESE OF", "designationCode": "C", "categoryCode": "47", "address": "RR#2 425 STRAWBERRY LANE", "city": "NEWMARKET", "province": "ON", "country": "CA", "postalCode": "L3Y4V9", "twitter": "None", "instagram": "None", "facebook": "None", "youtube": "None", "website": "None", "summary": "None", "logo": "None", "latitude": 44.06015682402528, "longitude": -79.57392512588804}, "118872126RR0001": {"name": "CONFERENCE OF MANITOBA AND NORTHWESTERN ONTARIO UNITED CHURCH OF CANADA", "designationCode": "C", "categoryCode": "44", "address": "1622 B ST.MARY'S ROAD", "city": "WINNIPEG", "province": "MB", "country": "CA", "postalCode": "R2M3W7", "twitter": "None", "instagram": "None", "facebook": "None", "youtube": "None", "website": "None", "summary": "None", "logo": "None", "latitude": 49.82041368359399, "longitude": -97.11345063174414}, "132410671RR0117": {"name": "CONFERENCE OF THE CHURCH OF THE ANNUNCIATION", "designationCode": "C", "categoryCode": "09", "address": "3 COMBERMERE DRIVE", "city": "TORONTO", "province": "ON", "country": "CA", "postalCode": "M3A2W4", "twitter": "None", "instagram": "None", "facebook": "None", "youtube": "None", "website": "None", "summary": "None", "logo": "None", "latitude": 43.75583594751593, "longitude": -79.3153431629062}, "132410671RR0266": {"name": "CONFERENCE ST-LOUIS DE FRANCE", "designationCode": "C", "categoryCode": "09", "address": "1415 DON MILLS ROAD", "city": "NORTH YORK", "province": "ON", "country": "CA", "postalCode": "M3B2X5", "twitter": "None", "instagram": "None", "facebook": "None", "youtube": "None", "website": "None", "summary": "None", "logo": "None", "latitude": 43.7536548362303, "longitude": -79.34697324306123}, "899501373RR0001": {"name": "CONFERENCE ST-VINCENT DE PAUL DE MONT-LAURIER INC.", "designationCode": "C", "categoryCode": "09", "address": "656 DE LA MADONE", "city": "MONT LAURIER", "province": "QC", "country": "CA", "postalCode": "J9L1S9", "twitter": "None", "instagram": "None", "facebook": "None", "youtube": "None", "website": "None", "summary": "None", "logo": "None", "latitude": 46.554560780454764, "longitude": -75.49517236591859}, "874045172RR0001": {"name": "CONFERENCIA HISPANA CANADIENCE DE IGLESIA DE DIOS (7O DIA)", "designationCode": "C", "categoryCode": "39", "address": "32406 GREBE CRESCENT", "city": "MISSION", "province": "BC", "country": "CA", "postalCode": "V2V5C4", "twitter": "None", "instagram": "None", "facebook": "None", "youtube": "None", "website": "None", "summary": "None", "logo": "None", "latitude": 49.142296963600074, "longitude": -122.32694844473959}, "118874080RR0001": {"name": "CONGR\u00c9GATION BELZ / CONGREGATION BELZ", "designationCode": "C", "categoryCode": "42", "address": "5336 JEANNE MANCE", "city": "MONTREAL", "province": "QC", "country": "CA", "postalCode": "H2V4K4", "twitter": "None", "instagram": "None", "facebook": "None", "youtube": "None", "website": "None", "summary": "None", "logo": "None", "latitude": 45.52198386620703, "longitude": -73.59958555219562}, "107991036RR0001": {"name": "CONGR\u00c9GATION DE NOTRE-DAME DU QU\u00c9BEC", "designationCode": "C", "categoryCode": "46", "address": "5017 AVE NOTRE DAME DE GRACE", "city": "MONTREAL", "province": "QC", "country": "CA", "postalCode": "H4A1K2", "twitter": "None", "instagram": "None", "facebook": "None", "youtube": "None", "website": "None", "summary": "None", "logo": "None", "latitude": 45.479754544549586, "longitude": -73.61270083181368}, "839887411RR0001": {"name": "CONGR\u00c9GATION DE SAINTE-CROIX, INTERNATIONAL / CONGREGATION OF HOLY CROSS INTERNATIONAL", "designationCode": "C", "categoryCode": "46", "address": "4901, RUE PIEDMONT", "city": "MONTREAL", "province": "QC", "country": "CA", "postalCode": "H3V1E3", "twitter": "None", "instagram": "None", "facebook": "None", "youtube": "None", "website": "None", "summary": "None", "logo": "None", "latitude": 45.49437641078528, "longitude": -73.61616300470321}, "118988807RR0001": {"name": "CONGR\u00c9GATION DES PETITES FILLES DE SAINT-JOSEPH", "designationCode": "C", "categoryCode": "46", "address": "5655 RUE DE SALABERRY", "city": "MONTR\u00c9AL", "province": "QC", "country": "CA", "postalCode": "H4J1J5", "twitter": "None", "instagram": "None", "facebook": "None", "youtube": "None", "website": "None", "summary": "None", "logo": "None", "latitude": 45.528873699753234, "longitude": -73.71145253699511}, "130651565RR0001": {"name": "CONGR\u00c9GATION DES SERVANTES DE NOTRE-DAME, REINE DU CLERG\u00c9", "designationCode": "C", "categoryCode": "46", "address": "13 RUE DU FOYER               C.P.310", "city": "LAC-AU-SAUMON", "province": "QC", "country": "CA", "postalCode": "G0J1M0", "twitter": "None", "instagram": "None", "facebook": "None", "youtube": "None", "website": "None", "summary": "None", "logo": "None", "latitude": 48.421710990354185, "longitude": -67.35066302470948}, "124793522RR0001": {"name": "CONGR\u00c9GATION DES SOEURS DE NOTRE-DAME AUXILIATRICE", "designationCode": "C", "categoryCode": "46", "address": "895 RUE PERREAULT EST", "city": "ROUYN-NORANDA", "province": "QC", "country": "CA", "postalCode": "J9X5H5", "twitter": "None", "instagram": "None", "facebook": "None", "youtube": "None", "website": "None", "summary": "None", "logo": "None", "latitude": 48.237934533758185, "longitude": -78.99072363918864}, "118872415RR0001": {"name": "CONGR\u00c9GATION DES SOEURS DE NOTRE-DAME DU PERP\u00c9TUEL SECOURS", "designationCode": "C", "categoryCode": "46", "address": "155 COMMERCIALE", "city": "ST DAMIEN DE BUCKLAND", "province": "QC", "country": "CA", "postalCode": "G0R2Y0", "twitter": "None", "instagram": "None", "facebook": "None", "youtube": "None", "website": "None", "summary": "None", "logo": "None", "latitude": 46.62461716703862, "longitude": -70.65923134151916}, "125312587RR0001": {"name": "CONGR\u00c9GATION DES SOEURS DE NOTRE-DAME DU SAINT-ROSAIRE", "designationCode": "C", "categoryCode": "09", "address": "300, ALLEE DU ROSAIRE", "city": "RIMOUSKI", "province": "QC", "country": "CA", "postalCode": "G5L3E3", "twitter": "None", "instagram": "None", "facebook": "None", "youtube": "None", "website": "None", "summary": "None", "logo": "None", "latitude": 48.44988295585444, "longitude": -68.51725491750862}, "130198534RR0001": {"name": "CONGR\u00c9GATION DES SOEURS DES SAINTS COEURS DE J\u00c9SUS ET DE MARIE DE JOLIETTE / CONGREGATION OF THE SISTERS OF THE SACRED HEARTS OF JESUS AND MARY OF JOLIETTE", "designationCode": "C", "categoryCode": "46", "address": "434 ST-CHARLES-BORROME", "city": "JOLIETTE", "province": "QC", "country": "CA", "postalCode": "J6E4R7", "twitter": "None", "instagram": "None", "facebook": "None", "youtube": "None", "website": "None", "summary": "None", "logo": "None", "latitude": 46.03417873578962, "longitude": -73.44111871960348}, "132242314RR0001": {"name": "CONGR\u00c9GATION DES T\u00c9MOINS DE J\u00c9HOVAH D'ALMA", "designationCode": "C", "categoryCode": "61", "address": "1480 BOULEVARD AUGER EST", "city": "ALMA", "province": "QC", "country": "CA", "postalCode": "G8B5V2", "twitter": "None", "instagram": "None", "facebook": "None", "youtube": "None", "website": "None", "summary": "None", "logo": "None", "latitude": 48.528213715794315, "longitude": -71.60948034485541}, "132287558RR0001": {"name": "CONGR\u00c9GATION DES T\u00c9MOINS DE J\u00c9HOVAH DE BELOEIL", "designationCode": "C", "categoryCode": "61", "address": "120 BOUL. YVON L'HEUREUX SUD", "city": "BELOEIL", "province": "QC", "country": "CA", "postalCode": "J3G2C9", "twitter": "None", "instagram": "None", "facebook": "None", "youtube": "None", "website": "None", "summary": "None", "logo": "None", "latitude": 45.55966130690199, "longitude": -73.22790578183653}, "143993343RR0001": {"name": "CONGR\u00c9GATION DES T\u00c9MOINS DE J\u00c9HOVAH DE COWANSVILLE-EST", "designationCode": "C", "categoryCode": "61", "address": "18 RUE GAGNE", "city": "SUTTON", "province": "QC", "country": "CA", "postalCode": "J0E2K0", "twitter": "None", "instagram": "None", "facebook": "None", "youtube": "None", "website": "None", "summary": "None", "logo": "None", "latitude": 45.1043977288074, "longitude": -72.62178555565806}, "118989029RR0001": {"name": "CONGR\u00c9GATION DES T\u00c9MOINS DE J\u00c9HOVAH DE DOLBEAU", "designationCode": "C", "categoryCode": "61", "address": "1838 BOUL. WALLBERG", "city": "DOLBEAU-MISTASSINI", "province": "QC", "country": "CA", "postalCode": "G8L1H9", "twitter": "None", "instagram": "None", "facebook": "None", "youtube": "None", "website": "None", "summary": "None", "logo": "None", "latitude": 48.88278343493551, "longitude": -72.23559994157196}, "118873116RR0001": {"name": "CONGR\u00c9GATION DES T\u00c9MOINS DE J\u00c9HOVAH DE GRANBY-EST", "designationCode": "C", "categoryCode": "61", "address": "623 #208 TREPANIER", "city": "GRANBY", "province": "QC", "country": "CA", "postalCode": "J2H0A7", "twitter": "None", "instagram": "None", "facebook": "None", "youtube": "None", "website": "None", "summary": "None", "logo": "None", "latitude": 45.39264264005686, "longitude": -72.70038864005684}, "119288918RR1473": {"name": "CONGR\u00c9GATION DES T\u00c9MOINS DE J\u00c9HOVAH DE HULL-MONT-BLEU", "designationCode": "C", "categoryCode": "61", "address": "880 BOUL DE LA CITE-DES-JEUNESUNITE 2", "city": "GATINEAU", "province": "QC", "country": "CA", "postalCode": "J8Z2E5", "twitter": "None", "instagram": "None", "facebook": "None", "youtube": "None", "website": "None", "summary": "None", "logo": "None", "latitude": 45.471249900369266, "longitude": -75.78017691629654}, "118872829RR0001": {"name": "CONGR\u00c9GATION DES T\u00c9MOINS DE J\u00c9HOVAH DE LA P\u00c9RADE", "designationCode": "C", "categoryCode": "61", "address": "1280 RUE DU MOULIN", "city": "BATISCAN", "province": "QC", "country": "CA", "postalCode": "G0X1A0", "twitter": "None", "instagram": "None", "facebook": "None", "youtube": "None", "website": "None", "summary": "None", "logo": "None", "latitude": 46.93817020485071, "longitude": -72.30320838617388}, "119288918RR0368": {"name": "CONGR\u00c9GATION DES T\u00c9MOINS DE J\u00c9HOVAH DE LA PRAIRIE (QU\u00c9BEC)", "designationCode": "C", "categoryCode": "61", "address": "5165 BOUL. ST-LAURENT", "city": "STE-CATHERINE", "province": "QC", "country": "CA", "postalCode": "J5C1A6", "twitter": "None", "instagram": "None", "facebook": "None", "youtube": "None", "website": "None", "summary": "None", "logo": "None", "latitude": 45.397264550609115, "longitude": -73.56917536655281}, "899786040RR0001": {"name": "CONGR\u00c9GATION DES T\u00c9MOINS DE J\u00c9HOVAH DE MONTR\u00c9AL - LANGELIER", "designationCode": "C", "categoryCode": "61", "address": "12145 5E AVENUE", "city": "MONTREAL", "province": "QC", "country": "CA", "postalCode": "H1E1R4", "twitter": "None", "instagram": "None", "facebook": "None", "youtube": "None", "website": "None", "summary": "None", "logo": "None", "latitude": 45.62564178824505, "longitude": -73.60416989283878}, "118872845RR0001": {"name": "CONGR\u00c9GATION DES T\u00c9MOINS DE J\u00c9HOVAH DE MONTR\u00c9AL MAISONNEUVE", "designationCode": "C", "categoryCode": "61", "address": "2185 RUE DUQUESNE", "city": "MONTREAL", "province": "QC", "country": "CA", "postalCode": "H1N2W6", "twitter": "None", "instagram": "None", "facebook": "None", "youtube": "None", "website": "None", "summary": "None", "logo": "None", "latitude": 45.572243709417684, "longitude": -73.53052188536562}, "854835188RR0001": {"name": "CONGR\u00c9GATION DES T\u00c9MOINS DE J\u00c9HOVAH DE MONTR\u00c9AL-GOUIN", "designationCode": "C", "categoryCode": "61", "address": "1 - 12700 BOUL METROPOLITAIN E", "city": "MONTR\u00c9AL", "province": "QC", "country": "CA", "postalCode": "H1A4A7", "twitter": "None", "instagram": "None", "facebook": "None", "youtube": "None", "website": "None", "summary": "None", "logo": "None", "latitude": 45.65575326121796, "longitude": -73.52099767361118}, "888619798RR0001": {"name": "CONGR\u00c9GATION DES T\u00c9MOINS DE J\u00c9HOVAH DE MONTR\u00c9AL-KIRKLAND MONTR\u00c9AL-KIRKLAND CONGREGATION OF JEHOVAH'S WITNESSES", "designationCode": "C", "categoryCode": "61", "address": "19 PILON AVENUE", "city": "BEACONSFIELD", "province": "QC", "country": "CA", "postalCode": "H9W5P9", "twitter": "None", "instagram": "None", "facebook": "None", "youtube": "None", "website": "None", "summary": "None", "logo": "None", "latitude": 45.429919145161264, "longitude": -73.83372558976298}, "121586820RR0001": {"name": "CONGR\u00c9GATION DES T\u00c9MOINS DE J\u00c9HOVAH DE MONTR\u00c9AL-LASALLE", "designationCode": "C", "categoryCode": "61", "address": "376 MAGOG", "city": "LASALLE", "province": "QC", "country": "CA", "postalCode": "H8R3C1", "twitter": "None", "instagram": "None", "facebook": "None", "youtube": "None", "website": "None", "summary": "None", "logo": "None", "latitude": 45.4213558812107, "longitude": -73.6444373817876}, "888619194RR0001": {"name": "CONGR\u00c9GATION DES T\u00c9MOINS DE J\u00c9HOVAH DE MONTR\u00c9AL-M\u00c9TROPOLITAIN MONTR\u00c9AL-METROPOLITAN CONGREGATION OF JEHOVAH'S WITNESSES", "designationCode": "C", "categoryCode": "61", "address": "6940 STUART AVE", "city": "MONTREAL", "province": "QC", "country": "CA", "postalCode": "H3N2R1", "twitter": "None", "instagram": "None", "facebook": "None", "youtube": "None", "website": "None", "summary": "None", "logo": "None", "latitude": 45.524582079087175, "longitude": -73.62316074369546}, "119080117RR0001": {"name": "CONGR\u00c9GATION DES T\u00c9MOINS DE J\u00c9HOVAH DE MONTR\u00c9AL-PARC MONTR\u00c9AL - PARK CONGREGATION OF JEHOVAH'S WITNESSES", "designationCode": "C", "categoryCode": "61", "address": "50 RUE VILLENEUVE OUEST", "city": "MONTREAL", "province": "QC", "country": "CA", "postalCode": "H2T2R3", "twitter": "None", "instagram": "None", "facebook": "None", "youtube": "None", "website": "None", "summary": "None", "logo": "None", "latitude": 45.52077125422706, "longitude": -73.58991598721806}, "118872837RR0001": {"name": "CONGR\u00c9GATION DES T\u00c9MOINS DE J\u00c9HOVAH DE MONTR\u00c9AL-PARIS", "designationCode": "C", "categoryCode": "61", "address": "10951 BELLEVILLE", "city": "MONTREAL-NORD", "province": "QC", "country": "CA", "postalCode": "H1H5A1", "twitter": "None", "instagram": "None", "facebook": "None", "youtube": "None", "website": "None", "summary": "None", "logo": "None", "latitude": 45.5870118609556, "longitude": -73.64729969926147}, "119288918RR0737": {"name": "CONGR\u00c9GATION DES T\u00c9MOINS DE J\u00c9HOVAH DE MONTR\u00c9AL-PERRAS", "designationCode": "C", "categoryCode": "61", "address": "12145 5E AVENUE", "city": "MONTREAL", "province": "QC", "country": "CA", "postalCode": "H1E3C8", "twitter": "None", "instagram": "None", "facebook": "None", "youtube": "None", "website": "None", "summary": "None", "logo": "None", "latitude": 45.62564178824505, "longitude": -73.60416989283878}, "104196159RR0001": {"name": "CONGR\u00c9GATION DES T\u00c9MOINS DE J\u00c9HOVAH DE MONTR\u00c9AL-PIERREFONDS/MONTR\u00c9AL-PIERREFONDS CONGR\u00c9GATION OF JEHOVAH'S WITNESSES", "designationCode": "C", "categoryCode": "61", "address": "PO BOX 453", "city": "PIERREFONDS", "province": "QC", "country": "CA", "postalCode": "H9H4M6", "twitter": "None", "instagram": "None", "facebook": "None", "youtube": "None", "website": "None", "summary": "None", "logo": "None", "latitude": 45.46001890806514, "longitude": -73.85519999999997}, "890488596RR0001": {"name": "CONGR\u00c9GATION DES T\u00c9MOINS DE J\u00c9HOVAH DE MONTR\u00c9AL-SAINT-LAURENT MONTR\u00c9AL-SAINT-LAURENT CONGREGATION OF JEHOVAH'S WITNESSES", "designationCode": "C", "categoryCode": "61", "address": "2400 RUE WARD", "city": "SAINT-LAURENT", "province": "QC", "country": "CA", "postalCode": "H4M2Y3", "twitter": "None", "instagram": "None", "facebook": "None", "youtube": "None", "website": "None", "summary": "None", "logo": "None"}, "869693549RR0001": {"name": "CONGR\u00c9GATION DES T\u00c9MOINS DE J\u00c9HOVAH DE MONTR\u00c9AL-SNOWDON MONTR\u00c9AL-SNOWDON CONGREGATION OF JEHOVAH'S WITNESSES", "designationCode": "C", "categoryCode": "61", "address": "6262 BIERMANS", "city": "MONTREAL", "province": "QC", "country": "CA", "postalCode": "H3X1Z1", "twitter": "None", "instagram": "None", "facebook": "None", "youtube": "None", "website": "None", "summary": "None", "logo": "None", "latitude": 45.471641606151614, "longitude": -73.63686603246012}, "864632021RR0001": {"name": "CONGR\u00c9GATION DES T\u00c9MOINS DE J\u00c9HOVAH DE MONTR\u00c9AL-UNIVERSIT\u00c9 /MONTR\u00c9AL-UNIVERSITY CONGREGATION OF JEHOVAH'S WITNESSES", "designationCode": "C", "categoryCode": "61", "address": "2525A, RUE DU CENTRE", "city": "MONTREAL", "province": "QC", "country": "CA", "postalCode": "H3K1J9", "twitter": "None", "instagram": "None", "facebook": "None", "youtube": "None", "website": "None", "summary": "None", "logo": "None", "latitude": 45.47902663531545, "longitude": -73.56856754008554}, "138905526RR0001": {"name": "CONGR\u00c9GATION DES T\u00c9MOINS DE J\u00c9HOVAH DE MONTR\u00c9AL-VERDUN MONTR\u00c9AL-VERDUN CONGREGATION OF JEHOVAH'S WITNESSES", "designationCode": "C", "categoryCode": "61", "address": "1292 LLOYD GEORGE AVE", "city": "VERDUN", "province": "QC", "country": "CA", "postalCode": "H4H2P3", "twitter": "None", "instagram": "None", "facebook": "None", "youtube": "None", "website": "None", "summary": "None", "logo": "None", "latitude": 45.437872674418735, "longitude": -73.58612506287145}, "888618394RR0001": {"name": "CONGR\u00c9GATION DES T\u00c9MOINS DE J\u00c9HOVAH DE MONTR\u00c9AL-VILLERAY", "designationCode": "C", "categoryCode": "61", "address": "7200 LOUIS-HEBERT", "city": "MONTREAL", "province": "QC", "country": "CA", "postalCode": "H2E2X4", "twitter": "None", "instagram": "None", "facebook": "None", "youtube": "None", "website": "None", "summary": "None", "logo": "None", "latitude": 45.55344680792323, "longitude": -73.60353391730614}, "119288918RR1285": {"name": "CONGR\u00c9GATION DES T\u00c9MOINS DE J\u00c9HOVAH DE MONTREAL-LANGUE DES SIGNES (QU\u00c9BEC)", "designationCode": "C", "categoryCode": "61", "address": "2567 RUE ONTARIO E.", "city": "MONTR\u00c9AL", "province": "QC", "country": "CA", "postalCode": "H2K1W6", "twitter": "None", "instagram": "None", "facebook": "None", "youtube": "None", "website": "None", "summary": "None", "logo": "None", "latitude": 45.53326957092151, "longitude": -73.55244527534754}, "118873504RR0001": {"name": "CONGR\u00c9GATION DES T\u00c9MOINS DE J\u00c9HOVAH DE SAGUENAY-EST", "designationCode": "C", "categoryCode": "61", "address": "2431 ROUSSEL", "city": "CHICOUTIMI", "province": "QC", "country": "CA", "postalCode": "G7G1X5", "twitter": "None", "instagram": "None", "facebook": "None", "youtube": "None", "website": "None", "summary": "None", "logo": "None", "latitude": 48.43764073602076, "longitude": -71.07458668624838}, "862575446RR0001": {"name": "CONGR\u00c9GATION DES T\u00c9MOINS DE J\u00c9HOVAH DE SAINT-ANDR\u00c9-AVELLIN", "designationCode": "C", "categoryCode": "61", "address": "49 CHEMIN ST ANDRE", "city": "SAINT ANDRE AVELLIN", "province": "QC", "country": "CA", "postalCode": "J0V1W0", "twitter": "None", "instagram": "None", "facebook": "None", "youtube": "None", "website": "None", "summary": "None", "logo": "None", "latitude": 45.708406901280064, "longitude": -74.98007331776799}, "118989292RR0001": {"name": "CONGR\u00c9GATION DES T\u00c9MOINS DE J\u00c9HOVAH DE SAINT-APOLLINAIRE", "designationCode": "C", "categoryCode": "61", "address": "3546 RANG 3 OUEST", "city": "STE CROIX", "province": "QC", "country": "CA", "postalCode": "G0S2H0", "twitter": "None", "instagram": "None", "facebook": "None", "youtube": "None", "website": "None", "summary": "None", "logo": "None"}, "118873330RR0001": {"name": "CONGR\u00c9GATION DES T\u00c9MOINS DE J\u00c9HOVAH DE SAINT-J\u00c9R\u00d4ME-EST", "designationCode": "C", "categoryCode": "61", "address": "345-16IEME AVENUE NORD", "city": "ST-JEROME", "province": "QC", "country": "CA", "postalCode": "J7Z4A8", "twitter": "None", "instagram": "None", "facebook": "None", "youtube": "None", "website": "None", "summary": "None", "logo": "None", "latitude": 45.76625102971884, "longitude": -73.99391370910055}, "118873140RR0001": {"name": "CONGR\u00c9GATION DES T\u00c9MOINS DE J\u00c9HOVAH DE SAINTE-JULIE", "designationCode": "C", "categoryCode": "61", "address": "167 DES CHENES", "city": "SAINT-AMABLE", "province": "QC", "country": "CA", "postalCode": "J0L1N0", "twitter": "None", "instagram": "None", "facebook": "None", "youtube": "None", "website": "None", "summary": "None", "logo": "None", "latitude": 45.641142619193346, "longitude": -73.29310874037725}, "890066798RR0001": {"name": "CONGR\u00c9GATION DES T\u00c9MOINS DE J\u00c9HOVAH DE SHAWINIGAN-NORD", "designationCode": "C", "categoryCode": "61", "address": "419 RUE SABA", "city": "ST-GERARD-DES-LAURENTIDES", "province": "QC", "country": "CA", "postalCode": "G9N6K9", "twitter": "None", "instagram": "None", "facebook": "None", "youtube": "None", "website": "None", "summary": "None", "logo": "None", "latitude": 46.568848088233786, "longitude": -72.76816066830189}, "890407992RR0001": {"name": "CONGR\u00c9GATION DES T\u00c9MOINS DE J\u00c9HOVAH DE TERREBONNE-SUD", "designationCode": "C", "categoryCode": "61", "address": "263 RUE FLORIMOND-GAUTHIER", "city": "TERREBONNE", "province": "QC", "country": "CA", "postalCode": "J6W5K2", "twitter": "None", "instagram": "None", "facebook": "None", "youtube": "None", "website": "None", "summary": "None", "logo": "None", "latitude": 45.69148409994785, "longitude": -73.65285760165088}, "118989045RR0001": {"name": "CONGR\u00c9GATION DES T\u00c9MOINS DE J\u00c9HOVAH DE TROIS-RIVI\u00c8RES-EST", "designationCode": "C", "categoryCode": "61", "address": "1639 AVE LAURENT-PARADIS", "city": "TROIS-RIVIERES", "province": "QC", "country": "CA", "postalCode": "G8Y6B9", "twitter": "None", "instagram": "None", "facebook": "None", "youtube": "None", "website": "None", "summary": "None", "logo": "None", "latitude": 46.37372515292289, "longitude": -72.61475334595194}, "118873397RR0001": {"name": "CONGR\u00c9GATION DES T\u00c9MOINS DE J\u00c9HOVAH DE VAL-D'OR-EST", "designationCode": "C", "categoryCode": "61", "address": "200 LA SALLE", "city": "VAL D'OR", "province": "QC", "country": "CA", "postalCode": "J9P2A5", "twitter": "None", "instagram": "None", "facebook": "None", "youtube": "None", "website": "None", "summary": "None", "logo": "None", "latitude": 48.09930900000006, "longitude": -77.77570849999994}}