{"119109817RR0025": {"name": "ST. CECILIA'S PARISH", "designationCode": "C", "categoryCode": "38", "address": "211 UNION STREET", "city": "SIMCOE", "province": "ON", "country": "CA", "postalCode": "N3Y2B3", "twitter": "None", "instagram": "None", "facebook": "None", "youtube": "None", "website": "None", "summary": "None", "logo": "None", "latitude": 42.83876334332621, "longitude": -80.3121078769115}, "108011230RR0002": {"name": "ST. CHAD'S ANGLICAN CHURCH", "designationCode": "C", "categoryCode": "30", "address": "472 KIRKFIELD STREET", "city": "WINNIPEG", "province": "MB", "country": "CA", "postalCode": "R3K1E6", "twitter": "None", "instagram": "None", "facebook": "None", "youtube": "None", "website": "None", "summary": "None", "logo": "None", "latitude": 49.87812849347912, "longitude": -97.29032607109441}, "119170348RR0001": {"name": "ST. CHAD'S CHURCH", "designationCode": "C", "categoryCode": "30", "address": "1695 DUFFERIN ST", "city": "TORONTO", "province": "ON", "country": "CA", "postalCode": "M6E3N9", "twitter": "None", "instagram": "None", "facebook": "None", "youtube": "None", "website": "None", "summary": "None", "logo": "None", "latitude": 43.67860791923938, "longitude": -79.44327998234196}, "119110443RR0032": {"name": "ST. CHARLES BORROMEO CHURCH", "designationCode": "C", "categoryCode": "38", "address": "7288 OLD HWY 2", "city": "MARYSVILLE", "province": "ON", "country": "CA", "postalCode": "K0K2N0", "twitter": "None", "instagram": "None", "facebook": "None", "youtube": "None", "website": "None", "summary": "None", "logo": "None", "latitude": 44.22419494144746, "longitude": -77.14315303084398}, "812246007RR0001": {"name": "ST. CHARLES BORROMEO ROMAN CATHOLIC PARISH INC.", "designationCode": "C", "categoryCode": "38", "address": "PO BOX 399", "city": "SOURIS", "province": "PE", "country": "CA", "postalCode": "C0A2B0", "twitter": "None", "instagram": "None", "facebook": "None", "youtube": "None", "website": "None", "summary": "None", "logo": "None", "latitude": 46.35451000000006, "longitude": -62.25295999999997}, "108094392RR0005": {"name": "ST. CHARLES GARNIER PARISH", "designationCode": "C", "categoryCode": "38", "address": "3645 BENVOULIN ROAD", "city": "KELOWNA", "province": "BC", "country": "CA", "postalCode": "V1W4M7", "twitter": "None", "instagram": "None", "facebook": "None", "youtube": "None", "website": "None", "summary": "None", "logo": "None", "latitude": 49.851220138194854, "longitude": -119.4672633614483}, "119109817RR0161": {"name": "ST. CHARLES GARNIER PARISH", "designationCode": "C", "categoryCode": "39", "address": "2408 GIDEON DR.               P.O. BOX 11", "city": "DELAWARE", "province": "ON", "country": "CA", "postalCode": "N0L1E0", "twitter": "None", "instagram": "None", "facebook": "None", "youtube": "None", "website": "None", "summary": "None", "logo": "None", "latitude": 42.91308708243405, "longitude": -81.42721788897231}, "863523726RR0001": {"name": "ST. CHARLES INTERPAROCHIAL SCHOOL INC.", "designationCode": "C", "categoryCode": "20", "address": "331 ST CHARLES STREET", "city": "WINNIPEG", "province": "MB", "country": "CA", "postalCode": "R3K1T6", "twitter": "None", "instagram": "None", "facebook": "None", "youtube": "None", "website": "None", "summary": "None", "logo": "None", "latitude": 49.874200816261784, "longitude": -97.32073836283149}, "867293771RR0001": {"name": "ST. CHARLES MISSIONS SUPPORT INC.", "designationCode": "C", "categoryCode": "49", "address": "96 EMPRESS AVE", "city": "OTTAWA", "province": "ON", "country": "CA", "postalCode": "K1R7G3", "twitter": "None", "instagram": "None", "facebook": "None", "youtube": "None", "website": "None", "summary": "None", "logo": "None", "latitude": 45.411189077702204, "longitude": -75.70929188902963}, "108011362RR0001": {"name": "ST. CHARLES PARISH", "designationCode": "C", "categoryCode": "38", "address": "395 ST. CHARLES ST.", "city": "WINNIPEG", "province": "MB", "country": "CA", "postalCode": "R3K1T7", "twitter": "None", "instagram": "None", "facebook": "None", "youtube": "None", "website": "None", "summary": "None", "logo": "None", "latitude": 49.87582850652087, "longitude": -97.32056790005214}, "107585085RR0026": {"name": "ST. CHARLES/ST. JOSEPH PARISH, MARSDEN/NEILBURG, SK", "designationCode": "C", "categoryCode": "38", "address": "PO BOX 285", "city": "NEILBURG", "province": "SK", "country": "CA", "postalCode": "S0M2C0", "twitter": "None", "instagram": "None", "facebook": "None", "youtube": "None", "website": "None", "summary": "None", "logo": "None", "latitude": 52.83345000000003, "longitude": -109.63480999999996}, "893675868RR0001": {"name": "ST. CHARLES' CHURCH", "designationCode": "C", "categoryCode": "30", "address": "224596 OSTRANDER ROAD         RR7", "city": "TILLSONBURG", "province": "ON", "country": "CA", "postalCode": "N4G4H1", "twitter": "None", "instagram": "None", "facebook": "None", "youtube": "None", "website": "None", "summary": "None", "logo": "None", "latitude": 42.90901658315082, "longitude": -80.72429674035259}, "119110450RR0104": {"name": "ST. CHARLES' PARISH", "designationCode": "C", "categoryCode": "38", "address": "129 HUGHSON STREET SOUTH", "city": "HAMILTON", "province": "ON", "country": "CA", "postalCode": "L8N2B3", "twitter": "None", "instagram": "None", "facebook": "None", "youtube": "None", "website": "None", "summary": "None", "logo": "None", "latitude": 43.25155995253625, "longitude": -79.86989889243476}, "119170512RR0001": {"name": "ST. CHRISTOPHER HOUSE COMMUNITY ENDOWMENT", "designationCode": "A", "categoryCode": "03", "address": "588 QUEEN STREET WEST         2ND FLOOR", "city": "TORONTO", "province": "ON", "country": "CA", "postalCode": "M6J1E3", "twitter": "None", "instagram": "None", "facebook": "None", "youtube": "None", "website": "None", "summary": "None", "logo": "None", "latitude": 43.64719420901364, "longitude": -79.40413697766742}, "119170520RR0001": {"name": "ST. CHRISTOPHER ROMAN CATHOLIC CHAPEL", "designationCode": "C", "categoryCode": "38", "address": "134 ALDGATE RD", "city": "WINNIPEG", "province": "MB", "country": "CA", "postalCode": "R2N2Z6", "twitter": "None", "instagram": "None", "facebook": "None", "youtube": "None", "website": "None", "summary": "None", "logo": "None", "latitude": 49.79890952120741, "longitude": -97.1101434857175}, "118861442RR0001": {"name": "ST. CHRISTOPHER'S ANGLICAN CHURCH", "designationCode": "C", "categoryCode": "30", "address": "459 CROSBY AVENUE", "city": "RICHMOND HILL", "province": "ON", "country": "CA", "postalCode": "L4C2R9", "twitter": "None", "instagram": "None", "facebook": "None", "youtube": "None", "website": "None", "summary": "None", "logo": "None", "latitude": 43.8851001440934, "longitude": -79.41832923301966}, "119170546RR0001": {"name": "ST. CHRISTOPHER'S ANGLICAN CHURCH", "designationCode": "C", "categoryCode": "30", "address": "BOX 7", "city": "CHRISTOPHER LAKE", "province": "SK", "country": "CA", "postalCode": "S0J0N0", "twitter": "None", "instagram": "None", "facebook": "None", "youtube": "None", "website": "None", "summary": "None", "logo": "None", "latitude": 53.533390000000054, "longitude": -105.80098999999996}, "108099771RR0019": {"name": "ST. CHRISTOPHER'S CHURCH", "designationCode": "C", "categoryCode": "30", "address": "662 GUELPH LINE", "city": "BURLINGTON", "province": "ON", "country": "CA", "postalCode": "L7R3M8", "twitter": "None", "instagram": "None", "facebook": "None", "youtube": "None", "website": "None", "summary": "None", "logo": "None", "latitude": 43.34368373518405, "longitude": -79.79267838403796}, "119109817RR0024": {"name": "ST. CHRISTOPHER'S FOREST", "designationCode": "C", "categoryCode": "38", "address": "68 UNION STREET", "city": "FOREST", "province": "ON", "country": "CA", "postalCode": "N0N1J0", "twitter": "None", "instagram": "None", "facebook": "None", "youtube": "None", "website": "None", "summary": "None", "logo": "None", "latitude": 43.101520719585025, "longitude": -82.00428387526053}, "119170652RR0001": {"name": "ST. CLAIR AVE BAPTIST CHURCH", "designationCode": "C", "categoryCode": "31", "address": "152 WYCHWOOD AVE", "city": "TORONTO", "province": "ON", "country": "CA", "postalCode": "M6C2T2", "twitter": "None", "instagram": "None", "facebook": "None", "youtube": "None", "website": "None", "summary": "None", "logo": "None", "latitude": 43.682569124617686, "longitude": -79.42339654261633}, "107594152RR0001": {"name": "ST. CLAIR CATHOLIC DISTRICT SCHOOL BOARD", "designationCode": "C", "categoryCode": "20", "address": "420 CREEK ST", "city": "WALLACEBURG", "province": "ON", "country": "CA", "postalCode": "N8A4C4", "twitter": "None", "instagram": "None", "facebook": "None", "youtube": "None", "website": "None", "summary": "None", "logo": "None", "latitude": 42.596995577586625, "longitude": -82.38663632566818}, "107954943RR0001": {"name": "ST. CLAIR CHILD & YOUTH SERVICES", "designationCode": "C", "categoryCode": "11", "address": "129 KENDALL ST", "city": "POINT EDWARD", "province": "ON", "country": "CA", "postalCode": "N7V4G6", "twitter": "None", "instagram": "None", "facebook": "None", "youtube": "None", "website": "None", "summary": "None", "logo": "None", "latitude": 42.99592438650282, "longitude": -82.40171177926175}, "716433123RR0001": {"name": "ST. CLAIR COMMUNITY CHURCH", "designationCode": "C", "categoryCode": "39", "address": "14 ALBERT ST", "city": "HAMILTON", "province": "ON", "country": "CA", "postalCode": "L8M2X9", "twitter": "None", "instagram": "None", "facebook": "None", "youtube": "None", "website": "None", "summary": "None", "logo": "None", "latitude": 43.24584604163538, "longitude": -79.83494444575555}, "892816968RR0001": {"name": "ST. CLAIR DISTRICT CATHOLIC EDUCATION FOUNDATION", "designationCode": "C", "categoryCode": "21", "address": "420 CREEK STREET", "city": "WALLACEBURG", "province": "ON", "country": "CA", "postalCode": "N8A4C4", "twitter": "None", "instagram": "None", "facebook": "None", "youtube": "None", "website": "None", "summary": "None", "logo": "None", "latitude": 42.596995577586625, "longitude": -82.38663632566818}, "108011644RR0001": {"name": "ST. CLAIR EVANGELICAL MISSIONARY CHURCH", "designationCode": "C", "categoryCode": "47", "address": "3113 ST. CLAIR AVENUE EAST", "city": "SCARBOROUGH", "province": "ON", "country": "CA", "postalCode": "M1L1T9", "twitter": "None", "instagram": "None", "facebook": "None", "youtube": "None", "website": "None", "summary": "None", "logo": "None", "latitude": 43.709224842056805, "longitude": -79.29359767984307}, "108011651RR0001": {"name": "ST. CLAIR O'CONNOR COMMUNITY INC.", "designationCode": "C", "categoryCode": "09", "address": "2701 ST. CLAIR AVENUE EAST", "city": "EAST YORK", "province": "ON", "country": "CA", "postalCode": "M4B3M3", "twitter": "None", "instagram": "None", "facebook": "None", "youtube": "None", "website": "None", "summary": "None", "logo": "None", "latitude": 43.70561283484345, "longitude": -79.31187578919733}, "108011677RR0001": {"name": "ST. CLAIR REGION CONSERVATION AUTHORITY", "designationCode": "C", "categoryCode": "52", "address": "205 MILL POND CRESCENT", "city": "STRATHROY", "province": "ON", "country": "CA", "postalCode": "N7G3P9", "twitter": "None", "instagram": "None", "facebook": "None", "youtube": "None", "website": "None", "summary": "None", "logo": "None", "latitude": 42.962328217731375, "longitude": -81.61780584665452}, "119170736RR0001": {"name": "ST. CLAIR REGION CONSERVATION FOUNDATION", "designationCode": "A", "categoryCode": "53", "address": "205 MILL POND CRESCENT", "city": "STRATHOY", "province": "ON", "country": "CA", "postalCode": "N7G3P9", "twitter": "None", "instagram": "None", "facebook": "None", "youtube": "None", "website": "None", "summary": "None", "logo": "None", "latitude": 42.962328217731375, "longitude": -81.61780584665452}, "129829115RR0001": {"name": "ST. CLAIR WEST SERVICES FOR SENIORS INC.", "designationCode": "C", "categoryCode": "09", "address": "2562 EGLINTON AVE WEST        2ND FLOOR, SUITE 202", "city": "TORONTO", "province": "ON", "country": "CA", "postalCode": "M6M1T4", "twitter": "None", "instagram": "None", "facebook": "None", "youtube": "None", "website": "None", "summary": "None", "logo": "None", "latitude": 43.69080513962134, "longitude": -79.47233948058161}, "855639548RR0001": {"name": "ST. CLAIR YOUTH BALLET", "designationCode": "C", "categoryCode": "22", "address": "212 - 1940 LONDON LINE", "city": "SARNIA", "province": "ON", "country": "CA", "postalCode": "N7W1B5", "twitter": "None", "instagram": "None", "facebook": "None", "youtube": "None", "website": "None", "summary": "None", "logo": "None", "latitude": 42.9834628994038, "longitude": -82.31082934201496}, "119170694RR0001": {"name": "ST. CLAIRE PARISH", "designationCode": "C", "categoryCode": "38", "address": "BOX 1026", "city": "ROBLIN", "province": "MB", "country": "CA", "postalCode": "R0L1P0", "twitter": "None", "instagram": "None", "facebook": "None", "youtube": "None", "website": "None", "summary": "None", "logo": "None", "latitude": 51.22816000000006, "longitude": -101.35248999999999}, "107910259RR0218": {"name": "ST. CLARE OF ASSISI PARISH", "designationCode": "C", "categoryCode": "38", "address": "150 ST FRANCIS AVE", "city": "WOODBRIDGE", "province": "ON", "country": "CA", "postalCode": "L4H2A2", "twitter": "None", "instagram": "None", "facebook": "None", "youtube": "None", "website": "None", "summary": "None", "logo": "None", "latitude": 43.82590546551971, "longitude": -79.56847248280332}, "118849470RR0087": {"name": "ST. CLARE OF ASSISI PARISH", "designationCode": "C", "categoryCode": "39", "address": "1320 JOHNSON ST", "city": "COQUITLAM", "province": "BC", "country": "CA", "postalCode": "V3B4T5", "twitter": "None", "instagram": "None", "facebook": "None", "youtube": "None", "website": "None", "summary": "None", "logo": "None", "latitude": 49.29238800000002, "longitude": -122.80071466991708}, "891520140RR0001": {"name": "ST. CLEMENT ASTRA CHAPEL, CANADIAN FORCES BASE TRENTON", "designationCode": "C", "categoryCode": "39", "address": "P. O. BOX 1000                STATION FORCES", "city": "ASTRA", "province": "ON", "country": "CA", "postalCode": "K0K3W0", "twitter": "None", "instagram": "None", "facebook": "None", "youtube": "None", "website": "None", "summary": "None", "logo": "None", "latitude": 44.53637873237372, "longitude": -77.19959526055133}, "119109817RR0045": {"name": "ST. CLEMENT ROMAN CATHOLIC CHURCH", "designationCode": "C", "categoryCode": "38", "address": "9567 COUNTY, RD 11", "city": "MCGREGOR", "province": "ON", "country": "CA", "postalCode": "N0R1J0", "twitter": "None", "instagram": "None", "facebook": "None", "youtube": "None", "website": "None", "summary": "None", "logo": "None", "latitude": 42.14571303068676, "longitude": -82.96967942013909}, "119170835RR0001": {"name": "ST. CLEMENT'S ANGLICAN CHURCH OF CANADA", "designationCode": "C", "categoryCode": "30", "address": "10080 TOWNSHIP ROAD 262", "city": "BALZAC", "province": "AB", "country": "CA", "postalCode": "T4B2T3", "twitter": "None", "instagram": "None", "facebook": "None", "youtube": "None", "website": "None", "summary": "None", "logo": "None", "latitude": 51.22709700000006, "longitude": -114.02492299999994}, "108011818RR0001": {"name": "ST. CLEMENT'S CHURCH", "designationCode": "C", "categoryCode": "30", "address": "513-1192 RIVER RD", "city": "ST ANDREWS", "province": "MB", "country": "CA", "postalCode": "R1A1Z6", "twitter": "None", "instagram": "None", "facebook": "None", "youtube": "None", "website": "None", "summary": "None", "logo": "None", "latitude": 50.12505010002145, "longitude": -96.89492014667667}, "119109833RR0021": {"name": "ST. CLEMENT'S CHURCH", "designationCode": "C", "categoryCode": "38", "address": "16 GASTON RD.", "city": "DARTMOUTH", "province": "NS", "country": "CA", "postalCode": "B2Y3W1", "twitter": "None", "instagram": "None", "facebook": "None", "youtube": "None", "website": "None", "summary": "None", "logo": "None", "latitude": 44.666747991373, "longitude": -63.54356050473185}, "119170884RR0001": {"name": "ST. CLEMENT'S CHURCH", "designationCode": "C", "categoryCode": "30", "address": "P.O. BOX 45", "city": "MUTTON BAY", "province": "QC", "country": "CA", "postalCode": "G0G2C0", "twitter": "None", "instagram": "None", "facebook": "None", "youtube": "None", "website": "None", "summary": "None", "logo": "None", "latitude": 50.77642000000003, "longitude": -59.02221999999995}, "107020331RR0034": {"name": "ST. CLEMENT'S PARISH", "designationCode": "C", "categoryCode": "38", "address": "20 HIGHLAND AVE", "city": "MCADAM", "province": "NB", "country": "CA", "postalCode": "E6J1H8", "twitter": "None", "instagram": "None", "facebook": "None", "youtube": "None", "website": "None", "summary": "None", "logo": "None", "latitude": 45.59493375852622, "longitude": -67.323827661867}, "107910259RR0155": {"name": "ST. CLEMENT'S PARISH", "designationCode": "C", "categoryCode": "38", "address": "409 MARKLAND DR", "city": "ETOBICOKE", "province": "ON", "country": "CA", "postalCode": "M9C1S5", "twitter": "None", "instagram": "None", "facebook": "None", "youtube": "None", "website": "None", "summary": "None", "logo": "None", "latitude": 43.6332271423913, "longitude": -79.57058879693031}, "119110450RR0047": {"name": "ST. CLEMENT'S PARISH", "designationCode": "C", "categoryCode": "38", "address": "3619 LOBSINGER LINE", "city": "ST. CLEMENTS", "province": "ON", "country": "CA", "postalCode": "N0B2M0", "twitter": "None", "instagram": "None", "facebook": "None", "youtube": "None", "website": "None", "summary": "None", "logo": "None", "latitude": 43.52319743825374, "longitude": -80.65319793435859}, "119110450RR0079": {"name": "ST. CLEMENT'S PARISH", "designationCode": "C", "categoryCode": "38", "address": "745 DUKE ST", "city": "CAMBRIDGE", "province": "ON", "country": "CA", "postalCode": "N3H3T7", "twitter": "None", "instagram": "None", "facebook": "None", "youtube": "None", "website": "None", "summary": "None", "logo": "None", "latitude": 43.396368693057724, "longitude": -80.35683765387516}, "105005805RR0001": {"name": "ST. CLEMENT'S SCHOOL", "designationCode": "C", "categoryCode": "20", "address": "21 ST. CLEMENTS AVENUE", "city": "TORONTO", "province": "ON", "country": "CA", "postalCode": "M4R1G8", "twitter": "None", "instagram": "None", "facebook": "None", "youtube": "None", "website": "None", "summary": "None", "logo": "None", "latitude": 43.7128079003406, "longitude": -79.40037537731554}, "119170983RR0001": {"name": "ST. COLUMBA CHARITABLE SOCIETY", "designationCode": "C", "categoryCode": "59", "address": "50 BRUCEDALE AVE E", "city": "HAMILTON", "province": "ON", "country": "CA", "postalCode": "L9A1M8", "twitter": "None", "instagram": "None", "facebook": "None", "youtube": "None", "website": "None", "summary": "None", "logo": "None", "latitude": 43.238930009694876, "longitude": -79.87482082168611}, "119170991RR0001": {"name": "ST. COLUMBA CHURCH", "designationCode": "C", "categoryCode": "30", "address": "PO BOX 141", "city": "TOFINO", "province": "BC", "country": "CA", "postalCode": "V0R2Z0", "twitter": "None", "instagram": "None", "facebook": "None", "youtube": "None", "website": "None", "summary": "None", "logo": "None", "latitude": 49.15262000000007, "longitude": -125.90403999999995}, "119171056RR0001": {"name": "ST. COLUMBA PRESBYTERIAN CHURCH", "designationCode": "C", "categoryCode": "37", "address": "296 TROUT BROOK RD.           PO BOX 6278", "city": "MARION BRIDGE", "province": "NS", "country": "CA", "postalCode": "B1K2G2", "twitter": "None", "instagram": "None", "facebook": "None", "youtube": "None", "website": "None", "summary": "None", "logo": "None", "latitude": 45.98102480125813, "longitude": -60.19688419452961}, "119171072RR0001": {"name": "ST. COLUMBA PRESBYTERIAN CHURCH", "designationCode": "C", "categoryCode": "37", "address": "20950 LAGGAN-GLENELG RD       BOX 81", "city": "DALKEITH", "province": "ON", "country": "CA", "postalCode": "K0B1E0", "twitter": "None", "instagram": "None", "facebook": "None", "youtube": "None", "website": "None", "summary": "None", "logo": "None", "latitude": 45.41094161749124, "longitude": -74.65516012790725}, "119171106RR0001": {"name": "ST. COLUMBA PRESBYTERIAN CHURCH", "designationCode": "C", "categoryCode": "37", "address": "921 WEMBLEY ROAD", "city": "PARKSVILLE", "province": "BC", "country": "CA", "postalCode": "V9P2E6", "twitter": "None", "instagram": "None", "facebook": "None", "youtube": "None", "website": "None", "summary": "None", "logo": "None", "latitude": 49.34350042300264, "longitude": -124.35859511010594}, "119171114RR0001": {"name": "ST. COLUMBA PRESBYTERIAN CHURCH", "designationCode": "C", "categoryCode": "37", "address": "2196 EAST 44TH AVE", "city": "VANCOUVER", "province": "BC", "country": "CA", "postalCode": "V5P1N2", "twitter": "None", "instagram": "None", "facebook": "None", "youtube": "None", "website": "None", "summary": "None", "logo": "None", "latitude": 49.23033752842075, "longitude": -123.06256038634658}, "119171205RR0001": {"name": "ST. COLUMBA UNITED CHURCH", "designationCode": "C", "categoryCode": "44", "address": "4144 TRAFALGAR ROAD", "city": "HOPEWELL", "province": "NS", "country": "CA", "postalCode": "B0K1C0", "twitter": "None", "instagram": "None", "facebook": "None", "youtube": "None", "website": "None", "summary": "None", "logo": "None", "latitude": 45.46349700000006, "longitude": -62.73608749999994}, "888344066RR0001": {"name": "ST. COLUMBA'S ANGLICAN CHURCH", "designationCode": "C", "categoryCode": "30", "address": "PO BOX 15", "city": "DELBURNE", "province": "AB", "country": "CA", "postalCode": "T0M0V0", "twitter": "None", "instagram": "None", "facebook": "None", "youtube": "None", "website": "None", "summary": "None", "logo": "None", "latitude": 52.19744000000003, "longitude": -113.23499999999996}, "119171155RR0001": {"name": "ST. COLUMBA'S ANGLICAN PARISH", "designationCode": "C", "categoryCode": "30", "address": "5703-50 AVENUE", "city": "BEAUMONT", "province": "AB", "country": "CA", "postalCode": "T4X1C4", "twitter": "None", "instagram": "None", "facebook": "None", "youtube": "None", "website": "None", "summary": "None", "logo": "None", "latitude": 53.35238953895233, "longitude": -113.42466427990651}, "118787142RR0056": {"name": "ST. COLUMBA'S ANGLICAN UNITED CHURCH", "designationCode": "C", "categoryCode": "30", "address": "BOX 1260                      SECRETARY", "city": "PORT HARDY", "province": "BC", "country": "CA", "postalCode": "V0N2P0", "twitter": "None", "instagram": "None", "facebook": "None", "youtube": "None", "website": "None", "summary": "None", "logo": "None", "latitude": 50.72419000000008, "longitude": -127.49548999999996}, "119171163RR0002": {"name": "ST. COLUMBA'S CHURCH", "designationCode": "C", "categoryCode": "30", "address": "250 LINCOLN RD", "city": "WATERLOO", "province": "ON", "country": "CA", "postalCode": "N2J2P5", "twitter": "None", "instagram": "None", "facebook": "None", "youtube": "None", "website": "None", "summary": "None", "logo": "None", "latitude": 43.47993140994856, "longitude": -80.50735931213549}, "119171197RR0001": {"name": "ST. COLUMBA'S PARISH", "designationCode": "C", "categoryCode": "38", "address": "BOX 1780", "city": "SWAN RIVER", "province": "MB", "country": "CA", "postalCode": "R0L1Z0", "twitter": "None", "instagram": "None", "facebook": "None", "youtube": "None", "website": "None", "summary": "None", "logo": "None", "latitude": 52.11672730414978, "longitude": -101.25989472758229}, "106880107RR0020": {"name": "ST. COLUMBA'S PARISH, LAKEVALE", "designationCode": "C", "categoryCode": "38", "address": "4404 HWY 337", "city": "LAKEVALE ANTIGONISH", "province": "NS", "country": "CA", "postalCode": "B2G2L2", "twitter": "None", "instagram": "None", "facebook": "None", "youtube": "None", "website": "None", "summary": "None", "logo": "None", "latitude": 45.78312798664927, "longitude": -61.91933316160083}, "817165111RR0001": {"name": "ST. COLUMBA'S ROMAN CATHOLIC PARISH INC.", "designationCode": "C", "categoryCode": "38", "address": "P.O. BOX 399", "city": "SOURIS", "province": "PE", "country": "CA", "postalCode": "C0A2B0", "twitter": "None", "instagram": "None", "facebook": "None", "youtube": "None", "website": "None", "summary": "None", "logo": "None", "latitude": 46.35451000000006, "longitude": -62.25295999999997}, "860250919RR0001": {"name": "ST. COLUMBAN CEMETERY", "designationCode": "C", "categoryCode": "59", "address": "RR 4 7385 LINE 34", "city": "SEAFORTH", "province": "ON", "country": "CA", "postalCode": "N0K1W0", "twitter": "None", "instagram": "None", "facebook": "None", "youtube": "None", "website": "None", "summary": "None", "logo": "None", "latitude": 43.52436954615217, "longitude": -81.32646686299915}, "119122778RR0023": {"name": "ST. COLUMBAN'S PARISH", "designationCode": "C", "categoryCode": "38", "address": "36 FOURTH ST W", "city": "CORNWALL", "province": "ON", "country": "CA", "postalCode": "K6J2R6", "twitter": "None", "instagram": "None", "facebook": "None", "youtube": "None", "website": "None", "summary": "None", "logo": "None", "latitude": 45.02079807908718, "longitude": -74.73185311711588}, "119110443RR0018": {"name": "ST. COLUMBANUS CHURCH", "designationCode": "C", "categoryCode": "38", "address": "BOX 92", "city": "ELGIN", "province": "ON", "country": "CA", "postalCode": "K0G1E0", "twitter": "None", "instagram": "None", "facebook": "None", "youtube": "None", "website": "None", "summary": "None", "logo": "None", "latitude": 44.91404284441957, "longitude": -75.83470875089802}, "108012022RR0001": {"name": "ST. COLUMBIA PRESBYTERIAN CHURCH", "designationCode": "C", "categoryCode": "37", "address": "1540 MAIN STREET E", "city": "HAMILTON", "province": "ON", "country": "CA", "postalCode": "L8K1E6", "twitter": "None", "instagram": "None", "facebook": "None", "youtube": "None", "website": "None", "summary": "None", "logo": "None", "latitude": 43.23878617733293, "longitude": -79.80368837858495}, "107910192RR0012": {"name": "ST. COLUMCILLE PARISH", "designationCode": "C", "categoryCode": "38", "address": "P.O. BOX 59", "city": "ST. FINTAN'S", "province": "NL", "country": "CA", "postalCode": "A0N1Y0", "twitter": "None", "instagram": "None", "facebook": "None", "youtube": "None", "website": "None", "summary": "None", "logo": "None", "latitude": 48.18485400000006, "longitude": -58.83974449999994}, "880343918RR0001": {"name": "ST. CROIX CHRISTIAN CENTRE INC.", "designationCode": "C", "categoryCode": "39", "address": "PO BOX 364", "city": "ST. STEPHEN", "province": "NB", "country": "CA", "postalCode": "E3L2X3", "twitter": "None", "instagram": "None", "facebook": "None", "youtube": "None", "website": "None", "summary": "None", "logo": "None", "latitude": 45.19456800000006, "longitude": -67.27532299999993}, "119171262RR0001": {"name": "ST. CROIX PUBLIC LIBRARY", "designationCode": "C", "categoryCode": "50", "address": "11 KING ST", "city": "ST. STEPHEN", "province": "NB", "country": "CA", "postalCode": "E3L2C1", "twitter": "None", "instagram": "None", "facebook": "None", "youtube": "None", "website": "None", "summary": "None", "logo": "None", "latitude": 45.19307842058317, "longitude": -67.27572688505066}, "119171288RR0001": {"name": "ST. CUTHBERT'S ANGLICAN CHURCH", "designationCode": "C", "categoryCode": "30", "address": "1399 BAYVIEW AVE", "city": "TORONTO", "province": "ON", "country": "CA", "postalCode": "M4G3A6", "twitter": "None", "instagram": "None", "facebook": "None", "youtube": "None", "website": "None", "summary": "None", "logo": "None", "latitude": 43.701911904812675, "longitude": -79.37365693790795}, "119171296RR0001": {"name": "ST. CUTHBERT'S ANGLICAN CHURCH", "designationCode": "C", "categoryCode": "30", "address": "PO BOX 315", "city": "DYSART", "province": "SK", "country": "CA", "postalCode": "S0G1H0", "twitter": "None", "instagram": "None", "facebook": "None", "youtube": "None", "website": "None", "summary": "None", "logo": "None", "latitude": 50.945730000000026, "longitude": -104.03088999999994}, "812260404RR0001": {"name": "ST. CUTHBERT'S ROMAN CATHOLIC PARISH INC.", "designationCode": "C", "categoryCode": "38", "address": "2998 MOUNT STEWART ROAD", "city": "MOUNT STEWART", "province": "PE", "country": "CA", "postalCode": "C0A1T0", "twitter": "None", "instagram": "None", "facebook": "None", "youtube": "None", "website": "None", "summary": "None", "logo": "None", "latitude": 46.36313773690405, "longitude": -62.86339716006966}, "108099771RR0084": {"name": "ST. CUTHBERTS ANGLICAN CHURCH", "designationCode": "C", "categoryCode": "30", "address": "1541 OAKHILL DRIVE", "city": "OAKVILLE", "province": "ON", "country": "CA", "postalCode": "L6J1Y6", "twitter": "None", "instagram": "None", "facebook": "None", "youtube": "None", "website": "None", "summary": "None", "logo": "None", "latitude": 43.47182411824106, "longitude": -79.64809250072115}, "119171411RR0002": {"name": "ST. CYPRIAN'S ANGLICAN CHURCH", "designationCode": "C", "categoryCode": "30", "address": "BOX 691", "city": "TEULON", "province": "MB", "country": "CA", "postalCode": "R0C3B0", "twitter": "None", "instagram": "None", "facebook": "None", "youtube": "None", "website": "None", "summary": "None", "logo": "None", "latitude": 50.38882296172802, "longitude": -97.07887338068231}, "119171403RR0001": {"name": "ST. CYPRIAN'S CHURCH", "designationCode": "C", "categoryCode": "30", "address": "1080 FINCH AVE E", "city": "WILLOWDALE", "province": "ON", "country": "CA", "postalCode": "M2J2X2", "twitter": "None", "instagram": "None", "facebook": "None", "youtube": "None", "website": "None", "summary": "None", "logo": "None", "latitude": 43.79049314019826, "longitude": -79.36472849169012}, "119110443RR0003": {"name": "ST. DANIEL'S CHURCH", "designationCode": "C", "categoryCode": "38", "address": "P.O. BOX 730", "city": "CHESTERVILLE", "province": "ON", "country": "CA", "postalCode": "K0C1H0", "twitter": "None", "instagram": "None", "facebook": "None", "youtube": "None", "website": "None", "summary": "None", "logo": "None", "latitude": 45.103770000000054, "longitude": -75.23067999999995}, "129540019RR0001": {"name": "ST. DAVID ANGLICAN-LUTHERAN CHURCH, ORILLIA", "designationCode": "C", "categoryCode": "30", "address": "133 JAMES ST                  PO BOX 386", "city": "ORILLIA", "province": "ON", "country": "CA", "postalCode": "L3V6J8", "twitter": "None", "instagram": "None", "facebook": "None", "youtube": "None", "website": "None", "summary": "None", "logo": "None", "latitude": 44.59606148933782, "longitude": -79.41703083992068}, "118787142RR0029": {"name": "ST. DAVID BY-THE-SEA CHURCH", "designationCode": "C", "categoryCode": "30", "address": "5182 CORDOVA BAY RD", "city": "VICTORIA", "province": "BC", "country": "CA", "postalCode": "V8Y2K8", "twitter": "None", "instagram": "None", "facebook": "None", "youtube": "None", "website": "None", "summary": "None", "logo": "None", "latitude": 48.52493240437998, "longitude": -123.36833916518522}, "108099771RR0091": {"name": "ST. DAVID'S ANGLICAN CHURCH", "designationCode": "C", "categoryCode": "30", "address": "369 THOROLD RD. WEST", "city": "WELLAND", "province": "ON", "country": "CA", "postalCode": "L3C3W4", "twitter": "None", "instagram": "None", "facebook": "None", "youtube": "None", "website": "None", "summary": "None", "logo": "None", "latitude": 43.00370250504992, "longitude": -79.27367022300767}, "119171635RR0001": {"name": "ST. DAVID'S CO-OPERATIVE NURSERY SCHOOL", "designationCode": "C", "categoryCode": "01", "address": "369 THOROLD RD", "city": "WELLAND", "province": "ON", "country": "CA", "postalCode": "L3C3W4", "twitter": "None", "instagram": "None", "facebook": "None", "youtube": "None", "website": "None", "summary": "None", "logo": "None", "latitude": 43.00370250504992, "longitude": -79.27367022300767}, "108012436RR0001": {"name": "ST. DAVID'S PRESBYTERIAN CHURCH", "designationCode": "C", "categoryCode": "37", "address": "271 SNOWSELL STREET", "city": "KELOWNA", "province": "BC", "country": "CA", "postalCode": "V1V1V6", "twitter": "None", "instagram": "None", "facebook": "None", "youtube": "None", "website": "None", "summary": "None", "logo": "None", "latitude": 49.921570497165355, "longitude": -119.44252007895624}, "119171643RR0001": {"name": "ST. DAVID'S PRESBYTERIAN CHURCH", "designationCode": "C", "categoryCode": "37", "address": "37 EDGEVALE RD", "city": "HAMILTON", "province": "ON", "country": "CA", "postalCode": "L8S3P3", "twitter": "None", "instagram": "None", "facebook": "None", "youtube": "None", "website": "None", "summary": "None", "logo": "None", "latitude": 43.265916944197706, "longitude": -79.89884849070917}, "119171650RR0002": {"name": "ST. DAVID'S PRESBYTERIAN CHURCH", "designationCode": "C", "categoryCode": "37", "address": "98 ELIZABETH AVE", "city": "ST JOHN'S", "province": "NL", "country": "CA", "postalCode": "A1B1R8", "twitter": "None", "instagram": "None", "facebook": "None", "youtube": "None", "website": "None", "summary": "None", "logo": "None", "latitude": 47.58119199226703, "longitude": -52.714563359974626}, "119171668RR0001": {"name": "ST. DAVID'S PRESBYTERIAN CHURCH", "designationCode": "C", "categoryCode": "37", "address": "RR #2", "city": "SCOTSBURN", "province": "NS", "country": "CA", "postalCode": "B0K1R0", "twitter": "None", "instagram": "None", "facebook": "None", "youtube": "None", "website": "None", "summary": "None", "logo": "None", "latitude": 45.64524552563351, "longitude": -63.09546628494308}, "119171692RR0001": {"name": "ST. DAVID'S PRESBYTERIAN CHURCH", "designationCode": "C", "categoryCode": "37", "address": "1300 DANFORTH ROAD", "city": "TORONTO", "province": "ON", "country": "CA", "postalCode": "M1J1E8", "twitter": "None", "instagram": "None", "facebook": "None", "youtube": "None", "website": "None", "summary": "None", "logo": "None"}, "827637729RR0001": {"name": "ST. DAVID'S PRESBYTERIAN CHURCH", "designationCode": "C", "categoryCode": "37", "address": "1301 ROUTE 540", "city": "KIRKLAND", "province": "NB", "country": "CA", "postalCode": "E7N2K9", "twitter": "None", "instagram": "None", "facebook": "None", "youtube": "None", "website": "None", "summary": "None", "logo": "None", "latitude": 45.950765324909966, "longitude": -67.72266387938991}, "108012477RR0001": {"name": "ST. DAVID'S TRINITY UNITED CHURCH", "designationCode": "C", "categoryCode": "44", "address": "3318 MERRITT ST", "city": "SASKATOON", "province": "SK", "country": "CA", "postalCode": "S7M3P6", "twitter": "None", "instagram": "None", "facebook": "None", "youtube": "None", "website": "None", "summary": "None", "logo": "None", "latitude": 52.111850529863055, "longitude": -106.7315625}, "108012527RR0001": {"name": "ST. DAVID'S UNITED CHURCH", "designationCode": "C", "categoryCode": "44", "address": "3303 CAPITOL HILL CR NW", "city": "CALGARY", "province": "AB", "country": "CA", "postalCode": "T2M2R2", "twitter": "None", "instagram": "None", "facebook": "None", "youtube": "None", "website": "None", "summary": "None", "logo": "None", "latitude": 51.08158548542906, "longitude": -114.12264141618097}, "108012550RR0001": {"name": "ST. DAVID'S UNITED CHURCH", "designationCode": "C", "categoryCode": "44", "address": "1525 TAYLOR WAY", "city": "WEST VANCOUVER", "province": "BC", "country": "CA", "postalCode": "V7S1W5", "twitter": "None", "instagram": "None", "facebook": "None", "youtube": "None", "website": "None", "summary": "None", "logo": "None", "latitude": 49.33853030835592, "longitude": -123.13501512663692}, "119171767RR0001": {"name": "ST. DAVID'S UNITED CHURCH", "designationCode": "C", "categoryCode": "44", "address": "TREASURER                     7 OLD VICTORIA ROAD", "city": "PORT HASTINGS", "province": "NS", "country": "CA", "postalCode": "B9A1L2", "twitter": "None", "instagram": "None", "facebook": "None", "youtube": "None", "website": "None", "summary": "None", "logo": "None", "latitude": 45.64670013460101, "longitude": -61.40249706249606}, "119171783RR0001": {"name": "ST. DAVID'S UNITED CHURCH", "designationCode": "C", "categoryCode": "44", "address": "7A GONDOLA POINT RD", "city": "ROTHESAY", "province": "NB", "country": "CA", "postalCode": "E2E5J6", "twitter": "None", "instagram": "None", "facebook": "None", "youtube": "None", "website": "None", "summary": "None", "logo": "None", "latitude": 45.3879221724078, "longitude": -65.99736472095567}, "832475164RR0001": {"name": "ST. DAVID'S UNITED CHURCH", "designationCode": "C", "categoryCode": "44", "address": "46 GRAFTON STREET             PO BOX 76", "city": "GEORGETOWN", "province": "PE", "country": "CA", "postalCode": "C0A1L0", "twitter": "None", "instagram": "None", "facebook": "None", "youtube": "None", "website": "None", "summary": "None", "logo": "None", "latitude": 46.18220875823777, "longitude": -62.53443790576495}, "119171759RR0001": {"name": "ST. DAVID'S UNITED CHURCH, LAKE ECHO", "designationCode": "C", "categoryCode": "44", "address": "2723 #7 HIGHWAY", "city": "LAKE ECHO", "province": "NS", "country": "CA", "postalCode": "B3E1A3", "twitter": "None", "instagram": "None", "facebook": "None", "youtube": "None", "website": "None", "summary": "None", "logo": "None", "latitude": 44.723093435772256, "longitude": -63.397908201396255}, "118891464RR0001": {"name": "ST. DAVID'S VILLAGE CORPORATION", "designationCode": "C", "categoryCode": "01", "address": "1290 DANFORTH ROAD", "city": "SCARBOROUGH", "province": "ON", "country": "CA", "postalCode": "M1J3L9", "twitter": "None", "instagram": "None", "facebook": "None", "youtube": "None", "website": "None", "summary": "None", "logo": "None", "latitude": 43.74075871357263, "longitude": -79.2455491608574}, "108012576RR0001": {"name": "ST. DEMETRIOS GREEK ORTHODOX CHURCH", "designationCode": "C", "categoryCode": "39", "address": "1299 MURPHY ROAD", "city": "SARNIA", "province": "ON", "country": "CA", "postalCode": "N7S2Y7", "twitter": "None", "instagram": "None", "facebook": "None", "youtube": "None", "website": "None", "summary": "None", "logo": "None", "latitude": 42.99976118376537, "longitude": -82.36585288782403}, "108012600RR0001": {"name": "ST. DEMETRIOS ROMANIAN ORTHODOX CHURCH INC.", "designationCode": "C", "categoryCode": "39", "address": "103 FURBY STREET", "city": "WINNIPEG", "province": "MB", "country": "CA", "postalCode": "R3C2A4", "twitter": "None", "instagram": "None", "facebook": "None", "youtube": "None", "website": "None", "summary": "None", "logo": "None", "latitude": 49.88197595697963, "longitude": -97.15807864138169}, "871414710RR0001": {"name": "ST. DEMETRIUS UKRAINIAN ORTHODOX CHURCH, LUZAN", "designationCode": "C", "categoryCode": "39", "address": "4808 114A ST NW", "city": "EDMONTON", "province": "AB", "country": "CA", "postalCode": "T6H3M4", "twitter": "None", "instagram": "None", "facebook": "None", "youtube": "None", "website": "None", "summary": "None", "logo": "None", "latitude": 53.486028000000005, "longitude": -113.52582868875854}, "119109791RR0044": {"name": "ST. DENIS CHURCH", "designationCode": "C", "categoryCode": "38", "address": "230 LAKE STREET", "city": "ST CATHARINES", "province": "ON", "country": "CA", "postalCode": "L2R5Z3", "twitter": "None", "instagram": "None", "facebook": "None", "youtube": "None", "website": "None", "summary": "None", "logo": "None", "latitude": 43.17267728864908, "longitude": -79.2510533974264}, "119109833RR0031": {"name": "ST. DENIS CHURCH", "designationCode": "C", "categoryCode": "38", "address": "15637 HIGHWAY 7", "city": "EAST SHIP HARBOUR", "province": "NS", "country": "CA", "postalCode": "B0J3H0", "twitter": "None", "instagram": "None", "facebook": "None", "youtube": "None", "website": "None", "summary": "None", "logo": "None", "latitude": 44.779039619774096, "longitude": -62.77742329293634}, "894201508RR0001": {"name": "ST. DIMITAR BULGARIAN EASTERN ORTHODOX CHURCH", "designationCode": "C", "categoryCode": "39", "address": "8501 MISSISSAUGA ROAD         SUITE 200", "city": "BRAMPTON", "province": "ON", "country": "CA", "postalCode": "L6Y5G8", "twitter": "None", "instagram": "None", "facebook": "None", "youtube": "None", "website": "None", "summary": "None", "logo": "None", "latitude": 43.63733834863498, "longitude": -79.78944283467055}, "138675210RR0001": {"name": "ST. DIMITRIJA SOLUNSKI MACEDONIAN ORTHODOX CHURCH, MARKHAM, CANADA", "designationCode": "C", "categoryCode": "39", "address": "406 - 5468 DUNDAS ST W", "city": "ETOBICOKE", "province": "ON", "country": "CA", "postalCode": "M9B6E3", "twitter": "None", "instagram": "None", "facebook": "None", "youtube": "None", "website": "None", "summary": "None", "logo": "None", "latitude": 43.632444664204286, "longitude": -79.54420372915317}, "132344391RR0001": {"name": "ST. DOMINIC EDUCATIONAL SOCIETY", "designationCode": "C", "categoryCode": "21", "address": "4820 DALHART ROAD NW", "city": "CALGARY", "province": "AB", "country": "CA", "postalCode": "T3A1C2", "twitter": "None", "instagram": "None", "facebook": "None", "youtube": "None", "website": "None", "summary": "None", "logo": "None", "latitude": 51.10932554899297, "longitude": -114.15470242907847}, "107585085RR0063": {"name": "ST. DOMINIC PARISH, HUDSON BAY, SK", "designationCode": "C", "categoryCode": "38", "address": "BOX 638", "city": "HUDSON BAY", "province": "SK", "country": "CA", "postalCode": "S0E0Y0", "twitter": "None", "instagram": "None", "facebook": "None", "youtube": "None", "website": "None", "summary": "None", "logo": "None", "latitude": 52.862685000000056, "longitude": -102.38924149999994}, "108012683RR0001": {"name": "ST. DOMINIC'S PARISH", "designationCode": "C", "categoryCode": "38", "address": "4609 50 AVE", "city": "ST PAUL", "province": "AB", "country": "CA", "postalCode": "T0A3A3", "twitter": "None", "instagram": "None", "facebook": "None", "youtube": "None", "website": "None", "summary": "None", "logo": "None", "latitude": 53.99135148730496, "longitude": -111.28695202553523}}