{"119110450RR0058": {"name": "ST. DOMINIC'S PARISH", "designationCode": "C", "categoryCode": "38", "address": "2415 REBECCA ST", "city": "OAKVILLE", "province": "ON", "country": "CA", "postalCode": "L6L2B1", "twitter": "None", "instagram": "None", "facebook": "None", "youtube": "None", "website": "None", "summary": "None", "logo": "None", "latitude": 43.399712912026025, "longitude": -79.71813193701298}, "107307191RR0031": {"name": "ST. DONATUS CHURCH", "designationCode": "C", "categoryCode": "38", "address": "P.O. BOX 33", "city": "CACTUS LAKE", "province": "SK", "country": "CA", "postalCode": "S0L0J0", "twitter": "None", "instagram": "None", "facebook": "None", "youtube": "None", "website": "None", "summary": "None", "logo": "None", "latitude": 52.114630000000034, "longitude": -109.81201999999996}, "862785250RR0001": {"name": "ST. DUMITRU ROMANIAN ORTHODOX CHURCH", "designationCode": "C", "categoryCode": "39", "address": "526 CARRVILLE RD.", "city": "RICHMOND HILL", "province": "ON", "country": "CA", "postalCode": "L4C6E6", "twitter": "None", "instagram": "None", "facebook": "None", "youtube": "None", "website": "None", "summary": "None", "logo": "None", "latitude": 43.84970723123067, "longitude": -79.44936610534353}, "119171981RR0001": {"name": "ST. DUNSTAN OF CANTERBURY", "designationCode": "C", "categoryCode": "30", "address": "56 LAWSON RD", "city": "SCARBOROUGH", "province": "ON", "country": "CA", "postalCode": "M1C2J2", "twitter": "None", "instagram": "None", "facebook": "None", "youtube": "None", "website": "None", "summary": "None", "logo": "None", "latitude": 43.78388004804068, "longitude": -79.16447581352048}, "812296804RR0001": {"name": "ST. DUNSTAN'S BASILICA ROMAN CATHOLIC PAISH INC.", "designationCode": "C", "categoryCode": "38", "address": "45 GREAT GEORGE STREET", "city": "CHARLOTTETOWN", "province": "PE", "country": "CA", "postalCode": "C1A4K1", "twitter": "None", "instagram": "None", "facebook": "None", "youtube": "None", "website": "None", "summary": "None", "logo": "None", "latitude": 46.235857830688495, "longitude": -63.12725287428578}, "107020331RR0025": {"name": "ST. DUNSTAN'S PARISH", "designationCode": "C", "categoryCode": "38", "address": "P O BOX 187", "city": "FREDERICTON", "province": "NB", "country": "CA", "postalCode": "E3B4Y9", "twitter": "None", "instagram": "None", "facebook": "None", "youtube": "None", "website": "None", "summary": "None", "logo": "None", "latitude": 45.96062100000006, "longitude": -66.63911299999994}, "119172021RR0001": {"name": "ST. DUNSTAN'S UNIVERSITY", "designationCode": "C", "categoryCode": "20", "address": "45 GREAT GEORGE ST", "city": "CHARLOTTETOWN", "province": "PE", "country": "CA", "postalCode": "C1A4K1", "twitter": "None", "instagram": "None", "facebook": "None", "youtube": "None", "website": "None", "summary": "None", "logo": "None", "latitude": 46.235857830688495, "longitude": -63.12725287428578}, "107910259RR0169": {"name": "ST. EDITH STEIN CHURCH", "designationCode": "C", "categoryCode": "38", "address": "16 THORNCLIFFE PARK DR", "city": "TORONTO", "province": "ON", "country": "CA", "postalCode": "M4H1H4", "twitter": "None", "instagram": "None", "facebook": "None", "youtube": "None", "website": "None", "summary": "None", "logo": "None", "latitude": 43.70377974412818, "longitude": -79.34763721215897}, "128967353RR0122": {"name": "ST. EDITH STEIN PARISH", "designationCode": "C", "categoryCode": "38", "address": "PO BOX 727 STN MAIN", "city": "ROCKLAND", "province": "ON", "country": "CA", "postalCode": "K4K1L4", "twitter": "None", "instagram": "None", "facebook": "None", "youtube": "None", "website": "None", "summary": "None", "logo": "None", "latitude": 45.54602700000005, "longitude": -75.29304049999993}, "119110443RR0009": {"name": "ST. EDMUND'S CHURCH", "designationCode": "C", "categoryCode": "38", "address": "P.O. BOX 278", "city": "TWEED", "province": "ON", "country": "CA", "postalCode": "K0K3J0", "twitter": "None", "instagram": "None", "facebook": "None", "youtube": "None", "website": "None", "summary": "None", "logo": "None", "latitude": 44.51884534534283, "longitude": -77.11593882304619}, "119172120RR0001": {"name": "ST. EDMUND'S MISSION HYTHE", "designationCode": "C", "categoryCode": "38", "address": "BOX 563", "city": "HYTHE", "province": "AB", "country": "CA", "postalCode": "T0H2C0", "twitter": "None", "instagram": "None", "facebook": "None", "youtube": "None", "website": "None", "summary": "None", "logo": "None", "latitude": 55.32677000000007, "longitude": -119.55663999999996}, "118849470RR0064": {"name": "ST. EDMUND'S PARISH", "designationCode": "C", "categoryCode": "38", "address": "545 MAHON AVE", "city": "NORTH VANCOUVER", "province": "BC", "country": "CA", "postalCode": "V7M2R7", "twitter": "None", "instagram": "None", "facebook": "None", "youtube": "None", "website": "None", "summary": "None", "logo": "None", "latitude": 49.31847148845085, "longitude": -123.08094250269764}, "119172203RR0001": {"name": "ST. EDWARD THE CONFESSOR CHURCH", "designationCode": "C", "categoryCode": "39", "address": "818 ARLINGTON ST", "city": "WINNIPEG", "province": "MB", "country": "CA", "postalCode": "R3E2E2", "twitter": "None", "instagram": "None", "facebook": "None", "youtube": "None", "website": "None", "summary": "None", "logo": "None", "latitude": 49.90181525728548, "longitude": -97.16826612839726}, "119110443RR0051": {"name": "ST. EDWARD'S CHURCH", "designationCode": "C", "categoryCode": "38", "address": "11 CONCESSION ST.,            P.O. BOX 10", "city": "WESTPORT", "province": "ON", "country": "CA", "postalCode": "K0G1X0", "twitter": "None", "instagram": "None", "facebook": "None", "youtube": "None", "website": "None", "summary": "None", "logo": "None", "latitude": 44.679138980121984, "longitude": -76.40306763221069}, "107910176RR0028": {"name": "ST. EDWARD'S PARISH", "designationCode": "C", "categoryCode": "38", "address": "PO BOX 1363 STN C", "city": "ST. JOHN'S", "province": "NL", "country": "CA", "postalCode": "A1C5N5", "twitter": "None", "instagram": "None", "facebook": "None", "youtube": "None", "website": "None", "summary": "None", "logo": "None", "latitude": 47.56082100000006, "longitude": -52.71219349999993}, "119172195RR0001": {"name": "ST. EDWARD'S PRESBYTERIAN CHURCH", "designationCode": "C", "categoryCode": "37", "address": "405 - 110 RUE DE GASPE O", "city": "CHATEAUGUAY", "province": "QC", "country": "CA", "postalCode": "J6J0C5", "twitter": "None", "instagram": "None", "facebook": "None", "youtube": "None", "website": "None", "summary": "None", "logo": "None", "latitude": 45.360845999999995, "longitude": -73.73028825}, "108094392RR0038": {"name": "ST. EDWARDS PARISH", "designationCode": "C", "categoryCode": "38", "address": "11123 OKANAGAN CENTRE RD. E.", "city": "WINFIELD", "province": "BC", "country": "CA", "postalCode": "V4V1H3", "twitter": "None", "instagram": "None", "facebook": "None", "youtube": "None", "website": "None", "summary": "None", "logo": "None", "latitude": 50.04445597391653, "longitude": -119.41686064138169}, "896591484RR0001": {"name": "ST. ELI (1908) PIONEER CHURCH MUSEUM INC.", "designationCode": "C", "categoryCode": "50", "address": "BOX 256", "city": "INGLIS", "province": "MB", "country": "CA", "postalCode": "R0J0X0", "twitter": "None", "instagram": "None", "facebook": "None", "youtube": "None", "website": "None", "summary": "None", "logo": "None", "latitude": 50.94838000000004, "longitude": -101.25137999999998}, "891428997RR0001": {"name": "ST. ELIA'S ORTHODOX CHURCH SOCIETY, PAKAN", "designationCode": "C", "categoryCode": "39", "address": "11142-63 ST", "city": "EDMONTON", "province": "AB", "country": "CA", "postalCode": "T5W4E4", "twitter": "None", "instagram": "None", "facebook": "None", "youtube": "None", "website": "None", "summary": "None", "logo": "None", "latitude": 53.56501815070119, "longitude": -113.43461416489676}, "119172534RR0001": {"name": "ST. ELIAS ANTIOCHIAN ORTHODOX SOCIETY OF OTTAWA", "designationCode": "C", "categoryCode": "39", "address": "700 RIDGEWOOD AVE", "city": "OTTAWA", "province": "ON", "country": "CA", "postalCode": "K1V6N1", "twitter": "None", "instagram": "None", "facebook": "None", "youtube": "None", "website": "None", "summary": "None", "logo": "None", "latitude": 45.36761454948393, "longitude": -75.68817037079467}, "107771867RR0001": {"name": "ST. ELIE ORTHODOX CHURCH", "designationCode": "C", "categoryCode": "39", "address": "P.O. BOX 1072", "city": "RUSSELL", "province": "MB", "country": "CA", "postalCode": "R0J1W0", "twitter": "None", "instagram": "None", "facebook": "None", "youtube": "None", "website": "None", "summary": "None", "logo": "None", "latitude": 50.69676379161792, "longitude": -101.40612232134879}, "119172559RR0001": {"name": "ST. ELIZABETH HOME SOCIETY (HAMILTON, ONTARIO)", "designationCode": "C", "categoryCode": "01", "address": "384 RYMAL RD W", "city": "HAMILTON", "province": "ON", "country": "CA", "postalCode": "L9B1B8", "twitter": "None", "instagram": "None", "facebook": "None", "youtube": "None", "website": "None", "summary": "None", "logo": "None", "latitude": 43.20677410413147, "longitude": -79.91073410364145}, "840222327RR0001": {"name": "ST. ELIZABETH MISSION", "designationCode": "C", "categoryCode": "38", "address": "BOX 97", "city": "GLEN BAIN", "province": "SK", "country": "CA", "postalCode": "S0N0X0", "twitter": "None", "instagram": "None", "facebook": "None", "youtube": "None", "website": "None", "summary": "None", "logo": "None", "latitude": 49.84874700000006, "longitude": -107.01712249999993}, "107909939RR0065": {"name": "ST. ELIZABETH OF HUNGARY CHURCH", "designationCode": "C", "categoryCode": "38", "address": "819-13TH AVE SW", "city": "CALGARY", "province": "AB", "country": "CA", "postalCode": "T2R0L1", "twitter": "None", "instagram": "None", "facebook": "None", "youtube": "None", "website": "None", "summary": "None", "logo": "None", "latitude": 51.0409005212074, "longitude": -114.08040411226844}, "119172625RR0001": {"name": "ST. ELIZABETH'S ANGLICAN CHURCH", "designationCode": "C", "categoryCode": "30", "address": "1051 EGLINGTON AVE", "city": "MISSASSAUGA", "province": "ON", "country": "CA", "postalCode": "L5V2W3", "twitter": "None", "instagram": "None", "facebook": "None", "youtube": "None", "website": "None", "summary": "None", "logo": "None", "latitude": 43.584242236770564, "longitude": -79.67828430368138}, "107876476RR0058": {"name": "ST. ELIZABETH'S CHURCH", "designationCode": "C", "categoryCode": "38", "address": "PO BOX 148", "city": "TEMAGAMI", "province": "ON", "country": "CA", "postalCode": "P0H2H0", "twitter": "None", "instagram": "None", "facebook": "None", "youtube": "None", "website": "None", "summary": "None", "logo": "None", "latitude": 47.056350000000066, "longitude": -79.79692999999997}, "108013954RR0001": {"name": "ST. ELIZABETH'S CHURCH", "designationCode": "C", "categoryCode": "38", "address": "PO BOX 100", "city": "KILLALY", "province": "SK", "country": "CA", "postalCode": "S0A1X0", "twitter": "None", "instagram": "None", "facebook": "None", "youtube": "None", "website": "None", "summary": "None", "logo": "None", "latitude": 50.71951380161656, "longitude": -102.64792658634687}, "108099771RR0033": {"name": "ST. ELIZABETH'S CHURCH", "designationCode": "C", "categoryCode": "30", "address": "5324 BROMLEY RD", "city": "BURLINGTON", "province": "ON", "country": "CA", "postalCode": "L7L3G4", "twitter": "None", "instagram": "None", "facebook": "None", "youtube": "None", "website": "None", "summary": "None", "logo": "None", "latitude": 43.37013338216296, "longitude": -79.73613308240539}, "119109791RR0016": {"name": "ST. ELIZABETH'S CHURCH", "designationCode": "C", "categoryCode": "38", "address": "P.O. BOX 117", "city": "WAINFLEET", "province": "ON", "country": "CA", "postalCode": "L0S1V0", "twitter": "None", "instagram": "None", "facebook": "None", "youtube": "None", "website": "None", "summary": "None", "logo": "None", "latitude": 42.922780000000046, "longitude": -79.37501999999995}, "119172674RR0001": {"name": "ST. ELIZABETH'S CO-OPERATIVE NURSERY SCHOOL", "designationCode": "C", "categoryCode": "20", "address": "5324 BROMLEY RD", "city": "BURLINGTON", "province": "ON", "country": "CA", "postalCode": "L7L3G4", "twitter": "None", "instagram": "None", "facebook": "None", "youtube": "None", "website": "None", "summary": "None", "logo": "None", "latitude": 43.37013338216296, "longitude": -79.73613308240539}, "119172849RR0001": {"name": "ST. ELLEN'S CHURCH", "designationCode": "C", "categoryCode": "38", "address": "BOX 1780", "city": "SWAN RIVER", "province": "MB", "country": "CA", "postalCode": "R0L1Z0", "twitter": "None", "instagram": "None", "facebook": "None", "youtube": "None", "website": "None", "summary": "None", "logo": "None", "latitude": 52.11672730414978, "longitude": -101.25989472758229}, "131641896RR0001": {"name": "ST. EMILE PARISH, LEGAL", "designationCode": "C", "categoryCode": "38", "address": "4609 50 AVE", "city": "ST PAUL", "province": "AB", "country": "CA", "postalCode": "T0A3A3", "twitter": "None", "instagram": "None", "facebook": "None", "youtube": "None", "website": "None", "summary": "None", "logo": "None", "latitude": 53.99135148730496, "longitude": -111.28695202553523}, "108014440RR0001": {"name": "ST. EMILE SCHOOL, INC.", "designationCode": "C", "categoryCode": "20", "address": "552 ST ANNE'S RD", "city": "WINNIPEG", "province": "MB", "country": "CA", "postalCode": "R2M3G4", "twitter": "None", "instagram": "None", "facebook": "None", "youtube": "None", "website": "None", "summary": "None", "logo": "None", "latitude": 49.83657203740241, "longitude": -97.09216642634071}, "119172971RR0001": {"name": "ST. ERIK'S CHURCH", "designationCode": "C", "categoryCode": "38", "address": "BOX 190", "city": "ERIKSDALE", "province": "MB", "country": "CA", "postalCode": "R0C0W0", "twitter": "None", "instagram": "None", "facebook": "None", "youtube": "None", "website": "None", "summary": "None", "logo": "None", "latitude": 50.86375000000004, "longitude": -98.11142999999998}, "860802933RR0001": {"name": "ST. EUGENE HOPE FOR THE FUTURE", "designationCode": "C", "categoryCode": "09", "address": "7 HUMBER TRAIL", "city": "CALEDON", "province": "ON", "country": "CA", "postalCode": "L7E0A8", "twitter": "None", "instagram": "None", "facebook": "None", "youtube": "None", "website": "None", "summary": "None", "logo": "None", "latitude": 43.92833617710178, "longitude": -79.79780577736769}, "107585085RR0032": {"name": "ST. EUGENE PARISH, NIPAWIN, SK", "designationCode": "C", "categoryCode": "38", "address": "PO BOX 1150", "city": "NIPAWIN", "province": "SK", "country": "CA", "postalCode": "S0E1E0", "twitter": "None", "instagram": "None", "facebook": "None", "youtube": "None", "website": "None", "summary": "None", "logo": "None", "latitude": 53.396118, "longitude": -104.00834700000001}, "119173177RR0001": {"name": "ST. EUGENE ROMAN CATHOLIC PARISH", "designationCode": "C", "categoryCode": "38", "address": "BOX 149", "city": "MINTON", "province": "SK", "country": "CA", "postalCode": "S0C1T0", "twitter": "None", "instagram": "None", "facebook": "None", "youtube": "None", "website": "None", "summary": "None", "logo": "None", "latitude": 49.16676000000007, "longitude": -104.58434999999997}, "119110450RR0050": {"name": "ST. EUGENE'S PARISH", "designationCode": "C", "categoryCode": "38", "address": "232 QUEENSTON ROAD", "city": "HAMILTON", "province": "ON", "country": "CA", "postalCode": "L8K1G6", "twitter": "None", "instagram": "None", "facebook": "None", "youtube": "None", "website": "None", "summary": "None", "logo": "None", "latitude": 43.23524584306734, "longitude": -79.79633707276784}, "108016395RR0001": {"name": "ST. EUSTACHE MINI-FRAN INC.", "designationCode": "C", "categoryCode": "01", "address": "PO BOX 182", "city": "ST EUSTACHE", "province": "MB", "country": "CA", "postalCode": "R0H1H0", "twitter": "None", "instagram": "None", "facebook": "None", "youtube": "None", "website": "None", "summary": "None", "logo": "None", "latitude": 49.978950000000054, "longitude": -97.78089999999997}, "108017716RR0002": {"name": "ST. FAITH'S ANGLICAN CHURCH", "designationCode": "C", "categoryCode": "30", "address": "11725 93 ST NW", "city": "EDMONTON", "province": "AB", "country": "CA", "postalCode": "T5G1E2", "twitter": "None", "instagram": "None", "facebook": "None", "youtube": "None", "website": "None", "summary": "None", "logo": "None", "latitude": 53.569782586733226, "longitude": -113.48416625959409}, "888880861RR0001": {"name": "ST. FANOURIOS AND ST. RAPHAEL GREEK ORTHODOX CHURCH", "designationCode": "C", "categoryCode": "39", "address": "13177 WARDEN AVENUE           RR4", "city": "STOUFFVILLE", "province": "ON", "country": "CA", "postalCode": "L4A7X5", "twitter": "None", "instagram": "None", "facebook": "None", "youtube": "None", "website": "None", "summary": "None", "logo": "None", "latitude": 43.97061243686875, "longitude": -79.35793662744591}, "119173524RR0001": {"name": "ST. FELIX ROMAN CATHOLIC CHURCH", "designationCode": "C", "categoryCode": "38", "address": "BOX 341", "city": "ARCHERWILL", "province": "SK", "country": "CA", "postalCode": "S0E0B0", "twitter": "None", "instagram": "None", "facebook": "None", "youtube": "None", "website": "None", "summary": "None", "logo": "None", "latitude": 52.440810000000056, "longitude": -103.86157999999995}, "863777165RR0001": {"name": "ST. FELIX SOCIAL MINISTRIES OUTREACH", "designationCode": "B", "categoryCode": "09", "address": "25 AUGUSTA AVE", "city": "TORONTO", "province": "ON", "country": "CA", "postalCode": "M5T2K7", "twitter": "None", "instagram": "None", "facebook": "None", "youtube": "None", "website": "None", "summary": "None", "logo": "None", "latitude": 43.648957298372615, "longitude": -79.39999927707923}, "119122778RR0002": {"name": "ST. FINNAN'S CATHEDRAL PARISH", "designationCode": "C", "categoryCode": "38", "address": "ST. FINNAN'S                  PO BOX 340, 72 ST. PAUL ST.", "city": "ALEXANDRIA", "province": "ON", "country": "CA", "postalCode": "K0C1A0", "twitter": "None", "instagram": "None", "facebook": "None", "youtube": "None", "website": "None", "summary": "None", "logo": "None", "latitude": 45.31051885416481, "longitude": -74.63255757484144}, "107909939RR0024": {"name": "ST. FRANCIS CHURCH", "designationCode": "C", "categoryCode": "38", "address": "604 FIRST ST SE", "city": "CALGARY", "province": "AB", "country": "CA", "postalCode": "T2G4W4", "twitter": "None", "instagram": "None", "facebook": "None", "youtube": "None", "website": "None", "summary": "None", "logo": "None", "latitude": 51.04725786619244, "longitude": -114.06039003712631}, "119173581RR0001": {"name": "ST. FRANCIS CHURCH OF HOLY LIGHT INC.", "designationCode": "C", "categoryCode": "39", "address": "2238 OLD FORT RD", "city": "MIDLAND", "province": "ON", "country": "CA", "postalCode": "L4R4K3", "twitter": "None", "instagram": "None", "facebook": "None", "youtube": "None", "website": "None", "summary": "None", "logo": "None", "latitude": 44.71088168717201, "longitude": -79.81249852464025}, "106880107RR0029": {"name": "ST. FRANCIS DE SALES CHURCH", "designationCode": "C", "categoryCode": "38", "address": "17 CHURCH ST", "city": "CLEVELAND", "province": "NS", "country": "CA", "postalCode": "B0E1J0", "twitter": "None", "instagram": "None", "facebook": "None", "youtube": "None", "website": "None", "summary": "None", "logo": "None", "latitude": 45.61114326027693, "longitude": -61.39082696651282}, "107909939RR0033": {"name": "ST. FRANCIS DE SALES CHURCH", "designationCode": "C", "categoryCode": "38", "address": "206-9TH AVE WEST", "city": "HIGH RIVER", "province": "AB", "country": "CA", "postalCode": "T1V1A4", "twitter": "None", "instagram": "None", "facebook": "None", "youtube": "None", "website": "None", "summary": "None", "logo": "None", "latitude": 50.574790340008, "longitude": -113.87520657493224}, "108017831RR0001": {"name": "ST. FRANCIS DE SALES MANITOBA CATHOLIC CHURCH OF THE DEAF", "designationCode": "C", "categoryCode": "38", "address": "234-285 PEMBINA HWY", "city": "WINNIPEG", "province": "MB", "country": "CA", "postalCode": "R3L2E1", "twitter": "None", "instagram": "None", "facebook": "None", "youtube": "None", "website": "None", "summary": "None", "logo": "None", "latitude": 49.87290600000001, "longitude": -97.14357000000001}, "118849470RR0060": {"name": "ST. FRANCIS DE SALES PARISH", "designationCode": "C", "categoryCode": "38", "address": "6610 BALMORAL ST", "city": "BURNABY", "province": "BC", "country": "CA", "postalCode": "V5E1J1", "twitter": "None", "instagram": "None", "facebook": "None", "youtube": "None", "website": "None", "summary": "None", "logo": "None", "latitude": 49.22014596141712, "longitude": -122.96728664290512}, "119110385RR0016": {"name": "ST. FRANCIS DE SALES PARISH", "designationCode": "C", "categoryCode": "38", "address": "2797 DAFOE RD, RR 2", "city": "COMBERMERE", "province": "ON", "country": "CA", "postalCode": "K0J1L0", "twitter": "None", "instagram": "None", "facebook": "None", "youtube": "None", "website": "None", "summary": "None", "logo": "None", "latitude": 45.35377380457637, "longitude": -77.60900254348171}, "119110443RR0016": {"name": "ST. FRANCIS DE SALES PARISH", "designationCode": "C", "categoryCode": "38", "address": "17 ELMSLEY ST N BOX 1153", "city": "SMITH FALLS", "province": "ON", "country": "CA", "postalCode": "K7A5B4", "twitter": "None", "instagram": "None", "facebook": "None", "youtube": "None", "website": "None", "summary": "None", "logo": "None"}, "119122778RR0025": {"name": "ST. FRANCIS DE SALES PARISH", "designationCode": "C", "categoryCode": "38", "address": "434 SECOND ST WEST", "city": "CORNWALL", "province": "ON", "country": "CA", "postalCode": "K6J1H1", "twitter": "None", "instagram": "None", "facebook": "None", "youtube": "None", "website": "None", "summary": "None", "logo": "None", "latitude": 45.01567759391792, "longitude": -74.73857050124074}, "108017971RR0001": {"name": "ST. FRANCIS MEMORIAL HOSPITAL ASSOCIATION", "designationCode": "C", "categoryCode": "10", "address": "P.O. BOX 129", "city": "BARRY'S BAY", "province": "ON", "country": "CA", "postalCode": "K0J1B0", "twitter": "None", "instagram": "None", "facebook": "None", "youtube": "None", "website": "None", "summary": "None", "logo": "None", "latitude": 45.43239678569254, "longitude": -77.58978439269401}, "119109817RR0011": {"name": "ST. FRANCIS OF ASSISI", "designationCode": "C", "categoryCode": "38", "address": "1701 TURNER RD", "city": "WINDSOR", "province": "ON", "country": "CA", "postalCode": "N8W3J9", "twitter": "None", "instagram": "None", "facebook": "None", "youtube": "None", "website": "None", "summary": "None", "logo": "None", "latitude": 42.30541791672924, "longitude": -82.99774901445538}, "893840066RR0001": {"name": "ST. FRANCIS OF ASSISI ANGLICAN CHURCH", "designationCode": "C", "categoryCode": "30", "address": "132 ALBERT STREET", "city": "AIRDRIE", "province": "AB", "country": "CA", "postalCode": "T4B0P9", "twitter": "None", "instagram": "None", "facebook": "None", "youtube": "None", "website": "None", "summary": "None", "logo": "None", "latitude": 51.290217031363596, "longitude": -114.0102876182124}, "119110443RR0021": {"name": "ST. FRANCIS OF ASSISI CHURCH", "designationCode": "C", "categoryCode": "38", "address": "BOX 339, 288 RIVERSIDE PARKWAY", "city": "FRANKFORD", "province": "ON", "country": "CA", "postalCode": "K0K2C0", "twitter": "None", "instagram": "None", "facebook": "None", "youtube": "None", "website": "None", "summary": "None", "logo": "None", "latitude": 44.20096596003806, "longitude": -77.59084627029856}, "107020331RR0031": {"name": "ST. FRANCIS OF ASSISI PARISH", "designationCode": "C", "categoryCode": "38", "address": "2130 ROUTE 102", "city": "LINCOLN", "province": "NB", "country": "CA", "postalCode": "E3B8N1", "twitter": "None", "instagram": "None", "facebook": "None", "youtube": "None", "website": "None", "summary": "None", "logo": "None", "latitude": 45.900231380038186, "longitude": -66.57495164840567}, "107910176RR0029": {"name": "ST. FRANCIS OF ASSISI PARISH", "designationCode": "C", "categoryCode": "38", "address": "PO BOX 1363", "city": "ST JOHN'S", "province": "NL", "country": "CA", "postalCode": "A1C5N5", "twitter": "None", "instagram": "None", "facebook": "None", "youtube": "None", "website": "None", "summary": "None", "logo": "None", "latitude": 47.56082100000006, "longitude": -52.71219349999993}, "107910259RR0017": {"name": "ST. FRANCIS OF ASSISI PARISH", "designationCode": "C", "categoryCode": "38", "address": "2473 THORNLODGE DRIVE", "city": "MISSISSAUGA", "province": "ON", "country": "CA", "postalCode": "L5K1K8", "twitter": "None", "instagram": "None", "facebook": "None", "youtube": "None", "website": "None", "summary": "None", "logo": "None", "latitude": 43.52693322234386, "longitude": -79.67252376371943}, "108094392RR0031": {"name": "ST. FRANCIS OF ASSISI PARISH", "designationCode": "C", "categoryCode": "38", "address": "BOX 2610", "city": "REVELSTOKE", "province": "BC", "country": "CA", "postalCode": "V0E2S0", "twitter": "None", "instagram": "None", "facebook": "None", "youtube": "None", "website": "None", "summary": "None", "logo": "None", "latitude": 52.00738183978388, "longitude": -118.56208529545198}, "119109833RR0050": {"name": "ST. FRANCIS OF ASSISI PARISH", "designationCode": "C", "categoryCode": "38", "address": "GENERAL DELIVERY", "city": "MT. UNIACKE", "province": "NS", "country": "CA", "postalCode": "B0N1Z0", "twitter": "None", "instagram": "None", "facebook": "None", "youtube": "None", "website": "None", "summary": "None", "logo": "None", "latitude": 44.95820100000006, "longitude": -63.90217699999994}, "119110450RR0033": {"name": "ST. FRANCIS OF ASSISI PARISH", "designationCode": "C", "categoryCode": "38", "address": "49 BLUERIDGE AVE", "city": "KITCHENER", "province": "ON", "country": "CA", "postalCode": "N2M4E2", "twitter": "None", "instagram": "None", "facebook": "None", "youtube": "None", "website": "None", "summary": "None", "logo": "None", "latitude": 43.432913285850475, "longitude": -80.5067611263198}, "812295608RR0001": {"name": "ST. FRANCIS OF ASSISI ROMAN CATHOLIC PARISH INC.", "designationCode": "C", "categoryCode": "38", "address": "PO BOX 219", "city": "CORNWALL", "province": "PE", "country": "CA", "postalCode": "C0A1H0", "twitter": "None", "instagram": "None", "facebook": "None", "youtube": "None", "website": "None", "summary": "None", "logo": "None", "latitude": 46.241144818530714, "longitude": -63.21831691777574}, "118849470RR0007": {"name": "ST. FRANCIS PARISH", "designationCode": "C", "categoryCode": "38", "address": "2025 NAPIER ST", "city": "VANCOUVER", "province": "BC", "country": "CA", "postalCode": "V5L2N8", "twitter": "None", "instagram": "None", "facebook": "None", "youtube": "None", "website": "None", "summary": "None", "logo": "None", "latitude": 49.27486053375821, "longitude": -123.06337102553522}, "119109817RR0014": {"name": "ST. FRANCIS PARISH", "designationCode": "C", "categoryCode": "38", "address": "P.O. BOX 1029                 32 CANAL STREET WEST", "city": "TILBURY", "province": "ON", "country": "CA", "postalCode": "N0P2L0", "twitter": "None", "instagram": "None", "facebook": "None", "youtube": "None", "website": "None", "summary": "None", "logo": "None", "latitude": 42.25798852345777, "longitude": -82.43566154385708}, "119173946RR0001": {"name": "ST. FRANCIS VALLEY NATURALISTS CLUB INC. LE CLUB DES NATURALISTES DE LA VALLEE DE ST-FRANCOIS INC.", "designationCode": "C", "categoryCode": "52", "address": "BOX 222", "city": "SHERBROOKE", "province": "QC", "country": "CA", "postalCode": "J1M1Z4", "twitter": "None", "instagram": "None", "facebook": "None", "youtube": "None", "website": "None", "summary": "None", "logo": "None", "latitude": 45.36228300000006, "longitude": -71.85339349999994}, "118849470RR0047": {"name": "ST. FRANCIS XAVIER", "designationCode": "C", "categoryCode": "38", "address": "428 GREAT NORTHERN WAY", "city": "VANCOUVER", "province": "BC", "country": "CA", "postalCode": "V5T4S5", "twitter": "None", "instagram": "None", "facebook": "None", "youtube": "None", "website": "None", "summary": "None", "logo": "None", "latitude": 49.26678153563412, "longitude": -123.09449124424374}, "119110443RR0045": {"name": "ST. FRANCIS XAVIER CHURCH", "designationCode": "C", "categoryCode": "38", "address": "66 CHURCH ST", "city": "BROCKVILLE", "province": "ON", "country": "CA", "postalCode": "K6V3X6", "twitter": "None", "instagram": "None", "facebook": "None", "youtube": "None", "website": "None", "summary": "None", "logo": "None", "latitude": 44.58908600279861, "longitude": -75.68874545686405}, "898570684RR0001": {"name": "ST. FRANCIS XAVIER DAY CARE", "designationCode": "C", "categoryCode": "47", "address": "428 GREAT NORTHERN WAY", "city": "VANCOUVER", "province": "BC", "country": "CA", "postalCode": "V5T4S5", "twitter": "None", "instagram": "None", "facebook": "None", "youtube": "None", "website": "None", "summary": "None", "logo": "None", "latitude": 49.26678153563412, "longitude": -123.09449124424374}, "119264174RR0003": {"name": "ST. FRANCIS XAVIER Parish", "designationCode": "C", "categoryCode": "38", "address": "PO BOX 358", "city": "MARATHON", "province": "ON", "country": "CA", "postalCode": "P0T2E0", "twitter": "None", "instagram": "None", "facebook": "None", "youtube": "None", "website": "None", "summary": "None", "logo": "None", "latitude": 48.721610000000055, "longitude": -86.37360999999999}, "107020331RR0059": {"name": "ST. FRANCIS XAVIER PARISH", "designationCode": "C", "categoryCode": "38", "address": "114 CHURCH AVENUE", "city": "SUSSEX", "province": "NB", "country": "CA", "postalCode": "E4E1Z1", "twitter": "None", "instagram": "None", "facebook": "None", "youtube": "None", "website": "None", "summary": "None", "logo": "None", "latitude": 45.71941002283968, "longitude": -65.50963631372562}, "107307191RR0013": {"name": "ST. FRANCIS XAVIER PARISH", "designationCode": "C", "categoryCode": "38", "address": "222 WILLOW ST", "city": "SASKATOON", "province": "SK", "country": "CA", "postalCode": "S7J0C4", "twitter": "None", "instagram": "None", "facebook": "None", "youtube": "None", "website": "None", "summary": "None", "logo": "None", "latitude": 52.104398524525614, "longitude": -106.665543}, "107307191RR0064": {"name": "ST. FRANCIS XAVIER PARISH", "designationCode": "C", "categoryCode": "38", "address": "BOX 453", "city": "VANSCOY", "province": "SK", "country": "CA", "postalCode": "S0L3J0", "twitter": "None", "instagram": "None", "facebook": "None", "youtube": "None", "website": "None", "summary": "None", "logo": "None", "latitude": 52.00073000000003, "longitude": -106.97436999999996}, "107307191RR0070": {"name": "ST. FRANCIS XAVIER PARISH", "designationCode": "C", "categoryCode": "38", "address": "BOX 99", "city": "PRELATE", "province": "SK", "country": "CA", "postalCode": "S0N2B0", "twitter": "None", "instagram": "None", "facebook": "None", "youtube": "None", "website": "None", "summary": "None", "logo": "None", "latitude": 50.851960000000076, "longitude": -109.39802999999995}, "107910176RR0012": {"name": "ST. FRANCIS XAVIER PARISH", "designationCode": "C", "categoryCode": "38", "address": "PO BOX 1363 STN C", "city": "ST. JOHN'S", "province": "NL", "country": "CA", "postalCode": "A1C5N5", "twitter": "None", "instagram": "None", "facebook": "None", "youtube": "None", "website": "None", "summary": "None", "logo": "None", "latitude": 47.56082100000006, "longitude": -52.71219349999993}, "107910192RR0022": {"name": "ST. FRANCIS XAVIER PARISH", "designationCode": "C", "categoryCode": "38", "address": "PO BOX 449", "city": "ST. ANTHONY", "province": "NL", "country": "CA", "postalCode": "A0K4S0", "twitter": "None", "instagram": "None", "facebook": "None", "youtube": "None", "website": "None", "summary": "None", "logo": "None", "latitude": 51.372690000000034, "longitude": -55.597039999999936}, "107910259RR0204": {"name": "ST. FRANCIS XAVIER PARISH", "designationCode": "C", "categoryCode": "38", "address": "5650 MAVIS ROAD", "city": "MISSISSAUGA", "province": "ON", "country": "CA", "postalCode": "L5V2N6", "twitter": "None", "instagram": "None", "facebook": "None", "youtube": "None", "website": "None", "summary": "None", "logo": "None", "latitude": 43.60702116870592, "longitude": -79.68885932826431}, "119110450RR0051": {"name": "ST. FRANCIS XAVIER PARISH", "designationCode": "C", "categoryCode": "38", "address": "304 HWY NO 8", "city": "STONEY CREEK", "province": "ON", "country": "CA", "postalCode": "L8G1E6", "twitter": "None", "instagram": "None", "facebook": "None", "youtube": "None", "website": "None", "summary": "None", "logo": "None", "latitude": 43.22014800000005, "longitude": -79.73080549999993}, "119110450RR0122": {"name": "ST. FRANCIS XAVIER PARISH", "designationCode": "C", "categoryCode": "38", "address": "P.O. BOX 118", "city": "MILDMAY", "province": "ON", "country": "CA", "postalCode": "N0G2J0", "twitter": "None", "instagram": "None", "facebook": "None", "youtube": "None", "website": "None", "summary": "None", "logo": "None", "latitude": 44.04200000000003, "longitude": -81.11933999999997}, "119174050RR0001": {"name": "ST. FRANCIS XAVIER ROMAN CATHOLIC PARISH", "designationCode": "C", "categoryCode": "38", "address": "PO BOX 497", "city": "WAWOTA", "province": "SK", "country": "CA", "postalCode": "S0G5A0", "twitter": "None", "instagram": "None", "facebook": "None", "youtube": "None", "website": "None", "summary": "None", "logo": "None", "latitude": 49.90003000000007, "longitude": -102.03426999999999}, "129144549RR0031": {"name": "ST. FRANCIS, LAKE COUNTRY", "designationCode": "C", "categoryCode": "30", "address": "10162 NEWENE ROAD", "city": "WINFIELD", "province": "BC", "country": "CA", "postalCode": "V4V1V2", "twitter": "None", "instagram": "None", "facebook": "None", "youtube": "None", "website": "None", "summary": "None", "logo": "None", "latitude": 50.03012840328345, "longitude": -119.40573080102699}, "108018284RR0001": {"name": "ST. FRANCOIS XAVIER NURSERY SCHOOL INC.", "designationCode": "C", "categoryCode": "01", "address": "991B HWY 26", "city": "ST FRANCOIS XAVIER", "province": "MB", "country": "CA", "postalCode": "R4L1A4", "twitter": "None", "instagram": "None", "facebook": "None", "youtube": "None", "website": "None", "summary": "None", "logo": "None", "latitude": 49.91034711452703, "longitude": -97.53697123333112}, "119174084RR0001": {"name": "ST. FRANCOIS XAVIER PARISH", "designationCode": "C", "categoryCode": "38", "address": "1053 HWY #26", "city": "ST. FRANCOIS XAVIER", "province": "MB", "country": "CA", "postalCode": "R4L1A5", "twitter": "None", "instagram": "None", "facebook": "None", "youtube": "None", "website": "None", "summary": "None", "logo": "None", "latitude": 49.91280416743619, "longitude": -97.54082012449823}, "119174134RR0001": {"name": "ST. GABRIEL PARENT EDMONTON ASSOCIATION", "designationCode": "C", "categoryCode": "21", "address": "5540 106 AVE NW", "city": "EDMONTON", "province": "AB", "country": "CA", "postalCode": "T6A1G3", "twitter": "None", "instagram": "None", "facebook": "None", "youtube": "None", "website": "None", "summary": "None", "logo": "None", "latitude": 53.55036515130676, "longitude": -113.42311814741161}, "107307191RR0047": {"name": "ST. GABRIEL'S PARISH", "designationCode": "C", "categoryCode": "38", "address": "BOX 550", "city": "BIGGAR", "province": "SK", "country": "CA", "postalCode": "S0K0M0", "twitter": "None", "instagram": "None", "facebook": "None", "youtube": "None", "website": "None", "summary": "None", "logo": "None", "latitude": 52.065150000000074, "longitude": -107.99375999999995}, "108018391RR0001": {"name": "ST. GABRIEL'S PARISH", "designationCode": "C", "categoryCode": "38", "address": "4609 50 AVE", "city": "ST PAUL", "province": "AB", "country": "CA", "postalCode": "T0A3A3", "twitter": "None", "instagram": "None", "facebook": "None", "youtube": "None", "website": "None", "summary": "None", "logo": "None", "latitude": 53.99135148730496, "longitude": -111.28695202553523}, "119110450RR0048": {"name": "ST. GABRIEL'S PARISH", "designationCode": "C", "categoryCode": "38", "address": "2261 PARKWAY DRIVE", "city": "BURLINGTON", "province": "ON", "country": "CA", "postalCode": "L7P1S9", "twitter": "None", "instagram": "None", "facebook": "None", "youtube": "None", "website": "None", "summary": "None", "logo": "None", "latitude": 43.35589962173218, "longitude": -79.8245802211031}, "107876468RR0026": {"name": "ST. GABRIELS PARISH", "designationCode": "C", "categoryCode": "38", "address": "ST  BRENDAN'S", "city": "BONAVISTA BAY", "province": "NL", "country": "CA", "postalCode": "A0G3V0", "twitter": "None", "instagram": "None", "facebook": "None", "youtube": "None", "website": "None", "summary": "None", "logo": "None", "latitude": 48.868404000000055, "longitude": -53.65240099999993}, "119109833RR0030": {"name": "ST. GENEVIEVE'S CHURCH", "designationCode": "C", "categoryCode": "38", "address": "723 EAST CHEZZETCOOK          RR #1 SITE 13", "city": "HEAD CHEZZETCOOK", "province": "NS", "country": "CA", "postalCode": "B0J1N0", "twitter": "None", "instagram": "None", "facebook": "None", "youtube": "None", "website": "None", "summary": "None", "logo": "None", "latitude": 44.722758466847374, "longitude": -63.23752416815766}, "809601347RR0001": {"name": "ST. GEORGE AND ST. ARCHANGEL MICHAEL SERBIAN ORTHODOX CHURCH CONGREGATION OF NIAGARA FALLS", "designationCode": "C", "categoryCode": "39", "address": "6085 MONTROSE RD", "city": "NIAGARA FALLS", "province": "ON", "country": "CA", "postalCode": "L2H1L4", "twitter": "None", "instagram": "None", "facebook": "None", "youtube": "None", "website": "None", "summary": "None", "logo": "None", "latitude": 43.08641203312636, "longitude": -79.12327729585625}, "108018441RR0001": {"name": "ST. GEORGE ANTIOCHIAN ORTHODOX CHURCH", "designationCode": "C", "categoryCode": "39", "address": "9116 BAYVIEW AVENUE", "city": "RICHMOND HILL", "province": "ON", "country": "CA", "postalCode": "L4B3M9", "twitter": "None", "instagram": "None", "facebook": "None", "youtube": "None", "website": "None", "summary": "None", "logo": "None", "latitude": 43.85378521105127, "longitude": -79.41011183840176}, "119174258RR0001": {"name": "ST. GEORGE BAPTIST CHURCH", "designationCode": "C", "categoryCode": "31", "address": "BOX 217", "city": "ST.GEORGE", "province": "ON", "country": "CA", "postalCode": "N0E1N0", "twitter": "None", "instagram": "None", "facebook": "None", "youtube": "None", "website": "None", "summary": "None", "logo": "None", "latitude": 43.28627829490151, "longitude": -80.26933388605639}, "894187269RR0001": {"name": "ST. GEORGE FAMILY WORSHIP CENTER INC.", "designationCode": "C", "categoryCode": "39", "address": "BOX 1092", "city": "ST GEORGE", "province": "NB", "country": "CA", "postalCode": "E5C3S9", "twitter": "None", "instagram": "None", "facebook": "None", "youtube": "None", "website": "None", "summary": "None", "logo": "None", "latitude": 45.13052400000005, "longitude": -66.81961249999993}, "119174274RR0001": {"name": "ST. GEORGE GREEK ORTHODOX CHURCH", "designationCode": "C", "categoryCode": "39", "address": "115 BOND ST", "city": "TORONTO", "province": "ON", "country": "CA", "postalCode": "M5B1Y2", "twitter": "None", "instagram": "None", "facebook": "None", "youtube": "None", "website": "None", "summary": "None", "logo": "None", "latitude": 43.65728104163539, "longitude": -79.3786603427493}, "119174282RR0001": {"name": "ST. GEORGE GREEK ORTHODOX CHURCH", "designationCode": "C", "categoryCode": "39", "address": "10831-124 STREET", "city": "EDMONTON", "province": "AB", "country": "CA", "postalCode": "T5M0H4", "twitter": "None", "instagram": "None", "facebook": "None", "youtube": "None", "website": "None", "summary": "None", "logo": "None", "latitude": 53.553383999999994, "longitude": -113.53588473795399}, "119174332RR0001": {"name": "ST. GEORGE ORTHODOX CATHEDRAL INC.", "designationCode": "C", "categoryCode": "39", "address": "2005 EDGAR ST", "city": "REGINA", "province": "SK", "country": "CA", "postalCode": "S4N3K5", "twitter": "None", "instagram": "None", "facebook": "None", "youtube": "None", "website": "None", "summary": "None", "logo": "None", "latitude": 50.446863922009356, "longitude": -104.58793040143713}, "119174316RR0001": {"name": "ST. GEORGE ORTHODOX CHURCH OF MONTREAL", "designationCode": "C", "categoryCode": "39", "address": "555 JEAN TALON EAST", "city": "MONTREAL", "province": "QC", "country": "CA", "postalCode": "H2R1P8", "twitter": "None", "instagram": "None", "facebook": "None", "youtube": "None", "website": "None", "summary": "None", "logo": "None", "latitude": 45.53962057517359, "longitude": -73.61374690266574}, "119175297RR0001": {"name": "ST. GEORGE SERBIAN ORTHODOX CHURCH - SCHOOL CONGREGATION OF THUNDER BAY, ONTARIO CANADA", "designationCode": "C", "categoryCode": "39", "address": "869 JOHN ST", "city": "THUNDER BAY", "province": "ON", "country": "CA", "postalCode": "P7B2A2", "twitter": "None", "instagram": "None", "facebook": "None", "youtube": "None", "website": "None", "summary": "None", "logo": "None", "latitude": 48.438360734375976, "longitude": -89.25841613269644}, "107669848RR0015": {"name": "ST. GEORGE SEVENTH-DAY ADVENTIST CHURCH", "designationCode": "C", "categoryCode": "41", "address": "121 SALISBURY RD", "city": "MONCTON", "province": "NB", "country": "CA", "postalCode": "E1E1A6", "twitter": "None", "instagram": "None", "facebook": "None", "youtube": "None", "website": "None", "summary": "None", "logo": "None", "latitude": 46.0711640413756, "longitude": -64.82144086984238}}