{"899293013RR0001": {"name": "NORTHERN CORRIDOR CHILDREN'S FUND", "designationCode": "C", "categoryCode": "09", "address": "2 ASH STREET", "city": "KAPVSKASING", "province": "ON", "country": "CA", "postalCode": "P5N3H4", "twitter": "None", "instagram": "None", "facebook": "None", "youtube": "None", "website": "None", "summary": "None", "logo": "None", "latitude": 49.42072602890594, "longitude": -82.4172354133679}, "847335320RR0001": {"name": "NORTHERN CROSS COMMUNITY CHURCH", "designationCode": "C", "categoryCode": "31", "address": "BOX 1180, STA. C              400 KELLAND DRIVE", "city": "GOOSE BAY", "province": "NL", "country": "CA", "postalCode": "A0P1C0", "twitter": "None", "instagram": "None", "facebook": "None", "youtube": "None", "website": "None", "summary": "None", "logo": "None", "latitude": 53.29581900000005, "longitude": -60.29593999999993}, "899359186RR0001": {"name": "NORTHERN CROSSING MUSIC & DRAMA SOCIETY", "designationCode": "C", "categoryCode": "22", "address": "BOX 1586", "city": "ROCKY MOUNTAIN HOUSE", "province": "AB", "country": "CA", "postalCode": "T4T1B2", "twitter": "None", "instagram": "None", "facebook": "None", "youtube": "None", "website": "None", "summary": "None", "logo": "None", "latitude": 52.37758500000005, "longitude": -114.93030049999993}, "119059863RR0001": {"name": "NORTHERN DANCE THEATRE SOCIETY", "designationCode": "C", "categoryCode": "22", "address": "PO BOX 6054", "city": "FORT ST JOHN", "province": "BC", "country": "CA", "postalCode": "V1J4H6", "twitter": "None", "instagram": "None", "facebook": "None", "youtube": "None", "website": "None", "summary": "None", "logo": "None", "latitude": 56.25253500000005, "longitude": -120.84748099999993}, "133948729RR0001": {"name": "NORTHERN ENVIRONMENTAL ACTION TEAM", "designationCode": "C", "categoryCode": "59", "address": "10027 100 ST", "city": "FORT ST JOHN", "province": "BC", "country": "CA", "postalCode": "V1J3Y5", "twitter": "None", "instagram": "None", "facebook": "None", "youtube": "None", "website": "None", "summary": "None", "logo": "None", "latitude": 56.24690349708581, "longitude": -120.84744103119073}, "119059889RR0001": {"name": "NORTHERN FELLOWSHIP CHAPEL", "designationCode": "C", "categoryCode": "34", "address": "BOX 35 433 1ST WEST", "city": "CREIGHTON", "province": "SK", "country": "CA", "postalCode": "S0P0A0", "twitter": "None", "instagram": "None", "facebook": "None", "youtube": "None", "website": "None", "summary": "None", "logo": "None", "latitude": 54.75705395741031, "longitude": -101.90174850003778}, "107782369RR0001": {"name": "NORTHERN FRONTENAC COMMUNITY SERVICES CORPORATION", "designationCode": "C", "categoryCode": "59", "address": "PO BOX 250                    1020 ELIZABETH STREET", "city": "SHARBOT LAKE", "province": "ON", "country": "CA", "postalCode": "K0H2P0", "twitter": "None", "instagram": "None", "facebook": "None", "youtube": "None", "website": "None", "summary": "None", "logo": "None", "latitude": 44.77036461226845, "longitude": -76.69001777087549}, "899310585RR0001": {"name": "NORTHERN GATEWAY REGIONAL DIVISION NO 10", "designationCode": "C", "categoryCode": "20", "address": "4816 49 AVE                   PO BOX 840", "city": "WHITECOURT", "province": "AB", "country": "CA", "postalCode": "T7S1N8", "twitter": "None", "instagram": "None", "facebook": "None", "youtube": "None", "website": "None", "summary": "None", "logo": "None"}, "886108059RR0001": {"name": "NORTHERN HAVEN SUPPORT SOCIETY", "designationCode": "C", "categoryCode": "01", "address": "PO BOX 1433", "city": "SLAVE LAKE", "province": "AB", "country": "CA", "postalCode": "T0G2A0", "twitter": "None", "instagram": "None", "facebook": "None", "youtube": "None", "website": "None", "summary": "None", "logo": "None", "latitude": 55.28284800000006, "longitude": -114.77156299999993}, "886135953RR0001": {"name": "NORTHERN HEALTH AUTHORITY", "designationCode": "C", "categoryCode": "11", "address": "300 - 299 VICTORIA ST", "city": "PRINCE GEORGE", "province": "BC", "country": "CA", "postalCode": "V2L5B8", "twitter": "None", "instagram": "None", "facebook": "None", "youtube": "None", "website": "None", "summary": "None", "logo": "None", "latitude": 53.917995454304496, "longitude": -122.7491108372952}, "832384168RR0001": {"name": "NORTHERN HEARTS", "designationCode": "C", "categoryCode": "21", "address": "1165 BARTON ST", "city": "THUNDER BAY", "province": "ON", "country": "CA", "postalCode": "P7B5N3", "twitter": "None", "instagram": "None", "facebook": "None", "youtube": "None", "website": "None", "summary": "None", "logo": "None", "latitude": 48.40162132944775, "longitude": -89.25979916048294}, "854145075RR0001": {"name": "NORTHERN HILLS CHURCH OF CALGARY", "designationCode": "C", "categoryCode": "39", "address": "PO BOX 38161                  725-500 COUNTRY HILLS BLVD", "city": "CALGARY", "province": "AB", "country": "CA", "postalCode": "T3K5G9", "twitter": "None", "instagram": "None", "facebook": "None", "youtube": "None", "website": "None", "summary": "None", "logo": "None", "latitude": 51.15429048990112, "longitude": -114.05496035590566}, "832996680RR0001": {"name": "NORTHERN ICE", "designationCode": "C", "categoryCode": "09", "address": "PO BOX 362", "city": "YELLOWKNIFE", "province": "NT", "country": "CA", "postalCode": "X1A2N3", "twitter": "None", "instagram": "None", "facebook": "None", "youtube": "None", "website": "None", "summary": "None", "logo": "None", "latitude": 62.45446200000005, "longitude": -114.37092349999993}, "107542888RR0001": {"name": "NORTHERN JOHN HOWARD SOCIETY OF BRITISH COLUMBIA", "designationCode": "C", "categoryCode": "59", "address": "154 QUEBEC ST", "city": "PRINCE GEORGE", "province": "BC", "country": "CA", "postalCode": "V2L1W2", "twitter": "None", "instagram": "None", "facebook": "None", "youtube": "None", "website": "None", "summary": "None", "logo": "None", "latitude": 53.91859591173756, "longitude": -122.74467310600737}, "883020596RR0001": {"name": "NORTHERN LAKES COLLEGE", "designationCode": "C", "categoryCode": "20", "address": "BAG 3000", "city": "GROUARD", "province": "AB", "country": "CA", "postalCode": "T0G1C0", "twitter": "None", "instagram": "None", "facebook": "None", "youtube": "None", "website": "None", "summary": "None", "logo": "None", "latitude": 55.52700900000005, "longitude": -116.14180399999994}, "135065324RR0001": {"name": "NORTHERN LAMPLIGHTERS ACTIVITY CENTRE ASSOCIATION", "designationCode": "C", "categoryCode": "56", "address": "5430-50TH AVE N               PO BOX 3116", "city": "FORT NELSON", "province": "BC", "country": "CA", "postalCode": "V0C1R0", "twitter": "None", "instagram": "None", "facebook": "None", "youtube": "None", "website": "None", "summary": "None", "logo": "None", "latitude": 58.805155264534214, "longitude": -122.70906630575847}, "119060085RR0001": {"name": "NORTHERN LIGHT THEATRE", "designationCode": "C", "categoryCode": "22", "address": "203 - 10816A 82 AVE NW", "city": "EDMONTON", "province": "AB", "country": "CA", "postalCode": "T6E2B3", "twitter": "None", "instagram": "None", "facebook": "None", "youtube": "None", "website": "None", "summary": "None", "logo": "None", "latitude": 53.518013999999994, "longitude": -113.48866397875054}, "890445265RR0001": {"name": "NORTHERN LIGHTS BAPTIST ASSOCIATION", "designationCode": "C", "categoryCode": "45", "address": "BOX 932", "city": "WATROUS", "province": "SK", "country": "CA", "postalCode": "S0K4T0", "twitter": "None", "instagram": "None", "facebook": "None", "youtube": "None", "website": "None", "summary": "None", "logo": "None", "latitude": 51.719579978192066, "longitude": -105.4459035}, "834122210RR0001": {"name": "NORTHERN LIGHTS BAPTIST CHURCH", "designationCode": "C", "categoryCode": "31", "address": "P.O. BOX 535", "city": "IROQUOIS FALLS", "province": "ON", "country": "CA", "postalCode": "P0K1G0", "twitter": "None", "instagram": "None", "facebook": "None", "youtube": "None", "website": "None", "summary": "None", "logo": "None", "latitude": 48.75883001500371, "longitude": -80.69020006996918}, "119059996RR0001": {"name": "NORTHERN LIGHTS COLLEGE FOUNDATION", "designationCode": "C", "categoryCode": "25", "address": "11401-8TH ST", "city": "DAWSON CREEK", "province": "BC", "country": "CA", "postalCode": "V1G4G2", "twitter": "None", "instagram": "None", "facebook": "None", "youtube": "None", "website": "None", "summary": "None", "logo": "None", "latitude": 55.74689128282071, "longitude": -120.22473023723191}, "119060002RR0001": {"name": "NORTHERN LIGHTS CONGREGATION CHURCH OF GOD IN CHRIST", "designationCode": "C", "categoryCode": "34", "address": "BOX 32, SITE 4, RR#1", "city": "SPIRIT RIVER", "province": "AB", "country": "CA", "postalCode": "T0H3G0", "twitter": "None", "instagram": "None", "facebook": "None", "youtube": "None", "website": "None", "summary": "None", "logo": "None", "latitude": 55.781268000000054, "longitude": -118.84509349999993}, "856419577RR0001": {"name": "NORTHERN LIGHTS EDUCATIONAL SERVICES", "designationCode": "C", "categoryCode": "20", "address": "335 MICHAEL COWPLAND DRIVE    UNIT 110", "city": "KANATA", "province": "ON", "country": "CA", "postalCode": "K2M2C5", "twitter": "None", "instagram": "None", "facebook": "None", "youtube": "None", "website": "None", "summary": "None", "logo": "None", "latitude": 45.2843750386343, "longitude": -75.87608873844401}, "119060036RR0001": {"name": "NORTHERN LIGHTS FESTIVAL BOREAL", "designationCode": "C", "categoryCode": "22", "address": "19 GREY STREET", "city": "SUDBURY", "province": "ON", "country": "CA", "postalCode": "P3E3L2", "twitter": "None", "instagram": "None", "facebook": "None", "youtube": "None", "website": "None", "summary": "None", "logo": "None", "latitude": 46.488628292736514, "longitude": -80.99323081333709}, "119060051RR0001": {"name": "NORTHERN LIGHTS MINISTRIES / LES MINISTERES LUMIERE DU NORD", "designationCode": "B", "categoryCode": "43", "address": "50, 5TH AVE SOUTH", "city": "ROXBORO", "province": "QC", "country": "CA", "postalCode": "H8Y2T8", "twitter": "None", "instagram": "None", "facebook": "None", "youtube": "None", "website": "None", "summary": "None", "logo": "None", "latitude": 45.507834839286836, "longitude": -73.81106742619293}, "888382462RR0001": {"name": "NORTHERN LIGHTS PRESBYTERY", "designationCode": "C", "categoryCode": "49", "address": "8916 99 AVE.", "city": "FORT ST. JOHN", "province": "BC", "country": "CA", "postalCode": "V1J1S9", "twitter": "None", "instagram": "None", "facebook": "None", "youtube": "None", "website": "None", "summary": "None", "logo": "None", "latitude": 56.24540248600596, "longitude": -120.82805002553522}, "107395030RR0001": {"name": "NORTHERN LIGHTS REGIONAL HEALTH FOUNDATION", "designationCode": "A", "categoryCode": "13", "address": "7 HOSPITAL ST", "city": "FORT MCMURRAY", "province": "AB", "country": "CA", "postalCode": "T9H1P2", "twitter": "None", "instagram": "None", "facebook": "None", "youtube": "None", "website": "None", "summary": "None", "logo": "None", "latitude": 56.7168612255966, "longitude": -111.3635912274889}, "839017902RR0001": {"name": "NORTHERN LIGHTS REGIONAL HUMANE SOCIETY", "designationCode": "C", "categoryCode": "54", "address": "P.O.BOX 481", "city": "HIGH LEVEL", "province": "AB", "country": "CA", "postalCode": "T0H1Z0", "twitter": "None", "instagram": "None", "facebook": "None", "youtube": "None", "website": "None", "summary": "None", "logo": "None", "latitude": 58.52077909031678, "longitude": -117.13094845132863}, "139754188RR0001": {"name": "NORTHERN LIGHTS SCHOOL DIVISION NO 69", "designationCode": "C", "categoryCode": "20", "address": "6005 - 50 AVENUE", "city": "BONNYVILLE", "province": "AB", "country": "CA", "postalCode": "T9N2L4", "twitter": "None", "instagram": "None", "facebook": "None", "youtube": "None", "website": "None", "summary": "None", "logo": "None", "latitude": 54.26831346494281, "longitude": -110.76956189064575}, "107781882RR0001": {"name": "NORTHERN LIGHTS SCHOOL DIVISION NO. 113 OF SASKATCHEWAN", "designationCode": "C", "categoryCode": "20", "address": "BAG SERVICE 6500", "city": "LA RONGE", "province": "SK", "country": "CA", "postalCode": "S0J1L0", "twitter": "None", "instagram": "None", "facebook": "None", "youtube": "None", "website": "None", "summary": "None", "logo": "None", "latitude": 55.104968852218384, "longitude": -105.2789552305204}, "893970830RR0001": {"name": "NORTHERN LIGHTS SCHOOL OF DANCE", "designationCode": "C", "categoryCode": "22", "address": "PO BOX 31100 RPO              211 MAIN STREET", "city": "WHITEHORSE", "province": "YT", "country": "CA", "postalCode": "Y1A5P7", "twitter": "None", "instagram": "None", "facebook": "None", "youtube": "None", "website": "None", "summary": "None", "logo": "None", "latitude": 60.71932164167016, "longitude": -135.05408739757064}, "857822704RR0001": {"name": "NORTHERN LIGHTS SCOUT FOUNDATION", "designationCode": "A", "categoryCode": "23", "address": "14205-109 AVE", "city": "EDMONTON", "province": "AB", "country": "CA", "postalCode": "T5N1H5", "twitter": "None", "instagram": "None", "facebook": "None", "youtube": "None", "website": "None", "summary": "None", "logo": "None", "latitude": 53.55412951399404, "longitude": -113.5664232485429}, "870635687RR0001": {"name": "NORTHERN LIGHTS THERAPEUTIC RIDING ASSOCIATION/L'ASSOCIATION D'EQUITATION THERAPEUTIQUE NORTHERN LIGHTS", "designationCode": "C", "categoryCode": "56", "address": "68-LOT 7-CONC 1", "city": "VAL RITA", "province": "ON", "country": "CA", "postalCode": "P0L2G0", "twitter": "None", "instagram": "None", "facebook": "None", "youtube": "None", "website": "None", "summary": "None", "logo": "None", "latitude": 49.47158400000005, "longitude": -82.60443799999993}, "879681518RR0001": {"name": "NORTHERN LIGHTS WILDLIFE SOCIETY", "designationCode": "C", "categoryCode": "54", "address": "17366 TELKWA HIGH ROAD", "city": "SMITHERS", "province": "BC", "country": "CA", "postalCode": "V0J2N7", "twitter": "None", "instagram": "None", "facebook": "None", "youtube": "None", "website": "None", "summary": "None", "logo": "None", "latitude": 54.86432043492355, "longitude": -127.14498296375322}, "894516756RR0001": {"name": "NORTHERN LINKAGE COMMUNITY HOUSING AND SUPPORT SERVICES", "designationCode": "C", "categoryCode": "59", "address": "499 KINGSWAY AVENUE", "city": "THUNDER BAY", "province": "ON", "country": "CA", "postalCode": "P7E2A6", "twitter": "None", "instagram": "None", "facebook": "None", "youtube": "None", "website": "None", "summary": "None", "logo": "None", "latitude": 48.37753706662235, "longitude": -89.2666958076921}, "866185655RR0001": {"name": "NORTHERN MAGIC FUND FOR INTERNATIONAL DEVELOPMENT", "designationCode": "C", "categoryCode": "09", "address": "565 BROOKRIDGE CRESCENT", "city": "OTTAWA", "province": "ON", "country": "CA", "postalCode": "K4A1Z3", "twitter": "None", "instagram": "None", "facebook": "None", "youtube": "None", "website": "None", "summary": "None", "logo": "None"}, "887405884RR0001": {"name": "NORTHERN MISSIONARY SERVICE", "designationCode": "C", "categoryCode": "39", "address": "325 LINWOOD ST", "city": "WINNIPEG", "province": "MB", "country": "CA", "postalCode": "R3J2C8", "twitter": "None", "instagram": "None", "facebook": "None", "youtube": "None", "website": "None", "summary": "None", "logo": "None", "latitude": 49.88294784179701, "longitude": -97.22759833455498}, "891076341RR0001": {"name": "NORTHERN NEIGHBOURS FOUNDATION, INC.", "designationCode": "A", "categoryCode": "23", "address": "BOX 175", "city": "FLIN FLON", "province": "MB", "country": "CA", "postalCode": "R8A1M7", "twitter": "None", "instagram": "None", "facebook": "None", "youtube": "None", "website": "None", "summary": "None", "logo": "None", "latitude": 54.76821900000006, "longitude": -101.87697049999993}, "107781924RR0001": {"name": "NORTHERN NISHNAWBE EDUCATION COUNCIL", "designationCode": "C", "categoryCode": "23", "address": "BOX 1419  21 KING STREET", "city": "SIOUX LOOKOUT", "province": "ON", "country": "CA", "postalCode": "P8T1B9", "twitter": "None", "instagram": "None", "facebook": "None", "youtube": "None", "website": "None", "summary": "None", "logo": "None"}, "893418764RR0001": {"name": "NORTHERN ONTARIO ART ASSOCIATION", "designationCode": "C", "categoryCode": "22", "address": "133 BLACK LAKE ROAD", "city": "LIVELY", "province": "ON", "country": "CA", "postalCode": "P3Y1H5", "twitter": "None", "instagram": "None", "facebook": "None", "youtube": "None", "website": "None", "summary": "None", "logo": "None", "latitude": 46.41033594754458, "longitude": -81.1399218118757}, "864676713RR0001": {"name": "NORTHERN ONTARIO FAMILIES OF CHILDREN WITH CANCER", "designationCode": "C", "categoryCode": "09", "address": "1901 LASALLE BLVD", "city": "SUDBURY", "province": "ON", "country": "CA", "postalCode": "P3A2A3", "twitter": "None", "instagram": "None", "facebook": "None", "youtube": "None", "website": "None", "summary": "None", "logo": "None", "latitude": 46.52201949841348, "longitude": -80.92723419317329}, "892929167RR0001": {"name": "NORTHERN ONTARIO RAILROAD MUSEUM & HERITAGE CENTRE", "designationCode": "C", "categoryCode": "50", "address": "26 BLOOR ST", "city": "CAPREOL", "province": "ON", "country": "CA", "postalCode": "P0M1H0", "twitter": "None", "instagram": "None", "facebook": "None", "youtube": "None", "website": "None", "summary": "None", "logo": "None", "latitude": 46.709046853501405, "longitude": -80.92436376134401}, "883358525RR0001": {"name": "NORTHERN PENINSULA FAMILY RESOURCE CENTRE INC.", "designationCode": "C", "categoryCode": "09", "address": "PO BOX 774", "city": "ST ANTHONY", "province": "NL", "country": "CA", "postalCode": "A0K4S0", "twitter": "None", "instagram": "None", "facebook": "None", "youtube": "None", "website": "None", "summary": "None", "logo": "None", "latitude": 51.372690000000034, "longitude": -55.597039999999936}, "892560335RR0001": {"name": "NORTHERN PRAISE MINISTRIES, INC", "designationCode": "C", "categoryCode": "47", "address": "90 PARK LAWN RD", "city": "TORONTO", "province": "ON", "country": "CA", "postalCode": "M8Y0B6", "twitter": "None", "instagram": "None", "facebook": "None", "youtube": "None", "website": "None", "summary": "None", "logo": "None", "latitude": 43.624729019389726, "longitude": -79.4847210984473}, "119060176RR0001": {"name": "NORTHERN PROSPECTORS ASSOCIATION", "designationCode": "C", "categoryCode": "59", "address": "P.O. BOX 535", "city": "KIRKLAND LAKE", "province": "ON", "country": "CA", "postalCode": "P2N3J5", "twitter": "None", "instagram": "None", "facebook": "None", "youtube": "None", "website": "None", "summary": "None", "logo": "None", "latitude": 48.15028500000005, "longitude": -80.03540149999994}, "862790193RR0001": {"name": "NORTHERN ROCKIES ABORIGINAL WOMEN SOCIETY", "designationCode": "C", "categoryCode": "09", "address": "UNITS 205/206 - PO BOX 3190   5415 51ST AVENUE NORTH", "city": "FORT NELSON", "province": "BC", "country": "CA", "postalCode": "V0C1R0", "twitter": "None", "instagram": "None", "facebook": "None", "youtube": "None", "website": "None", "summary": "None", "logo": "None"}, "861416303RR0001": {"name": "NORTHERN SASKATCHEWAN HOSPITAL CHAPLAINCY", "designationCode": "C", "categoryCode": "44", "address": "1345 EAST CENTRE", "city": "SASKATOON", "province": "SK", "country": "CA", "postalCode": "S7J3A8", "twitter": "None", "instagram": "None", "facebook": "None", "youtube": "None", "website": "None", "summary": "None", "logo": "None", "latitude": 52.09567389757064, "longitude": -106.6124957557276}, "122790744RR0001": {"name": "NORTHERN SASKATCHEWAN INTERNATIONAL CHILDRENS FESTIVAL INC", "designationCode": "C", "categoryCode": "22", "address": "710 - 601 SPADINA CRES E", "city": "SASKATOON", "province": "SK", "country": "CA", "postalCode": "S7K3G8", "twitter": "None", "instagram": "None", "facebook": "None", "youtube": "None", "website": "None", "summary": "None", "logo": "None", "latitude": 52.12655161166288, "longitude": -106.65889940264921}, "870947264RR0001": {"name": "NORTHERN SECONDARY SCHOOL FOUNDATION", "designationCode": "C", "categoryCode": "21", "address": "851 MOUNT PLEASANT ROAD", "city": "TORONTO", "province": "ON", "country": "CA", "postalCode": "M4P2L5", "twitter": "None", "instagram": "None", "facebook": "None", "youtube": "None", "website": "None", "summary": "None", "logo": "None", "latitude": 43.71038656232317, "longitude": -79.3908666570205}, "845102128RR0001": {"name": "NORTHERN SECWEPEMC CULTURAL SOCIETY", "designationCode": "C", "categoryCode": "50", "address": "4735 CHILCOTIN CRES           PO BOX 553", "city": "108 MILE RANCH", "province": "BC", "country": "CA", "postalCode": "V0K2Z0", "twitter": "None", "instagram": "None", "facebook": "None", "youtube": "None", "website": "None", "summary": "None", "logo": "None", "latitude": 51.747059765151576, "longitude": -121.36033724060285}, "855668141RR0001": {"name": "NORTHERN SHIELD ACADEMY INC.", "designationCode": "C", "categoryCode": "20", "address": "731 HARSTONE RD", "city": "WINNIPEG", "province": "MB", "country": "CA", "postalCode": "R3R1E1", "twitter": "None", "instagram": "None", "facebook": "None", "youtube": "None", "website": "None", "summary": "None", "logo": "None", "latitude": 49.85025270690753, "longitude": -97.28664843886025}, "136219151RR0001": {"name": "NORTHERN SOCIETY FOR DOMESTIC PEACE", "designationCode": "C", "categoryCode": "09", "address": "3772 1ST AVENUE               P.O. BOX 3836", "city": "SMITHERS", "province": "BC", "country": "CA", "postalCode": "V0J2N0", "twitter": "None", "instagram": "None", "facebook": "None", "youtube": "None", "website": "None", "summary": "None", "logo": "None", "latitude": 54.77948581073359, "longitude": -127.17161747551224}, "863291019RR0001": {"name": "NORTHERN TRAILS HISTORICAL SOCIETY", "designationCode": "C", "categoryCode": "50", "address": "9323 100 STREET", "city": "FORT ST.JOHN", "province": "BC", "country": "CA", "postalCode": "V1J4N9", "twitter": "None", "instagram": "None", "facebook": "None", "youtube": "None", "website": "None", "summary": "None", "logo": "None", "latitude": 56.240213731057764, "longitude": -120.84751096413568}, "877896001RR0001": {"name": "NORTHERN TYKES DAYCARE INC.", "designationCode": "C", "categoryCode": "01", "address": "PO BOX 27", "city": "SNOW LAKE", "province": "MB", "country": "CA", "postalCode": "R0B1M0", "twitter": "None", "instagram": "None", "facebook": "None", "youtube": "None", "website": "None", "summary": "None", "logo": "None", "latitude": 54.87465000000003, "longitude": -100.01448999999997}, "119060200RR0001": {"name": "NORTHERN VANCOUVER ISLAND SALMONID ENHANCEMENT ASSOCIATION", "designationCode": "C", "categoryCode": "54", "address": "PO BOX 1409", "city": "PORT HARDY", "province": "BC", "country": "CA", "postalCode": "V0N2P0", "twitter": "None", "instagram": "None", "facebook": "None", "youtube": "None", "website": "None", "summary": "None", "logo": "None", "latitude": 50.72153001889881, "longitude": -127.5011199316182}, "127418762RR0001": {"name": "NORTHERN VISIONS INDEPENDENT VIDEO AND FILM ASSOCIATION", "designationCode": "C", "categoryCode": "22", "address": "309 - 401 RICHMOND ST W", "city": "TORONTO", "province": "ON", "country": "CA", "postalCode": "M5V3A8", "twitter": "None", "instagram": "None", "facebook": "None", "youtube": "None", "website": "None", "summary": "None", "logo": "None", "latitude": 43.64792255983254, "longitude": -79.39538964100468}, "865305791RR0001": {"name": "NORTHERN YOUTH ABROAD", "designationCode": "C", "categoryCode": "29", "address": "311 RICHMOND ROAD             UNIT 308", "city": "OTTAWA", "province": "ON", "country": "CA", "postalCode": "K1Z6X3", "twitter": "None", "instagram": "None", "facebook": "None", "youtube": "None", "website": "None", "summary": "None", "logo": "None", "latitude": 45.39275925425571, "longitude": -75.75245226077658}, "869549329RR0001": {"name": "NORTHERN YOUTH PROGRAMS FOUNDATION", "designationCode": "A", "categoryCode": "03", "address": "RR 3, SITE 306, BOX 1", "city": "DRYDEN", "province": "ON", "country": "CA", "postalCode": "P8N3G2", "twitter": "None", "instagram": "None", "facebook": "None", "youtube": "None", "website": "None", "summary": "None", "logo": "None", "latitude": 49.77985200000006, "longitude": -92.83282999999993}, "107782286RR0001": {"name": "NORTHERN YOUTH PROGRAMS INCORPORATED", "designationCode": "C", "categoryCode": "01", "address": "RR 3 STN MAIN SITE 306 BOX 1", "city": "DRYDEN", "province": "ON", "country": "CA", "postalCode": "P8N3G2", "twitter": "None", "instagram": "None", "facebook": "None", "youtube": "None", "website": "None", "summary": "None", "logo": "None", "latitude": 49.77985200000006, "longitude": -92.83282999999993}, "108049131RR0001": {"name": "NORTHERN YOUTH SERVICES INC.", "designationCode": "B", "categoryCode": "01", "address": "3200 BANCROFT DRIVE", "city": "SUDBURY", "province": "ON", "country": "CA", "postalCode": "P3B1V3", "twitter": "None", "instagram": "None", "facebook": "None", "youtube": "None", "website": "None", "summary": "None", "logo": "None", "latitude": 46.484548892408874, "longitude": -80.89818328750312}, "107782328RR0001": {"name": "NORTHFIELD PENTECOSTAL CHURCH", "designationCode": "C", "categoryCode": "36", "address": "15 DRAPER RD                  RR#2", "city": "GRACEFIELD", "province": "QC", "country": "CA", "postalCode": "J0X1W0", "twitter": "None", "instagram": "None", "facebook": "None", "youtube": "None", "website": "None", "summary": "None", "logo": "None", "latitude": 46.07730919954993, "longitude": -75.97948364054497}, "892548785RR0001": {"name": "NORTHGATE BAPTIST CHURCH", "designationCode": "C", "categoryCode": "31", "address": "13208 95ST", "city": "EDMONTON", "province": "AB", "country": "CA", "postalCode": "T5E3Y4", "twitter": "None", "instagram": "None", "facebook": "None", "youtube": "None", "website": "None", "summary": "None", "logo": "None", "latitude": 53.59245412101103, "longitude": -113.48786761994316}, "863186607RR0001": {"name": "NORTHGATE CHRISTIAN EDUCATION SOCIETY", "designationCode": "C", "categoryCode": "20", "address": "1475 NOEL AVE", "city": "COMOX", "province": "BC", "country": "CA", "postalCode": "V9M3H8", "twitter": "None", "instagram": "None", "facebook": "None", "youtube": "None", "website": "None", "summary": "None", "logo": "None", "latitude": 49.682041516735346, "longitude": -124.91339230252754}, "119288918RR0498": {"name": "NORTHGATE CONGREGATION OF JEHOVAH'S WITNESSES", "designationCode": "C", "categoryCode": "61", "address": "125 OAKLAND AVE", "city": "WELLAND", "province": "ON", "country": "CA", "postalCode": "L3C2C2", "twitter": "None", "instagram": "None", "facebook": "None", "youtube": "None", "website": "None", "summary": "None", "logo": "None", "latitude": 42.985449419095175, "longitude": -79.26147105150314}, "828685941RR0001": {"name": "NORTHGATE MINISTRIES", "designationCode": "C", "categoryCode": "39", "address": "57 FOSTER ST BOX 2151", "city": "PERTH", "province": "ON", "country": "CA", "postalCode": "K7H1R9", "twitter": "None", "instagram": "None", "facebook": "None", "youtube": "None", "website": "None", "summary": "None", "logo": "None", "latitude": 44.900874324456105, "longitude": -76.25179620788846}, "119060689RR0001": {"name": "NORTHLAND BIBLE CAMP INC.", "designationCode": "C", "categoryCode": "39", "address": "36 MASCIOLI BLVD", "city": "TIMMINS", "province": "ON", "country": "CA", "postalCode": "P4P1H8", "twitter": "None", "instagram": "None", "facebook": "None", "youtube": "None", "website": "None", "summary": "None", "logo": "None", "latitude": 48.49466678711989, "longitude": -81.34104294307251}, "107782989RR0001": {"name": "NORTHLAND BIBLE CHAPEL MINISTRIES", "designationCode": "C", "categoryCode": "20", "address": "#34 HWY 552W", "city": "GOULAIS RIVER", "province": "ON", "country": "CA", "postalCode": "P0S1E0", "twitter": "None", "instagram": "None", "facebook": "None", "youtube": "None", "website": "None", "summary": "None", "logo": "None", "latitude": 46.72023900000005, "longitude": -84.26511799999993}, "119060721RR0001": {"name": "NORTHLAND SANCTUARY RANCH ASSOCIATION", "designationCode": "C", "categoryCode": "20", "address": "PO BOX 840", "city": "CHETWYND", "province": "BC", "country": "CA", "postalCode": "V0C1J0", "twitter": "None", "instagram": "None", "facebook": "None", "youtube": "None", "website": "None", "summary": "None", "logo": "None", "latitude": 55.13200336111122, "longitude": -121.00608273128003}, "107783110RR0001": {"name": "NORTHLAND SCHOOL DIVISION 61", "designationCode": "C", "categoryCode": "21", "address": "BAG 1400, 9809 77 AVE", "city": "PEACE RIVER", "province": "AB", "country": "CA", "postalCode": "T8S1V2", "twitter": "None", "instagram": "None", "facebook": "None", "youtube": "None", "website": "None", "summary": "None", "logo": "None", "latitude": 56.25577649235397, "longitude": -117.29223072300768}, "856104880RR0001": {"name": "NORTHLANDS COLLEGE SCHOLARSHIP FOUNDATION INC.", "designationCode": "C", "categoryCode": "23", "address": "POST OFFICE BOX 1000", "city": "AIR RONGE", "province": "SK", "country": "CA", "postalCode": "S0J3G0", "twitter": "None", "instagram": "None", "facebook": "None", "youtube": "None", "website": "None", "summary": "None", "logo": "None"}, "140262940RR0001": {"name": "NORTHLEA COMMUNITY CHILD CARE", "designationCode": "C", "categoryCode": "20", "address": "305 RUMSEY RD", "city": "TORONTO", "province": "ON", "country": "CA", "postalCode": "M4G1R4", "twitter": "None", "instagram": "None", "facebook": "None", "youtube": "None", "website": "None", "summary": "None", "logo": "None", "latitude": 43.71457306134222, "longitude": -79.37039796070188}, "107783151RR0001": {"name": "NORTHLEA UNITED CHURCH", "designationCode": "C", "categoryCode": "44", "address": "125 BRENTCLIFFE RD.", "city": "TORONTO", "province": "ON", "country": "CA", "postalCode": "M4G3Y7", "twitter": "None", "instagram": "None", "facebook": "None", "youtube": "None", "website": "None", "summary": "None", "logo": "None", "latitude": 43.71698147547439, "longitude": -79.3629921633389}, "107783169RR0001": {"name": "NORTHLEA UNITED CHURCH", "designationCode": "C", "categoryCode": "44", "address": "123, BOUL. DES PRAIRIES", "city": "LAVAL", "province": "QC", "country": "CA", "postalCode": "H7N2T6", "twitter": "None", "instagram": "None", "facebook": "None", "youtube": "None", "website": "None", "summary": "None", "logo": "None", "latitude": 45.5532502181889, "longitude": -73.6860258412774}, "118914274RR0001": {"name": "NORTHLIFE FELLOWSHIP BAPTIST CHURCH OF FORT MCMURRAY", "designationCode": "C", "categoryCode": "31", "address": "141 ALBERTA DRIVE", "city": "FORT MCMURRAY", "province": "AB", "country": "CA", "postalCode": "T9H1R2", "twitter": "None", "instagram": "None", "facebook": "None", "youtube": "None", "website": "None", "summary": "None", "logo": "None", "latitude": 56.722822207888484, "longitude": -111.36984258439594}, "830319588RR0001": {"name": "NORTHMINSTER BAPTIST CHURCH", "designationCode": "C", "categoryCode": "31", "address": "1725 FINCH AVE W", "city": "NORTH YORK", "province": "ON", "country": "CA", "postalCode": "M3N1M6", "twitter": "None", "instagram": "None", "facebook": "None", "youtube": "None", "website": "None", "summary": "None", "logo": "None", "latitude": 43.7595658670151, "longitude": -79.50646642449085}, "889262846RR0001": {"name": "NORTHMINSTER COURT", "designationCode": "C", "categoryCode": "01", "address": "1252 KEEWATIN BLVD", "city": "PETERBOROUGH", "province": "ON", "country": "CA", "postalCode": "K9H6X3", "twitter": "None", "instagram": "None", "facebook": "None", "youtube": "None", "website": "None", "summary": "None", "logo": "None", "latitude": 44.338828128772654, "longitude": -78.32485861056634}, "130918667RR0001": {"name": "NORTHMINSTER MEMORIAL UNITED CHURCH FLIN FLON-CREIGHTON PARISH", "designationCode": "C", "categoryCode": "44", "address": "250 BRACKEN ST", "city": "FLIN FLON", "province": "MB", "country": "CA", "postalCode": "R8A1P4", "twitter": "None", "instagram": "None", "facebook": "None", "youtube": "None", "website": "None", "summary": "None", "logo": "None", "latitude": 54.776530379524466, "longitude": -101.84906811655985}, "107783250RR0001": {"name": "NORTHMINSTER PASTORAL CHARGE", "designationCode": "C", "categoryCode": "44", "address": "BOX 957", "city": "PICTURE BUTTE", "province": "AB", "country": "CA", "postalCode": "T0K1V0", "twitter": "None", "instagram": "None", "facebook": "None", "youtube": "None", "website": "None", "summary": "None", "logo": "None", "latitude": 49.87851001832194, "longitude": -112.77815001110848}, "107783227RR0001": {"name": "NORTHMINSTER UNITED CHURCH", "designationCode": "C", "categoryCode": "44", "address": "676 SIMCOE ST N", "city": "OSHAWA", "province": "ON", "country": "CA", "postalCode": "L1G4V7", "twitter": "None", "instagram": "None", "facebook": "None", "youtube": "None", "website": "None", "summary": "None", "logo": "None", "latitude": 43.9154068678805, "longitude": -78.87132680145967}, "107783284RR0001": {"name": "NORTHMINSTER UNITED CHURCH", "designationCode": "C", "categoryCode": "44", "address": "3311 CENTRE ST N", "city": "CALGARY", "province": "AB", "country": "CA", "postalCode": "T2E2X7", "twitter": "None", "instagram": "None", "facebook": "None", "youtube": "None", "website": "None", "summary": "None", "logo": "None", "latitude": 51.082028402995014, "longitude": -114.06243012603227}, "119060796RR0001": {"name": "NORTHMINSTER UNITED CHURCH", "designationCode": "C", "categoryCode": "44", "address": "300 SUNSET BLVD.", "city": "PETERBOROUGH", "province": "ON", "country": "CA", "postalCode": "K9H5L3", "twitter": "None", "instagram": "None", "facebook": "None", "youtube": "None", "website": "None", "summary": "None", "logo": "None", "latitude": 44.32212880688403, "longitude": -78.33049740166733}, "894227909RR0001": {"name": "NORTHMOUNT BAPTIST CHURCH", "designationCode": "C", "categoryCode": "31", "address": "451 NORTHMOUNT DRIVE NW", "city": "CALGARY", "province": "AB", "country": "CA", "postalCode": "T2K3H8", "twitter": "None", "instagram": "None", "facebook": "None", "youtube": "None", "website": "None", "summary": "None", "logo": "None", "latitude": 51.09191154454958, "longitude": -114.0819096103352}, "890360480RR0001": {"name": "NORTHMOUNT FOUNDATION INC.", "designationCode": "C", "categoryCode": "20", "address": "10 COLWELL CIRCLE", "city": "NESTLETON STATION", "province": "ON", "country": "CA", "postalCode": "L0B1L0", "twitter": "None", "instagram": "None", "facebook": "None", "youtube": "None", "website": "None", "summary": "None", "logo": "None", "latitude": 44.19260302466986, "longitude": -78.78697703612413}, "889386793RR0001": {"name": "NORTHMOUNT KIWANIS CLUB OF CALGARY CHARITABLE TRUST", "designationCode": "A", "categoryCode": "65", "address": "9 TUSCARORA CIRCLE NW", "city": "CALGARY", "province": "AB", "country": "CA", "postalCode": "T3L2B7", "twitter": "None", "instagram": "None", "facebook": "None", "youtube": "None", "website": "None", "summary": "None", "logo": "None", "latitude": 51.12692052899767, "longitude": -114.2390199970858}, "137973350RR0001": {"name": "NORTHMOUNT SCHOOL FOR BOYS", "designationCode": "C", "categoryCode": "20", "address": "26 MALLARD RD", "city": "TORONTO", "province": "ON", "country": "CA", "postalCode": "M3B1S3", "twitter": "None", "instagram": "None", "facebook": "None", "youtube": "None", "website": "None", "summary": "None", "logo": "None", "latitude": 43.74812980365658, "longitude": -79.34714998186539}, "119061026RR0001": {"name": "NORTHPORT HILLSIDE CEMETERY COMPANY", "designationCode": "C", "categoryCode": "59", "address": "7313 HWY. 366", "city": "NORTHPORT", "province": "NS", "country": "CA", "postalCode": "B0L1E0", "twitter": "None", "instagram": "None", "facebook": "None", "youtube": "None", "website": "None", "summary": "None", "logo": "None", "latitude": 45.93290087335295, "longitude": -63.867079564949854}, "107951618RR0254": {"name": "NORTHRIDGE COMMUNITY CHURCH OF THE SALVATION ARMY", "designationCode": "C", "categoryCode": "40", "address": "P.O. BOX 356", "city": "NEWMARKET", "province": "ON", "country": "CA", "postalCode": "L3Y4X7", "twitter": "None", "instagram": "None", "facebook": "None", "youtube": "None", "website": "None", "summary": "None", "logo": "None", "latitude": 44.04015600000005, "longitude": -79.45853299999993}, "866435571RR0001": {"name": "NORTHRIDGE PARENT-TEACHER ASSOCIATION", "designationCode": "C", "categoryCode": "21", "address": "25 MCLEAN DRIVE", "city": "LONDON", "province": "ON", "country": "CA", "postalCode": "N5X1Y2", "twitter": "None", "instagram": "None", "facebook": "None", "youtube": "None", "website": "None", "summary": "None", "logo": "None", "latitude": 43.037415577018265, "longitude": -81.23541691368978}, "894150382RR0001": {"name": "NORTHSHORE CHRISTIAN COUNSELLING SERVICES", "designationCode": "C", "categoryCode": "09", "address": "WELLINGTON STREET E", "city": "SAULT STE-MARIE", "province": "ON", "country": "CA", "postalCode": "P6A2R1", "twitter": "None", "instagram": "None", "facebook": "None", "youtube": "None", "website": "None", "summary": "None", "logo": "None", "latitude": 46.50945300000001, "longitude": -84.29577975}, "891286544RR0001": {"name": "NORTHSIDE BAPTIST CHURCH", "designationCode": "C", "categoryCode": "31", "address": "364 TEMPLEVIEW DRIVE NE", "city": "CALGARY", "province": "AB", "country": "CA", "postalCode": "T1Y3W4", "twitter": "None", "instagram": "None", "facebook": "None", "youtube": "None", "website": "None", "summary": "None", "logo": "None", "latitude": 51.084115522072786, "longitude": -113.94257391618096}, "134667385RR0001": {"name": "NORTHSIDE BAPTIST CHURCH OF WATERLOO INC", "designationCode": "C", "categoryCode": "31", "address": "1373 LOBSINGER LINE, RR # 1", "city": "WATERLOO", "province": "ON", "country": "CA", "postalCode": "N2J4G8", "twitter": "None", "instagram": "None", "facebook": "None", "youtube": "None", "website": "None", "summary": "None", "logo": "None"}, "888943776RR0001": {"name": "NORTHSIDE BIBLE CHAPEL", "designationCode": "C", "categoryCode": "39", "address": "8 GUNN STREET", "city": "BARRIE", "province": "ON", "country": "CA", "postalCode": "L4M2H3", "twitter": "None", "instagram": "None", "facebook": "None", "youtube": "None", "website": "None", "summary": "None", "logo": "None", "latitude": 44.39688212989783, "longitude": -79.6889243551272}, "135298040RR0001": {"name": "NORTHSIDE BIBLE FELLOWSHIP", "designationCode": "C", "categoryCode": "39", "address": "2911 EDMONTON TRAIL NE", "city": "CALGARY", "province": "AB", "country": "CA", "postalCode": "T2E3N5", "twitter": "None", "instagram": "None", "facebook": "None", "youtube": "None", "website": "None", "summary": "None", "logo": "None", "latitude": 51.07843618734492, "longitude": -114.05533374675389}, "107784696RR0001": {"name": "NORTHSIDE CHURCH OF CHRIST OF CALGARY", "designationCode": "C", "categoryCode": "39", "address": "803-20A AVENUE NE", "city": "CALGARY", "province": "AB", "country": "CA", "postalCode": "T2E1S1", "twitter": "None", "instagram": "None", "facebook": "None", "youtube": "None", "website": "None", "summary": "None", "logo": "None", "latitude": 51.071086477927246, "longitude": -114.04675304385708}, "862195260RR0001": {"name": "NORTHSIDE COMMUNITY CHURCH OF KITCHENER", "designationCode": "C", "categoryCode": "39", "address": "55 LEONARD STREET", "city": "KITCHENER", "province": "ON", "country": "CA", "postalCode": "N2H6C7", "twitter": "None", "instagram": "None", "facebook": "None", "youtube": "None", "website": "None", "summary": "None", "logo": "None", "latitude": 43.46671448845882, "longitude": -80.48690058090484}, "877922807RR0001": {"name": "NORTHSIDE COMMUNITY CIVIC CENTER SOCIETY", "designationCode": "C", "categoryCode": "56", "address": "PO BOX 352", "city": "NORTH SYDNEY", "province": "NS", "country": "CA", "postalCode": "B2A3M4", "twitter": "None", "instagram": "None", "facebook": "None", "youtube": "None", "website": "None", "summary": "None", "logo": "None", "latitude": 46.20710400000006, "longitude": -60.25146199999993}, "897290615RR0001": {"name": "NORTHSIDE COMMUNITY GUEST HOME FOUNDATION", "designationCode": "C", "categoryCode": "03", "address": "11 QUEEN STREET", "city": "NORTH SYDNEY", "province": "NS", "country": "CA", "postalCode": "B2A1A2", "twitter": "None", "instagram": "None", "facebook": "None", "youtube": "None", "website": "None", "summary": "None", "logo": "None", "latitude": 46.1952470554852, "longitude": -60.262888653875166}, "107784738RR0001": {"name": "NORTHSIDE COMMUNITY GUEST HOME SOCIETY", "designationCode": "C", "categoryCode": "01", "address": "11 QUEEN STREET", "city": "NORTH SYDNEY", "province": "NS", "country": "CA", "postalCode": "B2A1A2", "twitter": "None", "instagram": "None", "facebook": "None", "youtube": "None", "website": "None", "summary": "None", "logo": "None", "latitude": 46.1952470554852, "longitude": -60.262888653875166}, "107396905RR0041": {"name": "NORTHSIDE FOURSQUARE CHURCH", "designationCode": "C", "categoryCode": "39", "address": "1460 LANSDOWNE DR", "city": "COQUITLAM", "province": "BC", "country": "CA", "postalCode": "V3E2N9", "twitter": "None", "instagram": "None", "facebook": "None", "youtube": "None", "website": "None", "summary": "None", "logo": "None", "latitude": 49.29395284707711, "longitude": -122.81364704374151}, "107784886RR0001": {"name": "NORTHSIDE HOMEMAKER SERVICE SOCIETY", "designationCode": "C", "categoryCode": "09", "address": "735 MAIN ST", "city": "SYDNEY MINES", "province": "NS", "country": "CA", "postalCode": "B1V2L3", "twitter": "None", "instagram": "None", "facebook": "None", "youtube": "None", "website": "None", "summary": "None", "logo": "None", "latitude": 46.24164891727748, "longitude": -60.22700478103169}, "130923394RR0001": {"name": "NORTHSIDE INDEPENDENT BAPTIST CHURCH", "designationCode": "C", "categoryCode": "31", "address": "1178 MAIN ST", "city": "SYDNEY MINES", "province": "NS", "country": "CA", "postalCode": "B1V2M6", "twitter": "None", "instagram": "None", "facebook": "None", "youtube": "None", "website": "None", "summary": "None", "logo": "None", "latitude": 46.24133925676588, "longitude": -60.25541732543703}}