{"134836907RR0001": {"name": "RADIO COMMUNAUTAIRE KAPNORD INC", "designationCode": "C", "categoryCode": "21", "address": "77 CHEMIN BRUNELLE NORD", "city": "KAPUSKASING", "province": "ON", "country": "CA", "postalCode": "P5N2M1", "twitter": "None", "instagram": "None", "facebook": "None", "youtube": "None", "website": "None", "summary": "None", "logo": "None", "latitude": 49.41440428401294, "longitude": -82.40331271598704}, "897224077RR0001": {"name": "RADIO MARIA CANADA/RADIO-MARIE CANADA", "designationCode": "C", "categoryCode": "49", "address": "1247 LAWRENCE AVE W", "city": "NORTH YORK", "province": "ON", "country": "CA", "postalCode": "M6L1A1", "twitter": "None", "instagram": "None", "facebook": "None", "youtube": "None", "website": "None", "summary": "None", "logo": "None", "latitude": 43.71058784537501, "longitude": -79.47053461045077}, "104379433RR0001": {"name": "RADIO NORD-JOLI INC.", "designationCode": "C", "categoryCode": "59", "address": "245 RUE BEAUVILLIERS          R.R. 2", "city": "SAINT-GABRIEL-DE-BRANDON", "province": "QC", "country": "CA", "postalCode": "J0K2N0", "twitter": "None", "instagram": "None", "facebook": "None", "youtube": "None", "website": "None", "summary": "None", "logo": "None", "latitude": 46.29453010632449, "longitude": -73.37818864158324}, "104379466RR0001": {"name": "RADIO PENINSULE INC.", "designationCode": "C", "categoryCode": "22", "address": "142 ROUTE 113", "city": "POKEMOUCHE", "province": "NB", "country": "CA", "postalCode": "E8P1K7", "twitter": "None", "instagram": "None", "facebook": "None", "youtube": "None", "website": "None", "summary": "None", "logo": "None", "latitude": 47.6743131641862, "longitude": -64.87001008917728}, "886902907RR0001": {"name": "RADIO VILLE-MARIE-MAURICIE-CENTRE-DU-QUEBEC", "designationCode": "C", "categoryCode": "47", "address": "890 BOUL DU SAINT-MAURICE", "city": "TROIS-RIVIERES", "province": "QC", "country": "CA", "postalCode": "G9A3P8", "twitter": "None", "instagram": "None", "facebook": "None", "youtube": "None", "website": "None", "summary": "None", "logo": "None", "latitude": 46.35116128117591, "longitude": -72.54765976245002}, "127668382RR0001": {"name": "RADIO-HURONIE FM COMMUNAUTAIRE INC", "designationCode": "C", "categoryCode": "22", "address": "63 RUE MAIN CP 5099", "city": "PENETNGUSHENE", "province": "ON", "country": "CA", "postalCode": "L9M2G3", "twitter": "None", "instagram": "None", "facebook": "None", "youtube": "None", "website": "None", "summary": "None", "logo": "None", "latitude": 44.769619549281444, "longitude": -79.93455596831927}, "888353265RR0001": {"name": "RADIO-SOLEIL-ESTRIE", "designationCode": "C", "categoryCode": "47", "address": "165, RUE MOORE", "city": "SHERBROOKE", "province": "QC", "country": "CA", "postalCode": "J1H1B8", "twitter": "None", "instagram": "None", "facebook": "None", "youtube": "None", "website": "None", "summary": "None", "logo": "None", "latitude": 45.40718965892417, "longitude": -71.89679158148175}, "137826012RR0001": {"name": "RADIO-VILLE-MARIE INC", "designationCode": "C", "categoryCode": "47", "address": "303 - 5000 RUE D'IBERVILLE", "city": "MONTREAL", "province": "QC", "country": "CA", "postalCode": "H2H2S6", "twitter": "None", "instagram": "None", "facebook": "None", "youtube": "None", "website": "None", "summary": "None", "logo": "None", "latitude": 45.54050771241878, "longitude": -73.57223232393648}, "898184031RR0001": {"name": "RADIOLOGY RESEARCH FOUNDATION", "designationCode": "C", "categoryCode": "21", "address": "V G HOSPITAL ROOM 3014        1278 TOWER ROAD", "city": "HALIFAX", "province": "NS", "country": "CA", "postalCode": "B3H2Y9", "twitter": "None", "instagram": "None", "facebook": "None", "youtube": "None", "website": "None", "summary": "None", "logo": "None", "latitude": 44.637687595058516, "longitude": -63.578960701343014}, "125311225RR0001": {"name": "RADIS INC", "designationCode": "B", "categoryCode": "09", "address": "636 RUE CLAUDE", "city": "BELOEIL", "province": "QC", "country": "CA", "postalCode": "J3G4X4", "twitter": "None", "instagram": "None", "facebook": "None", "youtube": "None", "website": "None", "summary": "None", "logo": "None", "latitude": 45.58288756812289, "longitude": -73.20382195617157}, "131597171RR0001": {"name": "RADISSON COMMUNIPLEX COMMITTEE INC", "designationCode": "C", "categoryCode": "56", "address": "BOX 136", "city": "RADISSON", "province": "SK", "country": "CA", "postalCode": "S0K3L0", "twitter": "None", "instagram": "None", "facebook": "None", "youtube": "None", "website": "None", "summary": "None", "logo": "None", "latitude": 52.46097000000003, "longitude": -107.39552999999995}, "869932426RR0001": {"name": "RADIUM CHRISTIAN FELLOWSHIP", "designationCode": "C", "categoryCode": "39", "address": "9151 MOFFAT AVENUE            RR # 5", "city": "INVERMERE", "province": "BC", "country": "CA", "postalCode": "V0A1K5", "twitter": "None", "instagram": "None", "facebook": "None", "youtube": "None", "website": "None", "summary": "None", "logo": "None", "latitude": 50.54292809878285, "longitude": -116.06131967772176}, "827264128RR0001": {"name": "RADIUM HOT SPRINGS PUBLIC LIBRARY", "designationCode": "C", "categoryCode": "20", "address": "P.O. BOX 293", "city": "RADIUM HOT SPRINGS", "province": "BC", "country": "CA", "postalCode": "V0A1M0", "twitter": "None", "instagram": "None", "facebook": "None", "youtube": "None", "website": "None", "summary": "None", "logo": "None", "latitude": 50.62132994503449, "longitude": -116.07172003390237}, "107870529RR0001": {"name": "RADIUS COMMUNITY CENTRE FOR EDUCATION AND EMPLOYMENT TRAINING", "designationCode": "C", "categoryCode": "29", "address": "PO BOX 1812", "city": "SASKATOON", "province": "SK", "country": "CA", "postalCode": "S7K3S2", "twitter": "None", "instagram": "None", "facebook": "None", "youtube": "None", "website": "None", "summary": "None", "logo": "None", "latitude": 52.13049000000005, "longitude": -106.65926449999994}, "888534666RR0001": {"name": "RADIX THEATRE SOCIETY", "designationCode": "C", "categoryCode": "22", "address": "1885 VENABLES ST", "city": "VANCOUVER", "province": "BC", "country": "CA", "postalCode": "V5L2H6", "twitter": "None", "instagram": "None", "facebook": "None", "youtube": "None", "website": "None", "summary": "None", "logo": "None", "latitude": 49.27669050043268, "longitude": -123.06622402553523}, "118913508RR0001": {"name": "RADVILLE AND DISTRICT HEALTH CENTRE FOUNDATION INC.", "designationCode": "A", "categoryCode": "15", "address": "BOX 310", "city": "RADVILLE", "province": "SK", "country": "CA", "postalCode": "S0C2G0", "twitter": "None", "instagram": "None", "facebook": "None", "youtube": "None", "website": "None", "summary": "None", "logo": "None", "latitude": 49.46040000000005, "longitude": -104.29811999999998}, "880650965RR0001": {"name": "RADVILLE MARIAN HEALTH CARE AUXILIARY", "designationCode": "C", "categoryCode": "19", "address": "P.O. BOX 424", "city": "RADVILLE", "province": "SK", "country": "CA", "postalCode": "S0C2G0", "twitter": "None", "instagram": "None", "facebook": "None", "youtube": "None", "website": "None", "summary": "None", "logo": "None", "latitude": 49.46040000000005, "longitude": -104.29811999999998}, "119108579RR0001": {"name": "RADVILLE UNITED CHURCH", "designationCode": "C", "categoryCode": "44", "address": "BOX 314", "city": "RADVILLE", "province": "SK", "country": "CA", "postalCode": "S0C2G0", "twitter": "None", "instagram": "None", "facebook": "None", "youtube": "None", "website": "None", "summary": "None", "logo": "None", "latitude": 49.46040000000005, "longitude": -104.29811999999998}, "889108577RR0001": {"name": "RADWAY AND AREA HISTORICAL ARCHIVES ASSOCIATION", "designationCode": "C", "categoryCode": "50", "address": "BOX 89", "city": "RODWAY", "province": "AB", "country": "CA", "postalCode": "T0A2V0", "twitter": "None", "instagram": "None", "facebook": "None", "youtube": "None", "website": "None", "summary": "None", "logo": "None", "latitude": 54.06454500000005, "longitude": -112.94706049999994}, "888305992RR0001": {"name": "RADWAY HEALTH CARE CENTRE AUXILIARY", "designationCode": "A", "categoryCode": "15", "address": "PO BOX 70", "city": "RADWAY", "province": "AB", "country": "CA", "postalCode": "T0A2V0", "twitter": "None", "instagram": "None", "facebook": "None", "youtube": "None", "website": "None", "summary": "None", "logo": "None", "latitude": 54.064550000000054, "longitude": -112.94705999999996}, "873100978RR0001": {"name": "RAFT (RESEAU D'AIDE AUX FAMILLES EN TRANSITION) INC.", "designationCode": "C", "categoryCode": "09", "address": "578 RUE LINDSAY               2E ETAGE", "city": "DRUMMONDVILLE", "province": "QC", "country": "CA", "postalCode": "J2B1H5", "twitter": "None", "instagram": "None", "facebook": "None", "youtube": "None", "website": "None", "summary": "None", "logo": "None", "latitude": 45.87785367084072, "longitude": -72.47877934511521}, "119108637RR0001": {"name": "RAGA-MALA MUSIC SOCIETY OF CALGARY", "designationCode": "C", "categoryCode": "22", "address": "319-3630 BRENTWOOD RD NW      PO BOX 45010", "city": "CALGARY", "province": "AB", "country": "CA", "postalCode": "T2L1K8", "twitter": "None", "instagram": "None", "facebook": "None", "youtube": "None", "website": "None", "summary": "None", "logo": "None", "latitude": 51.08488260672854, "longitude": -114.12717340019637}, "808994438RR0001": {"name": "RAHMAH CENTRE INC.", "designationCode": "C", "categoryCode": "60", "address": "2159 7TH AVE", "city": "REGINA", "province": "SK", "country": "CA", "postalCode": "S4R1C3", "twitter": "None", "instagram": "None", "facebook": "None", "youtube": "None", "website": "None", "summary": "None", "logo": "None", "latitude": 50.45824746681874, "longitude": -104.61184144463039}, "890972987RR0001": {"name": "RAIL CITY INDUSTRIES FOUNDATION INC.", "designationCode": "A", "categoryCode": "03", "address": "BOX 2318", "city": "MELVILLE", "province": "SK", "country": "CA", "postalCode": "S0A2P0", "twitter": "None", "instagram": "None", "facebook": "None", "youtube": "None", "website": "None", "summary": "None", "logo": "None", "latitude": 50.87164886256234, "longitude": -103.09293300498788}, "863939310RR0001": {"name": "RAINBOW CHARITABLE TRUST", "designationCode": "B", "categoryCode": "39", "address": "26052 TOWNSHIP ROAD 350", "city": "RED DEER COUNTY", "province": "AB", "country": "CA", "postalCode": "T4G0M4", "twitter": "None", "instagram": "None", "facebook": "None", "youtube": "None", "website": "None", "summary": "None", "logo": "None", "latitude": 51.96878549321932, "longitude": -113.59075147446477}, "877194761RR0001": {"name": "RAINBOW CHORUS, THE WATERLOO WELLINGTON CHORUS OF GAYS, LESBIANS, BISEXUALS AND FRIENDS", "designationCode": "C", "categoryCode": "22", "address": "601 - 358 WATERLOO AVE", "city": "GUELPH", "province": "ON", "country": "CA", "postalCode": "N1H7Y3", "twitter": "None", "instagram": "None", "facebook": "None", "youtube": "None", "website": "None", "summary": "None", "logo": "None", "latitude": 43.53163042756118, "longitude": -80.26017068769704}, "131376741RR0001": {"name": "RAINBOW CONNECTION CHILDCARE CENTRE", "designationCode": "C", "categoryCode": "01", "address": "50 FEATHERSTONE AVE", "city": "MARKHAM", "province": "ON", "country": "CA", "postalCode": "L3S2H4", "twitter": "None", "instagram": "None", "facebook": "None", "youtube": "None", "website": "None", "summary": "None", "logo": "None", "latitude": 43.83986397835992, "longitude": -79.26888854100021}, "134620921RR0001": {"name": "RAINBOW COUNTRY DAY CARE SOCIETY", "designationCode": "C", "categoryCode": "01", "address": "PO BOX 170", "city": "PORT HARDY", "province": "BC", "country": "CA", "postalCode": "V0N2P0", "twitter": "None", "instagram": "None", "facebook": "None", "youtube": "None", "website": "None", "summary": "None", "logo": "None", "latitude": 50.72153001889881, "longitude": -127.5011199316182}, "872267091RR0001": {"name": "RAINBOW DISTRICT SCHOOL BOARD", "designationCode": "C", "categoryCode": "20", "address": "408 WEMBLEY DR", "city": "SUDBURY", "province": "ON", "country": "CA", "postalCode": "P3E1P2", "twitter": "None", "instagram": "None", "facebook": "None", "youtube": "None", "website": "None", "summary": "None", "logo": "None", "latitude": 46.48027715145293, "longitude": -81.0051700237033}, "855262333RR0001": {"name": "RAINBOW EVANGELISTIC MINISTRIES", "designationCode": "C", "categoryCode": "36", "address": "251 BASSWOOD AVE", "city": "RENFREW", "province": "ON", "country": "CA", "postalCode": "K7V3Y5", "twitter": "None", "instagram": "None", "facebook": "None", "youtube": "None", "website": "None", "summary": "None", "logo": "None", "latitude": 45.47974787203541, "longitude": -76.7033550227366}, "899249692RR0001": {"name": "RAINBOW EXPRESS DAY CARE SOCIETY", "designationCode": "C", "categoryCode": "01", "address": "502 -1803 DOUGLAS STREET", "city": "VICTORIA", "province": "BC", "country": "CA", "postalCode": "V8T5C2", "twitter": "None", "instagram": "None", "facebook": "None", "youtube": "None", "website": "None", "summary": "None", "logo": "None", "latitude": 48.430494900917516, "longitude": -123.36446180705785}, "830321873RR0001": {"name": "RAINBOW FOR THE FUTURE", "designationCode": "B", "categoryCode": "03", "address": "10712-101 STREET", "city": "WESTLOCK", "province": "AB", "country": "CA", "postalCode": "T7P1H7", "twitter": "None", "instagram": "None", "facebook": "None", "youtube": "None", "website": "None", "summary": "None", "logo": "None", "latitude": 54.15341548600597, "longitude": -113.8402305}, "119108710RR0001": {"name": "RAINBOW HALFWAY HOUSE", "designationCode": "C", "categoryCode": "01", "address": "364 SPRING CREEK RD", "city": "SOUTH BRUCE PENINSULA", "province": "ON", "country": "CA", "postalCode": "N0H2T0", "twitter": "None", "instagram": "None", "facebook": "None", "youtube": "None", "website": "None", "summary": "None", "logo": "None", "latitude": 44.65088877622898, "longitude": -81.17338053673329}, "135650182RR0001": {"name": "RAINBOW INFORMATION AND SOCIAL SERVICES (METROPOLITAN TORONTO) INC.", "designationCode": "C", "categoryCode": "09", "address": "720 OSSINGTON AV", "city": "TORONTO", "province": "ON", "country": "CA", "postalCode": "M6G3T7", "twitter": "None", "instagram": "None", "facebook": "None", "youtube": "None", "website": "None", "summary": "None", "logo": "None", "latitude": 43.66185978934158, "longitude": -79.42564533833455}, "889279386RR0001": {"name": "RAINBOW LITERACY SOCIETY", "designationCode": "C", "categoryCode": "21", "address": "BOX 180", "city": "VULCAN", "province": "AB", "country": "CA", "postalCode": "T0L2B0", "twitter": "None", "instagram": "None", "facebook": "None", "youtube": "None", "website": "None", "summary": "None", "logo": "None", "latitude": 50.39734000000004, "longitude": -113.25817999999998}, "889160172RR0001": {"name": "RAINBOW OF HOPE FOR CHILDREN SOCIETY", "designationCode": "C", "categoryCode": "09", "address": "PO BOX 2883", "city": "WAINWRIGHT", "province": "AB", "country": "CA", "postalCode": "T9W1S7", "twitter": "None", "instagram": "None", "facebook": "None", "youtube": "None", "website": "None", "summary": "None", "logo": "None", "latitude": 52.84339800000005, "longitude": -110.85204049999993}, "138083415RR0001": {"name": "RAINBOW PASTORAL CHARGE", "designationCode": "C", "categoryCode": "44", "address": "BOX 168", "city": "PICKARDVILLE", "province": "AB", "country": "CA", "postalCode": "T0G1W0", "twitter": "None", "instagram": "None", "facebook": "None", "youtube": "None", "website": "None", "summary": "None", "logo": "None", "latitude": 54.05099000000007, "longitude": -113.87903999999997}, "119108736RR0001": {"name": "RAINBOW PRESCHOOL, BURNABY (COUNCIL OF PARENT PARTICIPATION PRESCHOOLS IN BRITISH COLUMBIA)", "designationCode": "C", "categoryCode": "20", "address": "PO BOX 43054 RPO CASCADE      3790 CANADA WAY", "city": "BURNABY", "province": "BC", "country": "CA", "postalCode": "V5G4S2", "twitter": "None", "instagram": "None", "facebook": "None", "youtube": "None", "website": "None", "summary": "None", "logo": "None", "latitude": 49.25467854674261, "longitude": -123.0206625}, "104385885RR0001": {"name": "RAINBOW PROGRAMMES FOR CHILDREN", "designationCode": "C", "categoryCode": "56", "address": "304 STONE ROAD WEST           SUITE 337", "city": "GUELPH", "province": "ON", "country": "CA", "postalCode": "N1G4W4", "twitter": "None", "instagram": "None", "facebook": "None", "youtube": "None", "website": "None", "summary": "None", "logo": "None", "latitude": 43.51865389892697, "longitude": -80.23544417464987}, "120580832RR0001": {"name": "RAINBOW RESIDENCE CARMAN INC", "designationCode": "C", "categoryCode": "01", "address": "BOX 202", "city": "CARMAN", "province": "MB", "country": "CA", "postalCode": "R0G0J0", "twitter": "None", "instagram": "None", "facebook": "None", "youtube": "None", "website": "None", "summary": "None", "logo": "None", "latitude": 49.50860000000006, "longitude": -98.00231999999994}, "131783664RR0001": {"name": "RAINBOW RESOURCE CENTRE, INC.", "designationCode": "C", "categoryCode": "09", "address": "BOX 1661", "city": "WINNIPEG", "province": "MB", "country": "CA", "postalCode": "R3C2Z6", "twitter": "None", "instagram": "None", "facebook": "None", "youtube": "None", "website": "None", "summary": "None", "logo": "None", "latitude": 49.899525000000054, "longitude": -97.14112999999993}, "889092565RR0001": {"name": "RAINBOW SENIORS SUPPORT (NORTH YORK)", "designationCode": "C", "categoryCode": "09", "address": "811-6021 YONGE STREET", "city": "NORTH YORK", "province": "ON", "country": "CA", "postalCode": "M2M3W2", "twitter": "None", "instagram": "None", "facebook": "None", "youtube": "None", "website": "None", "summary": "None", "logo": "None", "latitude": 43.789263180349835, "longitude": -79.41784183347778}, "135467777RR0001": {"name": "RAINBOW STAGE (1993) INC", "designationCode": "C", "categoryCode": "22", "address": "200-180 MARKET AVENUE", "city": "WINNIPEG", "province": "MB", "country": "CA", "postalCode": "R3B0P7", "twitter": "None", "instagram": "None", "facebook": "None", "youtube": "None", "website": "None", "summary": "None", "logo": "None", "latitude": 49.8990900824054, "longitude": -97.13765876882667}, "107871584RR0001": {"name": "RAINBOW YOUTH CENTRE INC.", "designationCode": "C", "categoryCode": "09", "address": "977 MCTAVISH ST", "city": "REGINA", "province": "SK", "country": "CA", "postalCode": "S4T3V2", "twitter": "None", "instagram": "None", "facebook": "None", "youtube": "None", "website": "None", "summary": "None", "logo": "None", "latitude": 50.46319774854291, "longitude": -104.63405029929623}, "888714177RR0001": {"name": "RAINBOW'S END COMMUNITY DEVELOPMENT CORPORATION", "designationCode": "C", "categoryCode": "09", "address": "12 BIGWIN RD UNIT 1", "city": "HAMILTON", "province": "ON", "country": "CA", "postalCode": "L8W3R4", "twitter": "None", "instagram": "None", "facebook": "None", "youtube": "None", "website": "None", "summary": "None", "logo": "None", "latitude": 43.19296464002539, "longitude": -79.82350589546452}, "127115780RR0001": {"name": "RAINCITY HOUSING AND SUPPORT SOCIETY", "designationCode": "C", "categoryCode": "01", "address": "616 POWELL ST", "city": "VANCOUVER", "province": "BC", "country": "CA", "postalCode": "V6A1H4", "twitter": "None", "instagram": "None", "facebook": "None", "youtube": "None", "website": "None", "summary": "None", "logo": "None", "latitude": 49.2829552940782, "longitude": -123.09095318884778}, "889643565RR0001": {"name": "RAINCOAST CONSERVATION FOUNDATION", "designationCode": "C", "categoryCode": "52", "address": "PO BOX 2429", "city": "SIDNEY", "province": "BC", "country": "CA", "postalCode": "V8L3Y3", "twitter": "None", "instagram": "None", "facebook": "None", "youtube": "None", "website": "None", "summary": "None", "logo": "None", "latitude": 48.65020800000005, "longitude": -123.39842299999994}, "893198614RR0001": {"name": "RAINCOAST EDUCATION SOCIETY", "designationCode": "C", "categoryCode": "56", "address": "PO 815", "city": "TOFINO", "province": "BC", "country": "CA", "postalCode": "V0R2Z0", "twitter": "None", "instagram": "None", "facebook": "None", "youtube": "None", "website": "None", "summary": "None", "logo": "None", "latitude": 49.15262000000007, "longitude": -125.90403999999995}, "881084032RR0001": {"name": "RAINCOAST RESEARCH SOCIETY", "designationCode": "C", "categoryCode": "54", "address": "2020 WARING RD", "city": "NANAIMO", "province": "BC", "country": "CA", "postalCode": "V9X1V1", "twitter": "None", "instagram": "None", "facebook": "None", "youtube": "None", "website": "None", "summary": "None", "logo": "None", "latitude": 49.099719691376464, "longitude": -123.88071311832705}, "873655260RR0001": {"name": "RAINHAM CENTRE COMMUNITY HALL CORPORATION", "designationCode": "C", "categoryCode": "56", "address": "16 LAKE ROAD RR# 1", "city": "SELKIRK", "province": "ON", "country": "CA", "postalCode": "N0A1P0", "twitter": "None", "instagram": "None", "facebook": "None", "youtube": "None", "website": "None", "summary": "None", "logo": "None", "latitude": 42.82223807631723, "longitude": -79.84220638233586}, "119108819RR0001": {"name": "RAINHAM MENNONITE CHURCH", "designationCode": "C", "categoryCode": "34", "address": "448 LAKESHORE RD", "city": "SELKIRK", "province": "ON", "country": "CA", "postalCode": "N0A1P0", "twitter": "None", "instagram": "None", "facebook": "None", "youtube": "None", "website": "None", "summary": "None", "logo": "None", "latitude": 42.81892775708393, "longitude": -79.88927566775364}, "119108835RR0001": {"name": "RAINY HILLS LUTHERAN CHURCH", "designationCode": "C", "categoryCode": "32", "address": "BOX 216", "city": "JENNER", "province": "AB", "country": "CA", "postalCode": "T0J1W0", "twitter": "None", "instagram": "None", "facebook": "None", "youtube": "None", "website": "None", "summary": "None", "logo": "None", "latitude": 50.746980000000065, "longitude": -111.18449999999996}, "869412585RR0001": {"name": "RAINY LAKE CONSERVANCY", "designationCode": "C", "categoryCode": "52", "address": "P O BOX 223", "city": "FORT FRANCES", "province": "ON", "country": "CA", "postalCode": "P9A3M6", "twitter": "None", "instagram": "None", "facebook": "None", "youtube": "None", "website": "None", "summary": "None", "logo": "None", "latitude": 48.610023000000055, "longitude": -93.39111349999993}, "867962953RR0001": {"name": "RAINY LAKE COUNCIL NO 2766 CHARITABLE WELFARE TRUST", "designationCode": "A", "categoryCode": "65", "address": "209 VICTORIA AVE.", "city": "FORT FRANCES", "province": "ON", "country": "CA", "postalCode": "P9A2B8", "twitter": "None", "instagram": "None", "facebook": "None", "youtube": "None", "website": "None", "summary": "None", "logo": "None", "latitude": 48.606929632141416, "longitude": -93.39264779207144}, "855823845RR0001": {"name": "RAINY LAKE FISHERIES CHARITY TRUST", "designationCode": "C", "categoryCode": "21", "address": "834 ARMIT AVE", "city": "FORT FRANCES", "province": "ON", "country": "CA", "postalCode": "P9A2J4", "twitter": "None", "instagram": "None", "facebook": "None", "youtube": "None", "website": "None", "summary": "None", "logo": "None", "latitude": 48.614361925616045, "longitude": -93.38961238366353}, "119108843RR0001": {"name": "RAINY RIVER DISTRICT MUSIC FESTIVAL ASSOCIATION", "designationCode": "C", "categoryCode": "22", "address": "P.O. BOX 806", "city": "FORT FRANCES", "province": "ON", "country": "CA", "postalCode": "P9A3N1", "twitter": "None", "instagram": "None", "facebook": "None", "youtube": "None", "website": "None", "summary": "None", "logo": "None", "latitude": 48.610023000000055, "longitude": -93.39111349999993}, "868284365RR0001": {"name": "RAINY RIVER DISTRICT SCHOOL BOARD", "designationCode": "C", "categoryCode": "20", "address": "522 SECOND STREET EAST", "city": "FORT FRANCES", "province": "ON", "country": "CA", "postalCode": "P9A1N4", "twitter": "None", "instagram": "None", "facebook": "None", "youtube": "None", "website": "None", "summary": "None", "logo": "None", "latitude": 48.612002399807665, "longitude": -93.38891148377945}, "118795889RR0001": {"name": "RAINY RIVER DISTRICT WOMEN'S SHELTER OF HOPE", "designationCode": "C", "categoryCode": "09", "address": "PO BOX 818", "city": "ATIKOKAN", "province": "ON", "country": "CA", "postalCode": "P0T1C0", "twitter": "None", "instagram": "None", "facebook": "None", "youtube": "None", "website": "None", "summary": "None", "logo": "None", "latitude": 48.78243202695454, "longitude": -91.62784818644623}, "140996158RR0001": {"name": "RAINY RIVER PASTORAL CHARGE", "designationCode": "C", "categoryCode": "44", "address": "PO BOX 771", "city": "RAINY RIVER", "province": "ON", "country": "CA", "postalCode": "P0W1L0", "twitter": "None", "instagram": "None", "facebook": "None", "youtube": "None", "website": "None", "summary": "None", "logo": "None", "latitude": 48.72217200000006, "longitude": -94.56111349999993}, "140357013RR0001": {"name": "RAINYCREST AUXILIARY", "designationCode": "C", "categoryCode": "19", "address": "550 OSBORNE STREET", "city": "FORT FRANCES", "province": "ON", "country": "CA", "postalCode": "P9A3T2", "twitter": "None", "instagram": "None", "facebook": "None", "youtube": "None", "website": "None", "summary": "None", "logo": "None", "latitude": 48.617663924884866, "longitude": -93.38954811302422}, "845770122RR0001": {"name": "RAISING READERS LITERACY PROGRAM", "designationCode": "C", "categoryCode": "21", "address": "543 LOGAN AVENUE", "city": "TORONTO", "province": "ON", "country": "CA", "postalCode": "M4K3B6", "twitter": "None", "instagram": "None", "facebook": "None", "youtube": "None", "website": "None", "summary": "None", "logo": "None", "latitude": 43.66868872468113, "longitude": -79.34580102911325}, "139744569RR0001": {"name": "RAISING THE ROOF CHEZ TOIT", "designationCode": "C", "categoryCode": "09", "address": "201 - 720 BATHURST ST", "city": "TORONTO", "province": "ON", "country": "CA", "postalCode": "M5S2R4", "twitter": "None", "instagram": "None", "facebook": "None", "youtube": "None", "website": "None", "summary": "None", "logo": "None", "latitude": 43.66323143574358, "longitude": -79.41047606191914}, "821549391RR0001": {"name": "RAISING THE VILLAGE INC.", "designationCode": "C", "categoryCode": "09", "address": "422 - 215 SPADINA AVE", "city": "TORONTO", "province": "ON", "country": "CA", "postalCode": "M5T2C7", "twitter": "None", "instagram": "None", "facebook": "None", "youtube": "None", "website": "None", "summary": "None", "logo": "None", "latitude": 43.65063316348313, "longitude": -79.39697013165816}, "816830129RR0001": {"name": "RAJE (Canada)", "designationCode": "B", "categoryCode": "43", "address": "312 YORK HILL BLVD", "city": "THORNHILL", "province": "ON", "country": "CA", "postalCode": "L4J3B6", "twitter": "None", "instagram": "None", "facebook": "None", "youtube": "None", "website": "None", "summary": "None", "logo": "None", "latitude": 43.799756520139525, "longitude": -79.44026335457895}, "829023241RR0001": {"name": "RAJET Ameinu", "designationCode": "C", "categoryCode": "42", "address": "30 ROBERTA DR", "city": "NORTH YORK", "province": "ON", "country": "CA", "postalCode": "M6A2J5", "twitter": "None", "instagram": "None", "facebook": "None", "youtube": "None", "website": "None", "summary": "None", "logo": "None", "latitude": 43.7214514299152, "longitude": -79.4372694975185}, "887159481RR0001": {"name": "RAKOCZI FOUNDATION", "designationCode": "C", "categoryCode": "22", "address": "80 CARLTON STREET", "city": "ONTARIO", "province": "ON", "country": "CA", "postalCode": "M5B1L6", "twitter": "None", "instagram": "None", "facebook": "None", "youtube": "None", "website": "None", "summary": "None", "logo": "None", "latitude": 43.662011216227015, "longitude": -79.37865534277795}, "119108926RR0002": {"name": "RALEIGH GRIQUET PASTORAL CHARGE", "designationCode": "C", "categoryCode": "44", "address": "PO BOX 56", "city": "RALEIGH", "province": "NL", "country": "CA", "postalCode": "A0K4J0", "twitter": "None", "instagram": "None", "facebook": "None", "youtube": "None", "website": "None", "summary": "None", "logo": "None", "latitude": 51.555449131702325, "longitude": -55.72617622888386}, "892715509RR0001": {"name": "RALEIGH HISTORICAL CORPORATION INC.", "designationCode": "C", "categoryCode": "52", "address": "P O BOX 93", "city": "RALEIGH", "province": "NL", "country": "CA", "postalCode": "A0K4J0", "twitter": "None", "instagram": "None", "facebook": "None", "youtube": "None", "website": "None", "summary": "None", "logo": "None", "latitude": 51.555449131702325, "longitude": -55.72617622888386}, "892141573RR0001": {"name": "RALL'S ISLAND COMMUNITY PARK INC.", "designationCode": "C", "categoryCode": "56", "address": "PO BOX 1316", "city": "THE PAS", "province": "MB", "country": "CA", "postalCode": "R9A1S2", "twitter": "None", "instagram": "None", "facebook": "None", "youtube": "None", "website": "None", "summary": "None", "logo": "None", "latitude": 53.81342700000006, "longitude": -101.25038149999993}, "119108959RR0001": {"name": "RALLYE TIERS MONDE DE LA CHAUDIERE INC.", "designationCode": "C", "categoryCode": "03", "address": "680 - 166E RUE", "city": "SAINT-GEORGES", "province": "QC", "country": "CA", "postalCode": "G5Y7H1", "twitter": "None", "instagram": "None", "facebook": "None", "youtube": "None", "website": "None", "summary": "None", "logo": "None", "latitude": 46.100951309452455, "longitude": -70.64669348124544}, "876362914RR0001": {"name": "RALPH & MARION MERSEREAU FAMILY FOUNDATION", "designationCode": "B", "categoryCode": "03", "address": "6635 ROUTE 101", "city": "HOYT", "province": "NB", "country": "CA", "postalCode": "E5L2B1", "twitter": "None", "instagram": "None", "facebook": "None", "youtube": "None", "website": "None", "summary": "None", "logo": "None", "latitude": 45.541051562271434, "longitude": -66.53142954918809}, "888379864RR0001": {"name": "RALPH ALLEN MEMORIAL MUSEUM ASSOCIATION", "designationCode": "C", "categoryCode": "50", "address": "P.O. BOX 90                   802 RAILWAY AVE", "city": "OXBOW", "province": "SK", "country": "CA", "postalCode": "S0C2B0", "twitter": "None", "instagram": "None", "facebook": "None", "youtube": "None", "website": "None", "summary": "None", "logo": "None", "latitude": 49.394310253395815, "longitude": -103.40780329745681}, "119108983RR0001": {"name": "RALPH CONNOR MEMORIAL UNITED CHURCH", "designationCode": "C", "categoryCode": "44", "address": "617 MAIN ST", "city": "CANMORE", "province": "AB", "country": "CA", "postalCode": "T1W2B1", "twitter": "None", "instagram": "None", "facebook": "None", "youtube": "None", "website": "None", "summary": "None", "logo": "None", "latitude": 51.08918649567219, "longitude": -115.357113}, "880217419RR0001": {"name": "RALPH THORNTON COMMUNITY ORGANIZATION", "designationCode": "C", "categoryCode": "59", "address": "765 QUEEN STREET EAST", "city": "TORONTO", "province": "ON", "country": "CA", "postalCode": "M4M1H3", "twitter": "None", "instagram": "None", "facebook": "None", "youtube": "None", "website": "None", "summary": "None", "logo": "None", "latitude": 43.65934188591388, "longitude": -79.34760537010217}, "862659091RR0001": {"name": "RAM FOUNDATION", "designationCode": "C", "categoryCode": "47", "address": "BOX # 88653                   100 - 7322 KING GEORGE HWY.", "city": "SURREY", "province": "BC", "country": "CA", "postalCode": "V3W0X1", "twitter": "None", "instagram": "None", "facebook": "None", "youtube": "None", "website": "None", "summary": "None", "logo": "None", "latitude": 49.135266, "longitude": -122.84548801661977}, "888783461RR0001": {"name": "RAM YOGA CENTRE", "designationCode": "C", "categoryCode": "20", "address": "6479 CONC.2                   RR3 STN MAIN", "city": "STOUFFVILLE", "province": "ON", "country": "CA", "postalCode": "L4A7X4", "twitter": "None", "instagram": "None", "facebook": "None", "youtube": "None", "website": "None", "summary": "None", "logo": "None", "latitude": 44.019132000000056, "longitude": -79.23389299999994}, "870113263RR0001": {"name": "RAMAKRISHNA MANDIR & CULTURAL CENTRE INC.", "designationCode": "C", "categoryCode": "48", "address": "903 WINNIPEG AVENUE", "city": "WINNIPEG", "province": "MB", "country": "CA", "postalCode": "R3E0S1", "twitter": "None", "instagram": "None", "facebook": "None", "youtube": "None", "website": "None", "summary": "None", "logo": "None", "latitude": 49.90512293923469, "longitude": -97.1682023516361}, "119109031RR0001": {"name": "RAMBAM SEPHARDIC CONGREGATION", "designationCode": "C", "categoryCode": "49", "address": "34 ESTHER CRESCENT", "city": "THORNHILL", "province": "ON", "country": "CA", "postalCode": "L4J3L4", "twitter": "None", "instagram": "None", "facebook": "None", "youtube": "None", "website": "None", "summary": "None", "logo": "None", "latitude": 43.79822213402411, "longitude": -79.44410957216226}, "890059827RR0001": {"name": "RAMESES SHRINE HOSPITAL TRANSPORTATION FUND", "designationCode": "C", "categoryCode": "09", "address": "124 QUEEN'S PLATE DR", "city": "ETOBICOKE", "province": "ON", "country": "CA", "postalCode": "M9W0B4", "twitter": "None", "instagram": "None", "facebook": "None", "youtube": "None", "website": "None", "summary": "None", "logo": "None", "latitude": 43.71556090533227, "longitude": -79.59261641840173}, "119109064RR0001": {"name": "RAMGARHIA ASSOCIATION HAMILTON", "designationCode": "C", "categoryCode": "39", "address": "290 LAKE AVE N", "city": "HAMILTON", "province": "ON", "country": "CA", "postalCode": "L8E3Y3", "twitter": "None", "instagram": "None", "facebook": "None", "youtube": "None", "website": "None", "summary": "None", "logo": "None", "latitude": 43.236953352184344, "longitude": -79.75192141776843}, "132418443RR0001": {"name": "RAMGARHIA ASSOCIATION OF MANITOBA INC", "designationCode": "C", "categoryCode": "39", "address": "566 ARCHIBALD STREET", "city": "WINNIPEG", "province": "MB", "country": "CA", "postalCode": "R2J0X4", "twitter": "None", "instagram": "None", "facebook": "None", "youtube": "None", "website": "None", "summary": "None", "logo": "None", "latitude": 49.883521682497474, "longitude": -97.09958877999343}, "119109072RR0001": {"name": "RAMGARHIA GURSIKH SOCIETY OF EDMONTON", "designationCode": "C", "categoryCode": "62", "address": "2606 MILLWOODS ROAD EAST", "city": "EDMONTON", "province": "AB", "country": "CA", "postalCode": "T6L5Y3", "twitter": "None", "instagram": "None", "facebook": "None", "youtube": "None", "website": "None", "summary": "None", "logo": "None", "latitude": 53.45782554503965, "longitude": -113.40842626182457}, "119109080RR0001": {"name": "RAMGARHIA SIKH SOCIETY", "designationCode": "C", "categoryCode": "62", "address": "140 RIVALDA RD", "city": "NORTH YORK", "province": "ON", "country": "CA", "postalCode": "M9M2M8", "twitter": "None", "instagram": "None", "facebook": "None", "youtube": "None", "website": "None", "summary": "None", "logo": "None", "latitude": 43.744800625310184, "longitude": -79.53647872872048}, "883942005RR0001": {"name": "RAMGARHIA SIKH SOCIETY OF CALGARY", "designationCode": "C", "categoryCode": "62", "address": "6623 - 4TH AVENUE NE", "city": "CALGARY", "province": "AB", "country": "CA", "postalCode": "T2A3V1", "twitter": "None", "instagram": "None", "facebook": "None", "youtube": "None", "website": "None", "summary": "None", "logo": "None", "latitude": 51.055697080597156, "longitude": -113.9367204083776}, "127170637RR0001": {"name": "RAMONA AGRICULTURAL SOCIETY", "designationCode": "C", "categoryCode": "56", "address": "3146 GOLDSTEIN RD", "city": "WASHAGO", "province": "ON", "country": "CA", "postalCode": "L0K2B0", "twitter": "None", "instagram": "None", "facebook": "None", "youtube": "None", "website": "None", "summary": "None", "logo": "None", "latitude": 44.7229561651279, "longitude": -79.37313819403866}, "133341925RR0001": {"name": "RAMOTH LIFE CENTRE OF MOUNT FOREST", "designationCode": "C", "categoryCode": "09", "address": "BOX 875", "city": "MOUNT FOREST", "province": "ON", "country": "CA", "postalCode": "N0G2L0", "twitter": "None", "instagram": "None", "facebook": "None", "youtube": "None", "website": "None", "summary": "None", "logo": "None", "latitude": 44.031723000000056, "longitude": -81.09871549999994}, "119109155RR0001": {"name": "RANCH EHRLO SOCIETY", "designationCode": "C", "categoryCode": "01", "address": "PO BOX 570", "city": "PILOT BUTTE", "province": "SK", "country": "CA", "postalCode": "S0G3Z0", "twitter": "None", "instagram": "None", "facebook": "None", "youtube": "None", "website": "None", "summary": "None", "logo": "None", "latitude": 50.479340000000036, "longitude": -104.41828999999996}, "119109148RR0001": {"name": "RANCHDALE ROMPERS DAY CARE INC.", "designationCode": "C", "categoryCode": "01", "address": "60 RANCHDALE CRESCENT", "city": "TORONTO", "province": "ON", "country": "CA", "postalCode": "M3A2M3", "twitter": "None", "instagram": "None", "facebook": "None", "youtube": "None", "website": "None", "summary": "None", "logo": "None", "latitude": 43.752581644728565, "longitude": -79.32263292137418}, "890840945RR0001": {"name": "RANCHERO-DEEP CREEK FIRST RESPONDER UNIT SOCIETY", "designationCode": "C", "categoryCode": "59", "address": "880 MALLORY ROAD", "city": "ENDERBY", "province": "BC", "country": "CA", "postalCode": "V0E1V3", "twitter": "None", "instagram": "None", "facebook": "None", "youtube": "None", "website": "None", "summary": "None", "logo": "None", "latitude": 50.593213824023394, "longitude": -119.21050885105824}, "118880368RR0001": {"name": "RANCHLANDS COMMUNITY ASSOCIATION", "designationCode": "C", "categoryCode": "56", "address": "7713 RANCHVIEW DR NW", "city": "CALGARY", "province": "AB", "country": "CA", "postalCode": "T3G2B3", "twitter": "None", "instagram": "None", "facebook": "None", "youtube": "None", "website": "None", "summary": "None", "logo": "None", "latitude": 51.12007851788917, "longitude": -114.17999355981303}, "899313100RR0001": {"name": "RANCHLANDS VICTIM SERVICES SOCIETY", "designationCode": "B", "categoryCode": "09", "address": "BOX 1118", "city": "PINCHER CREEK", "province": "AB", "country": "CA", "postalCode": "T0K1W0", "twitter": "None", "instagram": "None", "facebook": "None", "youtube": "None", "website": "None", "summary": "None", "logo": "None", "latitude": 49.48739000000006, "longitude": -113.9366800732874}, "889473229RR0001": {"name": "RANDALL FOUNDATION INC.", "designationCode": "B", "categoryCode": "03", "address": "701-20TH ST. W.", "city": "SASKATOON", "province": "SK", "country": "CA", "postalCode": "S7M0X9", "twitter": "None", "instagram": "None", "facebook": "None", "youtube": "None", "website": "None", "summary": "None", "logo": "None", "latitude": 52.12615749567218, "longitude": -106.6801328068267}, "898954938RR0001": {"name": "RANDOLPH SCHOOL OF THE ARTS", "designationCode": "C", "categoryCode": "22", "address": "736 BATHURST STREET", "city": "TORONTO", "province": "ON", "country": "CA", "postalCode": "M5S2R4", "twitter": "None", "instagram": "None", "facebook": "None", "youtube": "None", "website": "None", "summary": "None", "logo": "None", "latitude": 43.6636264612788, "longitude": -79.41063605081065}, "119109189RR0001": {"name": "RANFURLY CEMETERY SOCIETY", "designationCode": "C", "categoryCode": "59", "address": "PO BOX 155", "city": "RANFURLY", "province": "AB", "country": "CA", "postalCode": "T0B3T0", "twitter": "None", "instagram": "None", "facebook": "None", "youtube": "None", "website": "None", "summary": "None", "logo": "None", "latitude": 53.407478089631574, "longitude": -111.68735496109848}, "832601645RR0001": {"name": "RAP Foundation", "designationCode": "B", "categoryCode": "03", "address": "1365 AMBER CRESCENT", "city": "OAKVILLE", "province": "ON", "country": "CA", "postalCode": "L6J2P1", "twitter": "None", "instagram": "None", "facebook": "None", "youtube": "None", "website": "None", "summary": "None", "logo": "None", "latitude": 43.47157871885273, "longitude": -79.65900447267578}, "888700747RR0001": {"name": "RAPHA REVIVAL MINISTRIES", "designationCode": "C", "categoryCode": "39", "address": "1529 GRANADA CRESCENT", "city": "VICTORIA", "province": "BC", "country": "CA", "postalCode": "V8N2B8", "twitter": "None", "instagram": "None", "facebook": "None", "youtube": "None", "website": "None", "summary": "None", "logo": "None", "latitude": 48.48291679098636, "longitude": -123.34223668526742}, "886392562RR0001": {"name": "RAPHAH MINISTERES MONDIAUX/RAPHAH WORLDWIDE MINISTRIES", "designationCode": "C", "categoryCode": "39", "address": "12 ELM ST", "city": "KAPUSKASING", "province": "ON", "country": "CA", "postalCode": "P5N2A3", "twitter": "None", "instagram": "None", "facebook": "None", "youtube": "None", "website": "None", "summary": "None", "logo": "None", "latitude": 49.42352208101834, "longitude": -82.41969465265167}, "852462605RR0001": {"name": "RAPID (Ressources pour la population anglophone ayant un handicap intellectuel)/ RAPID (Resources for the Anglophone Population With Intellectual Disabilities)", "designationCode": "C", "categoryCode": "09", "address": "329 RUE RAVEL", "city": "CHATEAUGUAY", "province": "QC", "country": "CA", "postalCode": "J6K2V6", "twitter": "None", "instagram": "None", "facebook": "None", "youtube": "None", "website": "None", "summary": "None", "logo": "None", "latitude": 45.34439455482136, "longitude": -73.7113116354664}, "897754263RR0001": {"name": "RAPID CITY MUSEUM INC.", "designationCode": "C", "categoryCode": "50", "address": "BOX 271", "city": "RAPID CITY", "province": "MB", "country": "CA", "postalCode": "R0K1W0", "twitter": "None", "instagram": "None", "facebook": "None", "youtube": "None", "website": "None", "summary": "None", "logo": "None", "latitude": 50.119980000000055, "longitude": -100.03727999999995}, "129896031RR0001": {"name": "RAPID CITY REGIONAL LIBRARY", "designationCode": "C", "categoryCode": "50", "address": "BOX 8", "city": "RAPID CITY", "province": "MB", "country": "CA", "postalCode": "R0K1W0", "twitter": "None", "instagram": "None", "facebook": "None", "youtube": "None", "website": "None", "summary": "None", "logo": "None", "latitude": 50.119980000000055, "longitude": -100.03728049999994}}