{"855380283RR0001": {"name": "PHOENIX RISING CENTER", "designationCode": "C", "categoryCode": "39", "address": "603 CONCESSION 10             RR 5", "city": "HAGERSVILLE", "province": "ON", "country": "CA", "postalCode": "N0A1H0", "twitter": "None", "instagram": "None", "facebook": "None", "youtube": "None", "website": "None", "summary": "None", "logo": "None", "latitude": 42.92526441794765, "longitude": -80.0956519446879}, "128654217RR0002": {"name": "PHOENIX RISING NON-PROFIT HOMES INC.", "designationCode": "C", "categoryCode": "01", "address": "2 MANITOU DRIVE", "city": "SAULT STE MARIE", "province": "ON", "country": "CA", "postalCode": "P6B6G5", "twitter": "None", "instagram": "None", "facebook": "None", "youtube": "None", "website": "None", "summary": "None", "logo": "None", "latitude": 46.523491292255756, "longitude": -84.27603173529961}, "119092658RR0001": {"name": "PHOENIX TRANSITION SOCIETY", "designationCode": "C", "categoryCode": "09", "address": "1770 11TH AVE", "city": "PRINCE GEORGE", "province": "BC", "country": "CA", "postalCode": "V2L3S8", "twitter": "None", "instagram": "None", "facebook": "None", "youtube": "None", "website": "None", "summary": "None", "logo": "None", "latitude": 53.91307711798126, "longitude": -122.75887220425312}, "889906392RR0001": {"name": "PHOENIX VOCAL AND PERFORMING SOCIETY", "designationCode": "C", "categoryCode": "22", "address": "6361 MEMORIAL RD", "city": "VANCOUVER", "province": "BC", "country": "CA", "postalCode": "V6T1Z2", "twitter": "None", "instagram": "None", "facebook": "None", "youtube": "None", "website": "None", "summary": "None", "logo": "None"}, "107642787RR0001": {"name": "PHOENIX YOUTH PROGRAMS", "designationCode": "C", "categoryCode": "01", "address": "PO BOX 60006 HALIFAX PROF CTRE5991 SPRING GARDEN RD", "city": "HALIFAX", "province": "NS", "country": "CA", "postalCode": "B3H4R7", "twitter": "None", "instagram": "None", "facebook": "None", "youtube": "None", "website": "None", "summary": "None", "logo": "None", "latitude": 44.64130404692263, "longitude": -63.583383812309556}, "881361216RR0001": {"name": "PHOENIX YOUTH PROGRAMS CHARITABLE FOUNDATION", "designationCode": "A", "categoryCode": "03", "address": "PO BOX 60006, 6035 COBURG ROADRPO PROFESSIONAL CENTRE", "city": "HALIFAX", "province": "NS", "country": "CA", "postalCode": "B3H4R7", "twitter": "None", "instagram": "None", "facebook": "None", "youtube": "None", "website": "None", "summary": "None", "logo": "None"}, "872980966RR0001": {"name": "PHOMMAVIHARAM BUDDHIST TEMPLE (KITCHENER-WATERLOO)", "designationCode": "C", "categoryCode": "35", "address": "12 HOFFMAN ST", "city": "KITCHENER", "province": "ON", "country": "CA", "postalCode": "N2M3M4", "twitter": "None", "instagram": "None", "facebook": "None", "youtube": "None", "website": "None", "summary": "None", "logo": "None", "latitude": 43.431623474897485, "longitude": -80.47786116028047}, "140399999RR0001": {"name": "PHONOTHEQUE QUEBECOISE", "designationCode": "C", "categoryCode": "22", "address": "2566 RUE D'OXFORD", "city": "LONGUEUIL", "province": "QC", "country": "CA", "postalCode": "J4L2M4", "twitter": "None", "instagram": "None", "facebook": "None", "youtube": "None", "website": "None", "summary": "None", "logo": "None", "latitude": 45.51519848375562, "longitude": -73.47319417874657}, "891413791RR0001": {"name": "PHS COMMUNITY SERVICES SOCIETY", "designationCode": "C", "categoryCode": "01", "address": "9 HASTINGS ST E", "city": "VANCOUVER", "province": "BC", "country": "CA", "postalCode": "V6A1M9", "twitter": "None", "instagram": "None", "facebook": "None", "youtube": "None", "website": "None", "summary": "None", "logo": "None", "latitude": 49.281500314472765, "longitude": -123.10410607923139}, "892972647RR0001": {"name": "PHYLISS AND IRVING SNIDER FOUNDATION", "designationCode": "B", "categoryCode": "03", "address": "800- 1030 WEST GEORGIA STREET", "city": "VANCOUVER", "province": "BC", "country": "CA", "postalCode": "V6E3B9", "twitter": "None", "instagram": "None", "facebook": "None", "youtube": "None", "website": "None", "summary": "None", "logo": "None", "latitude": 49.28473454397265, "longitude": -123.12168753944235}, "851268144RR0001": {"name": "PHYSICALLY HANDICAPPED ADULTS' REHABILITATION ASSOCIATION - WESTWINDS HEIGHTS", "designationCode": "C", "categoryCode": "09", "address": "280 OAKWOOD AVENUE", "city": "NORTH BAY", "province": "ON", "country": "CA", "postalCode": "P1B9G2", "twitter": "None", "instagram": "None", "facebook": "None", "youtube": "None", "website": "None", "summary": "None", "logo": "None", "latitude": 46.32864549826831, "longitude": -79.47092161209555}, "134543560RR0001": {"name": "PHYSICALLY HANDICAPPED ADULTS' REHABILITATION ASSOCIATION-NIPISSING-PARRY SOUND", "designationCode": "C", "categoryCode": "01", "address": "280 OAKWOOD AVENUE", "city": "NORTH BAY", "province": "ON", "country": "CA", "postalCode": "P1B9G2", "twitter": "None", "instagram": "None", "facebook": "None", "youtube": "None", "website": "None", "summary": "None", "logo": "None", "latitude": 46.32864549826831, "longitude": -79.47092161209555}, "119092757RR0001": {"name": "PHYSICENTRE L'ELAN", "designationCode": "C", "categoryCode": "56", "address": "136 BERGERON", "city": "LAURIER-STATION", "province": "QC", "country": "CA", "postalCode": "G0S1N0", "twitter": "None", "instagram": "None", "facebook": "None", "youtube": "None", "website": "None", "summary": "None", "logo": "None", "latitude": 46.53720743825375, "longitude": -71.62667938190317}, "119092765RR0001": {"name": "PHYSICIANS FOR A SMOKE FREE CANADA", "designationCode": "C", "categoryCode": "59", "address": "134 CAROLINE AVE", "city": "OTTAWA", "province": "ON", "country": "CA", "postalCode": "K1Y0S9", "twitter": "None", "instagram": "None", "facebook": "None", "youtube": "None", "website": "None", "summary": "None", "logo": "None", "latitude": 45.39970507715393, "longitude": -75.73465117251415}, "891438426RR0001": {"name": "PHYSICIANS PHILANTHROPIC FUND", "designationCode": "A", "categoryCode": "59", "address": "BX 355", "city": "PORT WILLIAMS", "province": "NS", "country": "CA", "postalCode": "B0P1T0", "twitter": "None", "instagram": "None", "facebook": "None", "youtube": "None", "website": "None", "summary": "None", "logo": "None", "latitude": 45.09814200000005, "longitude": -64.40885899999994}, "107842726RR0001": {"name": "PHYSICIANS SERVICES INCORPORATED FOUNDATION", "designationCode": "A", "categoryCode": "13", "address": "5G - 4773 YONGE ST", "city": "NORTH YORK", "province": "ON", "country": "CA", "postalCode": "M2N0G2", "twitter": "None", "instagram": "None", "facebook": "None", "youtube": "None", "website": "None", "summary": "None", "logo": "None", "latitude": 43.76089284485541, "longitude": -79.41073593502242}, "862757218RR0001": {"name": "PHYSICIANS' LEGACY FOUNDATION OF NEWFOUNDLAND AND LABRADOR INCORPORATED", "designationCode": "C", "categoryCode": "21", "address": "208 - 96 NORWOOD AVE", "city": "MONCTON", "province": "NB", "country": "CA", "postalCode": "E1C6L9", "twitter": "None", "instagram": "None", "facebook": "None", "youtube": "None", "website": "None", "summary": "None", "logo": "None", "latitude": 46.096253455450416, "longitude": -64.79594613754387}, "132592031RR0001": {"name": "PHYSIOTHERAPY FOUNDATION OF CANADA", "designationCode": "A", "categoryCode": "13", "address": "955 GREEN VALLEY CRES         SUITE 270", "city": "OTTAWA", "province": "ON", "country": "CA", "postalCode": "K2C3V4", "twitter": "None", "instagram": "None", "facebook": "None", "youtube": "None", "website": "None", "summary": "None", "logo": "None", "latitude": 45.37678500000001, "longitude": -75.7048635}, "886270792RR0001": {"name": "PHYZIKAL THEATRE", "designationCode": "C", "categoryCode": "22", "address": "21 PALMERSTON SQ", "city": "TORONTO", "province": "ON", "country": "CA", "postalCode": "M6G2S8", "twitter": "None", "instagram": "None", "facebook": "None", "youtube": "None", "website": "None", "summary": "None", "logo": "None", "latitude": 43.6664616186451, "longitude": -79.41485455787978}, "893008375RR0001": {"name": "PIA BOUMAN SCHOOL FOR BALLET & CREATIVE MOVEMENT", "designationCode": "C", "categoryCode": "22", "address": "6 NOBLE STREET", "city": "TORONTO", "province": "ON", "country": "CA", "postalCode": "M6K2C6", "twitter": "None", "instagram": "None", "facebook": "None", "youtube": "None", "website": "None", "summary": "None", "logo": "None", "latitude": 43.64260407493224, "longitude": -79.43002478492683}, "860578152RR0001": {"name": "PICK OF THE LITTER SOCIETY", "designationCode": "C", "categoryCode": "54", "address": "388 RIDGEVALE DR", "city": "BEDFORD", "province": "NS", "country": "CA", "postalCode": "B4A3L7", "twitter": "None", "instagram": "None", "facebook": "None", "youtube": "None", "website": "None", "summary": "None", "logo": "None", "latitude": 44.731117372468105, "longitude": -63.648735424346626}, "892434648RR0001": {"name": "PICKARD-MERRITHEW CEMETERY INC", "designationCode": "C", "categoryCode": "59", "address": "109 CROCKS POINT ROAD", "city": "KESWICK RIDGE", "province": "NB", "country": "CA", "postalCode": "E6L1T4", "twitter": "None", "instagram": "None", "facebook": "None", "youtube": "None", "website": "None", "summary": "None", "logo": "None", "latitude": 45.969457504587645, "longitude": -66.85105209879401}, "868020843RR0001": {"name": "PICKERING AUXILIARY RESCUE ASSOCIATION", "designationCode": "C", "categoryCode": "59", "address": "682 HILLVIEW CRES", "city": "PICKERING", "province": "ON", "country": "CA", "postalCode": "L1W2R7", "twitter": "None", "instagram": "None", "facebook": "None", "youtube": "None", "website": "None", "summary": "None", "logo": "None", "latitude": 43.81102659671654, "longitude": -79.10462496560663}, "119092815RR0001": {"name": "PICKERING COLLEGE", "designationCode": "C", "categoryCode": "20", "address": "16945 BAYVIEW AVE.", "city": "NEWMARKET", "province": "ON", "country": "CA", "postalCode": "L3Y4X2", "twitter": "None", "instagram": "None", "facebook": "None", "youtube": "None", "website": "None", "summary": "None", "logo": "None", "latitude": 44.047100535114524, "longitude": -79.45329713970824}, "802869677RR0001": {"name": "PICKERING COMMUNITY BAPTIST CHURCH", "designationCode": "C", "categoryCode": "31", "address": "2145 BROCK RD N", "city": "PICKERING", "province": "ON", "country": "CA", "postalCode": "L1V2P8", "twitter": "None", "instagram": "None", "facebook": "None", "youtube": "None", "website": "None", "summary": "None", "logo": "None", "latitude": 43.85581111317126, "longitude": -79.07792460625708}, "875934366RR0001": {"name": "PICKERING ISLAMIC CENTRE", "designationCode": "C", "categoryCode": "60", "address": "P.O. BOX 432                  R.R. #1", "city": "PICKERING", "province": "ON", "country": "CA", "postalCode": "L1V4H7", "twitter": "None", "instagram": "None", "facebook": "None", "youtube": "None", "website": "None", "summary": "None", "logo": "None", "latitude": 43.847691000000054, "longitude": -79.07377399999993}, "888229192RR0001": {"name": "PICKERING PASTORAL CHARGE", "designationCode": "C", "categoryCode": "44", "address": "300 CHURCH ST N", "city": "AJAX", "province": "ON", "country": "CA", "postalCode": "L1T2W7", "twitter": "None", "instagram": "None", "facebook": "None", "youtube": "None", "website": "None", "summary": "None", "logo": "None", "latitude": 43.86098069590673, "longitude": -79.05843581187492}, "871735346RR0001": {"name": "PICKERING PENTECOSTAL CHURCH", "designationCode": "C", "categoryCode": "36", "address": "1920 BAYLY ST", "city": "PICKERING", "province": "ON", "country": "CA", "postalCode": "L1W3R6", "twitter": "None", "instagram": "None", "facebook": "None", "youtube": "None", "website": "None", "summary": "None", "logo": "None", "latitude": 43.83538689788445, "longitude": -79.05735705381844}, "870043601RR0001": {"name": "PICKERING PUBLIC LIBRARY BOARD", "designationCode": "C", "categoryCode": "50", "address": "P.O. BOX 368", "city": "PICKERING", "province": "ON", "country": "CA", "postalCode": "L1V2R6", "twitter": "None", "instagram": "None", "facebook": "None", "youtube": "None", "website": "None", "summary": "None", "logo": "None", "latitude": 43.837818000000055, "longitude": -79.08191449999994}, "888506664RR0001": {"name": "PICKERING ROTARY CLUB CHARITABLE TRUST", "designationCode": "A", "categoryCode": "03", "address": "P.O. BOX 7", "city": "PICKERING", "province": "ON", "country": "CA", "postalCode": "L1V2R2", "twitter": "None", "instagram": "None", "facebook": "None", "youtube": "None", "website": "None", "summary": "None", "logo": "None", "latitude": 43.837818000000055, "longitude": -79.08191449999994}, "107843195RR0001": {"name": "PICKERING STANDARD CHURCH", "designationCode": "C", "categoryCode": "39", "address": "1764 SHADYBROOK DR", "city": "PICKERING", "province": "ON", "country": "CA", "postalCode": "L1V3A5", "twitter": "None", "instagram": "None", "facebook": "None", "youtube": "None", "website": "None", "summary": "None", "logo": "None", "latitude": 43.82406361859685, "longitude": -79.11475795496389}, "891648776RR0001": {"name": "PICKLE LAKE GOSPEL CHAPEL", "designationCode": "C", "categoryCode": "34", "address": "BOX 201", "city": "PICKLE", "province": "ON", "country": "CA", "postalCode": "P0V3A0", "twitter": "None", "instagram": "None", "facebook": "None", "youtube": "None", "website": "None", "summary": "None", "logo": "None", "latitude": 51.47695084839153, "longitude": -90.18110814926368}, "801094004RR0001": {"name": "PICS Charitable Foundation", "designationCode": "A", "categoryCode": "59", "address": "205-12725 80TH AVENUE", "city": "SURREY", "province": "BC", "country": "CA", "postalCode": "V3W3A6", "twitter": "None", "instagram": "None", "facebook": "None", "youtube": "None", "website": "None", "summary": "None", "logo": "None", "latitude": 49.1482144421489, "longitude": -122.87018230099832}, "889299970RR0001": {"name": "PICTON GOSPEL HALL", "designationCode": "C", "categoryCode": "39", "address": "3 MCFARLAND DR", "city": "PICTON", "province": "ON", "country": "CA", "postalCode": "K0K2T0", "twitter": "None", "instagram": "None", "facebook": "None", "youtube": "None", "website": "None", "summary": "None", "logo": "None", "latitude": 44.016792276155606, "longitude": -77.13770881932018}, "107843328RR0001": {"name": "PICTON UNITED CHURCH", "designationCode": "C", "categoryCode": "44", "address": "12 CHAPEL ST", "city": "PICTON", "province": "ON", "country": "CA", "postalCode": "K0K2T0", "twitter": "None", "instagram": "None", "facebook": "None", "youtube": "None", "website": "None", "summary": "None", "logo": "None", "latitude": 44.00557157690634, "longitude": -77.14480332181107}, "108156514RR0001": {"name": "PICTON UNITED PENTECOSTAL CHURCH", "designationCode": "C", "categoryCode": "39", "address": "13356 LOYALIST PARKWAY", "city": "PICTON", "province": "ON", "country": "CA", "postalCode": "K0K2T0", "twitter": "None", "instagram": "None", "facebook": "None", "youtube": "None", "website": "None", "summary": "None", "logo": "None", "latitude": 43.99913420313312, "longitude": -77.16417465566107}, "119288918RR0674": {"name": "PICTON, ONTARIO, CONGREGATION OF JEHOVAH'S WITNESSES", "designationCode": "C", "categoryCode": "61", "address": "19 PITT STREET", "city": "PICTON", "province": "ON", "country": "CA", "postalCode": "K0K2T0", "twitter": "None", "instagram": "None", "facebook": "None", "youtube": "None", "website": "None", "summary": "None", "logo": "None", "latitude": 44.006253307519195, "longitude": -77.13512613056164}, "883390023RR0001": {"name": "PICTOU (WEST) FOOD BANK SOCIETY", "designationCode": "C", "categoryCode": "09", "address": "1943 THREE BROOKS RD", "city": "PICTOU", "province": "NS", "country": "CA", "postalCode": "B0K1H0", "twitter": "None", "instagram": "None", "facebook": "None", "youtube": "None", "website": "None", "summary": "None", "logo": "None", "latitude": 45.72397191038125, "longitude": -62.665774194125575}, "891455396RR0001": {"name": "PICTOU AGRICULTURAL SOCIETY", "designationCode": "C", "categoryCode": "56", "address": "483 BAYVIEW RD.               RR#1", "city": "PICTOU", "province": "NS", "country": "CA", "postalCode": "B0K1H0", "twitter": "None", "instagram": "None", "facebook": "None", "youtube": "None", "website": "None", "summary": "None", "logo": "None", "latitude": 45.711498118009914, "longitude": -62.67408433787133}, "107843336RR0001": {"name": "PICTOU ANTIGONISH REGIONAL LIBRARY", "designationCode": "C", "categoryCode": "50", "address": "P.O. BOX 276                  182 DALHOUSIE STREET", "city": "NEW GLASGOW", "province": "NS", "country": "CA", "postalCode": "B2H5E3", "twitter": "None", "instagram": "None", "facebook": "None", "youtube": "None", "website": "None", "summary": "None", "logo": "None", "latitude": 45.58781524897559, "longitude": -62.6436557082925}, "889585444RR0001": {"name": "PICTOU CEMETERY COMPANY", "designationCode": "C", "categoryCode": "59", "address": "PO BOX 1858", "city": "PICTOU", "province": "NS", "country": "CA", "postalCode": "B0K1H0", "twitter": "None", "instagram": "None", "facebook": "None", "youtube": "None", "website": "None", "summary": "None", "logo": "None", "latitude": 45.67583400000005, "longitude": -62.70865099999993}, "888141173RR0001": {"name": "PICTOU COMMUNITY NEW HORIZONS CLUB", "designationCode": "C", "categoryCode": "56", "address": "14 KEMPT ST,P.O.BOX 141,", "city": "PICTOU", "province": "NS", "country": "CA", "postalCode": "B0K1H0", "twitter": "None", "instagram": "None", "facebook": "None", "youtube": "None", "website": "None", "summary": "None", "logo": "None", "latitude": 45.67556475797796, "longitude": -62.70960514345915}, "892280918RR0002": {"name": "PICTOU COUNTY CENTRE FOR SEXUAL HEALTH ASSOCIATION", "designationCode": "C", "categoryCode": "09", "address": "115 MCLEAN STREET             BRIDGEVIEW SQUARE", "city": "NEW GLASGOW", "province": "NS", "country": "CA", "postalCode": "B2H4M5", "twitter": "None", "instagram": "None", "facebook": "None", "youtube": "None", "website": "None", "summary": "None", "logo": "None", "latitude": 45.587193000000056, "longitude": -62.64553849999993}, "119092963RR0001": {"name": "PICTOU COUNTY CHRISTMAS FUND", "designationCode": "C", "categoryCode": "09", "address": "635 EAST RIVER RD", "city": "NEW GLASGOW", "province": "NS", "country": "CA", "postalCode": "B2H3S4", "twitter": "None", "instagram": "None", "facebook": "None", "youtube": "None", "website": "None", "summary": "None", "logo": "None", "latitude": 45.57716993672453, "longitude": -62.64230881657888}, "888646932RR0001": {"name": "PICTOU COUNTY CONTINUOUS LEARNING ASSOCIATION (PICCLA)", "designationCode": "C", "categoryCode": "21", "address": "PO BOX 670", "city": "PICTOU", "province": "NS", "country": "CA", "postalCode": "B0K1H0", "twitter": "None", "instagram": "None", "facebook": "None", "youtube": "None", "website": "None", "summary": "None", "logo": "None", "latitude": 45.67583400000005, "longitude": -62.70865099999993}, "119092971RR0001": {"name": "PICTOU COUNTY COUNCIL OF CHURCHES", "designationCode": "C", "categoryCode": "49", "address": "540 CHISHOLM STREET", "city": "NEW GLASGOW", "province": "NS", "country": "CA", "postalCode": "B2H3J5", "twitter": "None", "instagram": "None", "facebook": "None", "youtube": "None", "website": "None", "summary": "None", "logo": "None", "latitude": 45.57852512378098, "longitude": -62.646305360378655}, "119092989RR0001": {"name": "PICTOU COUNTY COUNCIL OF SENIOR CITIZENS", "designationCode": "C", "categoryCode": "59", "address": "VALLEY VIEW VILLA, R.R. 1", "city": "STELLARTON", "province": "NS", "country": "CA", "postalCode": "B0K1S0", "twitter": "None", "instagram": "None", "facebook": "None", "youtube": "None", "website": "None", "summary": "None", "logo": "None", "latitude": 45.55755600000006, "longitude": -62.66633299999994}, "892285644RR0001": {"name": "PICTOU COUNTY FOOD BANK", "designationCode": "C", "categoryCode": "09", "address": "P O BOX 1035", "city": "STELLARTON", "province": "NS", "country": "CA", "postalCode": "B0K1S0", "twitter": "None", "instagram": "None", "facebook": "None", "youtube": "None", "website": "None", "summary": "None", "logo": "None", "latitude": 45.56177000000008, "longitude": -62.65966999999995}, "867249088RR0001": {"name": "PICTOU COUNTY GENEALOGY & HERITAGE SOCIETY", "designationCode": "C", "categoryCode": "50", "address": "P.O. BOX 1210", "city": "PICTOU", "province": "NS", "country": "CA", "postalCode": "B0K1H0", "twitter": "None", "instagram": "None", "facebook": "None", "youtube": "None", "website": "None", "summary": "None", "logo": "None", "latitude": 45.67583400000005, "longitude": -62.70865099999993}, "107843450RR0001": {"name": "PICTOU COUNTY HISTORICAL SOCIETY", "designationCode": "C", "categoryCode": "50", "address": "86 TEMPERANCE ST", "city": "NEW GLASGOW", "province": "NS", "country": "CA", "postalCode": "B2H3A7", "twitter": "None", "instagram": "None", "facebook": "None", "youtube": "None", "website": "None", "summary": "None", "logo": "None", "latitude": 45.58824116319466, "longitude": -62.64177653286415}, "843554320RR0001": {"name": "PICTOU COUNTY MUNICIPALITIES CRIME PREVENTION ASSOCIATION", "designationCode": "C", "categoryCode": "59", "address": "PO BOX 100", "city": "PICTOU", "province": "NS", "country": "CA", "postalCode": "B0K1H0", "twitter": "None", "instagram": "None", "facebook": "None", "youtube": "None", "website": "None", "summary": "None", "logo": "None", "latitude": 45.67583400000005, "longitude": -62.70865099999993}, "132855693RR0001": {"name": "PICTOU COUNTY OPPORTUNITY FOR MEN ASSOCIATION", "designationCode": "C", "categoryCode": "59", "address": "1870-2 MAIN ST.               PO BOX 201", "city": "WESTVILLE", "province": "NS", "country": "CA", "postalCode": "B0K2A0", "twitter": "None", "instagram": "None", "facebook": "None", "youtube": "None", "website": "None", "summary": "None", "logo": "None", "latitude": 45.604552145118035, "longitude": -62.638568738787534}, "863278800RR0001": {"name": "PICTOU COUNTY PROSTATE CANCER SUPPORT ASSOCIATION", "designationCode": "C", "categoryCode": "11", "address": "316 HOLLIS STREET", "city": "NEW GLASGOW", "province": "NS", "country": "CA", "postalCode": "B2H1P4", "twitter": "None", "instagram": "None", "facebook": "None", "youtube": "None", "website": "None", "summary": "None", "logo": "None", "latitude": 45.59710348098566, "longitude": -62.64634389330013}, "849901251RR0001": {"name": "PICTOU COUNTY ROOTS FOR YOUTH SOCIETY", "designationCode": "C", "categoryCode": "09", "address": "603 EAST RIVER ROAD           POST OFFICE BOX 794", "city": "NEW GLASGOW", "province": "NS", "country": "CA", "postalCode": "B2H5G2", "twitter": "None", "instagram": "None", "facebook": "None", "youtube": "None", "website": "None", "summary": "None", "logo": "None", "latitude": 45.577973860667115, "longitude": -62.6424861868253}, "865862478RR0001": {"name": "PICTOU COUNTY ROOTS SOCIETY", "designationCode": "C", "categoryCode": "50", "address": "182 DALHOUSIE ST.             P.O. BOX 276", "city": "NEW GLASGOW", "province": "NS", "country": "CA", "postalCode": "B2H5E3", "twitter": "None", "instagram": "None", "facebook": "None", "youtube": "None", "website": "None", "summary": "None", "logo": "None", "latitude": 45.58781524897559, "longitude": -62.6436557082925}, "870838125RR0001": {"name": "PICTOU COUNTY SPORTS HERITAGE HALL OF FAME SOCIETY", "designationCode": "C", "categoryCode": "50", "address": "340 EAST RIVER RD", "city": "NEW GLASGOW", "province": "NS", "country": "CA", "postalCode": "B2H3P7", "twitter": "None", "instagram": "None", "facebook": "None", "youtube": "None", "website": "None", "summary": "None", "logo": "None", "latitude": 45.583733041842024, "longitude": -62.645202430709666}, "886197193RR0001": {"name": "PICTOU COUNTY TRAILS ASSOCIATION", "designationCode": "C", "categoryCode": "56", "address": "PO BOX 616", "city": "PICTOU", "province": "NS", "country": "CA", "postalCode": "B0K1H0", "twitter": "None", "instagram": "None", "facebook": "None", "youtube": "None", "website": "None", "summary": "None", "logo": "None", "latitude": 45.67583400000005, "longitude": -62.70865099999993}, "889637542RR0001": {"name": "PICTOU COUNTY VOLUNTEER GROUND SEARCH AND RESCUE", "designationCode": "C", "categoryCode": "59", "address": "RR #3", "city": "WESTVILLE", "province": "NS", "country": "CA", "postalCode": "B0K2A0", "twitter": "None", "instagram": "None", "facebook": "None", "youtube": "None", "website": "None", "summary": "None", "logo": "None", "latitude": 45.559140000000056, "longitude": -62.70123049999994}, "119093011RR0001": {"name": "PICTOU COUNTY YOUNG MEN'S AND YOUNG WOMEN'S CHRISTIAN ASSOCIATION", "designationCode": "C", "categoryCode": "49", "address": "2756 WESTVILLE ROAD, RR 3", "city": "NEW-GLASGOW", "province": "NS", "country": "CA", "postalCode": "B2H5C6", "twitter": "None", "instagram": "None", "facebook": "None", "youtube": "None", "website": "None", "summary": "None", "logo": "None", "latitude": 45.57763421931125, "longitude": -62.67523031793833}, "119093029RR0001": {"name": "PICTOU COUNTY 4-H LEADERS COUNCIL", "designationCode": "C", "categoryCode": "21", "address": "1554 FRASER'S MTN RD.", "city": "FRASER'S MTN", "province": "NS", "country": "CA", "postalCode": "B2H5C4", "twitter": "None", "instagram": "None", "facebook": "None", "youtube": "None", "website": "None", "summary": "None", "logo": "None", "latitude": 45.59845732647015, "longitude": -62.610798882372514}, "119093045RR0001": {"name": "PICTOU UNITED CHURCH", "designationCode": "C", "categoryCode": "44", "address": "27 JAMES STREET", "city": "PICTOU", "province": "NS", "country": "CA", "postalCode": "B0K1H0", "twitter": "None", "instagram": "None", "facebook": "None", "youtube": "None", "website": "None", "summary": "None", "logo": "None", "latitude": 45.67767702350345, "longitude": -62.71219052464731}, "861494292RR0001": {"name": "PICTURE BUTTE AND DISTRICT TRANSPORTATION SOCIETY", "designationCode": "C", "categoryCode": "09", "address": "BOX 523", "city": "PICTURE BUTTE", "province": "AB", "country": "CA", "postalCode": "T0K1V0", "twitter": "None", "instagram": "None", "facebook": "None", "youtube": "None", "website": "None", "summary": "None", "logo": "None", "latitude": 49.87851001832194, "longitude": -112.77815001110848}, "821396249RR0001": {"name": "PICTURE BUTTE MENNONITE CHURCH (EMC)", "designationCode": "C", "categoryCode": "34", "address": "BOX 1112", "city": "PICTURE BUTTE", "province": "AB", "country": "CA", "postalCode": "T0K1V0", "twitter": "None", "instagram": "None", "facebook": "None", "youtube": "None", "website": "None", "summary": "None", "logo": "None", "latitude": 49.87851001832194, "longitude": -112.77815001110848}, "119093078RR0001": {"name": "PICTURE BUTTE TRINITY UNITED CHURCH", "designationCode": "C", "categoryCode": "44", "address": "BOX 957", "city": "PICTURE BUTTE", "province": "AB", "country": "CA", "postalCode": "T0K1V0", "twitter": "None", "instagram": "None", "facebook": "None", "youtube": "None", "website": "None", "summary": "None", "logo": "None", "latitude": 49.87851001832194, "longitude": -112.77815001110848}, "119372530RR0001": {"name": "PICTURE BUTTE, ALBERTA, CONGREGATION OF JEHOVAH'S WITNESSES", "designationCode": "C", "categoryCode": "61", "address": "PO BOX 1338", "city": "PICTURE BUTTE", "province": "AB", "country": "CA", "postalCode": "T0K1V0", "twitter": "None", "instagram": "None", "facebook": "None", "youtube": "None", "website": "None", "summary": "None", "logo": "None", "latitude": 49.87851001832194, "longitude": -112.77815001110848}, "871609434RR0001": {"name": "PIECE BY PEACE MINISTRIES", "designationCode": "C", "categoryCode": "43", "address": "PO BOX 2197", "city": "RICHMOND HILL", "province": "ON", "country": "CA", "postalCode": "L4E1A4", "twitter": "None", "instagram": "None", "facebook": "None", "youtube": "None", "website": "None", "summary": "None", "logo": "None"}, "880166319RR0001": {"name": "PIECZONKA FAMILY FOUNDATION", "designationCode": "B", "categoryCode": "03", "address": "238 PENN DRIVE", "city": "BURLINGTON", "province": "ON", "country": "CA", "postalCode": "L7N2B8", "twitter": "None", "instagram": "None", "facebook": "None", "youtube": "None", "website": "None", "summary": "None", "logo": "None", "latitude": 43.34719091450753, "longitude": -79.76368117819831}, "119093094RR0001": {"name": "PIED PIPER CO-OPERATIVE PRE-SCHOOL OF HAMILTON INC.", "designationCode": "C", "categoryCode": "20", "address": "21 STONECHURCH ROAD WEST", "city": "HAMILTON", "province": "ON", "country": "CA", "postalCode": "L9B1A1", "twitter": "None", "instagram": "None", "facebook": "None", "youtube": "None", "website": "None", "summary": "None", "logo": "None", "latitude": 43.212120000000056, "longitude": -79.89333649999993}, "119093102RR0001": {"name": "PIED PIPER PRESCHOOL ASSOCIATION", "designationCode": "C", "categoryCode": "20", "address": "8757 ARMSTRONG AVE", "city": "BURNABY", "province": "BC", "country": "CA", "postalCode": "V3N2H8", "twitter": "None", "instagram": "None", "facebook": "None", "youtube": "None", "website": "None", "summary": "None", "logo": "None", "latitude": 49.23357378134882, "longitude": -122.90793503185361}, "107843724RR0001": {"name": "PIERCELAND RECREATION ASSOCIATION", "designationCode": "C", "categoryCode": "56", "address": "BOX 281", "city": "PIERCELAND", "province": "SK", "country": "CA", "postalCode": "S0M2K0", "twitter": "None", "instagram": "None", "facebook": "None", "youtube": "None", "website": "None", "summary": "None", "logo": "None", "latitude": 54.333480000000066, "longitude": -109.76833999999997}, "119093128RR0001": {"name": "PIERCELAND SENIOR CITIZEN ORGANIZATION #28 INC.", "designationCode": "C", "categoryCode": "56", "address": "BOX 493", "city": "PIERCELAND", "province": "SK", "country": "CA", "postalCode": "S0M2K0", "twitter": "None", "instagram": "None", "facebook": "None", "youtube": "None", "website": "None", "summary": "None", "logo": "None", "latitude": 54.333480000000066, "longitude": -109.76833999999997}, "119093136RR0001": {"name": "PIERCELAND UNITED CHURCH", "designationCode": "C", "categoryCode": "44", "address": "P.O. BOX 53", "city": "PIERCELAND", "province": "SK", "country": "CA", "postalCode": "S0M2K0", "twitter": "None", "instagram": "None", "facebook": "None", "youtube": "None", "website": "None", "summary": "None", "logo": "None", "latitude": 54.333480000000066, "longitude": -109.76833999999997}, "119093151RR0001": {"name": "PIERSON BIBLE CHAPEL", "designationCode": "C", "categoryCode": "39", "address": "BOX 9", "city": "PIERSON", "province": "MB", "country": "CA", "postalCode": "R0M1S0", "twitter": "None", "instagram": "None", "facebook": "None", "youtube": "None", "website": "None", "summary": "None", "logo": "None", "latitude": 49.17938000000004, "longitude": -101.25667999999996}, "884897166RR0001": {"name": "PIERSON SCHOOLING FUND INC", "designationCode": "A", "categoryCode": "23", "address": "BOX 83", "city": "PIERSON", "province": "MB", "country": "CA", "postalCode": "R0M1S0", "twitter": "None", "instagram": "None", "facebook": "None", "youtube": "None", "website": "None", "summary": "None", "logo": "None", "latitude": 49.17938000000004, "longitude": -101.25667999999996}, "892062845RR0001": {"name": "PIERSON UNITED CHURCH", "designationCode": "C", "categoryCode": "44", "address": "PO BOX 2", "city": "PIERSON", "province": "MB", "country": "CA", "postalCode": "R0M1S0", "twitter": "None", "instagram": "None", "facebook": "None", "youtube": "None", "website": "None", "summary": "None", "logo": "None", "latitude": 49.17938000000004, "longitude": -101.25667999999996}, "864505086RR0001": {"name": "PIERSPECTIVE ENTRAIDE HUMANITAIRE", "designationCode": "C", "categoryCode": "09", "address": "902 BATHURST STREET", "city": "TORONTO", "province": "ON", "country": "CA", "postalCode": "M5R3G3", "twitter": "None", "instagram": "None", "facebook": "None", "youtube": "None", "website": "None", "summary": "None", "logo": "None", "latitude": 43.66786507354727, "longitude": -79.41231356093819}, "859577678RR0001": {"name": "PIETER DE REUVER FOUNDATION", "designationCode": "B", "categoryCode": "03", "address": "225 FOURNEAU WAY", "city": "PARKSVILLE", "province": "BC", "country": "CA", "postalCode": "V9P2J8", "twitter": "None", "instagram": "None", "facebook": "None", "youtube": "None", "website": "None", "summary": "None", "logo": "None", "latitude": 49.29976030782796, "longitude": -124.28110982456353}, "875488413RR0001": {"name": "PIGEON LAKE CHILD AND FAMILY SOCIETY", "designationCode": "C", "categoryCode": "09", "address": "BOX 212                       RR2", "city": "WESTEROSE", "province": "AB", "country": "CA", "postalCode": "T0C2V0", "twitter": "None", "instagram": "None", "facebook": "None", "youtube": "None", "website": "None", "summary": "None", "logo": "None", "latitude": 52.95977000000005, "longitude": -114.02483999999998}, "803670660RR0001": {"name": "PIH Partners In Health Canada Inc.", "designationCode": "C", "categoryCode": "01", "address": "301 - 360 COLLEGE ST", "city": "TORONTO", "province": "ON", "country": "CA", "postalCode": "M5T1S6", "twitter": "None", "instagram": "None", "facebook": "None", "youtube": "None", "website": "None", "summary": "None", "logo": "None", "latitude": 43.65714918347843, "longitude": -79.40430886831317}, "892771585RR0001": {"name": "PIKE-SCHAINHOLZ MEMORIAL FOUNDATION", "designationCode": "C", "categoryCode": "21", "address": "155 PARKLAND GREEN SE", "city": "CALGARY", "province": "AB", "country": "CA", "postalCode": "T2J3X6", "twitter": "None", "instagram": "None", "facebook": "None", "youtube": "None", "website": "None", "summary": "None", "logo": "None", "latitude": 50.9293653424895, "longitude": -114.03648406898827}, "107845091RR0001": {"name": "PILGRIM BAPTIST CHURCH", "designationCode": "C", "categoryCode": "31", "address": "41 MAPLE ST", "city": "WINNIPEG", "province": "MB", "country": "CA", "postalCode": "R3B3G4", "twitter": "None", "instagram": "None", "facebook": "None", "youtube": "None", "website": "None", "summary": "None", "logo": "None", "latitude": 49.90358097584977, "longitude": -97.13139091753727}, "831632641RR0001": {"name": "PILGRIM BAPTIST CHURCH", "designationCode": "C", "categoryCode": "31", "address": "6075 INVERNESS ST", "city": "VANCOUVER", "province": "BC", "country": "CA", "postalCode": "V5W3P8", "twitter": "None", "instagram": "None", "facebook": "None", "youtube": "None", "website": "None", "summary": "None", "logo": "None", "latitude": 49.22931686955394, "longitude": -123.07993249448874}, "871911152RR0001": {"name": "PILGRIM BAPTIST FELLOWSHIP OF ANCASTER, ONTARIO", "designationCode": "C", "categoryCode": "31", "address": "692 KING ST E", "city": "HAMILTON", "province": "ON", "country": "CA", "postalCode": "L8M1A3", "twitter": "None", "instagram": "None", "facebook": "None", "youtube": "None", "website": "None", "summary": "None", "logo": "None", "latitude": 43.25194255395599, "longitude": -79.84808666778228}, "119093201RR0001": {"name": "PILGRIM CHURCH OF THE FIRSTBORN INC.", "designationCode": "C", "categoryCode": "39", "address": "127 SUNFOREST DR", "city": "BRAMPTON", "province": "ON", "country": "CA", "postalCode": "L6Z3Z8", "twitter": "None", "instagram": "None", "facebook": "None", "youtube": "None", "website": "None", "summary": "None", "logo": "None", "latitude": 43.71426246047074, "longitude": -79.79242419317329}, "107845117RR0001": {"name": "PILGRIM EVANGELICAL LUTHERAN CHURCH", "designationCode": "C", "categoryCode": "32", "address": "206 DUKE ST.E.", "city": "KITCHENER", "province": "ON", "country": "CA", "postalCode": "N2H1B1", "twitter": "None", "instagram": "None", "facebook": "None", "youtube": "None", "website": "None", "summary": "None", "logo": "None", "latitude": 43.44800884958728, "longitude": -80.48167705133025}, "107845133RR0001": {"name": "PILGRIM EVANGELICAL LUTHERAN CHURCH", "designationCode": "C", "categoryCode": "32", "address": "1054 UPPER SHERMAN AVE", "city": "HAMILTON", "province": "ON", "country": "CA", "postalCode": "L8V3N5", "twitter": "None", "instagram": "None", "facebook": "None", "youtube": "None", "website": "None", "summary": "None", "logo": "None", "latitude": 43.214501921749545, "longitude": -79.8550045712673}, "119093250RR0001": {"name": "PILGRIM HOLINESS CHURCH", "designationCode": "C", "categoryCode": "39", "address": "1483 COUNTY ROAD 11", "city": "NAPANEE", "province": "ON", "country": "CA", "postalCode": "K7R3L2", "twitter": "None", "instagram": "None", "facebook": "None", "youtube": "None", "website": "None", "summary": "None", "logo": "None", "latitude": 44.30708123384126, "longitude": -76.91549635903846}, "805842911RR0001": {"name": "PILGRIM RELIEF SOCIETY FOR EDUCATION AND RELIEF OF POVERTY", "designationCode": "C", "categoryCode": "47", "address": "1185 EMILE-BOUCHARD APT:101", "city": "VAUDREUIL", "province": "QC", "country": "CA", "postalCode": "J7V0B7", "twitter": "None", "instagram": "None", "facebook": "None", "youtube": "None", "website": "None", "summary": "None", "logo": "None", "latitude": 45.394234173740834, "longitude": -74.05117318377741}, "119093300RR0001": {"name": "PILGRIM UNITED CHURCH", "designationCode": "C", "categoryCode": "44", "address": "9008 135 AVENUE NW", "city": "EDMONTON", "province": "AB", "country": "CA", "postalCode": "T5E1N4", "twitter": "None", "instagram": "None", "facebook": "None", "youtube": "None", "website": "None", "summary": "None", "logo": "None", "latitude": 53.59599028117592, "longitude": -113.48074584618308}, "897041455RR0001": {"name": "PILGRIMS HOSPICE SOCIETY", "designationCode": "C", "categoryCode": "11", "address": "9808 148TH ST", "city": "EDMONTON", "province": "AB", "country": "CA", "postalCode": "T5N3E8", "twitter": "None", "instagram": "None", "facebook": "None", "youtube": "None", "website": "None", "summary": "None", "logo": "None", "latitude": 53.536453826533545, "longitude": -113.57628019986704}, "891010720RR0001": {"name": "PILKINGTON-HENNIGER CHARITABLE TRUST", "designationCode": "B", "categoryCode": "03", "address": "487 HUNTER STREET WEST", "city": "PETERBOROUGH", "province": "ON", "country": "CA", "postalCode": "K9H2M9", "twitter": "None", "instagram": "None", "facebook": "None", "youtube": "None", "website": "None", "summary": "None", "logo": "None", "latitude": 44.30498193698432, "longitude": -78.33211325783373}, "863419933RR0001": {"name": "PILLAR NONPROFIT NETWORK", "designationCode": "C", "categoryCode": "59", "address": "201 KING STREET, 2ND FLOOR", "city": "LONDON", "province": "ON", "country": "CA", "postalCode": "N6A1C9", "twitter": "None", "instagram": "None", "facebook": "None", "youtube": "None", "website": "None", "summary": "None", "logo": "None", "latitude": 42.98290806797868, "longitude": -81.24760251067582}, "119093326RR0001": {"name": "PILLARS TRUST FUND INC.", "designationCode": "C", "categoryCode": "03", "address": "2005 ST-MARC STREET", "city": "MONTREAL", "province": "QC", "country": "CA", "postalCode": "H3H2G8", "twitter": "None", "instagram": "None", "facebook": "None", "youtube": "None", "website": "None", "summary": "None", "logo": "None", "latitude": 45.49373016071316, "longitude": -73.58184715762609}, "873136105RR0001": {"name": "PILLEY'S ISLAND HERITAGE SOCIETY INC.", "designationCode": "C", "categoryCode": "52", "address": "6 HARBOUR VIEW ROAD           PO BOX 124", "city": "PILLEY'S ISLAND", "province": "NL", "country": "CA", "postalCode": "A0J1M0", "twitter": "None", "instagram": "None", "facebook": "None", "youtube": "None", "website": "None", "summary": "None", "logo": "None", "latitude": 49.48513633811197, "longitude": -55.753572249395376}, "879844207RR0001": {"name": "PILLOW MINISTRY INTERNATIONAL INC.", "designationCode": "A", "categoryCode": "03", "address": "137 SCOTIA DR", "city": "WINKLER", "province": "MB", "country": "CA", "postalCode": "R6W2Y9", "twitter": "None", "instagram": "None", "facebook": "None", "youtube": "None", "website": "None", "summary": "None", "logo": "None", "latitude": 49.174568255352234, "longitude": -97.93283369882879}, "119093375RR0001": {"name": "PILOT MOUND & DISTRICT COMMUNITY CANVASS (DONOR'S CHOICE)", "designationCode": "A", "categoryCode": "05", "address": "P. O. BOX 412", "city": "PILOT MOUND", "province": "MB", "country": "CA", "postalCode": "R0G1P0", "twitter": "None", "instagram": "None", "facebook": "None", "youtube": "None", "website": "None", "summary": "None", "logo": "None", "latitude": 49.20280000000008, "longitude": -98.89433999999994}, "893091355RR0001": {"name": "PILOT MOUND & DISTRICT FOUNDATION INC.", "designationCode": "A", "categoryCode": "55", "address": "BOX 235", "city": "PILOT MOUND", "province": "MB", "country": "CA", "postalCode": "R0G1P0", "twitter": "None", "instagram": "None", "facebook": "None", "youtube": "None", "website": "None", "summary": "None", "logo": "None", "latitude": 49.20280000000008, "longitude": -98.89433999999994}, "886828086RR0001": {"name": "PILOT MOUND MUSEUM INC", "designationCode": "C", "categoryCode": "50", "address": "BOX 181", "city": "PILOT MOUND", "province": "MB", "country": "CA", "postalCode": "R0G1P0", "twitter": "None", "instagram": "None", "facebook": "None", "youtube": "None", "website": "None", "summary": "None", "logo": "None", "latitude": 49.20280000000008, "longitude": -98.89433999999994}, "119093391RR0001": {"name": "PILOT PLACE SOCIETY", "designationCode": "C", "categoryCode": "01", "address": "70 LOMBARD ST", "city": "TORONTO", "province": "ON", "country": "CA", "postalCode": "M5C2W2", "twitter": "None", "instagram": "None", "facebook": "None", "youtube": "None", "website": "None", "summary": "None", "logo": "None", "latitude": 43.65189011408611, "longitude": -79.37496601333021}, "119288918RR0621": {"name": "PINAFORE CONGREGATION OF JEHOVAH'S WITNESSES, ST. THOMAS, ONTARIO", "designationCode": "C", "categoryCode": "61", "address": "105 LAWRENCE AVE.", "city": "ST. THOMAS", "province": "ON", "country": "CA", "postalCode": "N5R5C8", "twitter": "None", "instagram": "None", "facebook": "None", "youtube": "None", "website": "None", "summary": "None", "logo": "None", "latitude": 42.75993405364321, "longitude": -81.1632463148109}}