{"717041529RR0001": {"name": "Embracing The Heart Ministries Centre", "designationCode": "C", "categoryCode": "49", "address": "16 FORREST PL", "city": "SHERWOOD PARK", "province": "AB", "country": "CA", "postalCode": "T8A5Z9", "twitter": "None", "instagram": "None", "facebook": "None", "youtube": "None", "website": "None", "summary": "None", "logo": "None", "latitude": 53.52304610101572, "longitude": -113.26815140567804}, "812550390RR0001": {"name": "Emerald Charitable Trust", "designationCode": "B", "categoryCode": "45", "address": "POST OFFICE BOX 87", "city": "GLADSTONE", "province": "MB", "country": "CA", "postalCode": "R0J0T0", "twitter": "None", "instagram": "None", "facebook": "None", "youtube": "None", "website": "None", "summary": "None", "logo": "None", "latitude": 50.22542000000004, "longitude": -98.95074999999997}, "827100280RR0001": {"name": "Emerge Christian Ministries", "designationCode": "C", "categoryCode": "39", "address": "84 BURGOSA COURT", "city": "WOODBRIDGE", "province": "ON", "country": "CA", "postalCode": "L4L5C7", "twitter": "None", "instagram": "None", "facebook": "None", "youtube": "None", "website": "None", "summary": "None", "logo": "None", "latitude": 43.7944464676841, "longitude": -79.566534}, "822554234RR0001": {"name": "Emerge Church of Calgary Society", "designationCode": "C", "categoryCode": "39", "address": "6423 BURBANK ROAD SOUTHEAST", "city": "CALGARY", "province": "AB", "country": "CA", "postalCode": "T2H2E1", "twitter": "None", "instagram": "None", "facebook": "None", "youtube": "None", "website": "None", "summary": "None", "logo": "None", "latitude": 50.99717404524207, "longitude": -114.04696356370816}, "802278168RR0001": {"name": "Emergency Care Motorcycle Unit", "designationCode": "C", "categoryCode": "11", "address": "7 - 211 STRABANE AVE", "city": "WINDSOR", "province": "ON", "country": "CA", "postalCode": "N8Y2W6", "twitter": "None", "instagram": "None", "facebook": "None", "youtube": "None", "website": "None", "summary": "None", "logo": "None", "latitude": 42.32642698202999, "longitude": -82.99554494976708}, "866975824RR0001": {"name": "Emergency Support Committee for Refugees", "designationCode": "C", "categoryCode": "09", "address": "438 HUGHSON ST.NORTH", "city": "HAMILTON", "province": "ON", "country": "CA", "postalCode": "L8L4N5", "twitter": "None", "instagram": "None", "facebook": "None", "youtube": "None", "website": "None", "summary": "None", "logo": "None", "latitude": 43.26986784901037, "longitude": -79.86177812695497}, "847675519RR0001": {"name": "Emerson Kinder College Inc.", "designationCode": "C", "categoryCode": "01", "address": "POST OFFICE BOX 250", "city": "EMERSON", "province": "MB", "country": "CA", "postalCode": "R0A0L0", "twitter": "None", "instagram": "None", "facebook": "None", "youtube": "None", "website": "None", "summary": "None", "logo": "None", "latitude": 49.00687000000005, "longitude": -97.20476999999994}, "119288918RR1538": {"name": "Emery Village Congregation of Jehovah's Witnesses, Toronto, Ontario", "designationCode": "C", "categoryCode": "61", "address": "16 ARROW ROAD", "city": "NORTH YORK", "province": "ON", "country": "CA", "postalCode": "M9M2L7", "twitter": "None", "instagram": "None", "facebook": "None", "youtube": "None", "website": "None", "summary": "None", "logo": "None", "latitude": 43.73638723896361, "longitude": -79.52951807608606}, "856134598RR0001": {"name": "Emily Brydon Fernie Foundation", "designationCode": "A", "categoryCode": "09", "address": "3054 JOHNSON ROAD             P.O. BOX 1892", "city": "FERNIE", "province": "BC", "country": "CA", "postalCode": "V0B1M1", "twitter": "None", "instagram": "None", "facebook": "None", "youtube": "None", "website": "None", "summary": "None", "logo": "None", "latitude": 49.498009376074805, "longitude": -115.08703789226188}, "118971936RR0001": {"name": "Emily Carr String Quartet Society", "designationCode": "C", "categoryCode": "22", "address": "3949 CIRCLE DRIVE", "city": "VICTORIA", "province": "BC", "country": "CA", "postalCode": "V9C4A9", "twitter": "None", "instagram": "None", "facebook": "None", "youtube": "None", "website": "None", "summary": "None", "logo": "None", "latitude": 48.38879997694629, "longitude": -123.50905006592987}, "888742046RR0001": {"name": "Emily Carr University of Art and Design Trust Fund", "designationCode": "C", "categoryCode": "21", "address": "520 1ST AVE E", "city": "VANCOUVER", "province": "BC", "country": "CA", "postalCode": "V5T0H2", "twitter": "None", "instagram": "None", "facebook": "None", "youtube": "None", "website": "None", "summary": "None", "logo": "None", "latitude": 49.268097283305224, "longitude": -123.11482763973926}, "130577471RR0001": {"name": "Emmanuel Anglican Church", "designationCode": "C", "categoryCode": "30", "address": "609 DUFFERIN AVENUE", "city": "SASKATOON", "province": "SK", "country": "CA", "postalCode": "S7N1C4", "twitter": "None", "instagram": "None", "facebook": "None", "youtube": "None", "website": "None", "summary": "None", "logo": "None", "latitude": 52.11967929460625, "longitude": -106.65385890599444}, "817654288RR0001": {"name": "Emmanuel Baptist Church", "designationCode": "C", "categoryCode": "31", "address": "1609 CHEEVERS CRESCENT", "city": "ORLEANS", "province": "ON", "country": "CA", "postalCode": "K4A2J6", "twitter": "None", "instagram": "None", "facebook": "None", "youtube": "None", "website": "None", "summary": "None", "logo": "None", "latitude": 45.47497021039864, "longitude": -75.4944351586357}, "118899301RR0001": {"name": "Emmanuel Baptist Church of Parkdale - Maplewood", "designationCode": "C", "categoryCode": "31", "address": "3142 BARSS CORNER ROAD, R.R#1", "city": "BARSS CORNER", "province": "NS", "country": "CA", "postalCode": "B0R1A0", "twitter": "None", "instagram": "None", "facebook": "None", "youtube": "None", "website": "None", "summary": "None", "logo": "None", "latitude": 44.64626096087478, "longitude": -64.63319057643277}, "819196536RR0001": {"name": "Emmanuel Chinese Church Inc.", "designationCode": "C", "categoryCode": "39", "address": "29 NEWHOOK PLACE", "city": "ST. JOHN'S", "province": "NL", "country": "CA", "postalCode": "A1A6A9", "twitter": "None", "instagram": "None", "facebook": "None", "youtube": "None", "website": "None", "summary": "None", "logo": "None", "latitude": 47.60379969274059, "longitude": -52.75668845643138}, "815349782RR0001": {"name": "Emmanuel Church (Pentecostal)", "designationCode": "C", "categoryCode": "36", "address": "2123 PARKWOOD AVE", "city": "WINDSOR", "province": "ON", "country": "CA", "postalCode": "N8W2J8", "twitter": "None", "instagram": "None", "facebook": "None", "youtube": "None", "website": "None", "summary": "None", "logo": "None", "latitude": 42.29938111711589, "longitude": -83.00667027702097}, "889170643RR0001": {"name": "Emmanuel Community Canada Inc. / Communaut\u00e9 de l'Emmanuel Canada Inc.", "designationCode": "C", "categoryCode": "49", "address": "374 3RD AVE S", "city": "SASKATOON", "province": "SK", "country": "CA", "postalCode": "S7K1M5", "twitter": "None", "instagram": "None", "facebook": "None", "youtube": "None", "website": "None", "summary": "None", "logo": "None", "latitude": 52.12407725783375, "longitude": -106.6640985506091}, "808151757RR0001": {"name": "Emmanuel Faith Planters Mission", "designationCode": "C", "categoryCode": "39", "address": "255 DUNCAN MILL ROAD          SUITE #307", "city": "DON MILLS", "province": "ON", "country": "CA", "postalCode": "M3B3H9", "twitter": "None", "instagram": "None", "facebook": "None", "youtube": "None", "website": "None", "summary": "None", "logo": "None", "latitude": 43.761636736020755, "longitude": -79.35163791355524}, "801562133RR0001": {"name": "Emmanuel Gospel Assembly Edmonton", "designationCode": "C", "categoryCode": "39", "address": "3080 CARPENTER LANDNG SW", "city": "EDMONTON", "province": "AB", "country": "CA", "postalCode": "T6W2Y9", "twitter": "None", "instagram": "None", "facebook": "None", "youtube": "None", "website": "None", "summary": "None", "logo": "None", "latitude": 53.407121757408696, "longitude": -113.56448870069822}, "835807058RR0001": {"name": "Emmanuel Gospel Ministries Canada", "designationCode": "C", "categoryCode": "39", "address": "5 HEDGE END RD", "city": "SCARBOROUGH", "province": "ON", "country": "CA", "postalCode": "M1B5Z4", "twitter": "None", "instagram": "None", "facebook": "None", "youtube": "None", "website": "None", "summary": "None", "logo": "None", "latitude": 43.80791361979893, "longitude": -79.17392844197599}, "804936797RR0001": {"name": "Emmanuel Grace", "designationCode": "C", "categoryCode": "39", "address": "1483 FOUR MILE CREEK RD.", "city": "NIAGARA ON THE LAKE", "province": "ON", "country": "CA", "postalCode": "L0S1J0", "twitter": "None", "instagram": "None", "facebook": "None", "youtube": "None", "website": "None", "summary": "None", "logo": "None", "latitude": 43.215324379969935, "longitude": -79.11944270993729}, "107372849RR0001": {"name": "Emmanuel Grace Church Inc.", "designationCode": "C", "categoryCode": "39", "address": "PO BOX 476", "city": "EASTEND", "province": "SK", "country": "CA", "postalCode": "S0N0T0", "twitter": "None", "instagram": "None", "facebook": "None", "youtube": "None", "website": "None", "summary": "None", "logo": "None", "latitude": 49.51367000000005, "longitude": -108.82889999999998}, "890443401RR0001": {"name": "Emmanuel Healing Center Inc.", "designationCode": "C", "categoryCode": "39", "address": "7010 - 11TH AVENUE", "city": "EDMONTON", "province": "AB", "country": "CA", "postalCode": "T6K3J5", "twitter": "None", "instagram": "None", "facebook": "None", "youtube": "None", "website": "None", "summary": "None", "logo": "None", "latitude": 53.44050465889549, "longitude": -113.44535697498438}, "801129586RR0001": {"name": "Emmanuel Iranian Church", "designationCode": "C", "categoryCode": "39", "address": "502 - 1875 BELLEVUE AVE", "city": "WEST VANCOUVER", "province": "BC", "country": "CA", "postalCode": "V7V1B3", "twitter": "None", "instagram": "None", "facebook": "None", "youtube": "None", "website": "None", "summary": "None", "logo": "None", "latitude": 49.32773547157926, "longitude": -123.16367272009349}, "825984511RR0001": {"name": "Emmanuel Life Management Center", "designationCode": "C", "categoryCode": "59", "address": "90 MARYCROFT COURT", "city": "BRAMPTON", "province": "ON", "country": "CA", "postalCode": "L7A2G2", "twitter": "None", "instagram": "None", "facebook": "None", "youtube": "None", "website": "None", "summary": "None", "logo": "None", "latitude": 43.69802847322402, "longitude": -79.80203979629513}, "831865951RR0001": {"name": "Emmanuel Lutheran Church", "designationCode": "C", "categoryCode": "32", "address": "9135 146 ST", "city": "SURREY", "province": "BC", "country": "CA", "postalCode": "V3R7N3", "twitter": "None", "instagram": "None", "facebook": "None", "youtube": "None", "website": "None", "summary": "None", "logo": "None", "latitude": 49.16881774854292, "longitude": -122.81794450833854}, "852831759RR0001": {"name": "Emmanuel Mission", "designationCode": "C", "categoryCode": "30", "address": "641 ST. MATTHEWS AVENUE", "city": "WINNIPEG", "province": "MB", "country": "CA", "postalCode": "R3G0G6", "twitter": "None", "instagram": "None", "facebook": "None", "youtube": "None", "website": "None", "summary": "None", "logo": "None", "latitude": 49.88981151875456, "longitude": -97.16073322009349}, "848857918RR0001": {"name": "Emmanuel Mission Church of the Nazarene", "designationCode": "C", "categoryCode": "39", "address": "21 PRINCE EDWARD BLVD", "city": "BRAMPTON", "province": "ON", "country": "CA", "postalCode": "L6P2H6", "twitter": "None", "instagram": "None", "facebook": "None", "youtube": "None", "website": "None", "summary": "None", "logo": "None", "latitude": 43.77223510961407, "longitude": -79.69723091309389}, "786801092RR0001": {"name": "Emmanuel Syriac Orthodox Church in Calgary", "designationCode": "C", "categoryCode": "39", "address": "18 - 80 GALBRAITH DR SW", "city": "CALGARY", "province": "AB", "country": "CA", "postalCode": "T3E4Z6", "twitter": "None", "instagram": "None", "facebook": "None", "youtube": "None", "website": "None", "summary": "None", "logo": "None", "latitude": 51.01055046572222, "longitude": -114.14376639702238}, "107425951RR0001": {"name": "Emmanuel United Church", "designationCode": "C", "categoryCode": "44", "address": "534 GEORGE ST N", "city": "PETERBOROUGH", "province": "ON", "country": "CA", "postalCode": "K9H3S2", "twitter": "None", "instagram": "None", "facebook": "None", "youtube": "None", "website": "None", "summary": "None", "logo": "None", "latitude": 44.3101055656414, "longitude": -78.32031275183246}, "831334453RR0001": {"name": "Emmaus Anglican Church", "designationCode": "C", "categoryCode": "30", "address": "982 MANNING", "city": "VERDUN", "province": "QC", "country": "CA", "postalCode": "H4H1Z8", "twitter": "None", "instagram": "None", "facebook": "None", "youtube": "None", "website": "None", "summary": "None", "logo": "None", "latitude": 45.4495085323159, "longitude": -73.57761380835592}, "131909731RR0002": {"name": "Emmaus Anglican Church, Sault Ste Marie", "designationCode": "C", "categoryCode": "30", "address": "1643 WELLINGTON ST EAST", "city": "SAULT STE MARIE", "province": "ON", "country": "CA", "postalCode": "P6A2R8", "twitter": "None", "instagram": "None", "facebook": "None", "youtube": "None", "website": "None", "summary": "None", "logo": "None", "latitude": 46.509461510098895, "longitude": -84.28629141618097}, "825250566RR0001": {"name": "Emmaus Church", "designationCode": "C", "categoryCode": "36", "address": "881 DANFORTH PL", "city": "BURLINGTON", "province": "ON", "country": "CA", "postalCode": "L7T1S1", "twitter": "None", "instagram": "None", "facebook": "None", "youtube": "None", "website": "None", "summary": "None", "logo": "None", "latitude": 43.292518741618004, "longitude": -79.8629851219633}, "834238032RR0001": {"name": "Emmaus Formation Centre", "designationCode": "C", "categoryCode": "49", "address": "1422 MIRAYA COURT", "city": "MISSISSAUGA", "province": "ON", "country": "CA", "postalCode": "L5C2T5", "twitter": "None", "instagram": "None", "facebook": "None", "youtube": "None", "website": "None", "summary": "None", "logo": "None", "latitude": 43.553709, "longitude": -79.65579606546851}, "108122649RR0001": {"name": "Emmaus Korean Methodist Church", "designationCode": "C", "categoryCode": "39", "address": "2750 DUFFERIN ST", "city": "NORTH YORK", "province": "ON", "country": "CA", "postalCode": "M6B3R4", "twitter": "None", "instagram": "None", "facebook": "None", "youtube": "None", "website": "None", "summary": "None", "logo": "None", "latitude": 43.70305098750652, "longitude": -79.45228741566136}, "812700979RR0001": {"name": "Emo Food Bank and Thrift Shop", "designationCode": "C", "categoryCode": "09", "address": "PO BOX 38", "city": "EMO", "province": "ON", "country": "CA", "postalCode": "P0W1E0", "twitter": "None", "instagram": "None", "facebook": "None", "youtube": "None", "website": "None", "summary": "None", "logo": "None", "latitude": 48.662577540629606, "longitude": -93.82672263965895}, "755687720RR0001": {"name": "Empathy for Peace L'Empathie pour la paix", "designationCode": "C", "categoryCode": "21", "address": "148 WALLACE AVENUE", "city": "TORONTO", "province": "ON", "country": "CA", "postalCode": "M6H1T5", "twitter": "None", "instagram": "None", "facebook": "None", "youtube": "None", "website": "None", "summary": "None", "logo": "None", "latitude": 43.66282625618896, "longitude": -79.44213879170749}, "131959132RR0001": {"name": "Employment Help Centre", "designationCode": "C", "categoryCode": "59", "address": "4520 ONTARIO STREET, UNIT 11", "city": "BEAMSVILLE", "province": "ON", "country": "CA", "postalCode": "L0R1B5", "twitter": "None", "instagram": "None", "facebook": "None", "youtube": "None", "website": "None", "summary": "None", "logo": "None", "latitude": 43.17734745045877, "longitude": -79.4769106031505}, "841454606RR0001": {"name": "Employment Solutions for Immigrants Inc.", "designationCode": "C", "categoryCode": "59", "address": "271 PORTAGE AVE.", "city": "WINNIPEG", "province": "MB", "country": "CA", "postalCode": "R3B2A8", "twitter": "None", "instagram": "None", "facebook": "None", "youtube": "None", "website": "None", "summary": "None", "logo": "None", "latitude": 49.89435275716991, "longitude": -97.14187355594653}, "118864719RR0001": {"name": "Empower, The Disability Resource Centre Inc.", "designationCode": "C", "categoryCode": "01", "address": "4 ESCASONI PL", "city": "ST. JOHN'S", "province": "NL", "country": "CA", "postalCode": "A1A3R6", "twitter": "None", "instagram": "None", "facebook": "None", "youtube": "None", "website": "None", "summary": "None", "logo": "None", "latitude": 47.59121497916799, "longitude": -52.71977134563388}, "756164323RR0001": {"name": "Empowered By Love Ministries", "designationCode": "C", "categoryCode": "39", "address": "2730 SYLVAIN STREET,", "city": "ROCKLAND", "province": "ON", "country": "CA", "postalCode": "K4K1S6", "twitter": "None", "instagram": "None", "facebook": "None", "youtube": "None", "website": "None", "summary": "None", "logo": "None", "latitude": 45.53832584208545, "longitude": -75.29799839076131}, "841475429RR0001": {"name": "Empowering Indigenous Youth in Governance and Leadership (EIYGL)", "designationCode": "C", "categoryCode": "20", "address": "206 - 1075 PORTAGE AVE", "city": "WINNIPEG", "province": "MB", "country": "CA", "postalCode": "R3G0R8", "twitter": "None", "instagram": "None", "facebook": "None", "youtube": "None", "website": "None", "summary": "None", "logo": "None", "latitude": 49.88443239612741, "longitude": -97.17731402097624}, "852321843RR0001": {"name": "Empowering Kids in Uganda Society", "designationCode": "C", "categoryCode": "21", "address": "201-5022 47TH STREET", "city": "YELLOWKNIFE", "province": "NT", "country": "CA", "postalCode": "X1A1M1", "twitter": "None", "instagram": "None", "facebook": "None", "youtube": "None", "website": "None", "summary": "None", "logo": "None", "latitude": 62.45495014772192, "longitude": -114.36703778038886}, "812323707RR0001": {"name": "Empowering Minds", "designationCode": "C", "categoryCode": "21", "address": "4500-400 3 AVE SW", "city": "CALGARY", "province": "AB", "country": "CA", "postalCode": "T2P4H2", "twitter": "None", "instagram": "None", "facebook": "None", "youtube": "None", "website": "None", "summary": "None", "logo": "None", "latitude": 51.050585259196545, "longitude": -114.07240492388776}, "843410283RR0001": {"name": "Empowerment House of Worship", "designationCode": "B", "categoryCode": "39", "address": "11 DIGBY CRESCENT", "city": "MARKHAM", "province": "ON", "country": "CA", "postalCode": "L3R7G6", "twitter": "None", "instagram": "None", "facebook": "None", "youtube": "None", "website": "None", "summary": "None", "logo": "None"}, "809826969RR0001": {"name": "Empty Arms: Perinatal Loss Support Services Incorporated", "designationCode": "C", "categoryCode": "09", "address": "PO BOX 2", "city": "WALDHEIM", "province": "SK", "country": "CA", "postalCode": "S0K4R0", "twitter": "None", "instagram": "None", "facebook": "None", "youtube": "None", "website": "None", "summary": "None", "logo": "None", "latitude": 52.620700000000056, "longitude": -106.65605}, "826900789RR0001": {"name": "Empwr Foundation", "designationCode": "C", "categoryCode": "11", "address": "79 WELLINGTON STREET WEST     SUITE 3000", "city": "TORONTO", "province": "ON", "country": "CA", "postalCode": "M5K1N2", "twitter": "None", "instagram": "None", "facebook": "None", "youtube": "None", "website": "None", "summary": "None", "logo": "None", "latitude": 43.64695776155599, "longitude": -79.38126755508115}, "821007697RR0001": {"name": "Emunah Bible Ministries", "designationCode": "C", "categoryCode": "39", "address": "15 VANSITTART AVE", "city": "WOODSTOCK", "province": "ON", "country": "CA", "postalCode": "N4S6E1", "twitter": "None", "instagram": "None", "facebook": "None", "youtube": "None", "website": "None", "summary": "None", "logo": "None", "latitude": 43.12990238981928, "longitude": -80.76230810778902}, "107304446RR0001": {"name": "Emunah Canada", "designationCode": "C", "categoryCode": "09", "address": "302E - 4600 BATHURST ST", "city": "NORTH YORK", "province": "ON", "country": "CA", "postalCode": "M2R3V3", "twitter": "None", "instagram": "None", "facebook": "None", "youtube": "None", "website": "None", "summary": "None", "logo": "None", "latitude": 43.764549213428396, "longitude": -79.4407190577642}, "818015166RR0001": {"name": "Ena's Community Cats Society", "designationCode": "C", "categoryCode": "54", "address": "6900 PREST RD", "city": "CHILLIWACK", "province": "BC", "country": "CA", "postalCode": "V2R4W4", "twitter": "None", "instagram": "None", "facebook": "None", "youtube": "None", "website": "None", "summary": "None", "logo": "None", "latitude": 49.12762491618096, "longitude": -121.9183889760809}, "818372682RR0001": {"name": "Enable Haiti", "designationCode": "C", "categoryCode": "02", "address": "1797 HERITAGE ROAD", "city": "KINGSVILLE", "province": "ON", "country": "CA", "postalCode": "N9Y2E6", "twitter": "None", "instagram": "None", "facebook": "None", "youtube": "None", "website": "None", "summary": "None", "logo": "None", "latitude": 41.999602552802145, "longitude": -82.81772070745578}, "119293025RR0016": {"name": "Encompass Partnerships of The Christian and Missionary Alliance in Canada", "designationCode": "C", "categoryCode": "39", "address": "3851 54TH AVENUE NORTHEAST", "city": "CALGARY", "province": "AB", "country": "CA", "postalCode": "T3J3W5", "twitter": "None", "instagram": "None", "facebook": "None", "youtube": "None", "website": "None", "summary": "None", "logo": "None", "latitude": 51.102280542847495, "longitude": -113.97829436081135}, "898076070RR0001": {"name": "Encompass Support Services Society", "designationCode": "C", "categoryCode": "53", "address": "20618 EASTLEIGH CRESCENT", "city": "LANGLEY", "province": "BC", "country": "CA", "postalCode": "V3A4C4", "twitter": "None", "instagram": "None", "facebook": "None", "youtube": "None", "website": "None", "summary": "None", "logo": "None", "latitude": 49.106965798529195, "longitude": -122.65147695777783}, "860671874RR0001": {"name": "Encore Ministries of Calgary", "designationCode": "C", "categoryCode": "39", "address": "71 CRANLEIGH COMMON SE", "city": "CALGARY", "province": "AB", "country": "CA", "postalCode": "T3M1G7", "twitter": "None", "instagram": "None", "facebook": "None", "youtube": "None", "website": "None", "summary": "None", "logo": "None", "latitude": 50.89189176242138, "longitude": -113.99117817609218}, "814593760RR0001": {"name": "Encore! Sistema Quebec", "designationCode": "C", "categoryCode": "22", "address": "402 LAKESHORE RD", "city": "BEACONSFIELD", "province": "QC", "country": "CA", "postalCode": "H9W4H9", "twitter": "None", "instagram": "None", "facebook": "None", "youtube": "None", "website": "None", "summary": "None", "logo": "None", "latitude": 45.41993177790015, "longitude": -73.87403639589593}, "107396905RR0040": {"name": "Encounter Church", "designationCode": "C", "categoryCode": "39", "address": "735A KINGS RD", "city": "VICTORIA", "province": "BC", "country": "CA", "postalCode": "V8T1W4", "twitter": "None", "instagram": "None", "facebook": "None", "youtube": "None", "website": "None", "summary": "None", "logo": "None", "latitude": 48.43652715948823, "longitude": -123.36443722899624}, "701231920RR0001": {"name": "Encounter Church Hamilton", "designationCode": "C", "categoryCode": "39", "address": "413 SOUTHCOTE RD", "city": "ANCASTER", "province": "ON", "country": "CA", "postalCode": "L9G2W4", "twitter": "None", "instagram": "None", "facebook": "None", "youtube": "None", "website": "None", "summary": "None", "logo": "None", "latitude": 43.21010904247212, "longitude": -79.95882794708322}, "807323431RR0001": {"name": "Encounter Church Kingston", "designationCode": "C", "categoryCode": "39", "address": "128 JEAN WORRELL CRES", "city": "KINGSTON", "province": "ON", "country": "CA", "postalCode": "K7K6T4", "twitter": "None", "instagram": "None", "facebook": "None", "youtube": "None", "website": "None", "summary": "None", "logo": "None", "latitude": 44.2652724893242, "longitude": -76.4856825646891}, "889180899RR0001": {"name": "Encourage Others Foundation", "designationCode": "B", "categoryCode": "43", "address": "89 AURIGA DRIVE", "city": "NEPEAN", "province": "ON", "country": "CA", "postalCode": "K2E7Z2", "twitter": "None", "instagram": "None", "facebook": "None", "youtube": "None", "website": "None", "summary": "None", "logo": "None", "latitude": 45.32790875685278, "longitude": -75.71363925033192}, "810165886RR0001": {"name": "Encouraging Lives Ministries", "designationCode": "C", "categoryCode": "39", "address": "109 - 459 PARKLAND DR", "city": "HALIFAX", "province": "NS", "country": "CA", "postalCode": "B3S1L2", "twitter": "None", "instagram": "None", "facebook": "None", "youtube": "None", "website": "None", "summary": "None", "logo": "None", "latitude": 44.670732683882456, "longitude": -63.67591396840619}, "832984389RR0001": {"name": "End of Life Planning Canada", "designationCode": "C", "categoryCode": "11", "address": "504 - 55 EGLINTON AVE E", "city": "TORONTO", "province": "ON", "country": "CA", "postalCode": "M4P1G8", "twitter": "None", "instagram": "None", "facebook": "None", "youtube": "None", "website": "None", "summary": "None", "logo": "None", "latitude": 43.7089009100495, "longitude": -79.38780176683875}, "819861964RR0001": {"name": "End Homelessness Winnipeg Inc.", "designationCode": "C", "categoryCode": "59", "address": "C - 216 PACIFIC AVE", "city": "WINNIPEG", "province": "MB", "country": "CA", "postalCode": "R3B0M4", "twitter": "None", "instagram": "None", "facebook": "None", "youtube": "None", "website": "None", "summary": "None", "logo": "None", "latitude": 49.90144909740902, "longitude": -97.13801147253155}, "803574417RR0001": {"name": "Endeavour Volunteer Consulting for Non-Profits", "designationCode": "C", "categoryCode": "59", "address": "PO BOX 76587                  1661 DENISON ST.", "city": "MARKHAM", "province": "ON", "country": "CA", "postalCode": "L3R0N5", "twitter": "None", "instagram": "None", "facebook": "None", "youtube": "None", "website": "None", "summary": "None", "logo": "None", "latitude": 43.834708597973886, "longitude": -79.30615967395362}, "118900000RR0001": {"name": "Enderby and District Museum Society", "designationCode": "C", "categoryCode": "50", "address": "BOX 367", "city": "ENDERBY", "province": "BC", "country": "CA", "postalCode": "V0E1V0", "twitter": "None", "instagram": "None", "facebook": "None", "youtube": "None", "website": "None", "summary": "None", "logo": "None", "latitude": 50.55260000000004, "longitude": -119.14013999999997}, "119288918RR1583": {"name": "Enderby, British Columbia Congregation of Jehovah's Witnesses", "designationCode": "C", "categoryCode": "61", "address": "155 WESTENDERBY RD", "city": "ENDERBY", "province": "BC", "country": "CA", "postalCode": "V0E1V1", "twitter": "None", "instagram": "None", "facebook": "None", "youtube": "None", "website": "None", "summary": "None", "logo": "None", "latitude": 50.55260000000004, "longitude": -119.14013999999997}, "835204272RR0001": {"name": "Endless Possibilities & Hope Development Organization", "designationCode": "C", "categoryCode": "09", "address": "102 RUBYSILVER DRIVE", "city": "BRAMPTON", "province": "ON", "country": "CA", "postalCode": "L6P1R1", "twitter": "None", "instagram": "None", "facebook": "None", "youtube": "None", "website": "None", "summary": "None", "logo": "None", "latitude": 43.76565150983911, "longitude": -79.72435040218693}, "828893818RR0001": {"name": "Endtime Christian Assembly", "designationCode": "C", "categoryCode": "39", "address": "52 CRAIGLEE DRIVE", "city": "SCARBOROUGH", "province": "ON", "country": "CA", "postalCode": "M1N2M1", "twitter": "None", "instagram": "None", "facebook": "None", "youtube": "None", "website": "None", "summary": "None", "logo": "None", "latitude": 43.705926197905164, "longitude": -79.25631965251885}, "814712295RR0001": {"name": "Endtime Harvest Outreach Prayer Ministries", "designationCode": "C", "categoryCode": "39", "address": "PO BOX 60541 RPO JANE WILSON", "city": "NORTH YORK", "province": "ON", "country": "CA", "postalCode": "M3L2N5", "twitter": "None", "instagram": "None", "facebook": "None", "youtube": "None", "website": "None", "summary": "None", "logo": "None", "latitude": 43.741563000000056, "longitude": -79.51099849999993}, "800168551RR0001": {"name": "Energy for Opportunity", "designationCode": "C", "categoryCode": "09", "address": "PO BOX 1234 STATION A", "city": "WINDSOR", "province": "ON", "country": "CA", "postalCode": "N9A6P8", "twitter": "None", "instagram": "None", "facebook": "None", "youtube": "None", "website": "None", "summary": "None", "logo": "None", "latitude": 42.31784400000005, "longitude": -83.03387299999993}, "889735593RR0001": {"name": "Enfantaisie Haute-Gasp\u00e9sie", "designationCode": "C", "categoryCode": "09", "address": "48 1RE RUE O", "city": "SAINTE-ANNE-DES-MONTS", "province": "QC", "country": "CA", "postalCode": "G4V2G5", "twitter": "None", "instagram": "None", "facebook": "None", "youtube": "None", "website": "None", "summary": "None", "logo": "None", "latitude": 49.12898020705176, "longitude": -66.4877699435052}, "125756593RR0001": {"name": "Enfants d'Orient et d'Occident, Adoption et parrainage du Qu\u00e9bec", "designationCode": "C", "categoryCode": "01", "address": "12383 FERNAND GAUTHIER", "city": "MONTREAL", "province": "QC", "country": "CA", "postalCode": "H1E6C4", "twitter": "None", "instagram": "None", "facebook": "None", "youtube": "None", "website": "None", "summary": "None", "logo": "None", "latitude": 45.63462585235723, "longitude": -73.60294052787249}, "843901018RR0001": {"name": "Eng Eco Village of Hope Society", "designationCode": "C", "categoryCode": "01", "address": "2424 36 ST SW", "city": "CALGARY", "province": "AB", "country": "CA", "postalCode": "T3E2Z5", "twitter": "None", "instagram": "None", "facebook": "None", "youtube": "None", "website": "None", "summary": "None", "logo": "None", "latitude": 51.03234108964742, "longitude": -114.13963883360267}, "805418647RR0001": {"name": "Engage and Change", "designationCode": "A", "categoryCode": "03", "address": "890 CALEDONIA ROAD", "city": "TORONTO", "province": "ON", "country": "CA", "postalCode": "M6B3Y1", "twitter": "None", "instagram": "None", "facebook": "None", "youtube": "None", "website": "None", "summary": "None", "logo": "None", "latitude": 43.703665983899846, "longitude": -79.46459007819219}, "782350094RR0001": {"name": "Engedi Spiritual Formation", "designationCode": "C", "categoryCode": "39", "address": "68 LAURELCREST STREET", "city": "BRAMPTON", "province": "ON", "country": "CA", "postalCode": "L6S5W3", "twitter": "None", "instagram": "None", "facebook": "None", "youtube": "None", "website": "None", "summary": "None", "logo": "None", "latitude": 43.71332575047614, "longitude": -79.74015862908976}, "858529753RR0001": {"name": "Engineering Ministries International Canada", "designationCode": "C", "categoryCode": "47", "address": "201-625 14TH ST NW", "city": "CALGARY", "province": "AB", "country": "CA", "postalCode": "T2N2A1", "twitter": "None", "instagram": "None", "facebook": "None", "youtube": "None", "website": "None", "summary": "None", "logo": "None", "latitude": 51.05898103640699, "longitude": -114.09471}, "806749818RR0001": {"name": "Englehart & Area Food Bank", "designationCode": "C", "categoryCode": "09", "address": "BOX 496", "city": "ENGLEHART", "province": "ON", "country": "CA", "postalCode": "P0J1H0", "twitter": "None", "instagram": "None", "facebook": "None", "youtube": "None", "website": "None", "summary": "None", "logo": "None", "latitude": 47.81686000000008, "longitude": -79.86639999999994}, "129029914RR0001": {"name": "English Language Institute in China Society", "designationCode": "C", "categoryCode": "20", "address": "PO BOX 3381", "city": "LANGLEY", "province": "BC", "country": "CA", "postalCode": "V3A4R7", "twitter": "None", "instagram": "None", "facebook": "None", "youtube": "None", "website": "None", "summary": "None", "logo": "None", "latitude": 49.10435700000005, "longitude": -122.65652149999994}, "808293856RR0001": {"name": "Enjoy Life Church International, Edmonton", "designationCode": "C", "categoryCode": "39", "address": "3935 114 ST NW", "city": "EDMONTON", "province": "AB", "country": "CA", "postalCode": "T6J1M3", "twitter": "None", "instagram": "None", "facebook": "None", "youtube": "None", "website": "None", "summary": "None", "logo": "None", "latitude": 53.474924871487154, "longitude": -113.52649689058842}, "780015921RR0001": {"name": "Enku Scholarship Fund", "designationCode": "C", "categoryCode": "21", "address": "34 GEORGE MARTIN DRIVE,", "city": "MARKHAM", "province": "ON", "country": "CA", "postalCode": "L3R4S6", "twitter": "None", "instagram": "None", "facebook": "None", "youtube": "None", "website": "None", "summary": "None", "logo": "None", "latitude": 43.86159353012287, "longitude": -79.28488917236993}, "847428901RR0001": {"name": "Enoch Society for Care of the Aging", "designationCode": "C", "categoryCode": "09", "address": "510 - 51 DONLANDS AVE", "city": "TORONTO", "province": "ON", "country": "CA", "postalCode": "M4J5B3", "twitter": "None", "instagram": "None", "facebook": "None", "youtube": "None", "website": "None", "summary": "None", "logo": "None", "latitude": 43.68111058979166, "longitude": -79.33754997804279}, "801067984RR0001": {"name": "Ensemble au Qu\u00e9bec / Together in Qu\u00e9bec", "designationCode": "C", "categoryCode": "39", "address": "1510 RUE CARMEN", "city": "DRUMMONDVILLE", "province": "QC", "country": "CA", "postalCode": "J2C7H1", "twitter": "None", "instagram": "None", "facebook": "None", "youtube": "None", "website": "None", "summary": "None", "logo": "None", "latitude": 45.86720243770548, "longitude": -72.51768604688684}, "859325078RR0001": {"name": "Ensemble tout est possible", "designationCode": "C", "categoryCode": "59", "address": "3 - 2015 RUE FOURNIER", "city": "SAINT-JEROME", "province": "QC", "country": "CA", "postalCode": "J7Y4A6", "twitter": "None", "instagram": "None", "facebook": "None", "youtube": "None", "website": "None", "summary": "None", "logo": "None", "latitude": 45.796621264498846, "longitude": -74.00356039497358}, "841938467RR0001": {"name": "Ensemble vesp\u00e9ral de Qu\u00e9bec", "designationCode": "C", "categoryCode": "47", "address": "3182 DE TRIPOLI", "city": "QU\u00c9BEC", "province": "QC", "country": "CA", "postalCode": "G1X1W9", "twitter": "None", "instagram": "None", "facebook": "None", "youtube": "None", "website": "None", "summary": "None", "logo": "None", "latitude": 46.770138218996976, "longitude": -71.31178754276057}, "101835528RR0001": {"name": "Ensemble vocal arts - Qu\u00e9bec Inc.", "designationCode": "B", "categoryCode": "22", "address": "4028 AV DE MARLOWE", "city": "MONTREAL", "province": "QC", "country": "CA", "postalCode": "H4A3M2", "twitter": "None", "instagram": "None", "facebook": "None", "youtube": "None", "website": "None", "summary": "None", "logo": "None", "latitude": 45.478541756852806, "longitude": -73.61489510756523}, "815762745RR0001": {"name": "Ensemble vocal extravaganza", "designationCode": "C", "categoryCode": "22", "address": "3319 BOUL LASALLE", "city": "VERDUN", "province": "QC", "country": "CA", "postalCode": "H4G1P9", "twitter": "None", "instagram": "None", "facebook": "None", "youtube": "None", "website": "None", "summary": "None", "logo": "None", "latitude": 45.470518729906665, "longitude": -73.56842311682223}, "143565430RR0001": {"name": "Ensemble Anonymus", "designationCode": "C", "categoryCode": "22", "address": "310, BOULEVARD LANGELIER      BUREAU 128", "city": "QU\u00c9BEC", "province": "QC", "country": "CA", "postalCode": "G1K5N3", "twitter": "None", "instagram": "None", "facebook": "None", "youtube": "None", "website": "None", "summary": "None", "logo": "None", "latitude": 46.81331749624909, "longitude": -71.23192445533486}, "840316269RR0001": {"name": "Ensemble DA CAPO", "designationCode": "B", "categoryCode": "22", "address": "12464 AV DU FIEF CARION", "city": "MONTREAL", "province": "QC", "country": "CA", "postalCode": "H1C0B1", "twitter": "None", "instagram": "None", "facebook": "None", "youtube": "None", "website": "None", "summary": "None", "logo": "None", "latitude": 45.67300957562473, "longitude": -73.53723782128209}, "855920468RR0001": {"name": "Ensemble Laude Choral Society", "designationCode": "C", "categoryCode": "22", "address": "PO BOX 48102", "city": "VICTORIA", "province": "BC", "country": "CA", "postalCode": "V8Z7H5", "twitter": "None", "instagram": "None", "facebook": "None", "youtube": "None", "website": "None", "summary": "None", "logo": "None", "latitude": 48.481719000000055, "longitude": -123.40460599999994}, "730885894RR0001": {"name": "Ensemble Poiesis", "designationCode": "C", "categoryCode": "22", "address": "4-3642 AV COLONIALE", "city": "MONTREAL", "province": "QC", "country": "CA", "postalCode": "H2X2Y6", "twitter": "None", "instagram": "None", "facebook": "None", "youtube": "None", "website": "None", "summary": "None", "logo": "None", "latitude": 45.51515682624509, "longitude": -73.57261487344906}, "825834708RR0001": {"name": "Ensemble Telemann / Telemann ensemble", "designationCode": "C", "categoryCode": "22", "address": "91 RUE RIVERSIDE", "city": "SAINT-LAMBERT", "province": "QC", "country": "CA", "postalCode": "J4R1A3", "twitter": "None", "instagram": "None", "facebook": "None", "youtube": "None", "website": "None", "summary": "None", "logo": "None", "latitude": 45.490985307807655, "longitude": -73.51138310932559}, "826743932RR0001": {"name": "Ensemble Theatre Company Society", "designationCode": "C", "categoryCode": "22", "address": "2885 SASAMAT ST", "city": "VANCOUVER", "province": "BC", "country": "CA", "postalCode": "V6R4R3", "twitter": "None", "instagram": "None", "facebook": "None", "youtube": "None", "website": "None", "summary": "None", "logo": "None", "latitude": 49.261337947544575, "longitude": -123.20923255219562}, "887238533RR0001": {"name": "Ensemble Vocal Diapason inc.", "designationCode": "C", "categoryCode": "22", "address": "C.P. 1557", "city": "RIMOUSKI", "province": "QC", "country": "CA", "postalCode": "G5L8M4", "twitter": "None", "instagram": "None", "facebook": "None", "youtube": "None", "website": "None", "summary": "None", "logo": "None", "latitude": 48.44933700000006, "longitude": -68.52474349999993}, "776120099RR0001": {"name": "Ensemble Vocal DivertisSon", "designationCode": "C", "categoryCode": "22", "address": "1 - 670 RUE BOURGEOYS", "city": "MONTREAL", "province": "QC", "country": "CA", "postalCode": "H3K2M6", "twitter": "None", "instagram": "None", "facebook": "None", "youtube": "None", "website": "None", "summary": "None", "logo": "None", "latitude": 45.47990053621103, "longitude": -73.55998286081135}, "879359180RR0001": {"name": "Ensemble Vocal Ganym\u00e8de", "designationCode": "C", "categoryCode": "22", "address": "C.P. 476 SUCCURSALE C", "city": "MONTR\u00c9AL", "province": "QC", "country": "CA", "postalCode": "H2L4K4", "twitter": "None", "instagram": "None", "facebook": "None", "youtube": "None", "website": "None", "summary": "None", "logo": "None", "latitude": 45.51239400000006, "longitude": -73.55469049999994}, "823600713RR0001": {"name": "Enso Society for Contemplative Engagement", "designationCode": "C", "categoryCode": "35", "address": "637 KINCAID RD", "city": "KELOWNA", "province": "BC", "country": "CA", "postalCode": "V1W4P5", "twitter": "None", "instagram": "None", "facebook": "None", "youtube": "None", "website": "None", "summary": "None", "logo": "None", "latitude": 49.81374793308919, "longitude": -119.4865593357088}, "850222480RR0001": {"name": "Entraide communautaire Sainte-M\u00e9lanie", "designationCode": "C", "categoryCode": "09", "address": "910 RTE PRINCIPALE", "city": "SAINTE-MELANIE", "province": "QC", "country": "CA", "postalCode": "J0K3A0", "twitter": "None", "instagram": "None", "facebook": "None", "youtube": "None", "website": "None", "summary": "None", "logo": "None", "latitude": 46.13410726891358, "longitude": -73.51438409723615}, "850955683RR0001": {"name": "Entraide Ha\u00efti-Qu\u00e9bec", "designationCode": "B", "categoryCode": "09", "address": "326 BOUL LOUIS-JOSEPH-RODRIGUE", "city": "SAINT-EUSTACHE", "province": "QC", "country": "CA", "postalCode": "J7R7A4", "twitter": "None", "instagram": "None", "facebook": "None", "youtube": "None", "website": "None", "summary": "None", "logo": "None", "latitude": 45.575859616134935, "longitude": -73.93378732638932}, "837701721RR0001": {"name": "Entraide Marie Clarac", "designationCode": "C", "categoryCode": "09", "address": "3565, MONSELET", "city": "MONTREAL", "province": "QC", "country": "CA", "postalCode": "H1H2A5", "twitter": "None", "instagram": "None", "facebook": "None", "youtube": "None", "website": "None", "summary": "None", "logo": "None", "latitude": 45.586320882335876, "longitude": -73.64408714184303}, "819497363RR0001": {"name": "Entraide Mauricie-Centre-du-Qu\u00e9bec pour hommes agress\u00e9s sexuellement dans l'enfance (EMPHASE)", "designationCode": "C", "categoryCode": "09", "address": "1285 RUE NOTRE DAME CENTRE    CP 201", "city": "TROIS-RIVIERES", "province": "QC", "country": "CA", "postalCode": "G9A5G1", "twitter": "None", "instagram": "None", "facebook": "None", "youtube": "None", "website": "None", "summary": "None", "logo": "None", "latitude": 46.34244892864579, "longitude": -72.54005484990533}, "834523284RR0001": {"name": "Entraide Parkinson Beauce", "designationCode": "C", "categoryCode": "11", "address": "565 ROUTE 271 SUD", "city": "ST-EPHREM-DE-BEAUCE", "province": "QC", "country": "CA", "postalCode": "G0M1R0", "twitter": "None", "instagram": "None", "facebook": "None", "youtube": "None", "website": "None", "summary": "None", "logo": "None", "latitude": 46.06236482096499, "longitude": -70.89679652994995}}