{"119017242RR0001": {"name": "LES PETITS CHANTEURS DE TROIS-RIVIERES INC.", "designationCode": "C", "categoryCode": "22", "address": "725 RUE HART", "city": "TROIS-RIVI\u00c8RES", "province": "QC", "country": "CA", "postalCode": "G9A4R9", "twitter": "None", "instagram": "None", "facebook": "None", "youtube": "None", "website": "None", "summary": "None", "logo": "None", "latitude": 46.34629669386578, "longitude": -72.53793805176294}, "891943409RR0001": {"name": "LES PETITS DINERS DE LA TABLEE", "designationCode": "C", "categoryCode": "09", "address": "132, RUE LOWRING", "city": "DRUMMONDVILLE", "province": "QC", "country": "CA", "postalCode": "J2C4K1", "twitter": "None", "instagram": "None", "facebook": "None", "youtube": "None", "website": "None", "summary": "None", "logo": "None", "latitude": 45.885973359137914, "longitude": -72.49223025907449}, "119017259RR0001": {"name": "LES PETITS FRERES DES PAUVRES", "designationCode": "C", "categoryCode": "09", "address": "4624 RUE GARNIER", "city": "MONTREAL", "province": "QC", "country": "CA", "postalCode": "H2J3S7", "twitter": "None", "instagram": "None", "facebook": "None", "youtube": "None", "website": "None", "summary": "None", "logo": "None", "latitude": 45.53165984067182, "longitude": -73.57829244284136}, "103246690RR0001": {"name": "LES PETITS PAS JACADIENS INC.", "designationCode": "C", "categoryCode": "22", "address": "66 RUE STE-ANNE", "city": "ST JACQUES CTE MONTCALM", "province": "QC", "country": "CA", "postalCode": "J0K2R0", "twitter": "None", "instagram": "None", "facebook": "None", "youtube": "None", "website": "None", "summary": "None", "logo": "None", "latitude": 45.95261720731154, "longitude": -73.5676353564835}, "871999918RR0001": {"name": "LES PILIERS DU COEUR IMMACULE", "designationCode": "C", "categoryCode": "47", "address": "7650, AVENUE TRUDELLE, APP. 50", "city": "CHARLESBOURG", "province": "QC", "country": "CA", "postalCode": "G1H5S7", "twitter": "None", "instagram": "None", "facebook": "None", "youtube": "None", "website": "None", "summary": "None", "logo": "None", "latitude": 46.85445969054757, "longitude": -71.27701642296164}, "848698387RR0001": {"name": "LES PINCEAUX D'OR 2007", "designationCode": "C", "categoryCode": "22", "address": "3019 RUE DE LA ROCHELLE", "city": "QUEBEC", "province": "QC", "country": "CA", "postalCode": "G1W2B3", "twitter": "None", "instagram": "None", "facebook": "None", "youtube": "None", "website": "None", "summary": "None", "logo": "None", "latitude": 46.75595549956732, "longitude": -71.28662868872988}, "119017275RR0001": {"name": "LES PRETRES DE SAINT-SULPICE DE MONTREAL", "designationCode": "C", "categoryCode": "09", "address": "116 RUE NOTRE-DAME OUEST", "city": "MONTREAL", "province": "QC", "country": "CA", "postalCode": "H2Y1T2", "twitter": "None", "instagram": "None", "facebook": "None", "youtube": "None", "website": "None", "summary": "None", "logo": "None", "latitude": 45.50420998831457, "longitude": -73.55711405182119}, "895986701RR0001": {"name": "LES PRETRES DU SACRE-COEUR INCORPOREE", "designationCode": "C", "categoryCode": "46", "address": "2830 BOUL. GOUIN EST", "city": "MONTREAL", "province": "QC", "country": "CA", "postalCode": "H2B1Y7", "twitter": "None", "instagram": "None", "facebook": "None", "youtube": "None", "website": "None", "summary": "None", "logo": "None", "latitude": 45.58162239243477, "longitude": -73.65334929346784}, "130811524RR0001": {"name": "LES PRODUCTIONS A TOUR DE ROLE INC.", "designationCode": "C", "categoryCode": "22", "address": "774, BOULEVARD PERRON", "city": "CARLETON-SUR-MER", "province": "QC", "country": "CA", "postalCode": "G0C1J0", "twitter": "None", "instagram": "None", "facebook": "None", "youtube": "None", "website": "None", "summary": "None", "logo": "None", "latitude": 48.10119531173146, "longitude": -66.1075389076982}, "119017309RR0001": {"name": "LES PRODUCTIONS DANSENCORPS INC.", "designationCode": "C", "categoryCode": "22", "address": "14-140 RUE BOTSFORD", "city": "MONCTON", "province": "NB", "country": "CA", "postalCode": "E1C4X5", "twitter": "None", "instagram": "None", "facebook": "None", "youtube": "None", "website": "None", "summary": "None", "logo": "None", "latitude": 46.093260520947595, "longitude": -64.77775672193982}, "119017325RR0001": {"name": "LES PRODUCTIONS POUR ENFANTS DE QUEBEC", "designationCode": "C", "categoryCode": "22", "address": "310, BOULEVARD LANGELIER      BUREAU 232", "city": "QU\u00c9BEC", "province": "QC", "country": "CA", "postalCode": "G1K5N3", "twitter": "None", "instagram": "None", "facebook": "None", "youtube": "None", "website": "None", "summary": "None", "logo": "None", "latitude": 46.81331749624909, "longitude": -71.23192445533486}, "124410630RR0001": {"name": "LES PRODUCTIONS SUPER MEME INC.", "designationCode": "C", "categoryCode": "22", "address": "CASIER POSTAL 47537           PLATEAU MONT-ROYAL", "city": "MONTR\u00c9AL", "province": "QC", "country": "CA", "postalCode": "H2H2S8", "twitter": "None", "instagram": "None", "facebook": "None", "youtube": "None", "website": "None", "summary": "None", "logo": "None", "latitude": 45.51239400000006, "longitude": -73.55469049999994}, "129195533RR0001": {"name": "LES PROGRAMMES R\u00c9SIDENTIELS KEHILLA MONTR\u00c9AL/ KEHILLA MONTR\u00c9AL RESIDENTIAL PROGRAMS", "designationCode": "C", "categoryCode": "01", "address": "1 CUMMINGS SQUARE, #300", "city": "MONTREAL", "province": "QC", "country": "CA", "postalCode": "H3W1M6", "twitter": "None", "instagram": "None", "facebook": "None", "youtube": "None", "website": "None", "summary": "None", "logo": "None", "latitude": 45.48925656614425, "longitude": -73.63588473115946}, "119105575RR0001": {"name": "LES PROPRIETES DES AINES DU LAC ST-LOUIS INC.-LAKE ST-LOUIS SENIOR CITIZENS PROPERTIES INC.", "designationCode": "C", "categoryCode": "01", "address": "117 CARTIER AVENUE", "city": "POINTE-CLAIRE", "province": "QC", "country": "CA", "postalCode": "H9S5K4", "twitter": "None", "instagram": "None", "facebook": "None", "youtube": "None", "website": "None", "summary": "None", "logo": "None", "latitude": 45.434782308096125, "longitude": -73.82549999893307}, "119017382RR0001": {"name": "LES PUBLICATIONS MARIE ET NOTRE TEMPS", "designationCode": "C", "categoryCode": "49", "address": "6511, RUE SAINT-DENIS", "city": "MONTREAL", "province": "QC", "country": "CA", "postalCode": "H2S2S1", "twitter": "None", "instagram": "None", "facebook": "None", "youtube": "None", "website": "None", "summary": "None", "logo": "None", "latitude": 45.53417322540227, "longitude": -73.6053316004388}, "107619124RR0001": {"name": "LES R\u00c9SIDENCES OBLATES DU QU\u00c9BEC", "designationCode": "C", "categoryCode": "46", "address": "215 AVENUE DES OBLATS         C.P 55058", "city": "QUEBEC", "province": "QC", "country": "CA", "postalCode": "G1K9A4", "twitter": "None", "instagram": "None", "facebook": "None", "youtube": "None", "website": "None", "summary": "None", "logo": "None", "latitude": 46.81156664611354, "longitude": -71.23534685801273}, "107620379RR0001": {"name": "LES RECLUSES MISSIONNAIRES", "designationCode": "C", "categoryCode": "46", "address": "12050 BOUL GOUIN EST", "city": "MONTREAL", "province": "QC", "country": "CA", "postalCode": "H1C1B8", "twitter": "None", "instagram": "None", "facebook": "None", "youtube": "None", "website": "None", "summary": "None", "logo": "None", "latitude": 45.684780078798724, "longitude": -73.52801675194803}, "118989276RR0003": {"name": "LES REDEMPTORISTES", "designationCode": "C", "categoryCode": "46", "address": "10018 AVENUE ROYALE", "city": "SAINTE-ANNE-DE-BEAUPRE", "province": "QC", "country": "CA", "postalCode": "G0A3C0", "twitter": "None", "instagram": "None", "facebook": "None", "youtube": "None", "website": "None", "summary": "None", "logo": "None", "latitude": 47.025011014946315, "longitude": -70.92776782093631}, "119017424RR0001": {"name": "LES RELEVAILLES DE MONTREAL", "designationCode": "C", "categoryCode": "09", "address": "14115 RUE PRINCE-ARTHUR       SUITE 341", "city": "MONTREAL", "province": "QC", "country": "CA", "postalCode": "H1A1A8", "twitter": "None", "instagram": "None", "facebook": "None", "youtube": "None", "website": "None", "summary": "None", "logo": "None", "latitude": 45.67149856953654, "longitude": -73.50907747258886}, "890222730RR0001": {"name": "LES RELIGIEUSES HOSPITALIERES DE SAINT JOSEPH DE LA PROVINCEDE NOTRE-DAME DE L'ASSOMPTION", "designationCode": "C", "categoryCode": "46", "address": "245, AVENUE DES PINS OUEST", "city": "MONTR\u00c9AL", "province": "QC", "country": "CA", "postalCode": "H2W1R5", "twitter": "None", "instagram": "None", "facebook": "None", "youtube": "None", "website": "None", "summary": "None", "logo": "None", "latitude": 45.51266668413551, "longitude": -73.57730306977341}, "862947611RR0001": {"name": "LES RELIGIEUSES SERVITES DE MARIE", "designationCode": "C", "categoryCode": "46", "address": "124 - 445 RUE DES ERABLES", "city": "SHERBROOKE", "province": "QC", "country": "CA", "postalCode": "J1L0C2", "twitter": "None", "instagram": "None", "facebook": "None", "youtube": "None", "website": "None", "summary": "None", "logo": "None", "latitude": 45.40542398035047, "longitude": -71.94728185553029}, "119115178RR0001": {"name": "LES RELIGIEUSES TRINITAIRES", "designationCode": "C", "categoryCode": "46", "address": "2385 DU HAVRE", "city": "LONGUEUIL", "province": "QC", "country": "CA", "postalCode": "J4L2G1", "twitter": "None", "instagram": "None", "facebook": "None", "youtube": "None", "website": "None", "summary": "None", "logo": "None", "latitude": 45.52301346768412, "longitude": -73.47282611671184}, "119006724RR0002": {"name": "LES RELIGIEUX DE SAINT-VINCENT DE PAUL (CANADA)", "designationCode": "C", "categoryCode": "46", "address": "275 RUE MARIE-DE-L'INCARNATION", "city": "QUEBEC", "province": "QC", "country": "CA", "postalCode": "G1N3G5", "twitter": "None", "instagram": "None", "facebook": "None", "youtube": "None", "website": "None", "summary": "None", "logo": "None", "latitude": 46.80805066250218, "longitude": -71.24515077407813}, "849481742RR0001": {"name": "LES REPITS DE GABY", "designationCode": "C", "categoryCode": "09", "address": "51 19E RUE", "city": "CRABTREE", "province": "QC", "country": "CA", "postalCode": "J0K1B0", "twitter": "None", "instagram": "None", "facebook": "None", "youtube": "None", "website": "None", "summary": "None", "logo": "None", "latitude": 45.97226882817835, "longitude": -73.47694662098236}, "864909072RR0001": {"name": "LES RESCAPES DE GERDY POUR L'ADOPTION / GERDY'S RESCUES & ADOPTIONS", "designationCode": "C", "categoryCode": "54", "address": "P.O. BOX 21                   POSTAL STATION VICTORIA", "city": "WESTMOUNT", "province": "QC", "country": "CA", "postalCode": "H3Z2V4", "twitter": "None", "instagram": "None", "facebook": "None", "youtube": "None", "website": "None", "summary": "None", "logo": "None", "latitude": 45.477919592222804, "longitude": -73.60110808699714}, "139519706RR0001": {"name": "LES RESIDENCES CHARLO RESIDENCES INC", "designationCode": "C", "categoryCode": "01", "address": "15 MCINTYRE ST.", "city": "CHARLO", "province": "NB", "country": "CA", "postalCode": "E8E2A8", "twitter": "None", "instagram": "None", "facebook": "None", "youtube": "None", "website": "None", "summary": "None", "logo": "None", "latitude": 48.003221329946285, "longitude": -66.33473445119606}, "890579527RR0001": {"name": "LES RESIDENCES COMMUNAUTAIRES SACRE-COEUR INC", "designationCode": "C", "categoryCode": "09", "address": "1010 RUE MONTCALM             R.R. 2", "city": "BERTHIERVILLE", "province": "QC", "country": "CA", "postalCode": "J0K1A0", "twitter": "None", "instagram": "None", "facebook": "None", "youtube": "None", "website": "None", "summary": "None", "logo": "None", "latitude": 46.07731324231051, "longitude": -73.17885780956708}, "120822143RR0001": {"name": "LES RESIDENCES DES PINS DU LAC ETCHEMIN", "designationCode": "C", "categoryCode": "01", "address": "206, AVENUE NADEAU", "city": "LAC ETCHEMIN", "province": "QC", "country": "CA", "postalCode": "G0R1S0", "twitter": "None", "instagram": "None", "facebook": "None", "youtube": "None", "website": "None", "summary": "None", "logo": "None", "latitude": 46.39541884958727, "longitude": -70.50159025310188}, "889805313RR0001": {"name": "LES RESIDENCES ET CENTRE COMMUNAUTAIRE DES ETCHEMINS", "designationCode": "C", "categoryCode": "09", "address": "201, RUE CLAUDE BILODEAU", "city": "LAC ETCHEMIN", "province": "QC", "country": "CA", "postalCode": "G0R1S0", "twitter": "None", "instagram": "None", "facebook": "None", "youtube": "None", "website": "None", "summary": "None", "logo": "None", "latitude": 46.396244850943596, "longitude": -70.50114890296634}, "119017408RR0001": {"name": "LES RESIDENCES INKERMAN INC.", "designationCode": "C", "categoryCode": "01", "address": "1171 CHEMIN PALLOT", "city": "INKERMAN", "province": "NB", "country": "CA", "postalCode": "E8P1C2", "twitter": "None", "instagram": "None", "facebook": "None", "youtube": "None", "website": "None", "summary": "None", "logo": "None", "latitude": 47.65959056085757, "longitude": -64.824622908561}, "119117182RR0001": {"name": "LES RESIDENCES LAVAL INC.", "designationCode": "C", "categoryCode": "01", "address": "1750 RUE FRED-BARRY", "city": "LAVAL", "province": "QC", "country": "CA", "postalCode": "H7S2B8", "twitter": "None", "instagram": "None", "facebook": "None", "youtube": "None", "website": "None", "summary": "None", "logo": "None", "latitude": 45.57081955231119, "longitude": -73.72483202513119}, "141528745RR0001": {"name": "LES RESIDENCES LOUIS-PHILIPPE C\u00d4TE D'ARMAGH", "designationCode": "C", "categoryCode": "09", "address": "30 RTE 281 S", "city": "ARMAGH", "province": "QC", "country": "CA", "postalCode": "G0R1A0", "twitter": "None", "instagram": "None", "facebook": "None", "youtube": "None", "website": "None", "summary": "None", "logo": "None", "latitude": 46.7402768304997, "longitude": -70.58915555675848}, "126398619RR0001": {"name": "LES RESIDENCES LUCIEN SAINDON INC", "designationCode": "C", "categoryCode": "09", "address": "PO BOX 2010 STN MAIN", "city": "LAMEQUE", "province": "NB", "country": "CA", "postalCode": "E8T3N3", "twitter": "None", "instagram": "None", "facebook": "None", "youtube": "None", "website": "None", "summary": "None", "logo": "None", "latitude": 47.79344400000005, "longitude": -64.65094999999994}, "107620619RR0001": {"name": "LES RESIDENCES MGR. CHIASSON INC.", "designationCode": "C", "categoryCode": "01", "address": "130 BOUL J D GAUTHIER", "city": "SHIPPAGAN", "province": "NB", "country": "CA", "postalCode": "E8S1N8", "twitter": "None", "instagram": "None", "facebook": "None", "youtube": "None", "website": "None", "summary": "None", "logo": "None", "latitude": 47.74396200000005, "longitude": -64.72448899999993}, "890464175RR0001": {"name": "LES RESIDENCES MGR. PICHETTE INC.", "designationCode": "C", "categoryCode": "01", "address": "30 BLVD MGR PICHETTE", "city": "EDMUNDSTON", "province": "NB", "country": "CA", "postalCode": "E3V3P3", "twitter": "None", "instagram": "None", "facebook": "None", "youtube": "None", "website": "None", "summary": "None", "logo": "None", "latitude": 47.37680956310258, "longitude": -68.32001402140894}, "141265595RR0001": {"name": "LES SCIENTIFINES", "designationCode": "C", "categoryCode": "09", "address": "200-525 RUE DOMINION", "city": "MONTR\u00c9AL", "province": "QC", "country": "CA", "postalCode": "H3J2B4", "twitter": "None", "instagram": "None", "facebook": "None", "youtube": "None", "website": "None", "summary": "None", "logo": "None", "latitude": 45.48452789621432, "longitude": -73.5735421333316}, "890144330RR0001": {"name": "LES SCOUTS DE LA MONTEREGIE", "designationCode": "C", "categoryCode": "29", "address": "1908 BOUL EDOUARD", "city": "ST-HUBERT", "province": "QC", "country": "CA", "postalCode": "J4T1Z4", "twitter": "None", "instagram": "None", "facebook": "None", "youtube": "None", "website": "None", "summary": "None", "logo": "None", "latitude": 45.49857350401073, "longitude": -73.47727521452491}, "894252105RR0001": {"name": "LES SCOUTS DES BOIS-FRANCS (DISTRICT CENTRE DU QUEBEC) INC.", "designationCode": "C", "categoryCode": "29", "address": "53, RUE MONFETTE              C.P.157", "city": "VICTORIAVILLE", "province": "QC", "country": "CA", "postalCode": "G6P6S8", "twitter": "None", "instagram": "None", "facebook": "None", "youtube": "None", "website": "None", "summary": "None", "logo": "None", "latitude": 46.05993735388645, "longitude": -71.96386455118602}, "107963852RR0001": {"name": "LES SCOUTS DISTRICT CENTRE DU QU\u00c9BEC", "designationCode": "C", "categoryCode": "29", "address": "53, RUE MONFETTE              C.P.157", "city": "VICTORIAVILLE", "province": "QC", "country": "CA", "postalCode": "G6P6S8", "twitter": "None", "instagram": "None", "facebook": "None", "youtube": "None", "website": "None", "summary": "None", "logo": "None", "latitude": 46.05993735388645, "longitude": -71.96386455118602}, "129428645RR0002": {"name": "LES SCOUTS DU DISTRICT D'OTTAWA", "designationCode": "C", "categoryCode": "29", "address": "123 RUE BEECHWOOD", "city": "OTTAWA", "province": "ON", "country": "CA", "postalCode": "K1M1L5", "twitter": "None", "instagram": "None", "facebook": "None", "youtube": "None", "website": "None", "summary": "None", "logo": "None", "latitude": 45.44177361117192, "longitude": -75.67232008050081}, "125543538RR0001": {"name": "LES SCOUTS DU DISTRICT DE L'ESTRIE", "designationCode": "C", "categoryCode": "29", "address": "75 RUE CHARTIER", "city": "SHERBROOKE", "province": "QC", "country": "CA", "postalCode": "J1J3A9", "twitter": "None", "instagram": "None", "facebook": "None", "youtube": "None", "website": "None", "summary": "None", "logo": "None", "latitude": 45.40003233527614, "longitude": -71.91735112242465}, "122763337RR0001": {"name": "LES SCOUTS DU DISTRICT DE L'ORIGNAL INC.", "designationCode": "C", "categoryCode": "29", "address": "394, RUE MICHAUD", "city": "TROIS-PISTOLES", "province": "QC", "country": "CA", "postalCode": "G0L4K0", "twitter": "None", "instagram": "None", "facebook": "None", "youtube": "None", "website": "None", "summary": "None", "logo": "None", "latitude": 48.11934791646942, "longitude": -69.17848730004604}, "107620791RR0001": {"name": "LES SCOUTS DU DISTRICT DE L'OUTAOUAIS", "designationCode": "C", "categoryCode": "29", "address": "106-115 BOUL SACR\u00c9-COEUR", "city": "GATINEAU", "province": "QC", "country": "CA", "postalCode": "J8X1C5", "twitter": "None", "instagram": "None", "facebook": "None", "youtube": "None", "website": "None", "summary": "None", "logo": "None", "latitude": 45.43728742829908, "longitude": -75.71438591341101}, "127067460RR0001": {"name": "LES SCOUTS DU DISTRICT DE LANAUDIERE INC.", "designationCode": "C", "categoryCode": "29", "address": "29, RUE GAUTHIER NORD", "city": "NOTRE-DAME-DES-PRAIRIES", "province": "QC", "country": "CA", "postalCode": "J6E1T7", "twitter": "None", "instagram": "None", "facebook": "None", "youtube": "None", "website": "None", "summary": "None", "logo": "None", "latitude": 46.03629508935896, "longitude": -73.43503471432243}, "104756424RR0001": {"name": "LES SCOUTS DU DISTRICT DE QU\u00c9BEC INC.", "designationCode": "C", "categoryCode": "29", "address": "899 CH.DEBOURG-LOUIS          SAINT-RAYMOND", "city": "QUEBEC", "province": "QC", "country": "CA", "postalCode": "G3L4G3", "twitter": "None", "instagram": "None", "facebook": "None", "youtube": "None", "website": "None", "summary": "None", "logo": "None"}, "895096055RR0002": {"name": "LES SCOUTS DU DISTRICT DE TIMMINS", "designationCode": "C", "categoryCode": "29", "address": "P.O. BOX 1760", "city": "TIMMINS", "province": "ON", "country": "CA", "postalCode": "P4N7W9", "twitter": "None", "instagram": "None", "facebook": "None", "youtube": "None", "website": "None", "summary": "None", "logo": "None", "latitude": 48.47611200000006, "longitude": -81.32891299999993}, "143194975RR0001": {"name": "LES SCOUTS DU DISTRICT RIVE-SUD/BEAUCE INC.", "designationCode": "C", "categoryCode": "29", "address": "102-255, ROUTE DU PONT", "city": "SAINT-NICOLAS", "province": "QC", "country": "CA", "postalCode": "G7A2V1", "twitter": "None", "instagram": "None", "facebook": "None", "youtube": "None", "website": "None", "summary": "None", "logo": "None", "latitude": 46.72643100000006, "longitude": -71.29664449999993}, "119017457RR0001": {"name": "LES SCOUTS DU DISTRICT SUD-OUEST DU QU\u00c9BEC INC.", "designationCode": "C", "categoryCode": "29", "address": "3780 GRANDE ALLEE", "city": "SAINT-HUBERT", "province": "QC", "country": "CA", "postalCode": "J4T2V7", "twitter": "None", "instagram": "None", "facebook": "None", "youtube": "None", "website": "None", "summary": "None", "logo": "None", "latitude": 45.49105811627916, "longitude": -73.46778028991848}, "119143246RR0001": {"name": "LES SCOUTS DU MONTR\u00c9AL M\u00c9TROPOLITAIN", "designationCode": "C", "categoryCode": "29", "address": "101 - 1215 BOUL SAINT-JOSEPH E", "city": "MONTREAL", "province": "QC", "country": "CA", "postalCode": "H2J1L7", "twitter": "None", "instagram": "None", "facebook": "None", "youtube": "None", "website": "None", "summary": "None", "logo": "None", "latitude": 45.53132509947534, "longitude": -73.58327109424187}, "139349823RR0001": {"name": "LES SENTIERS DE L'ESTRIE", "designationCode": "C", "categoryCode": "56", "address": "5182 BOUL BOURQUE", "city": "SHERBROOKE", "province": "QC", "country": "CA", "postalCode": "J1N1H4", "twitter": "None", "instagram": "None", "facebook": "None", "youtube": "None", "website": "None", "summary": "None", "logo": "None", "latitude": 45.36711736854432, "longitude": -71.99531680789457}, "107620908RR0001": {"name": "LES SERVANTES DU TR\u00c8S-SAINT-SACREMENT DE CHICOUTIMI", "designationCode": "C", "categoryCode": "46", "address": "237 - 2281 CH DE LA CANARDIERE", "city": "QUEBEC", "province": "QC", "country": "CA", "postalCode": "G1J0B8", "twitter": "None", "instagram": "None", "facebook": "None", "youtube": "None", "website": "None", "summary": "None", "logo": "None", "latitude": 46.84230286011887, "longitude": -71.21999381378028}, "894546787RR0001": {"name": "LES SERVANTES DU TRES SAINT-SACREMENT, EDMUNDSTON", "designationCode": "C", "categoryCode": "46", "address": "237 - 2281 CH DE LA CANARDIERE", "city": "QUEBEC", "province": "QC", "country": "CA", "postalCode": "G1J0B8", "twitter": "None", "instagram": "None", "facebook": "None", "youtube": "None", "website": "None", "summary": "None", "logo": "None", "latitude": 46.84230286011887, "longitude": -71.21999381378028}, "107620890RR0001": {"name": "LES SERVANTES DU TRES-SAINT-SACREMENT (PROVINCE SAINTE-ANNE)", "designationCode": "C", "categoryCode": "46", "address": "237 - 2281 CH DE LA CANARDIERE", "city": "QUEBEC", "province": "QC", "country": "CA", "postalCode": "G1J0B8", "twitter": "None", "instagram": "None", "facebook": "None", "youtube": "None", "website": "None", "summary": "None", "logo": "None", "latitude": 46.84230286011887, "longitude": -71.21999381378028}, "107416323RR0001": {"name": "LES SERVICES \u00c0 LA PETITE ENFANCE \"LA TRALEE\" INC.", "designationCode": "C", "categoryCode": "01", "address": "209 RUE TESSIER", "city": "RIMOUSKI", "province": "QC", "country": "CA", "postalCode": "G5L8X9", "twitter": "None", "instagram": "None", "facebook": "None", "youtube": "None", "website": "None", "summary": "None", "logo": "None", "latitude": 48.44247617594796, "longitude": -68.53469777534752}, "129370573RR0001": {"name": "LES SERVICES A L'ENFANCE GRANDIR ENSEMBLE", "designationCode": "C", "categoryCode": "21", "address": "202-435, BOUL. ST-LAURENT", "city": "OTTAWA", "province": "ON", "country": "CA", "postalCode": "K1K2Z8", "twitter": "None", "instagram": "None", "facebook": "None", "youtube": "None", "website": "None", "summary": "None", "logo": "None", "latitude": 45.44755740550517, "longitude": -75.65046011639473}, "104798848RR0001": {"name": "LES SERVICES COMMUNAUTAIRES CANADIENS-ITALIENS DU QUEBEC INC./CANADIAN-ITALIAN COMMUNITY SERVICES OF QUEBEC INC.", "designationCode": "C", "categoryCode": "09", "address": "8370, BOULEVARD LACORDAIRE    OFFICE 303", "city": "MONTREAL", "province": "QC", "country": "CA", "postalCode": "H1R3Y6", "twitter": "None", "instagram": "None", "facebook": "None", "youtube": "None", "website": "None", "summary": "None", "logo": "None", "latitude": 45.58593308825408, "longitude": -73.59577164997947}, "130301971RR0001": {"name": "LES SERVICES D'INTEGRATION SOCIALE NOUVEL ESSOR DU SAGUENAY INC", "designationCode": "C", "categoryCode": "11", "address": "68, JACQUES-CARTIER OUEST", "city": "CHICOUTIMI", "province": "QC", "country": "CA", "postalCode": "G7J1G1", "twitter": "None", "instagram": "None", "facebook": "None", "youtube": "None", "website": "None", "summary": "None", "logo": "None", "latitude": 48.42679251788917, "longitude": -71.07063289508915}, "893893040RR0001": {"name": "LES SERVICES DE CRISE DE LANAUDIERE", "designationCode": "C", "categoryCode": "09", "address": "14 RUE LEONIE", "city": "REPENTIGNY", "province": "QC", "country": "CA", "postalCode": "J6A3A8", "twitter": "None", "instagram": "None", "facebook": "None", "youtube": "None", "website": "None", "summary": "None", "logo": "None", "latitude": 45.715895572277844, "longitude": -73.47715872147847}, "107414146RR0001": {"name": "LES SERVICES DE GARDE DE LA POINTE INC.", "designationCode": "C", "categoryCode": "20", "address": "48 ST-JOACHIM", "city": "POINTE-CLAIRE", "province": "QC", "country": "CA", "postalCode": "H9S4P3", "twitter": "None", "instagram": "None", "facebook": "None", "youtube": "None", "website": "None", "summary": "None", "logo": "None", "latitude": 45.430009816261766, "longitude": -73.82688461200864}, "118935592RR0001": {"name": "LES SERVICES DE GARDE GRIBOUILLIS", "designationCode": "C", "categoryCode": "20", "address": "700 RUE NOTRE-DAME S", "city": "LOUISEVILLE", "province": "QC", "country": "CA", "postalCode": "J5V1Y9", "twitter": "None", "instagram": "None", "facebook": "None", "youtube": "None", "website": "None", "summary": "None", "logo": "None", "latitude": 46.24698949013226, "longitude": -72.93007364948909}, "107418592RR0001": {"name": "LES SERVICES DE GARDE LA FARANDOLE", "designationCode": "C", "categoryCode": "01", "address": "400 RUE 3E FRASER", "city": "LA POCATIERE", "province": "QC", "country": "CA", "postalCode": "G0R1Z0", "twitter": "None", "instagram": "None", "facebook": "None", "youtube": "None", "website": "None", "summary": "None", "logo": "None", "latitude": 47.367404193173286, "longitude": -70.03819567929482}, "119017531RR0001": {"name": "LES SERVICES EDUCATIFS DU SEMINAIRE MARIE-REINE-DU-CLERGE", "designationCode": "C", "categoryCode": "20", "address": "1569 RTE 169", "city": "METABETCHOUAN-LAC-A-LA-CROIX", "province": "QC", "country": "CA", "postalCode": "G8G1A8", "twitter": "None", "instagram": "None", "facebook": "None", "youtube": "None", "website": "None", "summary": "None", "logo": "None", "latitude": 48.44036115019811, "longitude": -71.84211415524261}, "119146504RR0001": {"name": "LES SERVICES FAMILIAUX ETIENNE PERNET", "designationCode": "C", "categoryCode": "01", "address": "2166 AV D'ORLEANS", "city": "MONTREAL", "province": "QC", "country": "CA", "postalCode": "H1W3R9", "twitter": "None", "instagram": "None", "facebook": "None", "youtube": "None", "website": "None", "summary": "None", "logo": "None", "latitude": 45.54932519565478, "longitude": -73.54515146240398}, "130200256RR0001": {"name": "LES SERVICES PARAJUDICIAIRE AUTOCHTONES DU QUEBEC", "designationCode": "C", "categoryCode": "29", "address": "190 CHEF MAX GROS LOUIS", "city": "WENDAKE", "province": "QC", "country": "CA", "postalCode": "G0A4V0", "twitter": "None", "instagram": "None", "facebook": "None", "youtube": "None", "website": "None", "summary": "None", "logo": "None", "latitude": 46.860698818483485, "longitude": -71.35629683458363}, "890880867RR0001": {"name": "LES SERVICES RELIGIEUX DE PORTOFINO", "designationCode": "C", "categoryCode": "49", "address": "711-3235 BL. GOUIN EST", "city": "MONTR\u00c9AL-NORD", "province": "QC", "country": "CA", "postalCode": "H1H5T3", "twitter": "None", "instagram": "None", "facebook": "None", "youtube": "None", "website": "None", "summary": "None", "logo": "None", "latitude": 45.58523600083674, "longitude": -73.65162095674849}, "119017564RR0001": {"name": "LES SERVITES DE MARIE D'OTTAWA, (THE SERVITE FATHERS)", "designationCode": "C", "categoryCode": "46", "address": "427 BOOTH", "city": "OTTAWA", "province": "ON", "country": "CA", "postalCode": "K1R7K8", "twitter": "None", "instagram": "None", "facebook": "None", "youtube": "None", "website": "None", "summary": "None", "logo": "None", "latitude": 45.405624959489785, "longitude": -75.70821185965751}, "119017556RR0001": {"name": "LES SERVITES DE MARIE DE QUEBEC", "designationCode": "C", "categoryCode": "46", "address": "820 RUE BEAUREGARD", "city": "QUEBEC", "province": "QC", "country": "CA", "postalCode": "G1V2Y2", "twitter": "None", "instagram": "None", "facebook": "None", "youtube": "None", "website": "None", "summary": "None", "logo": "None", "latitude": 46.78276886594724, "longitude": -71.28925884932748}, "119017721RR0001": {"name": "LES SOEURS DE L'ASSOMPTION DE LA SAINTE VIERGE", "designationCode": "C", "categoryCode": "46", "address": "251 RUE SAINT-JEAN-BAPTISTE", "city": "NICOLET", "province": "QC", "country": "CA", "postalCode": "J3T1X9", "twitter": "None", "instagram": "None", "facebook": "None", "youtube": "None", "website": "None", "summary": "None", "logo": "None", "latitude": 46.22824998782363, "longitude": -72.6223705195053}, "130169063RR0001": {"name": "LES SOEURS DE L'ASSOMPTION DE LA SAINTE VIERGE DE L'ALBERTA", "designationCode": "C", "categoryCode": "46", "address": "251, ST-JEAN-BAPTISTE", "city": "NICOLET", "province": "QC", "country": "CA", "postalCode": "J3T1X9", "twitter": "None", "instagram": "None", "facebook": "None", "youtube": "None", "website": "None", "summary": "None", "logo": "None", "latitude": 46.22824998782363, "longitude": -72.6223705195053}, "128938735RR0002": {"name": "LES SOEURS DE L'ASSOMPTION DE LA SAINTE VIERGE DU QUEBEC", "designationCode": "C", "categoryCode": "46", "address": "251 ST JEAN BAPTISTE", "city": "NICOLET", "province": "QC", "country": "CA", "postalCode": "J3T1X9", "twitter": "None", "instagram": "None", "facebook": "None", "youtube": "None", "website": "None", "summary": "None", "logo": "None", "latitude": 46.22824998782363, "longitude": -72.6223705195053}, "107621591RR0001": {"name": "LES SOEURS DE L'ASSOMPTION DE LA SAINTE-VIERGE D'ONTARIO", "designationCode": "C", "categoryCode": "46", "address": "990 RUE WYLD", "city": "NORTH BAY", "province": "ON", "country": "CA", "postalCode": "P1B2A6", "twitter": "None", "instagram": "None", "facebook": "None", "youtube": "None", "website": "None", "summary": "None", "logo": "None", "latitude": 46.312025436320496, "longitude": -79.4553931557215}, "119017606RR0001": {"name": "LES SOEURS DE LA CHARITE DE QUEBEC", "designationCode": "C", "categoryCode": "46", "address": "2655, RUE GUILLAUME-LE        PELLETIER", "city": "QU\u00c9BEC", "province": "QC", "country": "CA", "postalCode": "G1C3X7", "twitter": "None", "instagram": "None", "facebook": "None", "youtube": "None", "website": "None", "summary": "None", "logo": "None", "latitude": 46.85926404426508, "longitude": -71.23502774585275}, "119155745RR0001": {"name": "LES SOEURS DE LA CHARITE DE QUEBEC (ORDRE RELIGIEUX)", "designationCode": "C", "categoryCode": "46", "address": "2655, RUE GUILLAUME-LE        PELLETIER", "city": "QUEBEC", "province": "QC", "country": "CA", "postalCode": "G1C3X7", "twitter": "None", "instagram": "None", "facebook": "None", "youtube": "None", "website": "None", "summary": "None", "logo": "None", "latitude": 46.85926404426508, "longitude": -71.23502774585275}, "119017630RR0001": {"name": "LES SOEURS DE LA CONGR\u00c9GATION DE NOTRE DAME", "designationCode": "C", "categoryCode": "46", "address": "2330 OUEST, RUE SHERBROOKE", "city": "MONTREAL", "province": "QC", "country": "CA", "postalCode": "H3H1G8", "twitter": "None", "instagram": "None", "facebook": "None", "youtube": "None", "website": "None", "summary": "None", "logo": "None", "latitude": 45.491717192307924, "longitude": -73.58736313289891}, "107621492RR0001": {"name": "LES SOEURS DE LA PRESENTATION DE MARIE", "designationCode": "C", "categoryCode": "46", "address": "1405 BISHOP PASCAL PLACE", "city": "PRINCE ALBERT", "province": "SK", "country": "CA", "postalCode": "S6V5J1", "twitter": "None", "instagram": "None", "facebook": "None", "youtube": "None", "website": "None", "summary": "None", "logo": "None", "latitude": 53.2002530111085, "longitude": -105.76719889344436}, "119017739RR0001": {"name": "LES SOEURS DE LA VISITATION D' OTTAWA", "designationCode": "C", "categoryCode": "46", "address": "1127 PEMBROKE ST WEST", "city": "PEMBROKE", "province": "ON", "country": "CA", "postalCode": "K8A5R3", "twitter": "None", "instagram": "None", "facebook": "None", "youtube": "None", "website": "None", "summary": "None", "logo": "None", "latitude": 45.831549462389575, "longitude": -77.14325009407571}, "119017747RR0001": {"name": "LES SOEURS DE LA VISITATION SAINTE-MARIE", "designationCode": "C", "categoryCode": "46", "address": "1430 4IEME AVENUE", "city": "LA POCATIERE CTE KAM", "province": "QC", "country": "CA", "postalCode": "G0R1Z0", "twitter": "None", "instagram": "None", "facebook": "None", "youtube": "None", "website": "None", "summary": "None", "logo": "None", "latitude": 47.36021100000005, "longitude": -70.05913099999994}, "107621617RR0001": {"name": "LES SOEURS DE MISERICORDE DE MONTREAL", "designationCode": "C", "categoryCode": "46", "address": "12435 AVENUE DE LA MISERICORDE", "city": "MONTREAL", "province": "QC", "country": "CA", "postalCode": "H4J2G3", "twitter": "None", "instagram": "None", "facebook": "None", "youtube": "None", "website": "None", "summary": "None", "logo": "None", "latitude": 45.53466392724452, "longitude": -73.71954688710238}, "129475695RR0001": {"name": "LES SOEURS DE NOTRE DAME DE LA CROIX", "designationCode": "A", "categoryCode": "46", "address": "BOX A36, 331 CORNISH ROAD", "city": "SASKATOON", "province": "SK", "country": "CA", "postalCode": "S7T0T9", "twitter": "None", "instagram": "None", "facebook": "None", "youtube": "None", "website": "None", "summary": "None", "logo": "None", "latitude": 52.08652547994646, "longitude": -106.63019180682672}, "107621633RR0001": {"name": "LES SOEURS DE NOTRE DAME-D'AUVERGNE", "designationCode": "C", "categoryCode": "46", "address": "CP 570 COUVENT DE NOTRE-DAME", "city": "PONTEIX", "province": "SK", "country": "CA", "postalCode": "S0N1Z0", "twitter": "None", "instagram": "None", "facebook": "None", "youtube": "None", "website": "None", "summary": "None", "logo": "None", "latitude": 49.74628200000005, "longitude": -107.49464449999994}, "119017853RR0001": {"name": "LES SOEURS DE SAINT-FRANCOIS-D'ASSISE", "designationCode": "C", "categoryCode": "46", "address": "430, 60\u00c8ME RUE EST", "city": "QU\u00c9BEC", "province": "QC", "country": "CA", "postalCode": "G1H2C1", "twitter": "None", "instagram": "None", "facebook": "None", "youtube": "None", "website": "None", "summary": "None", "logo": "None", "latitude": 46.85341850150056, "longitude": -71.25230321951658}, "867825531RR0001": {"name": "LES SOEURS DE SAINT-FRANCOIS-D'ASSISE (PROVINCE DU CANADA)", "designationCode": "C", "categoryCode": "46", "address": "2281 CH DE LA CANARDIERE", "city": "QUEBEC", "province": "QC", "country": "CA", "postalCode": "G1J0B8", "twitter": "None", "instagram": "None", "facebook": "None", "youtube": "None", "website": "None", "summary": "None", "logo": "None", "latitude": 46.84230286011887, "longitude": -71.21999381378028}, "119017861RR0001": {"name": "LES SOEURS DE SAINT-JOSEPH DE SAINT-HYACINTHE", "designationCode": "C", "categoryCode": "46", "address": "2545 RUE DESSAULLES", "city": "SAINT-HYACINTHE", "province": "QC", "country": "CA", "postalCode": "J2S0K2", "twitter": "None", "instagram": "None", "facebook": "None", "youtube": "None", "website": "None", "summary": "None", "logo": "None", "latitude": 45.622354789018, "longitude": -72.95585532792617}, "130642655RR0001": {"name": "LES SOEURS DE SAINTE-ANNE DU QUEBEC", "designationCode": "C", "categoryCode": "46", "address": "1950, RUE PROVOST", "city": "LACHINE", "province": "QC", "country": "CA", "postalCode": "H8S1P7", "twitter": "None", "instagram": "None", "facebook": "None", "youtube": "None", "website": "None", "summary": "None", "logo": "None", "latitude": 45.44193150937682, "longitude": -73.68186260505507}, "107983256RR0001": {"name": "LES SOEURS DE SAINTE-CROIX, PROVINCE SAINTE-THERESE - SISTERS OF HOLY CROSS, SAINT THERESA PROVINCE", "designationCode": "C", "categoryCode": "46", "address": "8745 - 92 AVE NW", "city": "EDMONTON", "province": "AB", "country": "CA", "postalCode": "T6C1S2", "twitter": "None", "instagram": "None", "facebook": "None", "youtube": "None", "website": "None", "summary": "None", "logo": "None", "latitude": 53.52674251399404, "longitude": -113.46290163918864}, "107991838RR0001": {"name": "LES SOEURS DE SAINTE-MARCELLINE", "designationCode": "C", "categoryCode": "46", "address": "9155 BOUL GOUIN O", "city": "MONTREAL", "province": "QC", "country": "CA", "postalCode": "H4K1C3", "twitter": "None", "instagram": "None", "facebook": "None", "youtube": "None", "website": "None", "summary": "None", "logo": "None", "latitude": 45.51607395340163, "longitude": -73.74571749924925}, "119017846RR0001": {"name": "LES SOEURS DE SAINTE-MARIE DE NAMUR", "designationCode": "C", "categoryCode": "46", "address": "74 CLARENDON AVE", "city": "OTTAWA", "province": "ON", "country": "CA", "postalCode": "K1Y0P7", "twitter": "None", "instagram": "None", "facebook": "None", "youtube": "None", "website": "None", "summary": "None", "logo": "None", "latitude": 45.3954012120434, "longitude": -75.73523335457894}, "119017895RR0001": {"name": "LES SOEURS DE STE-JEANNE D'ARC", "designationCode": "C", "categoryCode": "46", "address": "2655 GUILLAUME-LE PELLETIER", "city": "QU\u00c9BEC", "province": "QC", "country": "CA", "postalCode": "G1C3X7", "twitter": "None", "instagram": "None", "facebook": "None", "youtube": "None", "website": "None", "summary": "None", "logo": "None", "latitude": 46.85926404426508, "longitude": -71.23502774585275}, "107621716RR0001": {"name": "LES SOEURS DES SACRES-COEURS DE JESUS ET DE MARIE", "designationCode": "C", "categoryCode": "46", "address": "262 PRINCIPALE NORD", "city": "AMOS", "province": "QC", "country": "CA", "postalCode": "J9T2L6", "twitter": "None", "instagram": "None", "facebook": "None", "youtube": "None", "website": "None", "summary": "None", "logo": "None", "latitude": 48.57701475437128, "longitude": -78.1159620156388}, "128024072RR0001": {"name": "LES SOEURS DES SAINTS NOMS DE JESUS ET DE MARIE DU QUEBEC", "designationCode": "C", "categoryCode": "46", "address": "80 RUE ST-CHARLES EST", "city": "LONGEUIL", "province": "QC", "country": "CA", "postalCode": "J4H1A9", "twitter": "None", "instagram": "None", "facebook": "None", "youtube": "None", "website": "None", "summary": "None", "logo": "None", "latitude": 45.541586023573316, "longitude": -73.50759404365553}, "119017903RR0001": {"name": "LES SOEURS DISCIPLES DU DIVIN MA\u00ceTRE", "designationCode": "C", "categoryCode": "46", "address": "6286 RUE GERIN-LAJOIE", "city": "MONTREAL", "province": "QC", "country": "CA", "postalCode": "H1M3K3", "twitter": "None", "instagram": "None", "facebook": "None", "youtube": "None", "website": "None", "summary": "None", "logo": "None", "latitude": 45.58153515791454, "longitude": -73.55177533969086}, "107621948RR0001": {"name": "LES SOEURS DU BON-PASTEUR DE QUEBEC", "designationCode": "C", "categoryCode": "46", "address": "2550 MARIE FITZBACH", "city": "SAINTE-FOY", "province": "QC", "country": "CA", "postalCode": "G1V2J2", "twitter": "None", "instagram": "None", "facebook": "None", "youtube": "None", "website": "None", "summary": "None", "logo": "None", "latitude": 46.77763576464306, "longitude": -71.28555412046276}, "131130239RR0001": {"name": "LES SOEURS FRANCISCAINES MISSIONNAIRES DE MARIE", "designationCode": "C", "categoryCode": "46", "address": "2516 AVENUE KALADAR", "city": "OTTAWA", "province": "ON", "country": "CA", "postalCode": "K1V8C5", "twitter": "None", "instagram": "None", "facebook": "None", "youtube": "None", "website": "None", "summary": "None", "logo": "None", "latitude": 45.37428744240867, "longitude": -75.67104129476591}, "107622037RR0001": {"name": "LES SOEURS GRISES DE MONTREAL", "designationCode": "C", "categoryCode": "46", "address": "138 RUE ST-PIERRE", "city": "MONTREAL", "province": "QC", "country": "CA", "postalCode": "H2Y2L7", "twitter": "None", "instagram": "None", "facebook": "None", "youtube": "None", "website": "None", "summary": "None", "logo": "None", "latitude": 45.50057051982242, "longitude": -73.55478442688543}, "131805350RR0001": {"name": "LES SOEURS MISSIONNAIRES DE NOTRE-DAME-D'AFRIQUE", "designationCode": "C", "categoryCode": "46", "address": "5655 RUE DE SALABERRY", "city": "MONTREAL", "province": "QC", "country": "CA", "postalCode": "H4J1J5", "twitter": "None", "instagram": "None", "facebook": "None", "youtube": "None", "website": "None", "summary": "None", "logo": "None", "latitude": 45.528873699753234, "longitude": -73.71145253699511}, "107622201RR0002": {"name": "LES SOEURS MISSIONNAIRES DU CHRIST-ROI", "designationCode": "C", "categoryCode": "46", "address": "4730, OUEST BOUL. LEVESQUE", "city": "CHOMEDEY LAVAL", "province": "QC", "country": "CA", "postalCode": "H7W2R4", "twitter": "None", "instagram": "None", "facebook": "None", "youtube": "None", "website": "None", "summary": "None", "logo": "None", "latitude": 45.52747419285618, "longitude": -73.76023804821452}, "119017986RR0001": {"name": "LES SOEURS OBLATES DU SAINT-ESPRIT - VICARIAT DU CANADA", "designationCode": "C", "categoryCode": "46", "address": "7335 CHAMBORD", "city": "MONTREAL", "province": "QC", "country": "CA", "postalCode": "H2E1W8", "twitter": "None", "instagram": "None", "facebook": "None", "youtube": "None", "website": "None", "summary": "None", "logo": "None", "latitude": 45.54569214743119, "longitude": -73.6124895264572}, "119018000RR0001": {"name": "LES SOEURS SALESIENNES", "designationCode": "C", "categoryCode": "46", "address": "8555 AVENUE JOLIOT-CURIE", "city": "MONTREAL", "province": "QC", "country": "CA", "postalCode": "H1E5J6", "twitter": "None", "instagram": "None", "facebook": "None", "youtube": "None", "website": "None", "summary": "None", "logo": "None", "latitude": 45.638658355271446, "longitude": -73.58161027312585}, "119018018RR0001": {"name": "LES SOEURS SERVANTES DU SAINT-COEUR DE MARIE", "designationCode": "C", "categoryCode": "46", "address": "2029 RUE HOLY CROSS", "city": "MONTREAL", "province": "QC", "country": "CA", "postalCode": "H4E2A4", "twitter": "None", "instagram": "None", "facebook": "None", "youtube": "None", "website": "None", "summary": "None", "logo": "None", "latitude": 45.45652650764605, "longitude": -73.59236122009348}, "119018026RR0001": {"name": "LES SOEURS TRAPPISTINES DE ROGERSVILLE", "designationCode": "C", "categoryCode": "46", "address": "CP 1010", "city": "ROGERSVILLE", "province": "NB", "country": "CA", "postalCode": "E4Y2W8", "twitter": "None", "instagram": "None", "facebook": "None", "youtube": "None", "website": "None", "summary": "None", "logo": "None", "latitude": 46.73322600000006, "longitude": -65.42815399999994}}