{"119288918RR1378": {"name": "CONGR\u00c9GATION DES T\u00c9MOINS DE J\u00c9HOVAH MONTR\u00c9AL-AHUNTSIC", "designationCode": "C", "categoryCode": "61", "address": "1 - 9130 RUE TOLHURST", "city": "MONTREAL", "province": "QC", "country": "CA", "postalCode": "H2N1X2", "twitter": "None", "instagram": "None", "facebook": "None", "youtube": "None", "website": "None", "summary": "None", "logo": "None", "latitude": 45.539273086300526, "longitude": -73.65091004330883}, "132591439RR0001": {"name": "CONGR\u00c9GATION DES T\u00c9MOINS DE J\u00c9HOVAH MONTR\u00c9AL-LAFONTAINE", "designationCode": "C", "categoryCode": "61", "address": "2567 EST, RUE ONTARIO", "city": "MONTREAL", "province": "QC", "country": "CA", "postalCode": "H2K1W6", "twitter": "None", "instagram": "None", "facebook": "None", "youtube": "None", "website": "None", "summary": "None", "logo": "None", "latitude": 45.53326957092151, "longitude": -73.55244527534754}, "884154642RR0001": {"name": "CONGR\u00c9GATION KOL YAACOV", "designationCode": "C", "categoryCode": "42", "address": "6880 CROISSANT CHAMBERLAND", "city": "COTE SAINT-LUC", "province": "QC", "country": "CA", "postalCode": "H4W1W6", "twitter": "None", "instagram": "None", "facebook": "None", "youtube": "None", "website": "None", "summary": "None", "logo": "None", "latitude": 45.46715248831954, "longitude": -73.66033764981158}, "891137143RR0001": {"name": "CONGR\u00c9GATION S\u00c9PHARADE DE HAMPSTEAD NAHAR CHALOM", "designationCode": "C", "categoryCode": "39", "address": "222, RUE HARROW", "city": "HAMPSTEAD", "province": "QC", "country": "CA", "postalCode": "H3X3X6", "twitter": "None", "instagram": "None", "facebook": "None", "youtube": "None", "website": "None", "summary": "None", "logo": "None", "latitude": 45.481391550637774, "longitude": -73.65509988481736}, "818028003RR0001": {"name": "CONGR\u00c9GATION SKVER", "designationCode": "C", "categoryCode": "49", "address": "845 AV QUERBES", "city": "MONTREAL", "province": "QC", "country": "CA", "postalCode": "H2V3X1", "twitter": "None", "instagram": "None", "facebook": "None", "youtube": "None", "website": "None", "summary": "None", "logo": "None", "latitude": 45.52445928310917, "longitude": -73.61336932693759}, "129880712RR0001": {"name": "CONGR\u00c9GATION UNITARIENNE UNIVERSALISTE DU BORD DU LAC/LAKESHORE UNITARIAN UNIVERSALIST CONGREGATION", "designationCode": "C", "categoryCode": "39", "address": "5065 SHERBROOKE STREET", "city": "LACHINE", "province": "QC", "country": "CA", "postalCode": "H8T1H9", "twitter": "None", "instagram": "None", "facebook": "None", "youtube": "None", "website": "None", "summary": "None", "logo": "None", "latitude": 45.444971495672185, "longitude": -73.7139597485429}, "118872217RR0001": {"name": "CONGREGATION ADATH ISRAEL/ADATH ISRAEL CONGREGATION", "designationCode": "C", "categoryCode": "42", "address": "223 HARROW CRESCENT", "city": "HAMPSTEAD", "province": "QC", "country": "CA", "postalCode": "H3X3X7", "twitter": "None", "instagram": "None", "facebook": "None", "youtube": "None", "website": "None", "summary": "None", "logo": "None", "latitude": 45.48095932944776, "longitude": -73.65548168070846}, "106967169RR0001": {"name": "CONGREGATION AGUDAS ISRAEL", "designationCode": "C", "categoryCode": "42", "address": "715 MCKINNON AVE", "city": "SASKATOON", "province": "SK", "country": "CA", "postalCode": "S7H2G2", "twitter": "None", "instagram": "None", "facebook": "None", "youtube": "None", "website": "None", "summary": "None", "logo": "None", "latitude": 52.117793161809686, "longitude": -106.6439262611233}, "824928923RR0001": {"name": "CONGREGATION AND YESHIVA S.A.I.A.S.", "designationCode": "C", "categoryCode": "42", "address": "5331 HUTCHISON", "city": "MONTREAL", "province": "QC", "country": "CA", "postalCode": "H2V4B4", "twitter": "None", "instagram": "None", "facebook": "None", "youtube": "None", "website": "None", "summary": "None", "logo": "None", "latitude": 45.5204641737549, "longitude": -73.60035860101571}, "816082671RR0001": {"name": "CONGREGATION ATERES SHLOIME DE BOBOV", "designationCode": "C", "categoryCode": "39", "address": "5655 PARK AVE 210", "city": "MONTREAL", "province": "QC", "country": "CA", "postalCode": "H2V4H2", "twitter": "None", "instagram": "None", "facebook": "None", "youtube": "None", "website": "None", "summary": "None", "logo": "None", "latitude": 45.52295926868244, "longitude": -73.60387142518334}, "885159574RR0001": {"name": "CONGREGATION ATERETH ZEKAINIM/CONGREGATION DES SENIORS COURO", "designationCode": "B", "categoryCode": "42", "address": "5670 DUROCHER", "city": "OUTREMONT", "province": "QC", "country": "CA", "postalCode": "H2V3Y2", "twitter": "None", "instagram": "None", "facebook": "None", "youtube": "None", "website": "None", "summary": "None", "logo": "None", "latitude": 45.52148376406614, "longitude": -73.60483557481666}, "880384003RR0001": {"name": "CONGREGATION AYIN L'TZION", "designationCode": "C", "categoryCode": "42", "address": "PO BOX 916 STN PROMENADE", "city": "THORNHILL", "province": "ON", "country": "CA", "postalCode": "L4J8G7", "twitter": "None", "instagram": "None", "facebook": "None", "youtube": "None", "website": "None", "summary": "None", "logo": "None", "latitude": 43.80693000000008, "longitude": -79.45160999999996}, "139696454RR0001": {"name": "CONGREGATION B'NAI ISRAEL BROTHERHOOD", "designationCode": "C", "categoryCode": "29", "address": "190 CHURCH ST", "city": "ST. CATHARINES", "province": "ON", "country": "CA", "postalCode": "L2R3E9", "twitter": "None", "instagram": "None", "facebook": "None", "youtube": "None", "website": "None", "summary": "None", "logo": "None", "latitude": 43.16383553952925, "longitude": -79.23710439078997}, "864853528RR0001": {"name": "CONGREGATION B'NAI ISRAEL FOUNDATION", "designationCode": "A", "categoryCode": "03", "address": "190 CHURCH STREET", "city": "ST. CATHARINES", "province": "ON", "country": "CA", "postalCode": "L2R3C9", "twitter": "None", "instagram": "None", "facebook": "None", "youtube": "None", "website": "None", "summary": "None", "logo": "None", "latitude": 43.16383553952925, "longitude": -79.23710439078997}, "130075534RR0001": {"name": "CONGREGATION B'NAI ISRAEL OF ST CATHARINES", "designationCode": "C", "categoryCode": "42", "address": "190 CHURCH ST", "city": "ST CATHARINES", "province": "ON", "country": "CA", "postalCode": "L2R3E9", "twitter": "None", "instagram": "None", "facebook": "None", "youtube": "None", "website": "None", "summary": "None", "logo": "None", "latitude": 43.16383553952925, "longitude": -79.23710439078997}, "118872282RR0001": {"name": "CONGREGATION B'NAI ISRAEL OF TIMMINS", "designationCode": "C", "categoryCode": "42", "address": "521 FAY CRESCENT", "city": "TIMMINS", "province": "ON", "country": "CA", "postalCode": "P4N7K8", "twitter": "None", "instagram": "None", "facebook": "None", "youtube": "None", "website": "None", "summary": "None", "logo": "None", "latitude": 48.49010503667977, "longitude": -81.35218625607801}, "122129075RR0001": {"name": "CONGREGATION B'NAI TIKVAH", "designationCode": "C", "categoryCode": "42", "address": "188 LOCKHART DR", "city": "ST. CATHARINES", "province": "ON", "country": "CA", "postalCode": "L2T1W4", "twitter": "None", "instagram": "None", "facebook": "None", "youtube": "None", "website": "None", "summary": "None", "logo": "None", "latitude": 43.12658722119003, "longitude": -79.24367508866646}, "895970374RR0001": {"name": "CONGREGATION BAIS MENACHEM CHABAD-LUBAVITCH", "designationCode": "C", "categoryCode": "39", "address": "28 CH. CLEVE", "city": "HAMPSTEAD", "province": "QC", "country": "CA", "postalCode": "H3X1A6", "twitter": "None", "instagram": "None", "facebook": "None", "youtube": "None", "website": "None", "summary": "None", "logo": "None", "latitude": 45.48619800612594, "longitude": -73.65299224747935}, "106967193RR0001": {"name": "CONGREGATION BEIT MASHIACH", "designationCode": "C", "categoryCode": "42", "address": "14703 141 ST NW", "city": "EDMONTON", "province": "AB", "country": "CA", "postalCode": "T6V0A8", "twitter": "None", "instagram": "None", "facebook": "None", "youtube": "None", "website": "None", "summary": "None", "logo": "None", "latitude": 53.609048035807, "longitude": -113.56347074837002}, "827850553RR0001": {"name": "CONGREGATION BEIT TIKVAH OF OTTAWA", "designationCode": "C", "categoryCode": "42", "address": "15 CHARTWELL AVENUE", "city": "OTTAWA", "province": "ON", "country": "CA", "postalCode": "K2G4K3", "twitter": "None", "instagram": "None", "facebook": "None", "youtube": "None", "website": "None", "summary": "None", "logo": "None", "latitude": 45.3324185134171, "longitude": -75.76889124992788}, "106967201RR0001": {"name": "CONGREGATION BETH DAVID", "designationCode": "C", "categoryCode": "42", "address": "21 HARVEST LANE", "city": "BRANTFORD", "province": "ON", "country": "CA", "postalCode": "N3R5R5", "twitter": "None", "instagram": "None", "facebook": "None", "youtube": "None", "website": "None", "summary": "None", "logo": "None", "latitude": 43.17953693202134, "longitude": -80.27001448514059}, "118805696RR0001": {"name": "CONGREGATION BETH EL OF WINDSOR ENDOWMENT FUND", "designationCode": "C", "categoryCode": "43", "address": "2525 MARK AVENUE", "city": "WINDSOR", "province": "ON", "country": "CA", "postalCode": "N9E2W2", "twitter": "None", "instagram": "None", "facebook": "None", "youtube": "None", "website": "None", "summary": "None", "logo": "None", "latitude": 42.27383457034461, "longitude": -83.03426057761529}, "118806686RR0001": {"name": "CONGREGATION BETH HAMIDRASH", "designationCode": "C", "categoryCode": "42", "address": "3231 HEATHER STREET", "city": "VANCOUVER", "province": "BC", "country": "CA", "postalCode": "V5Z3K4", "twitter": "None", "instagram": "None", "facebook": "None", "youtube": "None", "website": "None", "summary": "None", "logo": "None", "latitude": 49.25667645045877, "longitude": -123.12011353445068}, "887679595RR0001": {"name": "CONGREGATION BETH ISRAEL", "designationCode": "C", "categoryCode": "42", "address": "989 28TH AVE W", "city": "VANCOUVER", "province": "BC", "country": "CA", "postalCode": "V5Z0E8", "twitter": "None", "instagram": "None", "facebook": "None", "youtube": "None", "website": "None", "summary": "None", "logo": "None", "latitude": 49.24641678416049, "longitude": -123.12731983113565}, "106790116RR0001": {"name": "CONGREGATION BETH ISRAEL BETH AARON DE COTE ST-LUC", "designationCode": "C", "categoryCode": "42", "address": "6800 MACKLE ROAD", "city": "COTE-ST-LUC", "province": "QC", "country": "CA", "postalCode": "H4W1A4", "twitter": "None", "instagram": "None", "facebook": "None", "youtube": "None", "website": "None", "summary": "None", "logo": "None", "latitude": 45.474053239511875, "longitude": -73.66801940919875}, "890487770RR0001": {"name": "CONGREGATION BETH ISREL OF TROUT LAKE", "designationCode": "C", "categoryCode": "42", "address": "6885 WILDERTON", "city": "MONTREAL", "province": "QC", "country": "CA", "postalCode": "H3S2M3", "twitter": "None", "instagram": "None", "facebook": "None", "youtube": "None", "website": "None", "summary": "None", "logo": "None", "latitude": 45.513046340007996, "longitude": -73.63000948819901}, "106967292RR0001": {"name": "CONGREGATION BETH TEFILAH", "designationCode": "C", "categoryCode": "42", "address": "1210 ADELAIDE ST N", "city": "LONDON", "province": "ON", "country": "CA", "postalCode": "N5Y4T6", "twitter": "None", "instagram": "None", "facebook": "None", "youtube": "None", "website": "None", "summary": "None", "logo": "None", "latitude": 43.01817127005806, "longitude": -81.24621055683558}, "118807163RR0001": {"name": "CONGREGATION BETH TIKVAH AHAVAT SHALOM-NUSACH HOARI/CONGR\u00c9GATION BETH TIKVAH AHAVAT SHALOM NUSACH-HOARI", "designationCode": "C", "categoryCode": "42", "address": "136 WESTPARK BLVD", "city": "DOLLARD-DES-ORMEAUX", "province": "QC", "country": "CA", "postalCode": "H9A2K2", "twitter": "None", "instagram": "None", "facebook": "None", "youtube": "None", "website": "None", "summary": "None", "logo": "None", "latitude": 45.49236068497051, "longitude": -73.81943273707134}, "106967219RR0001": {"name": "CONGREGATION BETH-EL", "designationCode": "C", "categoryCode": "42", "address": "1000 CH LUCERNE", "city": "MONT-ROYAL", "province": "QC", "country": "CA", "postalCode": "H3R2H9", "twitter": "None", "instagram": "None", "facebook": "None", "youtube": "None", "website": "None", "summary": "None", "logo": "None", "latitude": 45.5037009802645, "longitude": -73.64837805150313}, "855154134RR0001": {"name": "CONGREGATION BIBLIQUE DE L'EGLISE BAPTIST / FELLOWSHIP BIBLE BAPTIST CHURCH", "designationCode": "C", "categoryCode": "39", "address": "3737 AV VAN HORNE", "city": "MONTREAL", "province": "QC", "country": "CA", "postalCode": "H3S1R9", "twitter": "None", "instagram": "None", "facebook": "None", "youtube": "None", "website": "None", "summary": "None", "logo": "None", "latitude": 45.500330535114514, "longitude": -73.6325520019619}, "118812619RR0001": {"name": "CONGREGATION BNAI TORAH", "designationCode": "C", "categoryCode": "42", "address": "465 PATRICIA AVENUE", "city": "WILLOWDALE", "province": "ON", "country": "CA", "postalCode": "M2R2N1", "twitter": "None", "instagram": "None", "facebook": "None", "youtube": "None", "website": "None", "summary": "None", "logo": "None", "latitude": 43.78442490365884, "longitude": -79.44412538882808}, "885412387RR0001": {"name": "CONGREGATION CHASIDEI BOBOV", "designationCode": "C", "categoryCode": "42", "address": "84 BURNCREST DRIVE", "city": "TORONTO", "province": "ON", "country": "CA", "postalCode": "M5M2Z7", "twitter": "None", "instagram": "None", "facebook": "None", "youtube": "None", "website": "None", "summary": "None", "logo": "None", "latitude": 43.73727910687275, "longitude": -79.42949718096827}, "124494790RR0001": {"name": "CONGREGATION CHESED SHEL EMES", "designationCode": "C", "categoryCode": "42", "address": "1023 MAIN STREET", "city": "WINNIPEG", "province": "MB", "country": "CA", "postalCode": "R2W3P9", "twitter": "None", "instagram": "None", "facebook": "None", "youtube": "None", "website": "None", "summary": "None", "logo": "None", "latitude": 49.91358867193723, "longitude": -97.13203038908787}, "106967367RR0001": {"name": "CONGREGATION CHEVRA KADISHA B'NAI JACOB", "designationCode": "C", "categoryCode": "42", "address": "5237 AV CLANRANALD", "city": "MONTREAL", "province": "QC", "country": "CA", "postalCode": "H3X2S5", "twitter": "None", "instagram": "None", "facebook": "None", "youtube": "None", "website": "None", "summary": "None", "logo": "None", "latitude": 45.482280137688086, "longitude": -73.63396024352258}, "125487439RR0001": {"name": "CONGREGATION CHEVRA SHAAS ADATH JESHURUN HADRATH KODESH-SHEVET ACHIM CHAVERIM KOL YISRAEL-D'BET ABRAHAM", "designationCode": "C", "categoryCode": "42", "address": "6525 DECARIE BLVD. #208", "city": "MONTREAL", "province": "QC", "country": "CA", "postalCode": "H3W3E3", "twitter": "None", "instagram": "None", "facebook": "None", "youtube": "None", "website": "None", "summary": "None", "logo": "None", "latitude": 45.491328228720505, "longitude": -73.64576926475864}, "827630328RR0001": {"name": "CONGREGATION CHOUVA ISRAEL", "designationCode": "C", "categoryCode": "42", "address": "5750 PARKHAVEN AVE", "city": "COTE ST LUC", "province": "QC", "country": "CA", "postalCode": "H4W1X5", "twitter": "None", "instagram": "None", "facebook": "None", "youtube": "None", "website": "None", "summary": "None", "logo": "None", "latitude": 45.4685605053957, "longitude": -73.6658314668474}, "827725524RR0001": {"name": "CONGREGATION D'ANASH KOLLEL LUBAVITCH", "designationCode": "C", "categoryCode": "42", "address": "4742 CARLTON AVENUE", "city": "MONTREAL", "province": "QC", "country": "CA", "postalCode": "H3W1G4", "twitter": "None", "instagram": "None", "facebook": "None", "youtube": "None", "website": "None", "summary": "None", "logo": "None", "latitude": 45.49575735247282, "longitude": -73.63911832289821}, "118872308RR0001": {"name": "CONGREGATION DARCHEI NOAM RECONSTRUCTIONIST SYNAGOGUE OF TORONTO", "designationCode": "C", "categoryCode": "42", "address": "864 SHEPPARD AVE WEST", "city": "TORONTO", "province": "ON", "country": "CA", "postalCode": "M3H2T5", "twitter": "None", "instagram": "None", "facebook": "None", "youtube": "None", "website": "None", "summary": "None", "logo": "None", "latitude": 43.75245715072984, "longitude": -79.45316825465974}, "130523111RR0001": {"name": "CONGREGATION DE NOTRE-DAME DE CHARITE DU BON-PASTEUR (CANADA)/CONGREGATION OF OUR LADY OF CHARITY OF THE GOOD SHEPHERD (CANADA)", "designationCode": "C", "categoryCode": "46", "address": "9467 OUEST BOUL. GOUIN", "city": "PIERREFONDS", "province": "QC", "country": "CA", "postalCode": "H8Y1T2", "twitter": "None", "instagram": "None", "facebook": "None", "youtube": "None", "website": "None", "summary": "None", "logo": "None", "latitude": 45.50717986984239, "longitude": -73.77231086026309}, "106967490RR0001": {"name": "CONGREGATION DES FILLES DE LA CROIX DE ST ANDRE (SISTERS OF THE CROSS)", "designationCode": "C", "categoryCode": "46", "address": "126-601 AULNEAU ST.", "city": "WINNIPEG", "province": "MB", "country": "CA", "postalCode": "R2H2V5", "twitter": "None", "instagram": "None", "facebook": "None", "youtube": "None", "website": "None", "summary": "None", "logo": "None", "latitude": 49.89073399618391, "longitude": -97.11959176054579}, "102934163RR0001": {"name": "CONGREGATION DES OBLATS DE LA VIERGE MARIE", "designationCode": "C", "categoryCode": "47", "address": "11 BOUL SAINT JEAN BAPTISTE", "city": "POINTE AUX TREMBLES", "province": "QC", "country": "CA", "postalCode": "H1B3Z5", "twitter": "None", "instagram": "None", "facebook": "None", "youtube": "None", "website": "None", "summary": "None", "logo": "None", "latitude": 45.64045034000798, "longitude": -73.49308790437998}, "130725997RR0001": {"name": "CONGREGATION DES PETITES FILLES DE SAINT-FRANCOIS", "designationCode": "C", "categoryCode": "46", "address": "5655 RUE SALABERRY            SUITE 4G", "city": "MONTREAL", "province": "QC", "country": "CA", "postalCode": "H4J1J5", "twitter": "None", "instagram": "None", "facebook": "None", "youtube": "None", "website": "None", "summary": "None", "logo": "None", "latitude": 45.528873699753234, "longitude": -73.71145253699511}, "118988823RR0001": {"name": "CONGREGATION DES SERVANTES DU TRES SAINT-SACREMENT DE QUEBEC", "designationCode": "C", "categoryCode": "46", "address": "237 - 2281 CH DE LA CANARDIERE", "city": "QUEBEC", "province": "QC", "country": "CA", "postalCode": "G1J0B8", "twitter": "None", "instagram": "None", "facebook": "None", "youtube": "None", "website": "None", "summary": "None", "logo": "None", "latitude": 46.84230286011887, "longitude": -71.21999381378028}, "107968752RR0001": {"name": "CONGREGATION DES SERVANTES DU TRES-SAINT-SACREMENT", "designationCode": "C", "categoryCode": "46", "address": "580, DUFFERIN", "city": "SHERBROOKE", "province": "QC", "country": "CA", "postalCode": "J1H4N1", "twitter": "None", "instagram": "None", "facebook": "None", "youtube": "None", "website": "None", "summary": "None", "logo": "None", "latitude": 45.40825686256485, "longitude": -71.89731839707161}, "129350815RR0001": {"name": "CONGREGATION DES SOEURS DE L'ENFANT-JESUS DE CHAUFFAILLES (PROVINCE DU CANADA)", "designationCode": "C", "categoryCode": "46", "address": "66 ST-HENRI                   CP 820", "city": "RIVIERE-DU-LOUP", "province": "QC", "country": "CA", "postalCode": "G5R3Z5", "twitter": "None", "instagram": "None", "facebook": "None", "youtube": "None", "website": "None", "summary": "None", "logo": "None", "latitude": 47.82208537750515, "longitude": -69.53472869756872}, "889498663RR0001": {"name": "CONGREGATION DES SOEURS DE LA RESURRECTION DE NOTRE SEIGNEURJESUS-CHRIST (MONTREAL)", "designationCode": "C", "categoryCode": "46", "address": "4109,RUE ST-HUBERT", "city": "MONTREAL", "province": "QC", "country": "CA", "postalCode": "H2L4A7", "twitter": "None", "instagram": "None", "facebook": "None", "youtube": "None", "website": "None", "summary": "None", "logo": "None", "latitude": 45.522984235933855, "longitude": -73.57529167372624}, "129829396RR0001": {"name": "CONGREGATION DES SOEURS DE LA SAINTE-FAMILLE DE BORDEAUX AU CANADA", "designationCode": "C", "categoryCode": "46", "address": "2410 RUE NICOLET", "city": "MONTREAL", "province": "QC", "country": "CA", "postalCode": "H1W3L4", "twitter": "None", "instagram": "None", "facebook": "None", "youtube": "None", "website": "None", "summary": "None", "logo": "None", "latitude": 45.54815811904912, "longitude": -73.54978187858495}, "136666542RR0001": {"name": "CONGREGATION DES SOEURS DES SAINTS NOMS DE JESUS ET DE MARIE/CONGREGATION OF THE SISTERS OF THE HOLY NAMES OF JESUS AND", "designationCode": "C", "categoryCode": "46", "address": "80, RUE SAINT-CHARLES EST", "city": "LONGUEUIL", "province": "QC", "country": "CA", "postalCode": "J4H1A9", "twitter": "None", "instagram": "None", "facebook": "None", "youtube": "None", "website": "None", "summary": "None", "logo": "None", "latitude": 45.541586023573316, "longitude": -73.50759404365553}, "141030908RR0001": {"name": "CONGREGATION DES T\u00c8MOINS DE J\u00c8HOVAH DE NEW-RICHMOND", "designationCode": "C", "categoryCode": "61", "address": "30 ROUTE 132", "city": "CASCAP\u00c9DIA-ST-JULES", "province": "QC", "country": "CA", "postalCode": "G0C1T0", "twitter": "None", "instagram": "None", "facebook": "None", "youtube": "None", "website": "None", "summary": "None", "logo": "None", "latitude": 48.208185, "longitude": -65.91080776919124}, "119288918RR1399": {"name": "CONGREGATION DES TEMOINS DE JEHOVAH - GATINEAU-OUEST", "designationCode": "C", "categoryCode": "61", "address": "547 STE-MAXIME", "city": "GATINEAU", "province": "QC", "country": "CA", "postalCode": "J8T8N3", "twitter": "None", "instagram": "None", "facebook": "None", "youtube": "None", "website": "None", "summary": "None", "logo": "None", "latitude": 45.48940113962134, "longitude": -75.7224972352127}, "119288918RR0822": {"name": "CONGREGATION DES TEMOINS DE JEHOVAH BEAULAC", "designationCode": "C", "categoryCode": "61", "address": "989 9E AV", "city": "SAINT-LIN-LAURENTIDES", "province": "QC", "country": "CA", "postalCode": "J5M2T6", "twitter": "None", "instagram": "None", "facebook": "None", "youtube": "None", "website": "None", "summary": "None", "logo": "None", "latitude": 45.848713452680464, "longitude": -73.76017980391252}, "891286593RR0001": {"name": "CONGREGATION DES TEMOINS DE JEHOVAH CH\u00c2TEAUGUAY-OUEST", "designationCode": "C", "categoryCode": "61", "address": "169, RUE BOILEAU", "city": "CH\u00c2TEAUGUAY", "province": "QC", "country": "CA", "postalCode": "J6J3E6", "twitter": "None", "instagram": "None", "facebook": "None", "youtube": "None", "website": "None", "summary": "None", "logo": "None", "latitude": 45.357948944197695, "longitude": -73.76438537148717}, "101094274RR0001": {"name": "CONGREGATION DES TEMOINS DE JEHOVAH D'ACTON-VALE", "designationCode": "C", "categoryCode": "61", "address": "315 SACRE-COEUR PQ", "city": "UPTON", "province": "QC", "country": "CA", "postalCode": "J0H2E0", "twitter": "None", "instagram": "None", "facebook": "None", "youtube": "None", "website": "None", "summary": "None", "logo": "None", "latitude": 45.652795438253754, "longitude": -72.69423230835592}, "136990793RR0001": {"name": "CONGREGATION DES TEMOINS DE JEHOVAH D'AMQUI", "designationCode": "C", "categoryCode": "61", "address": "428 132 RTE O", "city": "AMQUI", "province": "QC", "country": "CA", "postalCode": "G5J2G6", "twitter": "None", "instagram": "None", "facebook": "None", "youtube": "None", "website": "None", "summary": "None", "logo": "None", "latitude": 48.47804467834923, "longitude": -67.44211107785507}, "119288918RR0533": {"name": "CONGREGATION DES TEMOINS DE JEHOVAH D'IBERVILLE (QUEBEC)", "designationCode": "C", "categoryCode": "61", "address": "1331 CH LEMAIRE", "city": "MARIEVILLE", "province": "QC", "country": "CA", "postalCode": "J3M1N9", "twitter": "None", "instagram": "None", "facebook": "None", "youtube": "None", "website": "None", "summary": "None", "logo": "None", "latitude": 45.42088596583778, "longitude": -73.16820718844143}, "119288918RR1180": {"name": "CONGREGATION DES TEMOINS DE JEHOVAH D'OTTAWA-CENTRE (ONTARIO)", "designationCode": "C", "categoryCode": "61", "address": "4-740 MORIN ST.", "city": "OTTAWA", "province": "ON", "country": "CA", "postalCode": "K1K3G9", "twitter": "None", "instagram": "None", "facebook": "None", "youtube": "None", "website": "None", "summary": "None", "logo": "None", "latitude": 45.43593922370017, "longitude": -75.64520832809143}, "119288918RR0586": {"name": "CONGREGATION DES TEMOINS DE JEHOVAH D'OTTAWA-EST", "designationCode": "C", "categoryCode": "61", "address": "1884 DUMAS STREET", "city": "OTTAWA", "province": "ON", "country": "CA", "postalCode": "K1C1N4", "twitter": "None", "instagram": "None", "facebook": "None", "youtube": "None", "website": "None", "summary": "None", "logo": "None", "latitude": 45.45500305744709, "longitude": -75.51456342258626}, "119288918RR1523": {"name": "CONGREGATION DES TEMOINS DE JEHOVAH DE AYLMER-LUCERNE", "designationCode": "C", "categoryCode": "61", "address": "1432, CHEMIN D'AYLMER", "city": "GATINEAU", "province": "QC", "country": "CA", "postalCode": "J9H7L4", "twitter": "None", "instagram": "None", "facebook": "None", "youtube": "None", "website": "None", "summary": "None", "logo": "None", "latitude": 45.41507623307792, "longitude": -75.76476734298043}, "118872720RR0001": {"name": "CONGREGATION DES TEMOINS DE JEHOVAH DE BAIE-COMEAU", "designationCode": "C", "categoryCode": "61", "address": "531 JALBERT C.P.6035", "city": "BAIE-COMEAU", "province": "QC", "country": "CA", "postalCode": "G5C0B7", "twitter": "None", "instagram": "None", "facebook": "None", "youtube": "None", "website": "None", "summary": "None", "logo": "None", "latitude": 49.18833821481336, "longitude": -68.25572030232506}, "119288918RR0701": {"name": "CONGREGATION DES TEMOINS DE JEHOVAH DE BATHURST-VANIER (NOUVEAU-BRUNSWICK)", "designationCode": "C", "categoryCode": "61", "address": "460 ST. ANNE ST", "city": "BATHURST", "province": "NB", "country": "CA", "postalCode": "E2A2N4", "twitter": "None", "instagram": "None", "facebook": "None", "youtube": "None", "website": "None", "summary": "None", "logo": "None", "latitude": 47.628002436089375, "longitude": -65.66780534361466}, "119288918RR0446": {"name": "CONGREGATION DES TEMOINS DE JEHOVAH DE BEAUHARNOIS (QUEBEC)", "designationCode": "C", "categoryCode": "61", "address": "201 RUE BERGEVIN", "city": "CHATEAUGUAY", "province": "QC", "country": "CA", "postalCode": "J6K5A9", "twitter": "None", "instagram": "None", "facebook": "None", "youtube": "None", "website": "None", "summary": "None", "logo": "None", "latitude": 45.34717514011229, "longitude": -73.75285844292827}, "118872993RR0001": {"name": "CONGREGATION DES TEMOINS DE JEHOVAH DE BERTHIERVILLE", "designationCode": "C", "categoryCode": "61", "address": "CP 1125", "city": "BERTHIERVILLE", "province": "QC", "country": "CA", "postalCode": "J0K1A0", "twitter": "None", "instagram": "None", "facebook": "None", "youtube": "None", "website": "None", "summary": "None", "logo": "None", "latitude": 46.08090000000004, "longitude": -73.17846999999995}, "118872597RR0001": {"name": "CONGREGATION DES TEMOINS DE JEHOVAH DE CABANO", "designationCode": "C", "categoryCode": "61", "address": "253A RUE COMMERCIALE", "city": "SAINT-LOUIS-DU-HA-HA", "province": "QC", "country": "CA", "postalCode": "G0L3S0", "twitter": "None", "instagram": "None", "facebook": "None", "youtube": "None", "website": "None", "summary": "None", "logo": "None", "latitude": 47.670808022082234, "longitude": -68.97597282061759}, "119288918RR0811": {"name": "CONGREGATION DES TEMOINS DE JEHOVAH DE CAP-DE-LA-MADELEINE-CENTRE (QUEBEC)", "designationCode": "C", "categoryCode": "61", "address": "31 ST-JEAN-BAPTISTE", "city": "TROIS-RIVI\u00c8RES", "province": "QC", "country": "CA", "postalCode": "G8T6T1", "twitter": "None", "instagram": "None", "facebook": "None", "youtube": "None", "website": "None", "summary": "None", "logo": "None", "latitude": 46.36141226008411, "longitude": -72.51912513460103}, "119288918RR0526": {"name": "CONGREGATION DES TEMOINS DE JEHOVAH DE CASSELMAN-RIVIERE-NATION (ONTARIO)", "designationCode": "C", "categoryCode": "61", "address": "3526B DEVINE ROAD", "city": "CUMBERLAND", "province": "ON", "country": "CA", "postalCode": "K4B1S4", "twitter": "None", "instagram": "None", "facebook": "None", "youtube": "None", "website": "None", "summary": "None", "logo": "None", "latitude": 45.36975339868141, "longitude": -75.27685049298105}, "119288918RR1240": {"name": "CONGREGATION DES TEMOINS DE JEHOVAH DE CHARNY (QUEBEC)", "designationCode": "C", "categoryCode": "61", "address": "1162 BOUL GUILLAUME-COUTURE", "city": "LEVIS", "province": "QC", "country": "CA", "postalCode": "G6W5M6", "twitter": "None", "instagram": "None", "facebook": "None", "youtube": "None", "website": "None", "summary": "None", "logo": "None", "latitude": 46.73393962802284, "longitude": -71.26536200784854}, "118989037RR0001": {"name": "CONGREGATION DES TEMOINS DE JEHOVAH DE CHIBOUGAMAU", "designationCode": "C", "categoryCode": "61", "address": "465 CH MERRILL", "city": "CHIBOUGAMAU", "province": "QC", "country": "CA", "postalCode": "G8P0A6", "twitter": "None", "instagram": "None", "facebook": "None", "youtube": "None", "website": "None", "summary": "None", "logo": "None", "latitude": 49.92622606440066, "longitude": -74.36091373578962}, "119288918RR0547": {"name": "CONGREGATION DES TEMOINS DE JEHOVAH DE DEUX-MONTAGNES (QUEBEC)", "designationCode": "C", "categoryCode": "61", "address": "10, 166 RANG DE LA FRESNI\u00c8RE", "city": "MIRABEL", "province": "QC", "country": "CA", "postalCode": "J7N2R9", "twitter": "None", "instagram": "None", "facebook": "None", "youtube": "None", "website": "None", "summary": "None", "logo": "None", "latitude": 45.55943184078215, "longitude": -74.0844987242617}, "118872654RR0001": {"name": "CONGREGATION DES TEMOINS DE JEHOVAH DE DISRAELI", "designationCode": "C", "categoryCode": "61", "address": "301 RUE  PRINCIPALE", "city": "LAMBTON", "province": "QC", "country": "CA", "postalCode": "G0M1H0", "twitter": "None", "instagram": "None", "facebook": "None", "youtube": "None", "website": "None", "summary": "None", "logo": "None", "latitude": 45.828356459605374, "longitude": -71.09607216357004}, "131470676RR0001": {"name": "CONGREGATION DES TEMOINS DE JEHOVAH DE DONNACONA (QUEBEC)", "designationCode": "C", "categoryCode": "61", "address": "470 ROUTE 138", "city": "DONNACONA", "province": "QC", "country": "CA", "postalCode": "G3M1C2", "twitter": "None", "instagram": "None", "facebook": "None", "youtube": "None", "website": "None", "summary": "None", "logo": "None", "latitude": 46.68119165838051, "longitude": -71.72135721087776}, "892861840RR0001": {"name": "CONGREGATION DES TEMOINS DE JEHOVAH DE DRUMMONDVILLE-CENTRE", "designationCode": "C", "categoryCode": "61", "address": "46 MATHIEU, APP. 4", "city": "DRUMMONDVILLE", "province": "QC", "country": "CA", "postalCode": "J2C2S5", "twitter": "None", "instagram": "None", "facebook": "None", "youtube": "None", "website": "None", "summary": "None", "logo": "None", "latitude": 45.88033853984639, "longitude": -72.50597775448685}, "119288918RR0684": {"name": "CONGREGATION DES TEMOINS DE JEHOVAH DE DRUMMONDVILLE-SUD (QUEBEC)", "designationCode": "C", "categoryCode": "61", "address": "21 RUE JOEL", "city": "ST-NICEPHORE", "province": "QC", "country": "CA", "postalCode": "J2A1K4", "twitter": "None", "instagram": "None", "facebook": "None", "youtube": "None", "website": "None", "summary": "None", "logo": "None", "latitude": 45.84085621313992, "longitude": -72.43948223977168}, "135751063RR0001": {"name": "CONGREGATION DES TEMOINS DE JEHOVAH DE FARNHAM", "designationCode": "C", "categoryCode": "61", "address": "41 CHEMIN LEBLANC", "city": "FARNHAM", "province": "QC", "country": "CA", "postalCode": "J2N2Y6", "twitter": "None", "instagram": "None", "facebook": "None", "youtube": "None", "website": "None", "summary": "None", "logo": "None", "latitude": 45.2556277857349, "longitude": -72.98573948089873}, "892849845RR0001": {"name": "CONGREGATION DES TEMOINS DE JEHOVAH DE GATINEAU-CENTRE", "designationCode": "C", "categoryCode": "61", "address": "201 LAUSANNE", "city": "GATINEAU", "province": "QC", "country": "CA", "postalCode": "J8T7Z5", "twitter": "None", "instagram": "None", "facebook": "None", "youtube": "None", "website": "None", "summary": "None", "logo": "None", "latitude": 45.47771550678069, "longitude": -75.68309816319466}, "119288918RR1395": {"name": "CONGREGATION DES TEMOINS DE JEHOVAH DE GATINEAU-OUTAOUAIS", "designationCode": "C", "categoryCode": "61", "address": "75B RUE CAMPEAU", "city": "GATINEAU", "province": "QC", "country": "CA", "postalCode": "J8P2K7", "twitter": "None", "instagram": "None", "facebook": "None", "youtube": "None", "website": "None", "summary": "None", "logo": "None", "latitude": 45.479413402197494, "longitude": -75.60918681474993}, "119288918RR0912": {"name": "CONGREGATION DES TEMOINS DE JEHOVAH DE GRANBY-NORD (QUEBEC)", "designationCode": "C", "categoryCode": "61", "address": "488 RUE DE LA PASSIFLORE", "city": "GRANBY", "province": "QC", "country": "CA", "postalCode": "J2H0Z3", "twitter": "None", "instagram": "None", "facebook": "None", "youtube": "None", "website": "None", "summary": "None", "logo": "None", "latitude": 45.39433949321933, "longitude": -72.68793322009348}, "119288918RR0505": {"name": "CONGREGATION DES TEMOINS DE JEHOVAH DE GRAND FALLS", "designationCode": "C", "categoryCode": "61", "address": "33 RUE BELANGER", "city": "GRAND FALLS", "province": "NB", "country": "CA", "postalCode": "E3Z3C9", "twitter": "None", "instagram": "None", "facebook": "None", "youtube": "None", "website": "None", "summary": "None", "logo": "None", "latitude": 47.03585219562886, "longitude": -67.7676619211305}, "892921248RR0001": {"name": "CONGREGATION DES TEMOINS DE JEHOVAH DE HAWKESBURY-OUEST", "designationCode": "C", "categoryCode": "61", "address": "3725 STARDALE RD", "city": "VANKLEEK HILL", "province": "ON", "country": "CA", "postalCode": "K0B1R0", "twitter": "None", "instagram": "None", "facebook": "None", "youtube": "None", "website": "None", "summary": "None", "logo": "None", "latitude": 45.540271277778075, "longitude": -74.58539355908015}, "135417582RR0001": {"name": "CONGREGATION DES TEMOINS DE JEHOVAH DE HEMMINGFORD", "designationCode": "C", "categoryCode": "61", "address": "8 DU P\u00c8RE PAYANT", "city": "ST-CHRYSOSTOME", "province": "QC", "country": "CA", "postalCode": "J0S1R0", "twitter": "None", "instagram": "None", "facebook": "None", "youtube": "None", "website": "None", "summary": "None", "logo": "None", "latitude": 45.10463551956262, "longitude": -73.76146133917126}, "119288918RR0269": {"name": "CONGREGATION DES TEMOINS DE JEHOVAH DE JOLIETTE-NORD (QUEBEC)", "designationCode": "C", "categoryCode": "61", "address": "1040 BASE DE ROC", "city": "JOLIETTE", "province": "QC", "country": "CA", "postalCode": "J6E2T6", "twitter": "None", "instagram": "None", "facebook": "None", "youtube": "None", "website": "None", "summary": "None", "logo": "None", "latitude": 46.01132581603063, "longitude": -73.42378361071057}, "119288918RR0862": {"name": "CONGREGATION DES TEMOINS DE JEHOVAH DE JOLIMONT (QUEBEC)", "designationCode": "C", "categoryCode": "61", "address": "200 RUE BRUNELLE", "city": "SAINTE M\u00c9LANIE", "province": "QC", "country": "CA", "postalCode": "J0K3A0", "twitter": "None", "instagram": "None", "facebook": "None", "youtube": "None", "website": "None", "summary": "None", "logo": "None", "latitude": 46.16123226283203, "longitude": -73.56388701263137}, "119288918RR0604": {"name": "CONGREGATION DES TEMOINS DE JEHOVAH DE L'ASSOMPTION", "designationCode": "C", "categoryCode": "61", "address": "262 BOUL.IBERVILLE", "city": "REPENTIGNY", "province": "QC", "country": "CA", "postalCode": "J6A2A1", "twitter": "None", "instagram": "None", "facebook": "None", "youtube": "None", "website": "None", "summary": "None", "logo": "None", "latitude": 45.72826318483476, "longitude": -73.46295796500105}, "119288918RR1431": {"name": "CONGREGATION DES TEMOINS DE JEHOVAH DE L'OUEST DE MONTREAL", "designationCode": "C", "categoryCode": "61", "address": "25 - 2315 RUE DUFF COURT", "city": "LACHINE", "province": "QC", "country": "CA", "postalCode": "H8S1E7", "twitter": "None", "instagram": "None", "facebook": "None", "youtube": "None", "website": "None", "summary": "None", "logo": "None", "latitude": 45.445972506780684, "longitude": -73.68398086372554}, "875370314RR0001": {"name": "CONGREGATION DES TEMOINS DE JEHOVAH DE LA BAIE", "designationCode": "C", "categoryCode": "61", "address": "1573 VICTORIA", "city": "LA BAIE", "province": "QC", "country": "CA", "postalCode": "G7B3N4", "twitter": "None", "instagram": "None", "facebook": "None", "youtube": "None", "website": "None", "summary": "None", "logo": "None", "latitude": 48.350675315021036, "longitude": -70.88260990663034}, "131881229RR0001": {"name": "CONGREGATION DES TEMOINS DE JEHOVAH DE LA MALBAIE", "designationCode": "C", "categoryCode": "61", "address": "5, RUE CARSY", "city": "LA MALBAIE", "province": "QC", "country": "CA", "postalCode": "G5A1K4", "twitter": "None", "instagram": "None", "facebook": "None", "youtube": "None", "website": "None", "summary": "None", "logo": "None", "latitude": 47.652737448785324, "longitude": -70.16086672326747}, "119288918RR0607": {"name": "CONGREGATION DES TEMOINS DE JEHOVAH DE LA PLAINE (QUEBEC)", "designationCode": "C", "categoryCode": "61", "address": "3435 ALAIN", "city": "TERREBONNE", "province": "QC", "country": "CA", "postalCode": "J6Y1K7", "twitter": "None", "instagram": "None", "facebook": "None", "youtube": "None", "website": "None", "summary": "None", "logo": "None", "latitude": 45.69644153012286, "longitude": -73.79971571536161}, "890677198RR0001": {"name": "CONGREGATION DES TEMOINS DE JEHOVAH DE LA POCATIERE", "designationCode": "C", "categoryCode": "61", "address": "38, MONTEE DES CLOCHERS", "city": "SAINT-ROCH-DES-AULNAIES", "province": "QC", "country": "CA", "postalCode": "G0R4E0", "twitter": "None", "instagram": "None", "facebook": "None", "youtube": "None", "website": "None", "summary": "None", "logo": "None", "latitude": 47.30691791921072, "longitude": -70.17244870278122}, "118989235RR0001": {"name": "CONGREGATION DES TEMOINS DE JEHOVAH DE LA SARRE", "designationCode": "C", "categoryCode": "61", "address": "C.P. 242", "city": "LA SARRE", "province": "QC", "country": "CA", "postalCode": "J9Z2X5", "twitter": "None", "instagram": "None", "facebook": "None", "youtube": "None", "website": "None", "summary": "None", "logo": "None", "latitude": 48.81224125636689, "longitude": -79.20540124363309}, "118872795RR0001": {"name": "CONGREGATION DES TEMOINS DE JEHOVAH DE LA TUQUE", "designationCode": "C", "categoryCode": "61", "address": "1275 ROUTE 155 NORD", "city": "LA BOSTONNAIS", "province": "QC", "country": "CA", "postalCode": "G9X0A7", "twitter": "None", "instagram": "None", "facebook": "None", "youtube": "None", "website": "None", "summary": "None", "logo": "None", "latitude": 47.54069303225099, "longitude": -72.67312080434877}, "118872613RR0001": {"name": "CONGREGATION DES TEMOINS DE JEHOVAH DE LAC-ETCHEMIN", "designationCode": "C", "categoryCode": "61", "address": "4029 25E AV", "city": "SAINT-PROSPER-DE-DORCHESTER", "province": "QC", "country": "CA", "postalCode": "G0M1Y0", "twitter": "None", "instagram": "None", "facebook": "None", "youtube": "None", "website": "None", "summary": "None", "logo": "None", "latitude": 46.22071443212558, "longitude": -70.49662118298293}, "892260241RR0001": {"name": "CONGREGATION DES TEMOINS DE JEHOVAH DE LAC-MEGANTIC", "designationCode": "C", "categoryCode": "61", "address": "3060 RUE LAVAL", "city": "LAC-MEGANTIC", "province": "QC", "country": "CA", "postalCode": "G6B1A4", "twitter": "None", "instagram": "None", "facebook": "None", "youtube": "None", "website": "None", "summary": "None", "logo": "None", "latitude": 45.59370251488808, "longitude": -70.91255737047754}, "119288918RR0510": {"name": "CONGREGATION DES TEMOINS DE JEHOVAH DE LAVAL-AUTEUIL (QUEBEC)", "designationCode": "C", "categoryCode": "61", "address": "5365 PARMENTIER", "city": "LAVAL", "province": "QC", "country": "CA", "postalCode": "H7K1X4", "twitter": "None", "instagram": "None", "facebook": "None", "youtube": "None", "website": "None", "summary": "None", "logo": "None", "latitude": 45.62453230558595, "longitude": -73.74754967234126}, "119288918RR0944": {"name": "CONGREGATION DES TEMOINS DE JEHOVAH DE LAVAL-CARTIERVILLE (QUEBEC)", "designationCode": "C", "categoryCode": "61", "address": "3647 NORMANDIN", "city": "LAVAL", "province": "QC", "country": "CA", "postalCode": "H7T2N2", "twitter": "None", "instagram": "None", "facebook": "None", "youtube": "None", "website": "None", "summary": "None", "logo": "None", "latitude": 45.559160883720864, "longitude": -73.76472912949379}, "119288918RR0284": {"name": "CONGREGATION DES TEMOINS DE JEHOVAH DE LAVAL-CENTRE (QUEBEC)", "designationCode": "C", "categoryCode": "61", "address": "1619 AVE MASSENET CHOMEDEY", "city": "LAVAL", "province": "QC", "country": "CA", "postalCode": "H7S1A2", "twitter": "None", "instagram": "None", "facebook": "None", "youtube": "None", "website": "None", "summary": "None", "logo": "None", "latitude": 45.57645540714995, "longitude": -73.73573118927814}, "119288918RR0528": {"name": "CONGREGATION DES TEMOINS DE JEHOVAH DE LAVAL-OUEST (QUEBEC)", "designationCode": "C", "categoryCode": "61", "address": "4891 BOULEVARD STE-ROSE", "city": "LAVAL", "province": "QC", "country": "CA", "postalCode": "H7R2B6", "twitter": "None", "instagram": "None", "facebook": "None", "youtube": "None", "website": "None", "summary": "None", "logo": "None", "latitude": 45.55626705412886, "longitude": -73.86625488164337}, "138449244RR0001": {"name": "CONGREGATION DES TEMOINS DE JEHOVAH DE LAVAL-SAINT-MARTIN", "designationCode": "C", "categoryCode": "61", "address": "2141, RUE HARBOUR", "city": "LAVAL", "province": "QC", "country": "CA", "postalCode": "H7T2M3", "twitter": "None", "instagram": "None", "facebook": "None", "youtube": "None", "website": "None", "summary": "None", "logo": "None", "latitude": 45.552349968924865, "longitude": -73.7781631882972}, "119288918RR0761": {"name": "CONGREGATION DES TEMOINS DE JEHOVAH DE LEVIS-EST (QUEBEC)", "designationCode": "C", "categoryCode": "61", "address": "12, RUE BELLEAU", "city": "LEVIS", "province": "QC", "country": "CA", "postalCode": "G6V4A9", "twitter": "None", "instagram": "None", "facebook": "None", "youtube": "None", "website": "None", "summary": "None", "logo": "None", "latitude": 46.65978608037554, "longitude": -71.29180651065884}, "118988963RR0002": {"name": "CONGREGATION DES TEMOINS DE JEHOVAH DE LEVIS-OUEST", "designationCode": "C", "categoryCode": "61", "address": "5225 LOUIS-H LAFONTAINE", "city": "LEVIS", "province": "QC", "country": "CA", "postalCode": "G6V8X4", "twitter": "None", "instagram": "None", "facebook": "None", "youtube": "None", "website": "None", "summary": "None", "logo": "None", "latitude": 46.780210550377966, "longitude": -71.16516695643138}, "891671042RR0001": {"name": "CONGREGATION DES TEMOINS DE JEHOVAH DE LONGUEUIL-EST (QUEBEC)", "designationCode": "C", "categoryCode": "61", "address": "2510 RUE BERTHON", "city": "LONGUEUIL", "province": "QC", "country": "CA", "postalCode": "J4M1M7", "twitter": "None", "instagram": "None", "facebook": "None", "youtube": "None", "website": "None", "summary": "None", "logo": "None", "latitude": 45.538770080212345, "longitude": -73.45519156844001}, "119288918RR0443": {"name": "CONGREGATION DES TEMOINS DE JEHOVAH DE LONGUEUIL-NORD", "designationCode": "C", "categoryCode": "61", "address": "597 ROUGEMONT", "city": "LONGUEUIL", "province": "QC", "country": "CA", "postalCode": "J4J2B7", "twitter": "None", "instagram": "None", "facebook": "None", "youtube": "None", "website": "None", "summary": "None", "logo": "None", "latitude": 45.53677826172889, "longitude": -73.48137582252285}}