{"107951618RR0171": {"name": "THE SALVATION ARMY KOOTENAY VALLEY COMMUNITY CHURCH", "designationCode": "C", "categoryCode": "40", "address": "533 SLATER RD NW", "city": "CRANBROOK", "province": "BC", "country": "CA", "postalCode": "V1C4Y5", "twitter": "None", "instagram": "None", "facebook": "None", "youtube": "None", "website": "None", "summary": "None", "logo": "None", "latitude": 49.51875720263702, "longitude": -115.76455218379554}, "107951618RR0116": {"name": "THE SALVATION ARMY LA SCIE CORPS", "designationCode": "C", "categoryCode": "40", "address": "PO BOX 54", "city": "LA SCIE", "province": "NL", "country": "CA", "postalCode": "A0K3M0", "twitter": "None", "instagram": "None", "facebook": "None", "youtube": "None", "website": "None", "summary": "None", "logo": "None", "latitude": 49.94995000000006, "longitude": -55.59810999999996}, "107951618RR0444": {"name": "THE SALVATION ARMY LABRADOR CITY/WABUSH CORPS", "designationCode": "C", "categoryCode": "40", "address": "PO BOX 369", "city": "LABRADOR CITY", "province": "NL", "country": "CA", "postalCode": "A2V2K6", "twitter": "None", "instagram": "None", "facebook": "None", "youtube": "None", "website": "None", "summary": "None", "logo": "None"}, "107951618RR0415": {"name": "THE SALVATION ARMY LAKE OF THE WOODS COMMUNITY CHURCH", "designationCode": "C", "categoryCode": "40", "address": "P.O. BOX 1650", "city": "KENORA", "province": "ON", "country": "CA", "postalCode": "P9N3X7", "twitter": "None", "instagram": "None", "facebook": "None", "youtube": "None", "website": "None", "summary": "None", "logo": "None", "latitude": 49.77125700000006, "longitude": -94.48912249999994}, "107951618RR0281": {"name": "THE SALVATION ARMY LAKESHORE COMMUNITY CHURCH", "designationCode": "C", "categoryCode": "40", "address": "5 THIRTIETH STEET", "city": "TORONTO", "province": "ON", "country": "CA", "postalCode": "M8W3B7", "twitter": "None", "instagram": "None", "facebook": "None", "youtube": "None", "website": "None", "summary": "None", "logo": "None", "latitude": 43.59583642612131, "longitude": -79.52992126585251}, "107951618RR0419": {"name": "THE SALVATION ARMY LEAMINGTON CORPS", "designationCode": "C", "categoryCode": "40", "address": "88 SETTERINGTON STREET", "city": "LEAMINGTON", "province": "ON", "country": "CA", "postalCode": "N8H1T6", "twitter": "None", "instagram": "None", "facebook": "None", "youtube": "None", "website": "None", "summary": "None", "logo": "None", "latitude": 42.051302488458816, "longitude": -82.59219355689883}, "107951618RR0101": {"name": "THE SALVATION ARMY LETHBRIDGE CORPS", "designationCode": "C", "categoryCode": "40", "address": "PO BOX 25", "city": "MUSGRAVETOWN", "province": "NL", "country": "CA", "postalCode": "A0C1Z0", "twitter": "None", "instagram": "None", "facebook": "None", "youtube": "None", "website": "None", "summary": "None", "logo": "None", "latitude": 48.42187000000007, "longitude": -53.86576999999994}, "107951618RR0445": {"name": "THE SALVATION ARMY LEWISPORTE CORPS", "designationCode": "C", "categoryCode": "40", "address": "PO BOX 1540", "city": "LEWISPORTE", "province": "NL", "country": "CA", "postalCode": "A0G3A0", "twitter": "None", "instagram": "None", "facebook": "None", "youtube": "None", "website": "None", "summary": "None", "logo": "None", "latitude": 49.24179000000004, "longitude": -55.05992999999995}, "107951618RR0249": {"name": "THE SALVATION ARMY LINDSAY CORPS", "designationCode": "C", "categoryCode": "40", "address": "51 EGLINGTON ST.", "city": "LINDSAY", "province": "ON", "country": "CA", "postalCode": "K9V3Z5", "twitter": "None", "instagram": "None", "facebook": "None", "youtube": "None", "website": "None", "summary": "None", "logo": "None", "latitude": 44.36766515325351, "longitude": -78.74290299518043}, "107951618RR0243": {"name": "THE SALVATION ARMY LISTOWEL CORPS", "designationCode": "C", "categoryCode": "40", "address": "625 MAIN ST E", "city": "LISTOWEL", "province": "ON", "country": "CA", "postalCode": "N4W2C8", "twitter": "None", "instagram": "None", "facebook": "None", "youtube": "None", "website": "None", "summary": "None", "logo": "None", "latitude": 43.728480993832285, "longitude": -80.94543917843853}, "107951618RR0446": {"name": "THE SALVATION ARMY LITTLE BAY ISLANDS CORPS", "designationCode": "C", "categoryCode": "40", "address": "P.O. BOX 127", "city": "SPRINGDALE", "province": "NL", "country": "CA", "postalCode": "A0J1T0", "twitter": "None", "instagram": "None", "facebook": "None", "youtube": "None", "website": "None", "summary": "None", "logo": "None", "latitude": 49.497243000000054, "longitude": -56.07671299999993}, "107951618RR0100": {"name": "THE SALVATION ARMY LITTLE HEART'S EASE CORPS", "designationCode": "C", "categoryCode": "40", "address": "P.O. BOX 70", "city": "LITTLE HEART'S EASE", "province": "NL", "country": "CA", "postalCode": "A0E2K0", "twitter": "None", "instagram": "None", "facebook": "None", "youtube": "None", "website": "None", "summary": "None", "logo": "None", "latitude": 48.00707700000005, "longitude": -53.69356249999993}, "107951618RR0206": {"name": "THE SALVATION ARMY LIVERPOOL COMMUNITY CHURCH", "designationCode": "C", "categoryCode": "40", "address": "P.O. BOX 512", "city": "LIVER POOL", "province": "NS", "country": "CA", "postalCode": "B0T1K0", "twitter": "None", "instagram": "None", "facebook": "None", "youtube": "None", "website": "None", "summary": "None", "logo": "None", "latitude": 44.02488300000006, "longitude": -64.72179349999993}, "107951618RR0219": {"name": "THE SALVATION ARMY LLOYDMINSTER CORPS", "designationCode": "C", "categoryCode": "40", "address": "2302 53 AVE", "city": "LLOYDMINSTER", "province": "AB", "country": "CA", "postalCode": "T9V2P9", "twitter": "None", "instagram": "None", "facebook": "None", "youtube": "None", "website": "None", "summary": "None", "logo": "None", "latitude": 53.25769741326678, "longitude": -110.01575888565408}, "107951618RR0513": {"name": "THE SALVATION ARMY LONDON CENTRE OF HOPE", "designationCode": "C", "categoryCode": "01", "address": "281 WELLINGTON STREET", "city": "LONDON", "province": "ON", "country": "CA", "postalCode": "N6B2L4", "twitter": "None", "instagram": "None", "facebook": "None", "youtube": "None", "website": "None", "summary": "None", "logo": "None", "latitude": 42.981217545357644, "longitude": -81.24372371207205}, "107951618RR0270": {"name": "THE SALVATION ARMY LONDON CITADEL CORPS", "designationCode": "C", "categoryCode": "40", "address": "555 SPRINGBANK DR", "city": "LONDON", "province": "ON", "country": "CA", "postalCode": "N6J1H3", "twitter": "None", "instagram": "None", "facebook": "None", "youtube": "None", "website": "None", "summary": "None", "logo": "None", "latitude": 42.96446879188038, "longitude": -81.29131642371145}, "107951618RR0237": {"name": "THE SALVATION ARMY LONDON HILLCREST COMMUNITY CHURCH", "designationCode": "C", "categoryCode": "40", "address": "310 VESTA RD", "city": "LONDON", "province": "ON", "country": "CA", "postalCode": "N5Y5J1", "twitter": "None", "instagram": "None", "facebook": "None", "youtube": "None", "website": "None", "summary": "None", "logo": "None", "latitude": 43.01908468056423, "longitude": -81.22012009709192}, "107951618RR0018": {"name": "THE SALVATION ARMY LONDON VILLAGE", "designationCode": "C", "categoryCode": "01", "address": "1340 DUNDAS ST. E", "city": "LONDON", "province": "ON", "country": "CA", "postalCode": "N5W3B6", "twitter": "None", "instagram": "None", "facebook": "None", "youtube": "None", "website": "None", "summary": "None", "logo": "None", "latitude": 42.99722683377558, "longitude": -81.20263947781164}, "107951618RR0424": {"name": "THE SALVATION ARMY LONDON WESTMINSTER PARK CORPS", "designationCode": "C", "categoryCode": "40", "address": "1190 SOUTHDALE RD E", "city": "LONDON", "province": "ON", "country": "CA", "postalCode": "N6E1B2", "twitter": "None", "instagram": "None", "facebook": "None", "youtube": "None", "website": "None", "summary": "None", "logo": "None", "latitude": 42.94530339165535, "longitude": -81.20513252567945}, "107951618RR0044": {"name": "THE SALVATION ARMY LONG ISLAND CORPS", "designationCode": "C", "categoryCode": "40", "address": "P.O. BOX 40", "city": "PILLEY'S ISLAND", "province": "NL", "country": "CA", "postalCode": "A0J1M0", "twitter": "None", "instagram": "None", "facebook": "None", "youtube": "None", "website": "None", "summary": "None", "logo": "None", "latitude": 49.48513633811197, "longitude": -55.753572249395376}, "107951618RR0433": {"name": "THE SALVATION ARMY LOWER ISLAND COVE CORPS", "designationCode": "C", "categoryCode": "40", "address": "P.O. BOX 55", "city": "LOWER ISLAND COVE", "province": "NL", "country": "CA", "postalCode": "A0A2W0", "twitter": "None", "instagram": "None", "facebook": "None", "youtube": "None", "website": "None", "summary": "None", "logo": "None", "latitude": 48.00192900000006, "longitude": -52.98823249999994}, "107951618RR0327": {"name": "THE SALVATION ARMY LOWER TRINITY CORPS", "designationCode": "C", "categoryCode": "40", "address": "P.O. BOX 29", "city": "HANT'S HARBOUR", "province": "NL", "country": "CA", "postalCode": "A0B1Y0", "twitter": "None", "instagram": "None", "facebook": "None", "youtube": "None", "website": "None", "summary": "None", "logo": "None", "latitude": 48.006789000000055, "longitude": -53.26317349999994}, "107951618RR0149": {"name": "THE SALVATION ARMY MANITOBA AND NORTHWEST ONTARIO DIVISION", "designationCode": "C", "categoryCode": "40", "address": "SUITE 203 290 VAUGHAN STREET", "city": "WINNIPEG", "province": "MB", "country": "CA", "postalCode": "R3B2N8", "twitter": "None", "instagram": "None", "facebook": "None", "youtube": "None", "website": "None", "summary": "None", "logo": "None", "latitude": 49.89213657034461, "longitude": -97.15000474360855}, "107951618RR0388": {"name": "THE SALVATION ARMY MAPLE CREEK-A PLACE OF CHRISTIAN WORSHIP AND SERVICE", "designationCode": "C", "categoryCode": "40", "address": "BOX 216", "city": "MAPLE CREEK", "province": "SK", "country": "CA", "postalCode": "S0N1N0", "twitter": "None", "instagram": "None", "facebook": "None", "youtube": "None", "website": "None", "summary": "None", "logo": "None", "latitude": 49.91416000000004, "longitude": -109.46959999999996}, "107951618RR0453": {"name": "THE SALVATION ARMY MARITIME DIVISION", "designationCode": "C", "categoryCode": "40", "address": "330 HERRING COVE RD", "city": "HALIFAX", "province": "NS", "country": "CA", "postalCode": "B3R1V4", "twitter": "None", "instagram": "None", "facebook": "None", "youtube": "None", "website": "None", "summary": "None", "logo": "None", "latitude": 44.61375436689953, "longitude": -63.61657768702778}, "107951618RR0222": {"name": "THE SALVATION ARMY MEADOW LAKE CORPS", "designationCode": "C", "categoryCode": "40", "address": "212-2ND ST W", "city": "MEADOW LAKE", "province": "SK", "country": "CA", "postalCode": "S9X1C7", "twitter": "None", "instagram": "None", "facebook": "None", "youtube": "None", "website": "None", "summary": "None", "logo": "None", "latitude": 54.13147005339964, "longitude": -108.43624476213797}, "107951618RR0261": {"name": "THE SALVATION ARMY MEADOWLANDS (HAMILTON)", "designationCode": "C", "categoryCode": "40", "address": "187 STONE CHURCH RD", "city": "ANCASTER", "province": "ON", "country": "CA", "postalCode": "L9K0A3", "twitter": "None", "instagram": "None", "facebook": "None", "youtube": "None", "website": "None", "summary": "None", "logo": "None", "latitude": 43.224471333631364, "longitude": -79.93467444460173}, "107951618RR0136": {"name": "THE SALVATION ARMY MEDICINE HAT COMMUNITY CHURCH", "designationCode": "C", "categoryCode": "40", "address": "164 STRATTON WAY SE", "city": "MEDICINE HAT", "province": "AB", "country": "CA", "postalCode": "T1B3R3", "twitter": "None", "instagram": "None", "facebook": "None", "youtube": "None", "website": "None", "summary": "None", "logo": "None", "latitude": 50.002695335276144, "longitude": -110.68068275160132}, "107951618RR0355": {"name": "THE SALVATION ARMY MEIGHEN HEALTH CENTRE", "designationCode": "C", "categoryCode": "01", "address": "155 MILLWOOD ROAD", "city": "TORONTO", "province": "ON", "country": "CA", "postalCode": "M4S1J6", "twitter": "None", "instagram": "None", "facebook": "None", "youtube": "None", "website": "None", "summary": "None", "logo": "None", "latitude": 43.70017984205679, "longitude": -79.39258540576495}, "107951618RR0177": {"name": "THE SALVATION ARMY METROTOWN CITADEL CORPS", "designationCode": "C", "categoryCode": "40", "address": "6125 NELSON AVE", "city": "BURNABY", "province": "BC", "country": "CA", "postalCode": "V5H3J1", "twitter": "None", "instagram": "None", "facebook": "None", "youtube": "None", "website": "None", "summary": "None", "logo": "None", "latitude": 49.22865861226845, "longitude": -122.99424457441263}, "107951618RR0284": {"name": "THE SALVATION ARMY MIDLAND CORPS", "designationCode": "C", "categoryCode": "40", "address": "P.O. BOX 266", "city": "MIDLAND", "province": "ON", "country": "CA", "postalCode": "L4R4K8", "twitter": "None", "instagram": "None", "facebook": "None", "youtube": "None", "website": "None", "summary": "None", "logo": "None", "latitude": 44.74989600000005, "longitude": -79.88850349999993}, "107951618RR0346": {"name": "THE SALVATION ARMY MILTON KHI - A COMMUNITY CHURCH", "designationCode": "C", "categoryCode": "09", "address": "820 NIPISSING RD", "city": "MILTON", "province": "ON", "country": "CA", "postalCode": "L9T4Z9", "twitter": "None", "instagram": "None", "facebook": "None", "youtube": "None", "website": "None", "summary": "None", "logo": "None", "latitude": 43.522306084078835, "longitude": -79.86498110626718}, "107951618RR0053": {"name": "THE SALVATION ARMY MING'S BIGHT CORPS", "designationCode": "C", "categoryCode": "40", "address": "PO BOX 17", "city": "WOODSTOCK", "province": "NL", "country": "CA", "postalCode": "A0K5X0", "twitter": "None", "instagram": "None", "facebook": "None", "youtube": "None", "website": "None", "summary": "None", "logo": "None", "latitude": 49.942005355170934, "longitude": -55.93114739649044}, "107951618RR0341": {"name": "THE SALVATION ARMY MISSISSAUGA TEMPLE CORPS", "designationCode": "C", "categoryCode": "40", "address": "3173 CAWTHRA ROAD", "city": "MISSISSAUGA", "province": "ON", "country": "CA", "postalCode": "L5A2X4", "twitter": "None", "instagram": "None", "facebook": "None", "youtube": "None", "website": "None", "summary": "None", "logo": "None", "latitude": 43.59808146909774, "longitude": -79.60477554948392}, "107951618RR0190": {"name": "THE SALVATION ARMY MONCTON CITADEL COMMUNITY CHURCH", "designationCode": "C", "categoryCode": "40", "address": "20 CENTENNIAL DR", "city": "MONCTON", "province": "NB", "country": "CA", "postalCode": "E1E4E4", "twitter": "None", "instagram": "None", "facebook": "None", "youtube": "None", "website": "None", "summary": "None", "logo": "None", "latitude": 46.08343915292288, "longitude": -64.82123486834183}, "107951618RR0055": {"name": "THE SALVATION ARMY MONKSTOWN CORPS", "designationCode": "C", "categoryCode": "40", "address": "MAIN ROAD                     GENERAL DELIVERY", "city": "MONKSTOWN", "province": "NL", "country": "CA", "postalCode": "A0E2Z0", "twitter": "None", "instagram": "None", "facebook": "None", "youtube": "None", "website": "None", "summary": "None", "logo": "None", "latitude": 47.60938500000006, "longitude": -54.40647049999993}, "107951618RR0554": {"name": "THE SALVATION ARMY MONTREAL CATHERINE BOOTH HOSPITAL AUXILIARY", "designationCode": "C", "categoryCode": "99", "address": "4375 MONTCLAIR AVE", "city": "MONTREAL", "province": "QC", "country": "CA", "postalCode": "H4B2J5", "twitter": "None", "instagram": "None", "facebook": "None", "youtube": "None", "website": "None", "summary": "None", "logo": "None", "latitude": 45.463955498499466, "longitude": -73.63644324796599}, "107951618RR0028": {"name": "THE SALVATION ARMY MONTREAL CITADEL CORPS", "designationCode": "C", "categoryCode": "40", "address": "6620 BOUL MONK", "city": "MONTREAL", "province": "QC", "country": "CA", "postalCode": "H4E3J1", "twitter": "None", "instagram": "None", "facebook": "None", "youtube": "None", "website": "None", "summary": "None", "logo": "None", "latitude": 45.45267317790984, "longitude": -73.5937880570144}, "107951618RR0030": {"name": "THE SALVATION ARMY MONTREAL MONTCLAIR RESIDENCE", "designationCode": "C", "categoryCode": "01", "address": "4413 AV MONTCLAIR", "city": "MONTREAL", "province": "QC", "country": "CA", "postalCode": "H4B2J4", "twitter": "None", "instagram": "None", "facebook": "None", "youtube": "None", "website": "None", "summary": "None", "logo": "None", "latitude": 45.463955498499466, "longitude": -73.63644324796599}, "107951618RR0225": {"name": "THE SALVATION ARMY MOOSE JAW CORPS", "designationCode": "C", "categoryCode": "40", "address": "175 1ST AVE NE", "city": "MOOSE JAW", "province": "SK", "country": "CA", "postalCode": "S6H0Y9", "twitter": "None", "instagram": "None", "facebook": "None", "youtube": "None", "website": "None", "summary": "None", "logo": "None", "latitude": 50.391325316274596, "longitude": -105.53194472568427}, "107951618RR0094": {"name": "THE SALVATION ARMY MOUNT ARROWSMITH CORPS", "designationCode": "C", "categoryCode": "40", "address": "116 - 280 MIDPARK WAY SE", "city": "CALGARY", "province": "AB", "country": "CA", "postalCode": "T2X1J6", "twitter": "None", "instagram": "None", "facebook": "None", "youtube": "None", "website": "None", "summary": "None", "logo": "None", "latitude": 50.910016432136906, "longitude": -114.06351266154988}, "107951618RR0457": {"name": "THE SALVATION ARMY MOUNT PEARL CORPS", "designationCode": "C", "categoryCode": "40", "address": "P.O. BOX 474", "city": "MOUNT PEARL", "province": "NL", "country": "CA", "postalCode": "A1N2C4", "twitter": "None", "instagram": "None", "facebook": "None", "youtube": "None", "website": "None", "summary": "None", "logo": "None", "latitude": 47.51892600000005, "longitude": -52.81489249999993}, "107951618RR0407": {"name": "THE SALVATION ARMY MOUNTAIN CITADEL CORPS", "designationCode": "C", "categoryCode": "40", "address": "835 STONE CHURCH RD. E", "city": "HAMILTON", "province": "ON", "country": "CA", "postalCode": "L8W1R8", "twitter": "None", "instagram": "None", "facebook": "None", "youtube": "None", "website": "None", "summary": "None", "logo": "None", "latitude": 43.20191906027438, "longitude": -79.85225529390054}, "107951618RR0070": {"name": "THE SALVATION ARMY MUSGRAVE HARBOUR CORPS", "designationCode": "C", "categoryCode": "40", "address": "P.O. BOX 39", "city": "MUSGRAVE HARBOUR", "province": "NL", "country": "CA", "postalCode": "A0G3J0", "twitter": "None", "instagram": "None", "facebook": "None", "youtube": "None", "website": "None", "summary": "None", "logo": "None", "latitude": 49.44767000000007, "longitude": -53.96426999999994}, "107951618RR0312": {"name": "THE SALVATION ARMY NANAIMO COMMUNITY CHURCH", "designationCode": "C", "categoryCode": "40", "address": "505 EIGHTH ST", "city": "NANAIMO", "province": "BC", "country": "CA", "postalCode": "V9R1B5", "twitter": "None", "instagram": "None", "facebook": "None", "youtube": "None", "website": "None", "summary": "None", "logo": "None", "latitude": 49.14372850115479, "longitude": -123.95253324424374}, "107951618RR0370": {"name": "THE SALVATION ARMY NELSON COMMUNITY CHURCH", "designationCode": "C", "categoryCode": "40", "address": "PO BOX 329 STN MAIN", "city": "NELSON", "province": "BC", "country": "CA", "postalCode": "V1L5R2", "twitter": "None", "instagram": "None", "facebook": "None", "youtube": "None", "website": "None", "summary": "None", "logo": "None", "latitude": 49.49754900000005, "longitude": -117.28882249999992}, "107951618RR0293": {"name": "THE SALVATION ARMY NEW DIRECTIONS (KITCHENER)", "designationCode": "C", "categoryCode": "01", "address": "1-657 KING ST E", "city": "KITCHENER", "province": "ON", "country": "CA", "postalCode": "N2G2M4", "twitter": "None", "instagram": "None", "facebook": "None", "youtube": "None", "website": "None", "summary": "None", "logo": "None", "latitude": 43.444957895060476, "longitude": -80.47852492120128}, "107951618RR0364": {"name": "THE SALVATION ARMY NEW HOPE (ORANGEVILLE) COMMUNITY CHURCH", "designationCode": "C", "categoryCode": "40", "address": "P.O. BOX 114", "city": "ORANGEVILLE", "province": "ON", "country": "CA", "postalCode": "L9W2Z5", "twitter": "None", "instagram": "None", "facebook": "None", "youtube": "None", "website": "None", "summary": "None", "logo": "None", "latitude": 43.92016800000006, "longitude": -80.09314999999994}, "107951618RR0532": {"name": "THE SALVATION ARMY NEW HOPE COMMUNITY CHURCH", "designationCode": "C", "categoryCode": "09", "address": "P.O. BOX 505", "city": "SALMOM ARM", "province": "BC", "country": "CA", "postalCode": "V1E1H6", "twitter": "None", "instagram": "None", "facebook": "None", "youtube": "None", "website": "None", "summary": "None", "logo": "None", "latitude": 50.70018300000005, "longitude": -119.28192199999994}, "107951618RR0163": {"name": "THE SALVATION ARMY NEW WESTMINSTER BUCHANAN LODGE", "designationCode": "C", "categoryCode": "01", "address": "409 BLAIR AVE", "city": "NEW WESTMINSTER", "province": "BC", "country": "CA", "postalCode": "V3L4A4", "twitter": "None", "instagram": "None", "facebook": "None", "youtube": "None", "website": "None", "summary": "None", "logo": "None", "latitude": 49.22872183236194, "longitude": -122.89736206056283}, "107951618RR0164": {"name": "THE SALVATION ARMY NEW WESTMINSTER CITADEL CORPS", "designationCode": "C", "categoryCode": "40", "address": "325 SIXTH ST", "city": "NEW WESTMINSTER", "province": "BC", "country": "CA", "postalCode": "V3L3A9", "twitter": "None", "instagram": "None", "facebook": "None", "youtube": "None", "website": "None", "summary": "None", "logo": "None", "latitude": 49.20955285612037, "longitude": -122.91569889433208}, "107951618RR0105": {"name": "THE SALVATION ARMY NEW WORLD ISLAND WEST CORPS", "designationCode": "C", "categoryCode": "40", "address": "MAIN STREET                   P.O. BOX 84", "city": "SUMMERFORD", "province": "NL", "country": "CA", "postalCode": "A0G4E0", "twitter": "None", "instagram": "None", "facebook": "None", "youtube": "None", "website": "None", "summary": "None", "logo": "None", "latitude": 49.48984546325312, "longitude": -54.80701299339261}, "107951618RR0107": {"name": "THE SALVATION ARMY NEW-WES-VALLEY CORPS", "designationCode": "C", "categoryCode": "40", "address": "P.O. BOX 9", "city": "WESLEYVILLE", "province": "NL", "country": "CA", "postalCode": "A0G4R0", "twitter": "None", "instagram": "None", "facebook": "None", "youtube": "None", "website": "None", "summary": "None", "logo": "None", "latitude": 49.17291000000006, "longitude": -53.55720999999994}, "107951618RR0060": {"name": "THE SALVATION ARMY NEWFOUNDLAND & LABRADOR DIVISION", "designationCode": "C", "categoryCode": "40", "address": "21 ADAM'S AVENUE", "city": "ST. JOHN'S", "province": "NL", "country": "CA", "postalCode": "A1C4Z1", "twitter": "None", "instagram": "None", "facebook": "None", "youtube": "None", "website": "None", "summary": "None", "logo": "None", "latitude": 47.56165289229053, "longitude": -52.72371247991778}, "107951618RR0019": {"name": "THE SALVATION ARMY NIAGARA FALLS HONOURABLE RAY & HELEN LAWSON EVENTIDE HOME", "designationCode": "C", "categoryCode": "01", "address": "5050 JEPSON ST", "city": "NIAGARA FALLS", "province": "ON", "country": "CA", "postalCode": "L2E1K5", "twitter": "None", "instagram": "None", "facebook": "None", "youtube": "None", "website": "None", "summary": "None", "logo": "None", "latitude": 43.100337556697276, "longitude": -79.07778339494492}, "107951618RR0269": {"name": "THE SALVATION ARMY NIAGARA ORCHARD COMMUNITY CHURCH", "designationCode": "C", "categoryCode": "40", "address": "5720 DORCHESTER RD", "city": "NIAGARA FALLS", "province": "ON", "country": "CA", "postalCode": "L2G5S3", "twitter": "None", "instagram": "None", "facebook": "None", "youtube": "None", "website": "None", "summary": "None", "logo": "None", "latitude": 43.09128019900169, "longitude": -79.11059643349321}, "107951618RR0110": {"name": "THE SALVATION ARMY NORRIS ARM CORPS", "designationCode": "C", "categoryCode": "40", "address": "P.O. BOX 9                    86 GILLINGHAM AVENUE", "city": "NORRIS ARM", "province": "NL", "country": "CA", "postalCode": "A0G3M0", "twitter": "None", "instagram": "None", "facebook": "None", "youtube": "None", "website": "None", "summary": "None", "logo": "None", "latitude": 49.08822687719224, "longitude": -55.26316569561767}, "107951618RR0255": {"name": "THE SALVATION ARMY NORTH BAY CORPS", "designationCode": "C", "categoryCode": "40", "address": "P.O. BOX 56", "city": "NORTH BAY", "province": "ON", "country": "CA", "postalCode": "P1B8G8", "twitter": "None", "instagram": "None", "facebook": "None", "youtube": "None", "website": "None", "summary": "None", "logo": "None", "latitude": 46.30661700000006, "longitude": -79.45993249999994}, "107951618RR0264": {"name": "THE SALVATION ARMY NORTH TORONTO COMMUNITY CHURCH", "designationCode": "C", "categoryCode": "40", "address": "817 MOUNT PLEASANT RD", "city": "TORONTO", "province": "ON", "country": "CA", "postalCode": "M4P2L1", "twitter": "None", "instagram": "None", "facebook": "None", "youtube": "None", "website": "None", "summary": "None", "logo": "None", "latitude": 43.70931714516125, "longitude": -79.39046761001808}, "107951618RR0117": {"name": "THE SALVATION ARMY NORTH VANCOUVER CORPS", "designationCode": "C", "categoryCode": "40", "address": "105 12TH ST W", "city": "NORTH VANCOUVER", "province": "BC", "country": "CA", "postalCode": "V7M1N2", "twitter": "None", "instagram": "None", "facebook": "None", "youtube": "None", "website": "None", "summary": "None", "logo": "None", "latitude": 49.31886950184444, "longitude": -123.07268175849335}, "107951618RR0012": {"name": "THE SALVATION ARMY NORTH YORK TEMPLE CORPS", "designationCode": "C", "categoryCode": "40", "address": "25 CENTRE AVE", "city": "NORTH YORK", "province": "ON", "country": "CA", "postalCode": "M2M2L4", "twitter": "None", "instagram": "None", "facebook": "None", "youtube": "None", "website": "None", "summary": "None", "logo": "None", "latitude": 43.792079838161655, "longitude": -79.41605671980503}, "107951618RR0323": {"name": "THE SALVATION ARMY OAKVILLE COMMUNITY CHURCH", "designationCode": "C", "categoryCode": "40", "address": "1225 REBECCA ST", "city": "OAKVILLE", "province": "ON", "country": "CA", "postalCode": "L6L1Z1", "twitter": "None", "instagram": "None", "facebook": "None", "youtube": "None", "website": "None", "summary": "None", "logo": "None", "latitude": 43.41887171163938, "longitude": -79.69726179061098}, "107951618RR0121": {"name": "THE SALVATION ARMY OCEAN CREST CORPS", "designationCode": "C", "categoryCode": "40", "address": "291 MCLEAN ST", "city": "CAMPBELL RIVER", "province": "BC", "country": "CA", "postalCode": "V9W2M4", "twitter": "None", "instagram": "None", "facebook": "None", "youtube": "None", "website": "None", "summary": "None", "logo": "None", "latitude": 50.01237883236195, "longitude": -125.23790778114726}, "107951618RR0451": {"name": "THE SALVATION ARMY ONTARIO CENTRAL DIVISION", "designationCode": "C", "categoryCode": "40", "address": "1645 WARDEN AVE", "city": "SCARBOROUGH", "province": "ON", "country": "CA", "postalCode": "M1R5B3", "twitter": "None", "instagram": "None", "facebook": "None", "youtube": "None", "website": "None", "summary": "None", "logo": "None", "latitude": 43.7675181221362, "longitude": -79.3029403599173}, "107951618RR0307": {"name": "THE SALVATION ARMY ONTARIO GREAT LAKES DIVISION", "designationCode": "C", "categoryCode": "40", "address": "371 KING ST", "city": "LONDON", "province": "ON", "country": "CA", "postalCode": "N6B1S4", "twitter": "None", "instagram": "None", "facebook": "None", "youtube": "None", "website": "None", "summary": "None", "logo": "None", "latitude": 42.98484704965682, "longitude": -81.24053593407014}, "107951618RR0406": {"name": "THE SALVATION ARMY ORILLIA CORPS", "designationCode": "C", "categoryCode": "40", "address": "P.O. BOX 2309", "city": "ORILLIA", "province": "ON", "country": "CA", "postalCode": "L3V6S2", "twitter": "None", "instagram": "None", "facebook": "None", "youtube": "None", "website": "None", "summary": "None", "logo": "None", "latitude": 44.60657100000006, "longitude": -79.41824449999993}, "107951618RR0287": {"name": "THE SALVATION ARMY OSHAWA TEMPLE CORPS", "designationCode": "C", "categoryCode": "40", "address": "570 THORNTON RD N", "city": "OSHAWA", "province": "ON", "country": "CA", "postalCode": "L1J6T6", "twitter": "None", "instagram": "None", "facebook": "None", "youtube": "None", "website": "None", "summary": "None", "logo": "None", "latitude": 43.90699732984751, "longitude": -78.90036212011923}, "107951618RR0396": {"name": "THE SALVATION ARMY OTTAWA BETHANY HOPE CENTRE", "designationCode": "C", "categoryCode": "01", "address": "820 WOODROFFE AVE", "city": "OTTAWA", "province": "ON", "country": "CA", "postalCode": "K2A3V7", "twitter": "None", "instagram": "None", "facebook": "None", "youtube": "None", "website": "None", "summary": "None", "logo": "None", "latitude": 45.368365736597696, "longitude": -75.77235400406802}, "107951618RR0299": {"name": "THE SALVATION ARMY OTTAWA BOOTH CENTRE", "designationCode": "C", "categoryCode": "01", "address": "171 GEORGE STREET", "city": "OTTAWA", "province": "ON", "country": "CA", "postalCode": "K1N5W5", "twitter": "None", "instagram": "None", "facebook": "None", "youtube": "None", "website": "None", "summary": "None", "logo": "None", "latitude": 45.42844067003267, "longitude": -75.68882219804938}, "107951618RR0363": {"name": "THE SALVATION ARMY OTTAWA CITADEL CORPS", "designationCode": "C", "categoryCode": "40", "address": "1350 WALKLEY RD", "city": "OTTAWA", "province": "ON", "country": "CA", "postalCode": "K1V6P6", "twitter": "None", "instagram": "None", "facebook": "None", "youtube": "None", "website": "None", "summary": "None", "logo": "None", "latitude": 45.37277757089287, "longitude": -75.65734189826314}, "107951618RR0537": {"name": "THE SALVATION ARMY OTTAWA GRACE MANOR", "designationCode": "C", "categoryCode": "01", "address": "1156 WELLINGTON ST", "city": "OTTAWA", "province": "ON", "country": "CA", "postalCode": "K1Y2Z3", "twitter": "None", "instagram": "None", "facebook": "None", "youtube": "None", "website": "None", "summary": "None", "logo": "None", "latitude": 45.40133320869653, "longitude": -75.72761681138569}, "107951618RR0465": {"name": "THE SALVATION ARMY OWEN SOUND CORPS", "designationCode": "C", "categoryCode": "40", "address": "P.O. BOX 395", "city": "OWEN SOUND", "province": "ON", "country": "CA", "postalCode": "N4K5P7", "twitter": "None", "instagram": "None", "facebook": "None", "youtube": "None", "website": "None", "summary": "None", "logo": "None", "latitude": 44.56423500000005, "longitude": -80.94243049999993}, "107951618RR0579": {"name": "THE SALVATION ARMY PARADISE CHURCH PLANT", "designationCode": "C", "categoryCode": "40", "address": "7 FAIRLANE STREET", "city": "PARADISE", "province": "NL", "country": "CA", "postalCode": "A1L1J6", "twitter": "None", "instagram": "None", "facebook": "None", "youtube": "None", "website": "None", "summary": "None", "logo": "None", "latitude": 47.55575722009348, "longitude": -52.89177503231589}, "107951618RR0108": {"name": "THE SALVATION ARMY PARK STREET CITADEL CORPS", "designationCode": "C", "categoryCode": "40", "address": "27 PARK ST", "city": "GRAND FALLS-WINDSOR", "province": "NL", "country": "CA", "postalCode": "A2B1C7", "twitter": "None", "instagram": "None", "facebook": "None", "youtube": "None", "website": "None", "summary": "None", "logo": "None", "latitude": 48.95647423890687, "longitude": -55.6661285207745}, "107951618RR0057": {"name": "THE SALVATION ARMY PASADENA CORPS", "designationCode": "C", "categoryCode": "40", "address": "20 CHURCH ST", "city": "DEER LAKE", "province": "NL", "country": "CA", "postalCode": "A8A1E1", "twitter": "None", "instagram": "None", "facebook": "None", "youtube": "None", "website": "None", "summary": "None", "logo": "None", "latitude": 49.171937354201795, "longitude": -57.42823996889784}, "107951618RR0138": {"name": "THE SALVATION ARMY PEACE RIVER COMMUNITY CHURCH", "designationCode": "C", "categoryCode": "40", "address": "9710 74 AVE", "city": "PEACE RIVER", "province": "AB", "country": "CA", "postalCode": "T8S1E1", "twitter": "None", "instagram": "None", "facebook": "None", "youtube": "None", "website": "None", "summary": "None", "logo": "None", "latitude": 56.25800016126142, "longitude": -117.29356275491953}, "107951618RR0539": {"name": "THE SALVATION ARMY PEEL REGION RESIDENTIAL SERVICES", "designationCode": "C", "categoryCode": "01", "address": "2500 CAWTHRA ROAD", "city": "MISSISSAUGA", "province": "ON", "country": "CA", "postalCode": "L5A2X3", "twitter": "None", "instagram": "None", "facebook": "None", "youtube": "None", "website": "None", "summary": "None", "logo": "None", "latitude": 43.592835564227755, "longitude": -79.59745098268775}, "107951618RR0377": {"name": "THE SALVATION ARMY PEMBROKE COMMUNITY CHURCH", "designationCode": "C", "categoryCode": "40", "address": "484 PEMBROKE ST W", "city": "PEMBROKE", "province": "ON", "country": "CA", "postalCode": "K8A5N9", "twitter": "None", "instagram": "None", "facebook": "None", "youtube": "None", "website": "None", "summary": "None", "logo": "None", "latitude": 45.824024233920305, "longitude": -77.12528284282789}, "107951618RR0170": {"name": "THE SALVATION ARMY PENTICTON CORPS", "designationCode": "C", "categoryCode": "40", "address": "2399 SOUTH MAIN ST", "city": "PENTICTON", "province": "BC", "country": "CA", "postalCode": "V2A5J1", "twitter": "None", "instagram": "None", "facebook": "None", "youtube": "None", "website": "None", "summary": "None", "logo": "None", "latitude": 49.47160362753189, "longitude": -119.58185929906509}, "107951618RR0260": {"name": "THE SALVATION ARMY PETERBOROUGH TEMPLE CORPS", "designationCode": "C", "categoryCode": "40", "address": "219 SIMCOE ST.", "city": "PETERBOROUGH", "province": "ON", "country": "CA", "postalCode": "K9H2H6", "twitter": "None", "instagram": "None", "facebook": "None", "youtube": "None", "website": "None", "summary": "None", "logo": "None", "latitude": 44.304507525102544, "longitude": -78.3228292754631}, "107951618RR0051": {"name": "THE SALVATION ARMY PETERVIEW CORPS", "designationCode": "C", "categoryCode": "40", "address": "P.O. BOX 29", "city": "PETERVIEW", "province": "NL", "country": "CA", "postalCode": "A0H1Y0", "twitter": "None", "instagram": "None", "facebook": "None", "youtube": "None", "website": "None", "summary": "None", "logo": "None", "latitude": 49.124340000000075, "longitude": -55.34579999999994}, "107951618RR0248": {"name": "THE SALVATION ARMY PICTON CORPS", "designationCode": "C", "categoryCode": "40", "address": "4611 ELIZABETH STREET", "city": "PICTON", "province": "ON", "country": "CA", "postalCode": "K0K2T0", "twitter": "None", "instagram": "None", "facebook": "None", "youtube": "None", "website": "None", "summary": "None", "logo": "None", "latitude": 44.00773156074443, "longitude": -77.14361782775543}, "107951618RR0069": {"name": "THE SALVATION ARMY PILLEY'S ISLAND CORPS", "designationCode": "C", "categoryCode": "40", "address": "P.O. BOX 40", "city": "PILLEY'S ISLAND", "province": "NL", "country": "CA", "postalCode": "A0J1M0", "twitter": "None", "instagram": "None", "facebook": "None", "youtube": "None", "website": "None", "summary": "None", "logo": "None", "latitude": 49.48513633811197, "longitude": -55.753572249395376}, "107951618RR0530": {"name": "THE SALVATION ARMY PINE LAKE CAMP", "designationCode": "C", "categoryCode": "01", "address": "9618 - 101A AVE", "city": "EDMONTON", "province": "AB", "country": "CA", "postalCode": "T5H0C7", "twitter": "None", "instagram": "None", "facebook": "None", "youtube": "None", "website": "None", "summary": "None", "logo": "None", "latitude": 53.54365034722136, "longitude": -113.48311703733621}, "107951618RR0068": {"name": "THE SALVATION ARMY POINT LEAMINGTON CORPS", "designationCode": "C", "categoryCode": "40", "address": "P.O. BOX 40", "city": "POINT LEAMINGTON", "province": "NL", "country": "CA", "postalCode": "A0H1Z0", "twitter": "None", "instagram": "None", "facebook": "None", "youtube": "None", "website": "None", "summary": "None", "logo": "None", "latitude": 49.34083430999183, "longitude": -55.40383605273618}, "107951618RR0007": {"name": "THE SALVATION ARMY PORTAGE LA PRAIRIE CORPS", "designationCode": "C", "categoryCode": "40", "address": "P.O. BOX 476", "city": "PORTAGE LA PRAIRIE", "province": "MB", "country": "CA", "postalCode": "R1N3B7", "twitter": "None", "instagram": "None", "facebook": "None", "youtube": "None", "website": "None", "summary": "None", "logo": "None", "latitude": 49.97301900000005, "longitude": -98.29058299999993}, "107951618RR0372": {"name": "THE SALVATION ARMY POWELL RIVER CORPS", "designationCode": "C", "categoryCode": "40", "address": "4500 JOYCE AVE", "city": "POWELL RIVER", "province": "BC", "country": "CA", "postalCode": "V8A3A6", "twitter": "None", "instagram": "None", "facebook": "None", "youtube": "None", "website": "None", "summary": "None", "logo": "None", "latitude": 49.83709906001458, "longitude": -124.52070941877804}, "107951618RR0172": {"name": "THE SALVATION ARMY PRINCE GEORGE COMMUNITY CHURCH", "designationCode": "C", "categoryCode": "40", "address": "777 OSPIKA BLVD S", "city": "PRINCE GEORGE", "province": "BC", "country": "CA", "postalCode": "V2M3R5", "twitter": "None", "instagram": "None", "facebook": "None", "youtube": "None", "website": "None", "summary": "None", "logo": "None", "latitude": 53.91787550236593, "longitude": -122.7953169763111}, "107951618RR0374": {"name": "THE SALVATION ARMY PRINCE RUPERT COMMUNITY CHURCH", "designationCode": "C", "categoryCode": "40", "address": "25 GRENVILLE CRT", "city": "PRINCE RUPERT", "province": "BC", "country": "CA", "postalCode": "V8J1R3", "twitter": "None", "instagram": "None", "facebook": "None", "youtube": "None", "website": "None", "summary": "None", "logo": "None", "latitude": 54.310463969982194, "longitude": -130.3262199513001}, "107951618RR0560": {"name": "THE SALVATION ARMY QUESNEL CORPS", "designationCode": "C", "categoryCode": "40", "address": "103 - 246 ST LAURENT AVE", "city": "QUESNEL", "province": "BC", "country": "CA", "postalCode": "V2J2C9", "twitter": "None", "instagram": "None", "facebook": "None", "youtube": "None", "website": "None", "summary": "None", "logo": "None", "latitude": 52.97894320125319, "longitude": -122.49619298391853}, "107951618RR0291": {"name": "THE SALVATION ARMY RAINBOW COUNTRY CHURCH", "designationCode": "C", "categoryCode": "40", "address": "61 GIBSON ST", "city": "PARRY SOUND", "province": "ON", "country": "CA", "postalCode": "P2A1X2", "twitter": "None", "instagram": "None", "facebook": "None", "youtube": "None", "website": "None", "summary": "None", "logo": "None", "latitude": 45.34708413044609, "longitude": -80.03496352357332}, "107951618RR0104": {"name": "THE SALVATION ARMY RANDOM ISLAND CORPS", "designationCode": "C", "categoryCode": "40", "address": "277 MARINE DR", "city": "CLARENVILLE", "province": "NL", "country": "CA", "postalCode": "A5A1N1", "twitter": "None", "instagram": "None", "facebook": "None", "youtube": "None", "website": "None", "summary": "None", "logo": "None", "latitude": 48.153413248710386, "longitude": -53.962799303676235}, "107951618RR0391": {"name": "THE SALVATION ARMY RED DEER CHURCH AND COMMUNITY AND FAMILY SERVICES", "designationCode": "C", "categoryCode": "40", "address": "4837 54 ST", "city": "RED DEER", "province": "AB", "country": "CA", "postalCode": "T4N2G5", "twitter": "None", "instagram": "None", "facebook": "None", "youtube": "None", "website": "None", "summary": "None", "logo": "None", "latitude": 52.27273553952926, "longitude": -113.81111180682672}, "107951618RR0397": {"name": "THE SALVATION ARMY REGINA GRACE HAVEN AND GEMMA HOUSE", "designationCode": "C", "categoryCode": "01", "address": "2929  26TH AVENUE", "city": "REGINA", "province": "SK", "country": "CA", "postalCode": "S4S7A7", "twitter": "None", "instagram": "None", "facebook": "None", "youtube": "None", "website": "None", "summary": "None", "logo": "None", "latitude": 50.41709946681872, "longitude": -104.62349152553523}, "107951618RR0401": {"name": "THE SALVATION ARMY REGINA WATERSTON CENTRE", "designationCode": "C", "categoryCode": "01", "address": "1845 OSLER ST", "city": "REGINA", "province": "SK", "country": "CA", "postalCode": "S4P1W1", "twitter": "None", "instagram": "None", "facebook": "None", "youtube": "None", "website": "None", "summary": "None", "logo": "None", "latitude": 50.44938249708582, "longitude": -104.60487035036668}, "107951618RR0232": {"name": "THE SALVATION ARMY REGINA WILLIAM BOOTH SPECIAL CARE HOME", "designationCode": "C", "categoryCode": "01", "address": "50 ANGUS RD", "city": "REGINA", "province": "SK", "country": "CA", "postalCode": "S4R8P6", "twitter": "None", "instagram": "None", "facebook": "None", "youtube": "None", "website": "None", "summary": "None", "logo": "None", "latitude": 50.479658968636386, "longitude": -104.62045512914708}, "107951618RR0518": {"name": "THE SALVATION ARMY RENFREW COMMUNITY CHURCH", "designationCode": "C", "categoryCode": "40", "address": "P.O. BOX 187", "city": "RENFREW", "province": "ON", "country": "CA", "postalCode": "K7V4A3", "twitter": "None", "instagram": "None", "facebook": "None", "youtube": "None", "website": "None", "summary": "None", "logo": "None", "latitude": 45.47460300000006, "longitude": -76.68749149999994}, "107951618RR0176": {"name": "THE SALVATION ARMY RICHMOND CORPS", "designationCode": "C", "categoryCode": "40", "address": "8280 GILBERT RD", "city": "RICHMOND", "province": "BC", "country": "CA", "postalCode": "V7C3W7", "twitter": "None", "instagram": "None", "facebook": "None", "youtube": "None", "website": "None", "summary": "None", "logo": "None", "latitude": 49.152788580904854, "longitude": -123.14778903825984}, "107951618RR0546": {"name": "THE SALVATION ARMY RICHMOND HILL COMMUNITY CHURCH", "designationCode": "C", "categoryCode": "40", "address": "55 NEWKIRK ROAD", "city": "RICHMOND HILL", "province": "ON", "country": "CA", "postalCode": "L4C3G4", "twitter": "None", "instagram": "None", "facebook": "None", "youtube": "None", "website": "None", "summary": "None", "logo": "None", "latitude": 43.879221271452394, "longitude": -79.42638794763148}, "107951618RR0583": {"name": "THE SALVATION ARMY RICHMOND ROTARY HOSPICE", "designationCode": "C", "categoryCode": "01", "address": "6460 NO. 4 RD", "city": "RICHMOND", "province": "BC", "country": "CA", "postalCode": "V6Y2S9", "twitter": "None", "instagram": "None", "facebook": "None", "youtube": "None", "website": "None", "summary": "None", "logo": "None", "latitude": 49.16552324562872, "longitude": -123.11398846107726}}