{"811665942RR0001": {"name": "FACE TO FACE MINISTRIES", "designationCode": "C", "categoryCode": "47", "address": "PO BOX 39089                  RPO LAKEWOOD", "city": "SASKATOON", "province": "SK", "country": "CA", "postalCode": "S7V0A9", "twitter": "None", "instagram": "None", "facebook": "None", "youtube": "None", "website": "None", "summary": "None", "logo": "None", "latitude": 52.07103600000005, "longitude": -106.56540799999993}, "870006350RR0001": {"name": "FADOQ LES JOYEUX RENTIERS DE CLERMONT", "designationCode": "C", "categoryCode": "56", "address": "57 RUE ST-PHILIPPE", "city": "CLERMONT", "province": "QC", "country": "CA", "postalCode": "G4A1A2", "twitter": "None", "instagram": "None", "facebook": "None", "youtube": "None", "website": "None", "summary": "None", "logo": "None", "latitude": 47.69224374883137, "longitude": -70.2235902191412}, "874321979RR0001": {"name": "FAE FOUNDATION OF THE ARMENIANS FROM EGYPT INC./FAE FONDATION DES ARM\u00c9NIANS D'\u00c9GYPTE INC.", "designationCode": "A", "categoryCode": "03", "address": "12320                         BEAUSEJOUR", "city": "MONTREAL", "province": "QC", "country": "CA", "postalCode": "H4K1X5", "twitter": "None", "instagram": "None", "facebook": "None", "youtube": "None", "website": "None", "summary": "None", "logo": "None", "latitude": 45.525158697184, "longitude": -73.73475523731882}, "118910579RR0001": {"name": "FAHRAMET EMPLOYEES' CHARITY CLUB", "designationCode": "C", "categoryCode": "05", "address": "25 COMMERCE ROAD", "city": "ORILLIA", "province": "ON", "country": "CA", "postalCode": "L3V6L6", "twitter": "None", "instagram": "None", "facebook": "None", "youtube": "None", "website": "None", "summary": "None", "logo": "None", "latitude": 44.62806422741909, "longitude": -79.43435944713929}, "889029393RR0001": {"name": "FAI YIAN TONG TEMPLE", "designationCode": "C", "categoryCode": "39", "address": "32 BOULTBEE AVE", "city": "TORONTO", "province": "ON", "country": "CA", "postalCode": "M4J1A8", "twitter": "None", "instagram": "None", "facebook": "None", "youtube": "None", "website": "None", "summary": "None", "logo": "None", "latitude": 43.67248406301567, "longitude": -79.33799999070916}, "890650534RR0001": {"name": "FAIGEN CHARITABLE FOUNDATION", "designationCode": "B", "categoryCode": "03", "address": "318 NORTH TOWER OAKRIDGE CNTR.650 WEST 41 ST AVENUE", "city": "VANCOUVER", "province": "BC", "country": "CA", "postalCode": "V5Z2M9", "twitter": "None", "instagram": "None", "facebook": "None", "youtube": "None", "website": "None", "summary": "None", "logo": "None", "latitude": 49.23354992498187, "longitude": -123.11711003664372}, "857142582RR0001": {"name": "FAIR AID SOCIETY SUPPORTING CONGOLESE HEALTH CARE", "designationCode": "A", "categoryCode": "13", "address": "604 WHEELER ST", "city": "WHITEHORSE", "province": "YT", "country": "CA", "postalCode": "Y1A2P5", "twitter": "None", "instagram": "None", "facebook": "None", "youtube": "None", "website": "None", "summary": "None", "logo": "None", "latitude": 60.72335534722134, "longitude": -135.06516666792652}, "888981990RR0001": {"name": "FAIR HAVEN AMISH MENNONITE CHURCH", "designationCode": "C", "categoryCode": "34", "address": "5638 LINE 60, RR1", "city": "MONKTON", "province": "ON", "country": "CA", "postalCode": "N0K1P0", "twitter": "None", "instagram": "None", "facebook": "None", "youtube": "None", "website": "None", "summary": "None", "logo": "None", "latitude": 43.59739335783704, "longitude": -81.03619262156114}, "890601784RR0001": {"name": "FAIR HAVENS BAPTIST CHURCH", "designationCode": "C", "categoryCode": "31", "address": "467 GEORGE STREET", "city": "SARNIA", "province": "ON", "country": "CA", "postalCode": "N7T4P8", "twitter": "None", "instagram": "None", "facebook": "None", "youtube": "None", "website": "None", "summary": "None", "logo": "None", "latitude": 42.974110246134074, "longitude": -82.39148112195907}, "118792027RR0005": {"name": "FAIR HAVENS BIBLE CONFERENCE", "designationCode": "C", "categoryCode": "47", "address": "B2215 HWY 48 EAST             RR#3", "city": "BEAVERTON", "province": "ON", "country": "CA", "postalCode": "L0K1A0", "twitter": "None", "instagram": "None", "facebook": "None", "youtube": "None", "website": "None", "summary": "None", "logo": "None", "latitude": 44.48096141905789, "longitude": -79.14732341370976}, "862438702RR0001": {"name": "FAIR HAVENS COMMUNITY CHURCH", "designationCode": "C", "categoryCode": "39", "address": "R.R. #3  B2355 HWY 48", "city": "BEAVERTON", "province": "ON", "country": "CA", "postalCode": "L0K1A0", "twitter": "None", "instagram": "None", "facebook": "None", "youtube": "None", "website": "None", "summary": "None", "logo": "None", "latitude": 44.48096141905789, "longitude": -79.14732341370976}, "887777159RR0001": {"name": "FAIRBAIRN FOUNDATION", "designationCode": "B", "categoryCode": "03", "address": "1876 WEST 35TH AVENUE", "city": "VANCOUVER", "province": "BC", "country": "CA", "postalCode": "V6M1H6", "twitter": "None", "instagram": "None", "facebook": "None", "youtube": "None", "website": "None", "summary": "None", "logo": "None", "latitude": 49.23996452120739, "longitude": -123.14797136081135}, "118910595RR0001": {"name": "FAIRBANK UNITED CHURCH", "designationCode": "C", "categoryCode": "44", "address": "2750 DUFFERIN ST", "city": "TORONTO", "province": "ON", "country": "CA", "postalCode": "M6B3R4", "twitter": "None", "instagram": "None", "facebook": "None", "youtube": "None", "website": "None", "summary": "None", "logo": "None", "latitude": 43.70305098750652, "longitude": -79.45228741566136}, "890792047RR0001": {"name": "FAIRBRIDGE ALUMNI BURSARY SOCIETY", "designationCode": "A", "categoryCode": "21", "address": "186 ISLE VIEW DR", "city": "SALT SPRING ISLAND", "province": "BC", "country": "CA", "postalCode": "V8K2G5", "twitter": "None", "instagram": "None", "facebook": "None", "youtube": "None", "website": "None", "summary": "None", "logo": "None", "latitude": 48.82943096259453, "longitude": -123.48245964907811}, "138550066RR0001": {"name": "FAIRBRIDGE CHAPEL HERITAGE SOCIETY", "designationCode": "C", "categoryCode": "52", "address": "4791 FAIRBRIDGE DRIVE", "city": "DUNCAN", "province": "BC", "country": "CA", "postalCode": "V9L6N9", "twitter": "None", "instagram": "None", "facebook": "None", "youtube": "None", "website": "None", "summary": "None", "logo": "None", "latitude": 48.743383496235886, "longitude": -123.69672571956883}, "829450527RR0001": {"name": "FAIRE ENSEMBLE / KHAMTAAR", "designationCode": "C", "categoryCode": "21", "address": "2128 RANG SAINT-JOSEPH", "city": "COWANSVILLE", "province": "QC", "country": "CA", "postalCode": "J2K3G6", "twitter": "None", "instagram": "None", "facebook": "None", "youtube": "None", "website": "None", "summary": "None", "logo": "None", "latitude": 45.2001878170985, "longitude": -72.79967926276714}, "889857934RR0001": {"name": "FAIRFIELD HOMESTEAD HERITAGE ASSOCIATION", "designationCode": "C", "categoryCode": "50", "address": "14 HARCOURT PL", "city": "AMHERSTVIEW", "province": "ON", "country": "CA", "postalCode": "K7N1L5", "twitter": "None", "instagram": "None", "facebook": "None", "youtube": "None", "website": "None", "summary": "None", "logo": "None", "latitude": 44.223740498730585, "longitude": -76.63911085501162}, "118910629RR0001": {"name": "FAIRFIELD UNITED BAPTIST CHURCH", "designationCode": "C", "categoryCode": "31", "address": "1395 ROUTE 111", "city": "FAIRFIELD", "province": "NB", "country": "CA", "postalCode": "E5R1B1", "twitter": "None", "instagram": "None", "facebook": "None", "youtube": "None", "website": "None", "summary": "None", "logo": "None", "latitude": 45.338729133172855, "longitude": -65.68357904426749}, "118910645RR0001": {"name": "FAIRFIELD UNITED CHURCH", "designationCode": "C", "categoryCode": "44", "address": "157 MAPLE AVE SOUTH RR#3", "city": "HARLEY", "province": "ON", "country": "CA", "postalCode": "N0E1E0", "twitter": "None", "instagram": "None", "facebook": "None", "youtube": "None", "website": "None", "summary": "None", "logo": "None", "latitude": 43.04781524883231, "longitude": -80.4068343106312}, "130293491RR0001": {"name": "FAIRFIELD UNITED CHURCH,", "designationCode": "C", "categoryCode": "44", "address": "1303 FAIRFIELD RD", "city": "VICTORIA", "province": "BC", "country": "CA", "postalCode": "V8S1E3", "twitter": "None", "instagram": "None", "facebook": "None", "youtube": "None", "website": "None", "summary": "None", "logo": "None", "latitude": 48.41502380792324, "longitude": -123.34850452957458}, "118910686RR0001": {"name": "FAIRHAVEN BIBLE CHAPEL", "designationCode": "C", "categoryCode": "39", "address": "3503 FAIRLIGHT DR", "city": "SASKATOON", "province": "SK", "country": "CA", "postalCode": "S7M4L6", "twitter": "None", "instagram": "None", "facebook": "None", "youtube": "None", "website": "None", "summary": "None", "logo": "None", "latitude": 52.12536575685279, "longitude": -106.73353832151324}, "118910694RR0001": {"name": "FAIRHAVEN CHRISTADELPHIAN CHARITABLE FOUNDATION", "designationCode": "A", "categoryCode": "01", "address": "140 WHITWELL WAY", "city": "BINBROOK", "province": "ON", "country": "CA", "postalCode": "L0R1C0", "twitter": "None", "instagram": "None", "facebook": "None", "youtube": "None", "website": "None", "summary": "None", "logo": "None", "latitude": 43.122075128512854, "longitude": -79.81761500499167}, "118910702RR0001": {"name": "FAIRHAVEN FARM ASSOCIATION", "designationCode": "C", "categoryCode": "20", "address": "P.O. BOX 500", "city": "LILLOOET", "province": "BC", "country": "CA", "postalCode": "V0K1V0", "twitter": "None", "instagram": "None", "facebook": "None", "youtube": "None", "website": "None", "summary": "None", "logo": "None", "latitude": 50.70518720689823, "longitude": -121.90890624938581}, "868801945RR0001": {"name": "FAIRHAVEN FOUNDATION", "designationCode": "A", "categoryCode": "03", "address": "881 DUTTON RD", "city": "PETERBOROUGH", "province": "ON", "country": "CA", "postalCode": "K9H7S4", "twitter": "None", "instagram": "None", "facebook": "None", "youtube": "None", "website": "None", "summary": "None", "logo": "None", "latitude": 44.32597606860442, "longitude": -78.31693670394694}, "118910710RR0001": {"name": "FAIRHAVEN MINISTRIES ASSOCIATION", "designationCode": "C", "categoryCode": "49", "address": "#1-8191 ROGERS ROAD", "city": "VERNON", "province": "BC", "country": "CA", "postalCode": "V1B3M8", "twitter": "None", "instagram": "None", "facebook": "None", "youtube": "None", "website": "None", "summary": "None", "logo": "None", "latitude": 50.32228200000006, "longitude": -119.16406699999993}, "107371650RR0001": {"name": "FAIRHAVEN UNITED BAPTIST CHURCH", "designationCode": "C", "categoryCode": "31", "address": "11 CALDERS HEAD ROAD", "city": "FAIRHAVEN", "province": "NB", "country": "CA", "postalCode": "E5V1M8", "twitter": "None", "instagram": "None", "facebook": "None", "youtube": "None", "website": "None", "summary": "None", "logo": "None", "latitude": 44.96891986459921, "longitude": -67.00524370931129}, "874040645RR0001": {"name": "FAIRHOLME CHARITABLE TRUST", "designationCode": "C", "categoryCode": "39", "address": "2500 - 201 PORTAGE AVE", "city": "WINNIPEG", "province": "MB", "country": "CA", "postalCode": "R3B3K6", "twitter": "None", "instagram": "None", "facebook": "None", "youtube": "None", "website": "None", "summary": "None", "logo": "None", "latitude": 49.895359615067065, "longitude": -97.13919299627776}, "892972878RR0001": {"name": "FAIRLANE CHARITABLE TRUST", "designationCode": "B", "categoryCode": "39", "address": "3425 2 AVENUE SOUTH", "city": "LETHBRIDGE", "province": "AB", "country": "CA", "postalCode": "T1J4V1", "twitter": "None", "instagram": "None", "facebook": "None", "youtube": "None", "website": "None", "summary": "None", "logo": "None", "latitude": 49.696839530439966, "longitude": -112.78914308381903}, "122893456RR0001": {"name": "FAIRLANE CHILDREN'S CENTRE INCORPORATED", "designationCode": "C", "categoryCode": "20", "address": "369 FAIRLANE AVENUE", "city": "WINNIPEG", "province": "MB", "country": "CA", "postalCode": "R2Y0B6", "twitter": "None", "instagram": "None", "facebook": "None", "youtube": "None", "website": "None", "summary": "None", "logo": "None", "latitude": 49.88667149047804, "longitude": -97.3131822614404}, "107371676RR0001": {"name": "FAIRLAWN AVENUE UNITED CHURCH", "designationCode": "C", "categoryCode": "44", "address": "28 FAIRLAWN AVE", "city": "TORONTO", "province": "ON", "country": "CA", "postalCode": "M5M1S7", "twitter": "None", "instagram": "None", "facebook": "None", "youtube": "None", "website": "None", "summary": "None", "logo": "None", "latitude": 43.73063918016022, "longitude": -79.40474957980832}, "118910751RR0001": {"name": "FAIRLIGHT CEMETERY CLUB", "designationCode": "C", "categoryCode": "59", "address": "P.O. BOX 2", "city": "FAIRLIGHT", "province": "SK", "country": "CA", "postalCode": "S0G1M0", "twitter": "None", "instagram": "None", "facebook": "None", "youtube": "None", "website": "None", "summary": "None", "logo": "None", "latitude": 49.88230000000004, "longitude": -101.67932999999994}, "107371692RR0001": {"name": "FAIRMONT BAPTIST CHURCH INC.", "designationCode": "C", "categoryCode": "31", "address": "333 FAIRMONT DRIVE", "city": "SASKATOON", "province": "SK", "country": "CA", "postalCode": "S7M5N5", "twitter": "None", "instagram": "None", "facebook": "None", "youtube": "None", "website": "None", "summary": "None", "logo": "None", "latitude": 52.123824869553914, "longitude": -106.72200066082874}, "119288918RR0075": {"name": "FAIRMONT CONGREGATION OF JEHOVAH'S WITNESSES, LONDON, ONTARIO", "designationCode": "C", "categoryCode": "61", "address": "45 DENGATE CRESCENT", "city": "LONDON", "province": "ON", "country": "CA", "postalCode": "N5W1V7", "twitter": "None", "instagram": "None", "facebook": "None", "youtube": "None", "website": "None", "summary": "None", "logo": "None", "latitude": 42.97689390648612, "longitude": -81.17298935013554}, "892873944RR0001": {"name": "FAIRMONT FOUNDATION", "designationCode": "B", "categoryCode": "03", "address": "1250-1500 GEORGIA ST W        BOX 62", "city": "VANCOUVER", "province": "BC", "country": "CA", "postalCode": "V6G2Z6", "twitter": "None", "instagram": "None", "facebook": "None", "youtube": "None", "website": "None", "summary": "None", "logo": "None", "latitude": 49.290187500000016, "longitude": -123.130035}, "118910777RR0001": {"name": "FAIRMONT UNITED CHURCH", "designationCode": "C", "categoryCode": "44", "address": "1005 HAMILTON RD", "city": "LONDON", "province": "ON", "country": "CA", "postalCode": "N5W1A4", "twitter": "None", "instagram": "None", "facebook": "None", "youtube": "None", "website": "None", "summary": "None", "logo": "None", "latitude": 42.977044626666526, "longitude": -81.18960569193253}, "107371783RR0001": {"name": "FAIRVIEW ALLIANCE CHURCH", "designationCode": "C", "categoryCode": "39", "address": "BOX 322", "city": "FAIRVIEW", "province": "AB", "country": "CA", "postalCode": "T0H1L0", "twitter": "None", "instagram": "None", "facebook": "None", "youtube": "None", "website": "None", "summary": "None", "logo": "None", "latitude": 56.06862000000007, "longitude": -118.39200999999997}, "118782630RR0016": {"name": "FAIRVIEW ALLIANCE CHURCH OF THE CHRISTIAN AND MISSIONARY ALLIANCE IN QUEBEC", "designationCode": "C", "categoryCode": "39", "address": "220 HYMAN DRIVE", "city": "DOLLARD-DES-ORMEAUX", "province": "QC", "country": "CA", "postalCode": "H9B1L8", "twitter": "None", "instagram": "None", "facebook": "None", "youtube": "None", "website": "None", "summary": "None", "logo": "None", "latitude": 45.495312640602286, "longitude": -73.7931103729008}, "890513971RR0001": {"name": "FAIRVIEW AND AREA PALLIATIVE CARE SOCIETY", "designationCode": "C", "categoryCode": "09", "address": "POST OFFICE BOX 552", "city": "FAIRVIEW", "province": "AB", "country": "CA", "postalCode": "T0H1L0", "twitter": "None", "instagram": "None", "facebook": "None", "youtube": "None", "website": "None", "summary": "None", "logo": "None", "latitude": 56.06862000000007, "longitude": -118.39200999999997}, "119310563RR0001": {"name": "FAIRVIEW AND DISTRICT WOMEN'S CENTRE ASSOCIATION", "designationCode": "C", "categoryCode": "09", "address": "BOX 1194", "city": "FAIRVIEW", "province": "AB", "country": "CA", "postalCode": "T0H1L0", "twitter": "None", "instagram": "None", "facebook": "None", "youtube": "None", "website": "None", "summary": "None", "logo": "None", "latitude": 56.06862000000007, "longitude": -118.39200999999997}, "107371825RR0001": {"name": "FAIRVIEW BAPTIST CHURCH", "designationCode": "C", "categoryCode": "31", "address": "1708 W 16TH AVE", "city": "VANCOUVER", "province": "BC", "country": "CA", "postalCode": "V6J2M1", "twitter": "None", "instagram": "None", "facebook": "None", "youtube": "None", "website": "None", "summary": "None", "logo": "None", "latitude": 49.257138470136944, "longitude": -123.14478463780367}, "129863130RR0001": {"name": "FAIRVIEW BAPTIST CHURCH", "designationCode": "C", "categoryCode": "31", "address": "230 78TH AVENUE SE", "city": "CALGARY", "province": "AB", "country": "CA", "postalCode": "T2H1C4", "twitter": "None", "instagram": "None", "facebook": "None", "youtube": "None", "website": "None", "summary": "None", "logo": "None", "latitude": 50.98386310687276, "longitude": -114.0610574536614}, "118910827RR0001": {"name": "FAIRVIEW BAPTIST CHURCH (LINDSAY)", "designationCode": "C", "categoryCode": "31", "address": "130 COLBORNE STREET W", "city": "LINDSAY", "province": "ON", "country": "CA", "postalCode": "K9V3T5", "twitter": "None", "instagram": "None", "facebook": "None", "youtube": "None", "website": "None", "summary": "None", "logo": "None", "latitude": 44.357817467246434, "longitude": -78.75208306475953}, "107371858RR0001": {"name": "FAIRVIEW BIBLE CHURCH", "designationCode": "C", "categoryCode": "34", "address": "641 2ND AVE SE", "city": "SWIFT CURRENT", "province": "SK", "country": "CA", "postalCode": "S9H3J9", "twitter": "None", "instagram": "None", "facebook": "None", "youtube": "None", "website": "None", "summary": "None", "logo": "None", "latitude": 50.26998582598104, "longitude": -107.79995186845017}, "890736044RR0001": {"name": "FAIRVIEW CEMETERY BOARD", "designationCode": "C", "categoryCode": "59", "address": "P O BOX 294 10875 COUNTY ROAD", "city": "GRAFTON", "province": "ON", "country": "CA", "postalCode": "K0K2G0", "twitter": "None", "instagram": "None", "facebook": "None", "youtube": "None", "website": "None", "summary": "None", "logo": "None", "latitude": 43.98828900000005, "longitude": -78.02769499999994}, "892069170RR0001": {"name": "FAIRVIEW CHURCH OF GOD", "designationCode": "C", "categoryCode": "39", "address": "65 ALBACORE CRES", "city": "SCARBOROUGH", "province": "ON", "country": "CA", "postalCode": "M1H2L2", "twitter": "None", "instagram": "None", "facebook": "None", "youtube": "None", "website": "None", "summary": "None", "logo": "None", "latitude": 43.77114798280331, "longitude": -79.23764014957601}, "119288918RR0880": {"name": "FAIRVIEW CONGREGATION OF JEHOVAH'S WITNESSES", "designationCode": "C", "categoryCode": "61", "address": "406 - 575 LAKE ST", "city": "ST CATHARINES", "province": "ON", "country": "CA", "postalCode": "L2N4J1", "twitter": "None", "instagram": "None", "facebook": "None", "youtube": "None", "website": "None", "summary": "None", "logo": "None", "latitude": 43.19809182209017, "longitude": -79.25243743219423}, "880871116RR0001": {"name": "FAIRVIEW CORNERSTONE BAPTIST CHURCH", "designationCode": "C", "categoryCode": "39", "address": "P. O. BOX 2217", "city": "FAIRVIEW", "province": "AB", "country": "CA", "postalCode": "T0H1L0", "twitter": "None", "instagram": "None", "facebook": "None", "youtube": "None", "website": "None", "summary": "None", "logo": "None", "latitude": 56.06862000000007, "longitude": -118.39200999999997}, "107371932RR0001": {"name": "FAIRVIEW DAY CARE & PLAYSCHOOL SOCIETY", "designationCode": "C", "categoryCode": "01", "address": "BOX 2169", "city": "FAIRVIEW", "province": "AB", "country": "CA", "postalCode": "T0H1L0", "twitter": "None", "instagram": "None", "facebook": "None", "youtube": "None", "website": "None", "summary": "None", "logo": "None", "latitude": 56.06862000000007, "longitude": -118.39200999999997}, "888504669RR0001": {"name": "FAIRVIEW FINE ARTS SOCIETY", "designationCode": "C", "categoryCode": "22", "address": "BOX 116", "city": "FAIRVIEW", "province": "AB", "country": "CA", "postalCode": "T0H1L0", "twitter": "None", "instagram": "None", "facebook": "None", "youtube": "None", "website": "None", "summary": "None", "logo": "None", "latitude": 56.071062, "longitude": -118.398042}, "888706462RR0001": {"name": "FAIRVIEW FOOD BANK ASSOCIATION", "designationCode": "C", "categoryCode": "09", "address": "BOX 168", "city": "FAIRVIEW", "province": "AB", "country": "CA", "postalCode": "T0H1L0", "twitter": "None", "instagram": "None", "facebook": "None", "youtube": "None", "website": "None", "summary": "None", "logo": "None", "latitude": 56.06862000000007, "longitude": -118.39200999999997}, "887247799RR0001": {"name": "FAIRVIEW GOLDEN AGE SOCIETY", "designationCode": "C", "categoryCode": "56", "address": "BOX 219", "city": "FAIRVIEW", "province": "AB", "country": "CA", "postalCode": "T0H1L0", "twitter": "None", "instagram": "None", "facebook": "None", "youtube": "None", "website": "None", "summary": "None", "logo": "None", "latitude": 56.06862000000007, "longitude": -118.39200999999997}, "107372005RR0002": {"name": "FAIRVIEW GOSPEL CHAPEL", "designationCode": "C", "categoryCode": "39", "address": "PO BOX 466", "city": "FAIRVIEW", "province": "AB", "country": "CA", "postalCode": "T0H1L0", "twitter": "None", "instagram": "None", "facebook": "None", "youtube": "None", "website": "None", "summary": "None", "logo": "None", "latitude": 56.06862000000007, "longitude": -118.39200999999997}, "890086267RR0001": {"name": "FAIRVIEW HEALTH COMPLEX FOUNDATION", "designationCode": "A", "categoryCode": "13", "address": "BOX 2141", "city": "FAIRVIEW", "province": "AB", "country": "CA", "postalCode": "T0H1L0", "twitter": "None", "instagram": "None", "facebook": "None", "youtube": "None", "website": "None", "summary": "None", "logo": "None", "latitude": 56.06862000000007, "longitude": -118.39200999999997}, "895312809RR0001": {"name": "FAIRVIEW HERITAGE TOWNSITE SOCIETY", "designationCode": "C", "categoryCode": "53", "address": "197 WEST AVENUE", "city": "OLIVER", "province": "BC", "country": "CA", "postalCode": "V0H1T5", "twitter": "None", "instagram": "None", "facebook": "None", "youtube": "None", "website": "None", "summary": "None", "logo": "None", "latitude": 49.1753716239252, "longitude": -119.59277581963731}, "866535487RR0001": {"name": "FAIRVIEW HOME FOUNDATION INC", "designationCode": "C", "categoryCode": "11", "address": "1351 13TH STREET", "city": "BRANDON", "province": "MB", "country": "CA", "postalCode": "R7A4S6", "twitter": "None", "instagram": "None", "facebook": "None", "youtube": "None", "website": "None", "summary": "None", "logo": "None", "latitude": 49.828716000000014, "longitude": -99.95548889930234}, "118910975RR0001": {"name": "FAIRVIEW MANOR AUXILIARY", "designationCode": "C", "categoryCode": "09", "address": "56 JOHANNA ST", "city": "ALMONTE", "province": "ON", "country": "CA", "postalCode": "K0A1A0", "twitter": "None", "instagram": "None", "facebook": "None", "youtube": "None", "website": "None", "summary": "None", "logo": "None", "latitude": 45.22828074700947, "longitude": -76.1808742494351}, "107372120RR0001": {"name": "FAIRVIEW MENNONITE HOMES", "designationCode": "C", "categoryCode": "01", "address": "515 LANGS DR", "city": "CAMBRIDGE", "province": "ON", "country": "CA", "postalCode": "N3H5E4", "twitter": "None", "instagram": "None", "facebook": "None", "youtube": "None", "website": "None", "summary": "None", "logo": "None", "latitude": 43.3983332357027, "longitude": -80.34319574551314}, "118910991RR0001": {"name": "FAIRVIEW PASTORAL CHARGE", "designationCode": "C", "categoryCode": "44", "address": "104 CENTRAL AVE", "city": "HALIFAX", "province": "NS", "country": "CA", "postalCode": "B3N2H8", "twitter": "None", "instagram": "None", "facebook": "None", "youtube": "None", "website": "None", "summary": "None", "logo": "None", "latitude": 44.650026724104215, "longitude": -63.64242249457564}, "140681263RR0001": {"name": "FAIRVIEW PIONEER MUSEUM", "designationCode": "C", "categoryCode": "50", "address": "BOX 1994", "city": "FAIRVIEW", "province": "AB", "country": "CA", "postalCode": "T0H1L0", "twitter": "None", "instagram": "None", "facebook": "None", "youtube": "None", "website": "None", "summary": "None", "logo": "None", "latitude": 56.06862000000007, "longitude": -118.39200999999997}, "107372146RR0001": {"name": "FAIRVIEW PRESBYTERIAN CHURCH", "designationCode": "C", "categoryCode": "37", "address": "2725 FIR ST", "city": "VANCOUVER", "province": "BC", "country": "CA", "postalCode": "V6J3C2", "twitter": "None", "instagram": "None", "facebook": "None", "youtube": "None", "website": "None", "summary": "None", "logo": "None", "latitude": 49.26148283819032, "longitude": -123.1411961182697}, "823479746RR0001": {"name": "FAIRVIEW ROTARY GOOD FOR KIDS SOCIETY", "designationCode": "C", "categoryCode": "19", "address": "P.O. BOX 1945", "city": "FAIRVIEW", "province": "AB", "country": "CA", "postalCode": "T0H1L0", "twitter": "None", "instagram": "None", "facebook": "None", "youtube": "None", "website": "None", "summary": "None", "logo": "None", "latitude": 56.06862000000007, "longitude": -118.39200999999997}, "101731693RR0001": {"name": "FAIRVIEW SENIOR CITIZENS ASSOCIATION", "designationCode": "C", "categoryCode": "01", "address": "400 - 43 CHURCH ST", "city": "ST CATHARINES", "province": "ON", "country": "CA", "postalCode": "L2R7E1", "twitter": "None", "instagram": "None", "facebook": "None", "youtube": "None", "website": "None", "summary": "None", "logo": "None", "latitude": 43.15925156038995, "longitude": -79.24765592330742}, "118911023RR0001": {"name": "FAIRVIEW SEVENTH-DAY ADVENTIST CHURCH", "designationCode": "C", "categoryCode": "41", "address": "5816 HIGHWAY 2A", "city": "LACOMBE", "province": "AB", "country": "CA", "postalCode": "T4L2G5", "twitter": "None", "instagram": "None", "facebook": "None", "youtube": "None", "website": "None", "summary": "None", "logo": "None", "latitude": 52.474063600197404, "longitude": -113.71692568401835}, "118911056RR0001": {"name": "FAIRVIEW UNITED CHURCH", "designationCode": "C", "categoryCode": "44", "address": "49 WAYNE DR.", "city": "BRANTFORD", "province": "ON", "country": "CA", "postalCode": "N3R2Y8", "twitter": "None", "instagram": "None", "facebook": "None", "youtube": "None", "website": "None", "summary": "None", "logo": "None", "latitude": 43.1700664812741, "longitude": -80.27233664066054}, "891013849RR0001": {"name": "FAIRVIEW UNITED CHURCH,", "designationCode": "C", "categoryCode": "44", "address": "10 KILLARNEY RD", "city": "ENNISMORE", "province": "ON", "country": "CA", "postalCode": "K0L1T0", "twitter": "None", "instagram": "None", "facebook": "None", "youtube": "None", "website": "None", "summary": "None", "logo": "None", "latitude": 44.4492985700848, "longitude": -78.40304272938431}, "137655106RR0001": {"name": "FAIRVIEW VICTIM'S ASSISTANCE ASSOCIATION", "designationCode": "C", "categoryCode": "59", "address": "BOX 610", "city": "FAIRVIEW", "province": "AB", "country": "CA", "postalCode": "T0H1L0", "twitter": "None", "instagram": "None", "facebook": "None", "youtube": "None", "website": "None", "summary": "None", "logo": "None", "latitude": 56.06862000000007, "longitude": -118.39200999999997}, "118910801RR0001": {"name": "FAIRVIEW, ALBERTA, CONGREGATION OF JEHOVAH'S WITNESSES", "designationCode": "C", "categoryCode": "61", "address": "BOX 831", "city": "FAIRVIEW", "province": "AB", "country": "CA", "postalCode": "T0H1L0", "twitter": "None", "instagram": "None", "facebook": "None", "youtube": "None", "website": "None", "summary": "None", "logo": "None", "latitude": 56.06862000000007, "longitude": -118.39200999999997}, "141049734RR0001": {"name": "FAIRVILLE CHARITABLE TRUST", "designationCode": "B", "categoryCode": "39", "address": "3425 2 AVENUE SOUTH", "city": "LETHBRIDGE", "province": "AB", "country": "CA", "postalCode": "T1J4V1", "twitter": "None", "instagram": "None", "facebook": "None", "youtube": "None", "website": "None", "summary": "None", "logo": "None", "latitude": 49.696839530439966, "longitude": -112.78914308381903}, "119288918RR0478": {"name": "FAIRWAY CONGREGATION OF JEHOVAH'S WITNESSES", "designationCode": "C", "categoryCode": "61", "address": "5 CARLYLE PLACE", "city": "KITCHENER", "province": "ON", "country": "CA", "postalCode": "N2P1R6", "twitter": "None", "instagram": "None", "facebook": "None", "youtube": "None", "website": "None", "summary": "None", "logo": "None", "latitude": 43.3940010777022, "longitude": -80.45274370442601}, "857771208RR0001": {"name": "FAIRYTALES PRESENTATION SOCIETY", "designationCode": "C", "categoryCode": "22", "address": "319 223 12TH AVENUE SW", "city": "CALGARY", "province": "AB", "country": "CA", "postalCode": "T2R0G9", "twitter": "None", "instagram": "None", "facebook": "None", "youtube": "None", "website": "None", "summary": "None", "logo": "None", "latitude": 51.04175807151026, "longitude": -114.0760541969584}, "867232464RR0001": {"name": "FAITH (OSHAWA) LUTHERAN CHURCH FOUNDATION INC", "designationCode": "A", "categoryCode": "43", "address": "44 WILLIAM STREET WEST", "city": "OSHAWA", "province": "ON", "country": "CA", "postalCode": "L1G1J9", "twitter": "None", "instagram": "None", "facebook": "None", "youtube": "None", "website": "None", "summary": "None", "logo": "None", "latitude": 43.89977611798125, "longitude": -78.866458925212}, "875397028RR0001": {"name": "FAITH & ACTION MISSION SOCIETY", "designationCode": "C", "categoryCode": "01", "address": "4 - 440 MAIN ST", "city": "VANCOUVER", "province": "BC", "country": "CA", "postalCode": "V6A2T4", "twitter": "None", "instagram": "None", "facebook": "None", "youtube": "None", "website": "None", "summary": "None", "logo": "None", "latitude": 49.280652136274455, "longitude": -123.09964936340843}, "131174922RR0001": {"name": "FAITH ACADEMY INC", "designationCode": "C", "categoryCode": "20", "address": "437 MATHESON AVENUE", "city": "WINNIPEG", "province": "MB", "country": "CA", "postalCode": "R2W0E1", "twitter": "None", "instagram": "None", "facebook": "None", "youtube": "None", "website": "None", "summary": "None", "logo": "None", "latitude": 49.932192906486115, "longitude": -97.13232499373893}, "119148112RR0001": {"name": "FAITH ALIVE CHRISTIAN CENTRE INC.", "designationCode": "C", "categoryCode": "39", "address": "3595 NASHUA DRIVE", "city": "MISSISSAUGA", "province": "ON", "country": "CA", "postalCode": "L4V1R1", "twitter": "None", "instagram": "None", "facebook": "None", "youtube": "None", "website": "None", "summary": "None", "logo": "None", "latitude": 43.71461767141765, "longitude": -79.62698521083132}, "889342226RR0001": {"name": "FAITH ALIVE CHRISTIAN FELLOWSHIP OF SMITHERS", "designationCode": "C", "categoryCode": "47", "address": "17285 OWENS ROAD", "city": "SMITHERS", "province": "BC", "country": "CA", "postalCode": "V0J2N1", "twitter": "None", "instagram": "None", "facebook": "None", "youtube": "None", "website": "None", "summary": "None", "logo": "None", "latitude": 55.02727500000006, "longitude": -127.33256149999994}, "118911098RR0001": {"name": "FAITH ALIVE FELLOWSHIP INC.", "designationCode": "C", "categoryCode": "39", "address": "3400 HART HIGHWAY", "city": "PRINCE GEORGE", "province": "BC", "country": "CA", "postalCode": "V2K2Z1", "twitter": "None", "instagram": "None", "facebook": "None", "youtube": "None", "website": "None", "summary": "None", "logo": "None", "latitude": 54.106418582505306, "longitude": -122.651208}, "118982032RR0001": {"name": "FAITH ALIVE INTERNATIONAL MINISTRIES", "designationCode": "C", "categoryCode": "39", "address": "PO BOX 735  STN MAIN          362 ALFRED ST", "city": "KINGSTON", "province": "ON", "country": "CA", "postalCode": "K7L4X6", "twitter": "None", "instagram": "None", "facebook": "None", "youtube": "None", "website": "None", "summary": "None", "logo": "None", "latitude": 44.23520630083362, "longitude": -76.49759808463213}, "118911106RR0001": {"name": "FAITH ALIVE MINISTRIES WORLD OUTREACH CENTRE INC.", "designationCode": "C", "categoryCode": "39", "address": "637 UNIVERSITY DRIVE", "city": "SASKATOON", "province": "SK", "country": "CA", "postalCode": "S7N0H8", "twitter": "None", "instagram": "None", "facebook": "None", "youtube": "None", "website": "None", "summary": "None", "logo": "None", "latitude": 52.12079593340631, "longitude": -106.65517589872448}, "873659700RR0001": {"name": "FAITH AND FREEDOM ALLIANCE", "designationCode": "C", "categoryCode": "59", "address": "120 CARLTON STREET            SUITE 301", "city": "TORONTO", "province": "ON", "country": "CA", "postalCode": "M5A4K2", "twitter": "None", "instagram": "None", "facebook": "None", "youtube": "None", "website": "None", "summary": "None", "logo": "None", "latitude": 43.66252218347842, "longitude": -79.37634981294354}, "889916797RR0001": {"name": "FAITH AND LIGHT-CANADA WEST FOI ET LUMIERE-CANADA OUEST", "designationCode": "C", "categoryCode": "09", "address": "7239 SIERRA MORENA BLVD SW    SUITE 111", "city": "CALGARY", "province": "AB", "country": "CA", "postalCode": "T3H3L7", "twitter": "None", "instagram": "None", "facebook": "None", "youtube": "None", "website": "None", "summary": "None", "logo": "None", "latitude": 51.01373303996196, "longitude": -114.17610048773766}, "867474314RR0001": {"name": "FAITH AND POWER INTERNATIONAL MINISTRIES", "designationCode": "C", "categoryCode": "39", "address": "27-328 PASSMORE AVE", "city": "SCARBOROUGH", "province": "ON", "country": "CA", "postalCode": "M1V5J5", "twitter": "None", "instagram": "None", "facebook": "None", "youtube": "None", "website": "None", "summary": "None", "logo": "None", "latitude": 43.82785215909705, "longitude": -79.2630758534824}, "118911122RR0001": {"name": "FAITH AND SHARING FEDERATION FOI ET PARTAGE", "designationCode": "C", "categoryCode": "49", "address": "1982 MARQUIS AVE", "city": "GLOUCESTER", "province": "ON", "country": "CA", "postalCode": "K1J8J4", "twitter": "None", "instagram": "None", "facebook": "None", "youtube": "None", "website": "None", "summary": "None", "logo": "None", "latitude": 45.449017292255775, "longitude": -75.60114498303446}, "132957911RR0001": {"name": "FAITH AND VISION", "designationCode": "B", "categoryCode": "47", "address": "P.O. BOX 274", "city": "SURREY", "province": "BC", "country": "CA", "postalCode": "V3T4W8", "twitter": "None", "instagram": "None", "facebook": "None", "youtube": "None", "website": "None", "summary": "None", "logo": "None", "latitude": 49.19164800000006, "longitude": -122.85002149999994}, "890760747RR0001": {"name": "FAITH APOSTOLIC CHURCH OF JESUS CHRIST ONT. INC.", "designationCode": "C", "categoryCode": "39", "address": "718-550 JARVIS STREET", "city": "TORONTO", "province": "ON", "country": "CA", "postalCode": "M4Y2H9", "twitter": "None", "instagram": "None", "facebook": "None", "youtube": "None", "website": "None", "summary": "None", "logo": "None", "latitude": 43.66897393865777, "longitude": -79.37949346269244}, "119277358RR0001": {"name": "FAITH APOSTOLIC UNITED PENTECOSTAL CHURCH", "designationCode": "C", "categoryCode": "39", "address": "3026 PITT STREET", "city": "CORNWALL", "province": "ON", "country": "CA", "postalCode": "K6K1A4", "twitter": "None", "instagram": "None", "facebook": "None", "youtube": "None", "website": "None", "summary": "None", "logo": "None", "latitude": 45.060469208985005, "longitude": -74.76246600709779}, "870219722RR0001": {"name": "FAITH APOSTOLIC UNITED PENTECOSTAL CHURCH", "designationCode": "C", "categoryCode": "39", "address": "PO BOX 421", "city": "MAPLE RIDGE", "province": "BC", "country": "CA", "postalCode": "V2X8K9", "twitter": "None", "instagram": "None", "facebook": "None", "youtube": "None", "website": "None", "summary": "None", "logo": "None", "latitude": 49.21686600000005, "longitude": -122.60537449999993}, "136175791RR0001": {"name": "FAITH ASSEMBLY (MONCTON) INC.", "designationCode": "C", "categoryCode": "39", "address": "150 DOREEN CRES", "city": "DIEPPE", "province": "NB", "country": "CA", "postalCode": "E1A7H7", "twitter": "None", "instagram": "None", "facebook": "None", "youtube": "None", "website": "None", "summary": "None", "logo": "None", "latitude": 46.099019514022686, "longitude": -64.7071741219633}, "131814733RR0001": {"name": "FAITH BAPTIST CHAPEL", "designationCode": "C", "categoryCode": "39", "address": "11279 HWY #3, CENTRE          RR #2", "city": "LUNENBURG", "province": "NS", "country": "CA", "postalCode": "B0J2C0", "twitter": "None", "instagram": "None", "facebook": "None", "youtube": "None", "website": "None", "summary": "None", "logo": "None", "latitude": 44.37744358060597, "longitude": -64.33999197923308}, "107372484RR0001": {"name": "FAITH BAPTIST CHURCH", "designationCode": "C", "categoryCode": "31", "address": "P.O. BOX 905 DAVENPORT RD.", "city": "SYDNEY", "province": "NS", "country": "CA", "postalCode": "B1P6J4", "twitter": "None", "instagram": "None", "facebook": "None", "youtube": "None", "website": "None", "summary": "None", "logo": "None", "latitude": 46.139245366405085, "longitude": -60.17717006541566}, "107372567RR0001": {"name": "FAITH BAPTIST CHURCH", "designationCode": "C", "categoryCode": "31", "address": "485 KING ST. EAST", "city": "MOUNT FOREST", "province": "ON", "country": "CA", "postalCode": "N0G2L2", "twitter": "None", "instagram": "None", "facebook": "None", "youtube": "None", "website": "None", "summary": "None", "logo": "None", "latitude": 43.986911080251375, "longitude": -80.7253830075715}, "107372609RR0001": {"name": "FAITH BAPTIST CHURCH", "designationCode": "C", "categoryCode": "31", "address": "BOX 250, 186 LAKE ST. N.", "city": "ECHO BAY", "province": "ON", "country": "CA", "postalCode": "P0S1C0", "twitter": "None", "instagram": "None", "facebook": "None", "youtube": "None", "website": "None", "summary": "None", "logo": "None", "latitude": 46.49115967456495, "longitude": -84.0678941866927}, "107372625RR0001": {"name": "FAITH BAPTIST CHURCH", "designationCode": "C", "categoryCode": "31", "address": "437 BROADWAY AVE E", "city": "REGINA", "province": "SK", "country": "CA", "postalCode": "S4N0Z8", "twitter": "None", "instagram": "None", "facebook": "None", "youtube": "None", "website": "None", "summary": "None", "logo": "None", "latitude": 50.43786104244344, "longitude": -104.57877313584177}, "107372641RR0001": {"name": "FAITH BAPTIST CHURCH", "designationCode": "C", "categoryCode": "31", "address": "30 PENSACOLA COURT", "city": "LETHBRIDGE", "province": "AB", "country": "CA", "postalCode": "T1K4R6", "twitter": "None", "instagram": "None", "facebook": "None", "youtube": "None", "website": "None", "summary": "None", "logo": "None", "latitude": 49.67571850429918, "longitude": -112.88723977563599}, "118911163RR0001": {"name": "FAITH BAPTIST CHURCH", "designationCode": "C", "categoryCode": "31", "address": "PO BOX 147", "city": "GREAT VILLAGE", "province": "NS", "country": "CA", "postalCode": "B0M1L0", "twitter": "None", "instagram": "None", "facebook": "None", "youtube": "None", "website": "None", "summary": "None", "logo": "None", "latitude": 45.416480000000035, "longitude": -63.599489999999946}, "118911247RR0001": {"name": "FAITH BAPTIST CHURCH", "designationCode": "C", "categoryCode": "31", "address": "3837 LAWRENCE AVE EAST", "city": "SCARBOROUGH", "province": "ON", "country": "CA", "postalCode": "M1G1R2", "twitter": "None", "instagram": "None", "facebook": "None", "youtube": "None", "website": "None", "summary": "None", "logo": "None", "latitude": 43.76279483426652, "longitude": -79.21122405938033}, "118911346RR0001": {"name": "FAITH BAPTIST CHURCH", "designationCode": "C", "categoryCode": "39", "address": "200-9123 MARY STREET", "city": "CHILLIWACK", "province": "BC", "country": "CA", "postalCode": "V2P4H7", "twitter": "None", "instagram": "None", "facebook": "None", "youtube": "None", "website": "None", "summary": "None", "logo": "None", "latitude": 49.16798511575956, "longitude": -121.96047094428367}, "118912518RR0001": {"name": "FAITH BAPTIST CHURCH", "designationCode": "C", "categoryCode": "31", "address": "299 STOKIL DR", "city": "LOWER SACKVILLE", "province": "NS", "country": "CA", "postalCode": "B4C4G8", "twitter": "None", "instagram": "None", "facebook": "None", "youtube": "None", "website": "None", "summary": "None", "logo": "None", "latitude": 44.79011459928403, "longitude": -63.691098949997404}, "851376079RR0001": {"name": "FAITH BAPTIST CHURCH", "designationCode": "C", "categoryCode": "31", "address": "182 MACKAY STREET", "city": "PEMBROKE", "province": "ON", "country": "CA", "postalCode": "K8A1C1", "twitter": "None", "instagram": "None", "facebook": "None", "youtube": "None", "website": "None", "summary": "None", "logo": "None", "latitude": 45.827053588833984, "longitude": -77.11094364030221}, "891969990RR0001": {"name": "FAITH BAPTIST CHURCH", "designationCode": "C", "categoryCode": "31", "address": "3780 HIGHWAY 340", "city": "CARLETON", "province": "NS", "country": "CA", "postalCode": "B5A5P8", "twitter": "None", "instagram": "None", "facebook": "None", "youtube": "None", "website": "None", "summary": "None", "logo": "None", "latitude": 43.99690156069853, "longitude": -65.93456513580888}, "893760082RR0001": {"name": "FAITH BAPTIST CHURCH", "designationCode": "C", "categoryCode": "31", "address": "92 PARKDALE AVE. N", "city": "HAMILTON", "province": "ON", "country": "CA", "postalCode": "L8H5W9", "twitter": "None", "instagram": "None", "facebook": "None", "youtube": "None", "website": "None", "summary": "None", "logo": "None", "latitude": 43.2385757396561, "longitude": -79.79109177627117}}