{"119158913RR0001": {"name": "SOUTH WINNIPEG KIDS ON WHEELS CO-OP INC.", "designationCode": "C", "categoryCode": "21", "address": "358 COCKBURN ST.", "city": "WPG", "province": "MB", "country": "CA", "postalCode": "R3M2P5", "twitter": "None", "instagram": "None", "facebook": "None", "youtube": "None", "website": "None", "summary": "None", "logo": "None", "latitude": 49.86720815208616, "longitude": -97.14986987180428}, "120704796RR0001": {"name": "SOUTH WINNIPEG KINDERSCHULE INC", "designationCode": "C", "categoryCode": "20", "address": "168 WILTON ST", "city": "WINNIPEG", "province": "MB", "country": "CA", "postalCode": "R3M3C3", "twitter": "None", "instagram": "None", "facebook": "None", "youtube": "None", "website": "None", "summary": "None", "logo": "None", "latitude": 49.86812852011087, "longitude": -97.16958811174885}, "107717191RR0001": {"name": "SOUTH-EAST DEAF & HARD OF HEARING SERVICES INC.", "designationCode": "C", "categoryCode": "09", "address": "12 CORONATION DR", "city": "MONCTON", "province": "NB", "country": "CA", "postalCode": "E1E2X1", "twitter": "None", "instagram": "None", "facebook": "None", "youtube": "None", "website": "None", "summary": "None", "logo": "None", "latitude": 46.076663546482806, "longitude": -64.80226770361796}, "107995441RR0001": {"name": "SOUTH-EAST GREY SUPPORT SERVICES", "designationCode": "C", "categoryCode": "11", "address": "PO BOX 12, 24 TORONTO ST", "city": "FLESHERTON", "province": "ON", "country": "CA", "postalCode": "N0C1E0", "twitter": "None", "instagram": "None", "facebook": "None", "youtube": "None", "website": "None", "summary": "None", "logo": "None", "latitude": 44.26090847525718, "longitude": -80.54950915656106}, "133465310RR0001": {"name": "SOUTH-EAST OTTAWA COMMUNITY SERVICES", "designationCode": "C", "categoryCode": "09", "address": "1355 RUE BANK ST              SUITE 600", "city": "OTTAWA", "province": "ON", "country": "CA", "postalCode": "K1H8K7", "twitter": "None", "instagram": "None", "facebook": "None", "youtube": "None", "website": "None", "summary": "None", "logo": "None", "latitude": 45.38764789289611, "longitude": -75.67571356725752}, "119157303RR0001": {"name": "SOUTH-END COMMUNITY CENTRE", "designationCode": "C", "categoryCode": "56", "address": "1127 9TH ST", "city": "BRANDON", "province": "MB", "country": "CA", "postalCode": "R7A4C4", "twitter": "None", "instagram": "None", "facebook": "None", "youtube": "None", "website": "None", "summary": "None", "logo": "None", "latitude": 49.832622000000015, "longitude": -99.95000140435131}, "867946733RR0001": {"name": "SOUTH-PORT PENTECOSTAL TEMPLE", "designationCode": "C", "categoryCode": "36", "address": "HWY 21 & 6 CARLISLE ST PO BOX 654", "city": "SOUTHAMPTON", "province": "ON", "country": "CA", "postalCode": "N0H2L0", "twitter": "None", "instagram": "None", "facebook": "None", "youtube": "None", "website": "None", "summary": "None", "logo": "None", "latitude": 44.468353886750606, "longitude": -81.36364470910056}, "130530744RR0001": {"name": "SOUTH-WEST NOVA TRANSITION HOUSE ASSOCIATION", "designationCode": "C", "categoryCode": "09", "address": "P.O. BOX 842", "city": "YARMOUTH", "province": "NS", "country": "CA", "postalCode": "B5A4K5", "twitter": "None", "instagram": "None", "facebook": "None", "youtube": "None", "website": "None", "summary": "None", "logo": "None", "latitude": 43.841274000000055, "longitude": -66.11887249999994}, "107997892RR0001": {"name": "SOUTH-WEST SENIOR'S OUTREACH SOCIETY", "designationCode": "C", "categoryCode": "56", "address": "10832 62 AVE NW", "city": "EDMONTON", "province": "AB", "country": "CA", "postalCode": "T6H1N1", "twitter": "None", "instagram": "None", "facebook": "None", "youtube": "None", "website": "None", "summary": "None", "logo": "None", "latitude": 53.49919347879261, "longitude": -113.51111383236193}, "133424986RR0001": {"name": "SOUTHAMPTON HOUSE INC", "designationCode": "C", "categoryCode": "10", "address": "31 MICHAEL AVE", "city": "HANWELL", "province": "NB", "country": "CA", "postalCode": "E3C2A5", "twitter": "None", "instagram": "None", "facebook": "None", "youtube": "None", "website": "None", "summary": "None", "logo": "None", "latitude": 45.91811612072257, "longitude": -66.72905609680345}, "886265230RR0001": {"name": "SOUTHAMPTON LUTHERAN CHURCH", "designationCode": "C", "categoryCode": "32", "address": "247 HIGH ST                   BOX 1389", "city": "SOUTHAMPTON", "province": "ON", "country": "CA", "postalCode": "N0H2L0", "twitter": "None", "instagram": "None", "facebook": "None", "youtube": "None", "website": "None", "summary": "None", "logo": "None", "latitude": 44.49487362917667, "longitude": -81.36977373662634}, "107994790RR0001": {"name": "SOUTHAMPTON PASTORAL CHARGE", "designationCode": "C", "categoryCode": "44", "address": "BOX 938-18 VICTORIA ST SOUTH", "city": "SOUTHAMPTON", "province": "ON", "country": "CA", "postalCode": "N0H2L0", "twitter": "None", "instagram": "None", "facebook": "None", "youtube": "None", "website": "None", "summary": "None", "logo": "None", "latitude": 44.494389061046874, "longitude": -81.3696919100902}, "119156883RR0001": {"name": "SOUTHAMPTON ROTARY CLUB, CHARITABLE TRUST", "designationCode": "C", "categoryCode": "65", "address": "PO BOX 1675", "city": "PORT ELGIN", "province": "ON", "country": "CA", "postalCode": "N0H2C0", "twitter": "None", "instagram": "None", "facebook": "None", "youtube": "None", "website": "None", "summary": "None", "logo": "None", "latitude": 44.43698400000005, "longitude": -81.38664349999993}, "134271469RR0001": {"name": "SOUTHAMPTON UNITED BAPTIST CHURCH", "designationCode": "C", "categoryCode": "39", "address": "PO BOX 34", "city": "SOUTHAMPTON", "province": "NS", "country": "CA", "postalCode": "B0M1W0", "twitter": "None", "instagram": "None", "facebook": "None", "youtube": "None", "website": "None", "summary": "None", "logo": "None", "latitude": 45.60256000000004, "longitude": -64.24633999999998}, "823754148RR0001": {"name": "SOUTHDALE BIBLE CHAPEL", "designationCode": "C", "categoryCode": "39", "address": "1214 SOUTHDALE RD. E.", "city": "LONDON", "province": "ON", "country": "CA", "postalCode": "N6E1B4", "twitter": "None", "instagram": "None", "facebook": "None", "youtube": "None", "website": "None", "summary": "None", "logo": "None", "latitude": 42.94583441055413, "longitude": -81.19928656953654}, "119288918RR0815": {"name": "SOUTHDALE CONGREGATION OF JEHOVAH'S WITNESSES", "designationCode": "C", "categoryCode": "61", "address": "227 LAKEWOOD BLVD", "city": "WINNIPEG", "province": "MB", "country": "CA", "postalCode": "R2J2N2", "twitter": "None", "instagram": "None", "facebook": "None", "youtube": "None", "website": "None", "summary": "None", "logo": "None", "latitude": 49.848209999999995, "longitude": -97.07698035097319}, "119288918RR1388": {"name": "SOUTHDALE CONGREGATION OF JEHOVAH'S WITNESSES, LONDON, ONTARIO", "designationCode": "C", "categoryCode": "61", "address": "617 GORDON AVE", "city": "LONDON", "province": "ON", "country": "CA", "postalCode": "N6J4J7", "twitter": "None", "instagram": "None", "facebook": "None", "youtube": "None", "website": "None", "summary": "None", "logo": "None", "latitude": 42.95162145767214, "longitude": -81.26307970027106}, "119157204RR0001": {"name": "SOUTHDALE NURSERY SCHOOL INC.", "designationCode": "C", "categoryCode": "20", "address": "PO BOX 48091", "city": "WINNIPEG", "province": "MB", "country": "CA", "postalCode": "R2J4A3", "twitter": "None", "instagram": "None", "facebook": "None", "youtube": "None", "website": "None", "summary": "None", "logo": "None", "latitude": 49.899525000000054, "longitude": -97.14112999999993}, "865603997RR0001": {"name": "SOUTHEAST ADVOCATES FOR EMPLOYMENT INC.", "designationCode": "C", "categoryCode": "59", "address": "1112 6TH ST", "city": "ESTEVAN", "province": "SK", "country": "CA", "postalCode": "S4A1A8", "twitter": "None", "instagram": "None", "facebook": "None", "youtube": "None", "website": "None", "summary": "None", "logo": "None", "latitude": 49.141273032959695, "longitude": -102.99181425802368}, "898037288RR0001": {"name": "SOUTHEAST COLLEGE EDUCATION FOUNDATION INC.", "designationCode": "C", "categoryCode": "21", "address": "BOX 1565", "city": "WEYBURN", "province": "SK", "country": "CA", "postalCode": "S4H0T1", "twitter": "None", "instagram": "None", "facebook": "None", "youtube": "None", "website": "None", "summary": "None", "logo": "None", "latitude": 49.66802700000005, "longitude": -103.85818999999994}, "875209793RR0001": {"name": "SOUTHEAST ENVIRONMENTAL ASSOCIATION LIMITED", "designationCode": "C", "categoryCode": "59", "address": "41 WOOD ISLANDS HILL ACCESS   P.O. BOX 1500", "city": "MONTAGUE", "province": "PE", "country": "CA", "postalCode": "C0A1R0", "twitter": "None", "instagram": "None", "facebook": "None", "youtube": "None", "website": "None", "summary": "None", "logo": "None", "latitude": 46.15757330624885, "longitude": -62.64324911079655}, "107995482RR0001": {"name": "SOUTHEAST REGIONAL COLLEGE", "designationCode": "C", "categoryCode": "20", "address": "PO BOX 1565", "city": "WEYBURN", "province": "SK", "country": "CA", "postalCode": "S4H0T1", "twitter": "None", "instagram": "None", "facebook": "None", "youtube": "None", "website": "None", "summary": "None", "logo": "None", "latitude": 49.66802700000005, "longitude": -103.85818999999994}, "107995490RR0001": {"name": "SOUTHEAST REGIONAL LIBRARY", "designationCode": "C", "categoryCode": "50", "address": "49 BISON AVE", "city": "WEYBURN", "province": "SK", "country": "CA", "postalCode": "S4H0H9", "twitter": "None", "instagram": "None", "facebook": "None", "youtube": "None", "website": "None", "summary": "None", "logo": "None", "latitude": 49.66522236118433, "longitude": -103.85537345467961}, "899976583RR0001": {"name": "SOUTHEAST REGIONAL VICTIM SERVICES INC.", "designationCode": "C", "categoryCode": "59", "address": "301 11TH AVE", "city": "ESTEVAN", "province": "SK", "country": "CA", "postalCode": "S4A1C7", "twitter": "None", "instagram": "None", "facebook": "None", "youtube": "None", "website": "None", "summary": "None", "logo": "None", "latitude": 49.13881466604798, "longitude": -102.99351094924663}, "107995516RR0001": {"name": "SOUTHEAST SASKATCHEWAN YOUTH FOR CHRIST INC.", "designationCode": "C", "categoryCode": "47", "address": "BOX 771", "city": "WEYBURN", "province": "SK", "country": "CA", "postalCode": "S4H2K8", "twitter": "None", "instagram": "None", "facebook": "None", "youtube": "None", "website": "None", "summary": "None", "logo": "None", "latitude": 49.66802700000005, "longitude": -103.85818999999994}, "894293075RR0001": {"name": "SOUTHEAST WHITESHELL FIRE DEPARTMENT INC.", "designationCode": "C", "categoryCode": "59", "address": "BOX 88", "city": "WEST HAWK LAKE", "province": "MB", "country": "CA", "postalCode": "R0E2H0", "twitter": "None", "instagram": "None", "facebook": "None", "youtube": "None", "website": "None", "summary": "None", "logo": "None", "latitude": 49.745850000000075, "longitude": -95.21466999999996}, "867882243RR0001": {"name": "SOUTHEASTERN ALBERTA SEARCH AND RESCUE ASSOCIATION", "designationCode": "C", "categoryCode": "59", "address": "#8-49 VISCOUNT AVE SW", "city": "MEDICINE HAT", "province": "AB", "country": "CA", "postalCode": "T1A5G4", "twitter": "None", "instagram": "None", "facebook": "None", "youtube": "None", "website": "None", "summary": "None", "logo": "None", "latitude": 50.02196852622771, "longitude": -110.72237653052689}, "119157253RR0001": {"name": "SOUTHEASTERN MANITOBA FESTIVAL", "designationCode": "C", "categoryCode": "22", "address": "BOX 3334", "city": "STEINBACH", "province": "MB", "country": "CA", "postalCode": "R5G1P6", "twitter": "None", "instagram": "None", "facebook": "None", "youtube": "None", "website": "None", "summary": "None", "logo": "None", "latitude": 49.52572800000006, "longitude": -96.68393449999994}, "107995698RR0001": {"name": "SOUTHERN ALBERTA ART GALLERY ASSOCIATION", "designationCode": "C", "categoryCode": "50", "address": "601-3RD AVENUE SOUTH", "city": "LETHBRIDGE", "province": "AB", "country": "CA", "postalCode": "T1J0H4", "twitter": "None", "instagram": "None", "facebook": "None", "youtube": "None", "website": "None", "summary": "None", "logo": "None", "latitude": 49.695940757261496, "longitude": -112.838608000375}, "119157345RR0001": {"name": "SOUTHERN ALBERTA BIBLE CAMP 1978", "designationCode": "C", "categoryCode": "47", "address": "BOX 997", "city": "LETHBRIDGE", "province": "AB", "country": "CA", "postalCode": "T1J4A2", "twitter": "None", "instagram": "None", "facebook": "None", "youtube": "None", "website": "None", "summary": "None", "logo": "None", "latitude": 49.69383000000006, "longitude": -112.83373249999994}, "107995714RR0001": {"name": "SOUTHERN ALBERTA BRAIN INJURY SOCIETY", "designationCode": "C", "categoryCode": "11", "address": "102-2116 27 AVE NE", "city": "CALGARY", "province": "AB", "country": "CA", "postalCode": "T2E7A6", "twitter": "None", "instagram": "None", "facebook": "None", "youtube": "None", "website": "None", "summary": "None", "logo": "None", "latitude": 51.076930471579246, "longitude": -114.010263}, "107995730RR0001": {"name": "SOUTHERN ALBERTA COMMUNITY LIVING ASSOCIATION", "designationCode": "C", "categoryCode": "09", "address": "401 21A STREET NORTH", "city": "LETHBRIDGE", "province": "AB", "country": "CA", "postalCode": "T1H6L6", "twitter": "None", "instagram": "None", "facebook": "None", "youtube": "None", "website": "None", "summary": "None", "logo": "None", "latitude": 49.70408329000542, "longitude": -112.81079290313922}, "107995755RR0001": {"name": "SOUTHERN ALBERTA ETHNIC ASSOCIATION", "designationCode": "C", "categoryCode": "59", "address": "421 6 AVE S", "city": "LETHBRIDGE", "province": "AB", "country": "CA", "postalCode": "T1J0Y7", "twitter": "None", "instagram": "None", "facebook": "None", "youtube": "None", "website": "None", "summary": "None", "logo": "None", "latitude": 49.69099948600598, "longitude": -112.84054122453689}, "896363504RR0001": {"name": "SOUTHERN ALBERTA FIREARMS EDUCATION SOCIETY", "designationCode": "C", "categoryCode": "29", "address": "880 HERITAGE BOULEVARD WEST   SUITE 234", "city": "LETHBRIDGE", "province": "AB", "country": "CA", "postalCode": "T1K7V5", "twitter": "None", "instagram": "None", "facebook": "None", "youtube": "None", "website": "None", "summary": "None", "logo": "None", "latitude": 49.69708368483959, "longitude": -112.89311987059675}, "107995763RR0001": {"name": "SOUTHERN ALBERTA HERITAGE LANGUAGE ASSOCIATION", "designationCode": "C", "categoryCode": "21", "address": "STE 205 1409 EDMONTON TRAIL NE", "city": "CALGARY", "province": "AB", "country": "CA", "postalCode": "T2E3K8", "twitter": "None", "instagram": "None", "facebook": "None", "youtube": "None", "website": "None", "summary": "None", "logo": "None", "latitude": 51.06474142492354, "longitude": -114.0563351775058}, "120563143RR0001": {"name": "SOUTHERN ALBERTA INDIVIDUALIZED PLANNING ASSOCIATION", "designationCode": "C", "categoryCode": "59", "address": "210 - 410 STAFFORD DR S", "city": "LETHBRIDGE", "province": "AB", "country": "CA", "postalCode": "T1J2L2", "twitter": "None", "instagram": "None", "facebook": "None", "youtube": "None", "website": "None", "summary": "None", "logo": "None", "latitude": 49.69382857017565, "longitude": -112.83373406967706}, "107995789RR0001": {"name": "SOUTHERN ALBERTA INSTITUTE OF TECHNOLOGY", "designationCode": "C", "categoryCode": "20", "address": "1301 16 AVE NW", "city": "CALGARY", "province": "AB", "country": "CA", "postalCode": "T2M0L4", "twitter": "None", "instagram": "None", "facebook": "None", "youtube": "None", "website": "None", "summary": "None", "logo": "None", "latitude": 51.06679851788917, "longitude": -114.0897825}, "897013223RR0001": {"name": "SOUTHERN ALBERTA LAND TRUST SOCIETY", "designationCode": "C", "categoryCode": "52", "address": "PO BOX 45016 RPO HIGWOOD", "city": "HIGH RIVER", "province": "AB", "country": "CA", "postalCode": "T1V1R7", "twitter": "None", "instagram": "None", "facebook": "None", "youtube": "None", "website": "None", "summary": "None", "logo": "None", "latitude": 50.57484016940314, "longitude": -113.88951}, "891538613RR0001": {"name": "SOUTHERN ALBERTA MEDICAIR SOCIETY", "designationCode": "A", "categoryCode": "13", "address": "12 - 49 VISCOUNT AVE SW", "city": "MEDICINE HAT", "province": "AB", "country": "CA", "postalCode": "T1A5G4", "twitter": "None", "instagram": "None", "facebook": "None", "youtube": "None", "website": "None", "summary": "None", "logo": "None", "latitude": 50.02196852622771, "longitude": -110.72237653052689}, "119157410RR0001": {"name": "SOUTHERN ALBERTA PIONEERS' FOUNDATION", "designationCode": "C", "categoryCode": "50", "address": "3625 4TH STREET S.W.", "city": "CALGARY", "province": "AB", "country": "CA", "postalCode": "T2S1Y3", "twitter": "None", "instagram": "None", "facebook": "None", "youtube": "None", "website": "None", "summary": "None", "logo": "None", "latitude": 51.022152000000006, "longitude": -114.07159716639731}, "859277287RR0001": {"name": "SOUTHERN ALBERTA ROTTWEILER RESCUE SOCIETY", "designationCode": "B", "categoryCode": "54", "address": "203 RIVERWOOD CIRCLE SE", "city": "CALGARY", "province": "AB", "country": "CA", "postalCode": "T2C4A8", "twitter": "None", "instagram": "None", "facebook": "None", "youtube": "None", "website": "None", "summary": "None", "logo": "None", "latitude": 50.97175947071388, "longitude": -114.01421450291419}, "129960639RR0001": {"name": "SOUTHERN ALBERTA SOCIETY FOR THE HANDICAPPED", "designationCode": "C", "categoryCode": "09", "address": "BOX 280", "city": "MAGRATH", "province": "AB", "country": "CA", "postalCode": "T0K1J0", "twitter": "None", "instagram": "None", "facebook": "None", "youtube": "None", "website": "None", "summary": "None", "logo": "None", "latitude": 49.41887400000001, "longitude": -112.86699300000001}, "119157436RR0001": {"name": "SOUTHERN ALCARE SOCIETY AND INDUSTRIES", "designationCode": "C", "categoryCode": "57", "address": "520-7TH STREET SOUTH", "city": "LETHBRIDGE", "province": "AB", "country": "CA", "postalCode": "T1J2H1", "twitter": "None", "instagram": "None", "facebook": "None", "youtube": "None", "website": "None", "summary": "None", "logo": "None", "latitude": 49.69250782965716, "longitude": -112.83685802600982}, "119157451RR0001": {"name": "SOUTHERN CORTES COMMUNITY ASSOCIATION", "designationCode": "C", "categoryCode": "56", "address": "BOX 222", "city": "MANSONS LANDING", "province": "BC", "country": "CA", "postalCode": "V0P1K0", "twitter": "None", "instagram": "None", "facebook": "None", "youtube": "None", "website": "None", "summary": "None", "logo": "None", "latitude": 50.036434079347345, "longitude": -124.97587983491626}, "122150204RR0001": {"name": "SOUTHERN FRONTENAC COMMUNITY SERVICES CORPORATION", "designationCode": "C", "categoryCode": "09", "address": "4419 GEORGE ST                PO BOX 43", "city": "SYDENHAM", "province": "ON", "country": "CA", "postalCode": "K0H2T0", "twitter": "None", "instagram": "None", "facebook": "None", "youtube": "None", "website": "None", "summary": "None", "logo": "None", "latitude": 44.411712276050146, "longitude": -76.59588596664271}, "119157469RR0001": {"name": "SOUTHERN HOMES SOCIETY OF EDMONTON", "designationCode": "C", "categoryCode": "01", "address": "10740 19 AVE NW", "city": "EDMONTON", "province": "AB", "country": "CA", "postalCode": "T6J6W9", "twitter": "None", "instagram": "None", "facebook": "None", "youtube": "None", "website": "None", "summary": "None", "logo": "None", "latitude": 53.44769041719058, "longitude": -113.50597067900637}, "138818984RR0001": {"name": "SOUTHERN INTERIOR BLUEBIRD TRAIL SOCIETY", "designationCode": "C", "categoryCode": "54", "address": "18588 OLD RICHTER PASS RD", "city": "OSOYOOS", "province": "BC", "country": "CA", "postalCode": "V0H1V5", "twitter": "None", "instagram": "None", "facebook": "None", "youtube": "None", "website": "None", "summary": "None", "logo": "None", "latitude": 49.068606906803986, "longitude": -119.57318025331845}, "866263031RR0001": {"name": "SOUTHERN INTERIOR WEED MANAGEMENT COMMITTEE", "designationCode": "C", "categoryCode": "52", "address": "76 - 7545 DALLAS DR", "city": "KAMLOOPS", "province": "BC", "country": "CA", "postalCode": "V2C6X9", "twitter": "None", "instagram": "None", "facebook": "None", "youtube": "None", "website": "None", "summary": "None", "logo": "None", "latitude": 50.66058349734563, "longitude": -120.12686552293816}, "119816338RR0001": {"name": "SOUTHERN MANITOBA CONCERTS INC.", "designationCode": "C", "categoryCode": "22", "address": "PO BOX 854", "city": "ALTONA", "province": "MB", "country": "CA", "postalCode": "R0G0B0", "twitter": "None", "instagram": "None", "facebook": "None", "youtube": "None", "website": "None", "summary": "None", "logo": "None", "latitude": 49.10353800000006, "longitude": -97.55120149999993}, "829842871RR0001": {"name": "SOUTHERN MANITOBA PROPHECY CONFERENCE INC.", "designationCode": "C", "categoryCode": "47", "address": "BOX 664                       RR 1 STN MAIN", "city": "WINKLER", "province": "MB", "country": "CA", "postalCode": "R6W4A1", "twitter": "None", "instagram": "None", "facebook": "None", "youtube": "None", "website": "None", "summary": "None", "logo": "None", "latitude": 49.18426565617661, "longitude": -97.93929615472052}, "106780976RR0001": {"name": "SOUTHERN OKANAGAN ASSOCIATION FOR INTEGRATED COMMUNITY LIVING", "designationCode": "C", "categoryCode": "11", "address": "PO BOX 138", "city": "OLIVER", "province": "BC", "country": "CA", "postalCode": "V0H1T0", "twitter": "None", "instagram": "None", "facebook": "None", "youtube": "None", "website": "None", "summary": "None", "logo": "None", "latitude": 49.182600000000036, "longitude": -119.55045999999999}, "892870734RR0001": {"name": "SOUTHERN OKANAGAN SECONDARY SCHOOL ENRICHMENT FUND SOCIETY", "designationCode": "A", "categoryCode": "21", "address": "1059 ROCKCLIFFE RD", "city": "OLIVER", "province": "BC", "country": "CA", "postalCode": "V0H1T6", "twitter": "None", "instagram": "None", "facebook": "None", "youtube": "None", "website": "None", "summary": "None", "logo": "None", "latitude": 49.176958465899794, "longitude": -119.56728322319013}, "869435727RR0001": {"name": "SOUTHERN ONTARIO DISTRICT OF A.C.O.P.", "designationCode": "C", "categoryCode": "39", "address": "PO BOX 422", "city": "AYLMER", "province": "ON", "country": "CA", "postalCode": "N5H3E8", "twitter": "None", "instagram": "None", "facebook": "None", "youtube": "None", "website": "None", "summary": "None", "logo": "None", "latitude": 42.773010000000056, "longitude": -80.98362349999994}, "107798167RR0001": {"name": "SOUTHERN ONTARIO LIBRARY SERVICE", "designationCode": "C", "categoryCode": "50", "address": "1504 - 1 YONGE ST", "city": "TORONTO", "province": "ON", "country": "CA", "postalCode": "M5E1E5", "twitter": "None", "instagram": "None", "facebook": "None", "youtube": "None", "website": "None", "summary": "None", "logo": "None", "latitude": 43.64545122998886, "longitude": -79.37634527541341}, "139322267RR0001": {"name": "SOUTHERN ONTARIO LOCOMOTIVE RESTORATION SOCIETY", "designationCode": "C", "categoryCode": "56", "address": "50 ISABELLA ST                PO BOX 546", "city": "ST JACOBS", "province": "ON", "country": "CA", "postalCode": "N0B2N0", "twitter": "None", "instagram": "None", "facebook": "None", "youtube": "None", "website": "None", "summary": "None", "logo": "None", "latitude": 43.537961294902786, "longitude": -80.55636837947503}, "835156845RR0001": {"name": "SOUTHERN ONTARIO MILITARY MUSTER", "designationCode": "C", "categoryCode": "50", "address": "1390 DROUILLARD ROAD,", "city": "WINDSOR", "province": "ON", "country": "CA", "postalCode": "N8Y2R7", "twitter": "None", "instagram": "None", "facebook": "None", "youtube": "None", "website": "None", "summary": "None", "logo": "None", "latitude": 42.314202083270786, "longitude": -82.99540495279604}, "119157501RR0001": {"name": "SOUTHERN ONTARIO MODEL UNITED NATIONS ASSEMBLY", "designationCode": "C", "categoryCode": "21", "address": "371 BLOOR ST. W", "city": "TORONTO", "province": "ON", "country": "CA", "postalCode": "M5S2R7", "twitter": "None", "instagram": "None", "facebook": "None", "youtube": "None", "website": "None", "summary": "None", "logo": "None", "latitude": 43.666892845375024, "longitude": -79.4025973874431}, "849829965RR0001": {"name": "SOUTHERN SHORES CHURCH OF GOD IN CHRIST MENNONITE INC.", "designationCode": "C", "categoryCode": "39", "address": "541 HWY 77, RR5", "city": "LEAMINGTON", "province": "ON", "country": "CA", "postalCode": "N8H3V8", "twitter": "None", "instagram": "None", "facebook": "None", "youtube": "None", "website": "None", "summary": "None", "logo": "None", "latitude": 42.08974180109249, "longitude": -82.59741021492107}, "887995702RR0001": {"name": "SOUTHERN SUDAN HUMANITARIAN ACTION DEVELOPMENT AGENCY INC.", "designationCode": "C", "categoryCode": "02", "address": "502 APPLEBY PLACE", "city": "SASKATOON", "province": "SK", "country": "CA", "postalCode": "S7M4B9", "twitter": "None", "instagram": "None", "facebook": "None", "youtube": "None", "website": "None", "summary": "None", "logo": "None", "latitude": 52.1181705004327, "longitude": -106.71531316763806}, "119157519RR0001": {"name": "SOUTHERN VICTORIA CANCER ASSISTANCE FUND", "designationCode": "C", "categoryCode": "09", "address": "559 RTE 390", "city": "ROWENA", "province": "NB", "country": "CA", "postalCode": "E7H4N2", "twitter": "None", "instagram": "None", "facebook": "None", "youtube": "None", "website": "None", "summary": "None", "logo": "None", "latitude": 46.78329677898221, "longitude": -67.61489205590443}, "119157527RR0001": {"name": "SOUTHERN VICTORIA HIGH SCHOOL TRUST ACCOUNT", "designationCode": "C", "categoryCode": "21", "address": "13 SCHOOL STREET", "city": "PERTH-ANDOVER", "province": "NB", "country": "CA", "postalCode": "E7H4T4", "twitter": "None", "instagram": "None", "facebook": "None", "youtube": "None", "website": "None", "summary": "None", "logo": "None", "latitude": 46.74893556174626, "longitude": -67.69737182133848}, "119157576RR0001": {"name": "SOUTHEY BAPTIST CHURCH", "designationCode": "C", "categoryCode": "31", "address": "882 SEYMOUR CRES N", "city": "REGINA", "province": "SK", "country": "CA", "postalCode": "S4X2G4", "twitter": "None", "instagram": "None", "facebook": "None", "youtube": "None", "website": "None", "summary": "None", "logo": "None", "latitude": 50.4905565004327, "longitude": -104.66739344171619}, "119157584RR0001": {"name": "SOUTHEY SENIOR CITIZENS CLUB INC.", "designationCode": "C", "categoryCode": "56", "address": "BOX 154", "city": "SOUTHEY", "province": "SK", "country": "CA", "postalCode": "S0G4P0", "twitter": "None", "instagram": "None", "facebook": "None", "youtube": "None", "website": "None", "summary": "None", "logo": "None", "latitude": 50.93338000000006, "longitude": -104.50109999999995}, "119157592RR0001": {"name": "SOUTHEY UNITED CHURCH", "designationCode": "C", "categoryCode": "44", "address": "PO BOX 451", "city": "SOUTHEY", "province": "SK", "country": "CA", "postalCode": "S0G4P0", "twitter": "None", "instagram": "None", "facebook": "None", "youtube": "None", "website": "None", "summary": "None", "logo": "None", "latitude": 50.93338000000006, "longitude": -104.50109999999995}, "108067620RR0001": {"name": "SOUTHFORK BAPTIST CHURCH", "designationCode": "C", "categoryCode": "31", "address": "P.O. BOX 3246", "city": "LEDUC", "province": "AB", "country": "CA", "postalCode": "T9E6M1", "twitter": "None", "instagram": "None", "facebook": "None", "youtube": "None", "website": "None", "summary": "None", "logo": "None", "latitude": 53.26051200000006, "longitude": -113.54857099999992}, "119297497RR0001": {"name": "SOUTHFRASER PREGNANCY OPTIONS SOCIETY", "designationCode": "C", "categoryCode": "09", "address": "5-13634 104 AVE", "city": "SURREY", "province": "BC", "country": "CA", "postalCode": "V3T1W2", "twitter": "None", "instagram": "None", "facebook": "None", "youtube": "None", "website": "None", "summary": "None", "logo": "None", "latitude": 49.191597525102544, "longitude": -122.84429302553522}, "107996084RR0001": {"name": "SOUTHGATE ALLIANCE CHURCH", "designationCode": "C", "categoryCode": "39", "address": "3916-107 ST.", "city": "EDMONTON", "province": "AB", "country": "CA", "postalCode": "T6J2L4", "twitter": "None", "instagram": "None", "facebook": "None", "youtube": "None", "website": "None", "summary": "None", "logo": "None", "latitude": 53.47530900000001, "longitude": -113.50977716711846}, "890632276RR0001": {"name": "SOUTHGATE CHRISTIAN FELLOWSHIP SOCIETY", "designationCode": "C", "categoryCode": "39", "address": "120 5501 204 ST", "city": "LANGLEY", "province": "BC", "country": "CA", "postalCode": "V3A5N8", "twitter": "None", "instagram": "None", "facebook": "None", "youtube": "None", "website": "None", "summary": "None", "logo": "None", "latitude": 49.10259361176187, "longitude": -122.65667537712167}, "865488712RR0001": {"name": "SOUTHGATE COMMUNITY CHURCH", "designationCode": "C", "categoryCode": "39", "address": "1303 FRENCH SETTLEMENT RD", "city": "KEMPTVILLE", "province": "ON", "country": "CA", "postalCode": "K0G1J0", "twitter": "None", "instagram": "None", "facebook": "None", "youtube": "None", "website": "None", "summary": "None", "logo": "None", "latitude": 45.031751324288685, "longitude": -75.62297012749009}, "119288918RR1192": {"name": "SOUTHGATE CONGREGATION OF JEHOVAH'S WITNESSES", "designationCode": "C", "categoryCode": "61", "address": "11164 - 37 AVE NW", "city": "EDMONTON", "province": "AB", "country": "CA", "postalCode": "T6J0H2", "twitter": "None", "instagram": "None", "facebook": "None", "youtube": "None", "website": "None", "summary": "None", "logo": "None", "latitude": 53.47183341661365, "longitude": -113.52047430850016}, "119157667RR0001": {"name": "SOUTHGATE PRESBYTERIAN CHURCH", "designationCode": "C", "categoryCode": "37", "address": "ATT'N GERALD WATT, TREASURER  120 CLARENDON AVENUE", "city": "HAMILTON", "province": "ON", "country": "CA", "postalCode": "L9A3A5", "twitter": "None", "instagram": "None", "facebook": "None", "youtube": "None", "website": "None", "summary": "None", "logo": "None", "latitude": 43.23203559029698, "longitude": -79.87607501771366}, "108225897RR0001": {"name": "SOUTHLAKE REGIONAL HEALTH CENTRE", "designationCode": "C", "categoryCode": "10", "address": "596 DAVIS DRIVE", "city": "NEWMARKET", "province": "ON", "country": "CA", "postalCode": "L3Y2P9", "twitter": "None", "instagram": "None", "facebook": "None", "youtube": "None", "website": "None", "summary": "None", "logo": "None", "latitude": 44.06097967808875, "longitude": -79.4525777144465}, "131797540RR0001": {"name": "SOUTHLAKE REGIONAL HEALTH CENTRE FOUNDATION", "designationCode": "A", "categoryCode": "11", "address": "102-581 DAVIS DRIVE", "city": "NEWMARKET", "province": "ON", "country": "CA", "postalCode": "L3Y2P6", "twitter": "None", "instagram": "None", "facebook": "None", "youtube": "None", "website": "None", "summary": "None", "logo": "None", "latitude": 44.060837194586945, "longitude": -79.453716364014}, "879605111RR0001": {"name": "SOUTHLAKE RESIDENTIAL CARE VILLAGE", "designationCode": "C", "categoryCode": "10", "address": "640 GRACE ST", "city": "NEWMARKET", "province": "ON", "country": "CA", "postalCode": "L3Y2L1", "twitter": "None", "instagram": "None", "facebook": "None", "youtube": "None", "website": "None", "summary": "None", "logo": "None", "latitude": 44.05973475766085, "longitude": -79.45110801122406}, "107951618RR0154": {"name": "SOUTHLANDS COMMUNITY CHURCH OF THE SALVATION ARMY", "designationCode": "C", "categoryCode": "40", "address": "85 KESLAR RD", "city": "WINNIEPG", "province": "MB", "country": "CA", "postalCode": "R3T6A5", "twitter": "None", "instagram": "None", "facebook": "None", "youtube": "None", "website": "None", "summary": "None", "logo": "None", "latitude": 49.79377942218224, "longitude": -97.16853336819852}, "848982740RR0001": {"name": "SOUTHLANDS THERAPEUTIC RIDING SOCIETY", "designationCode": "C", "categoryCode": "56", "address": "6767 BALACLAVA ST", "city": "VANCOUVER", "province": "BC", "country": "CA", "postalCode": "V6N0A7", "twitter": "None", "instagram": "None", "facebook": "None", "youtube": "None", "website": "None", "summary": "None", "logo": "None", "latitude": 49.224688782488506, "longitude": -123.17608666298747}, "107996597RR0001": {"name": "SOUTHMINSTER UNITED CHURCH", "designationCode": "C", "categoryCode": "44", "address": "6801 HAGAR AVENUE", "city": "NIAGARA FALLS", "province": "ON", "country": "CA", "postalCode": "L2G5M5", "twitter": "None", "instagram": "None", "facebook": "None", "youtube": "None", "website": "None", "summary": "None", "logo": "None", "latitude": 43.07665424562873, "longitude": -79.10874011757723}, "119157923RR0001": {"name": "SOUTHMINSTER UNITED CHURCH", "designationCode": "C", "categoryCode": "44", "address": "15 AYLMER AVENUE", "city": "OTTAWA", "province": "ON", "country": "CA", "postalCode": "K1S3X1", "twitter": "None", "instagram": "None", "facebook": "None", "youtube": "None", "website": "None", "summary": "None", "logo": "None", "latitude": 45.39535938525005, "longitude": -75.68482463739964}, "119157964RR0001": {"name": "SOUTHMINSTER-STEINHAUER UNITED CHURCH", "designationCode": "C", "categoryCode": "44", "address": "10740-19 AVE", "city": "EDMONTON", "province": "AB", "country": "CA", "postalCode": "T6J6W9", "twitter": "None", "instagram": "None", "facebook": "None", "youtube": "None", "website": "None", "summary": "None", "logo": "None", "latitude": 53.44769041719058, "longitude": -113.50597067900637}, "842153074RR0001": {"name": "SOUTHRIDGE COMMUNITY CHURCH", "designationCode": "C", "categoryCode": "34", "address": "201 GLENRIDGE AVE", "city": "ST CATHARINES", "province": "ON", "country": "CA", "postalCode": "L2T3J6", "twitter": "None", "instagram": "None", "facebook": "None", "youtube": "None", "website": "None", "summary": "None", "logo": "None", "latitude": 43.14310172745109, "longitude": -79.23945441675882}, "129002499RR0001": {"name": "SOUTHRIDGE COMMUNITY CHURCH LLOYDMINSTER", "designationCode": "C", "categoryCode": "39", "address": "5701-41 ST", "city": "LLOYDMINSTER", "province": "AB", "country": "CA", "postalCode": "T9V2A4", "twitter": "None", "instagram": "None", "facebook": "None", "youtube": "None", "website": "None", "summary": "None", "logo": "None", "latitude": 53.27543648845881, "longitude": -110.02574249999999}, "119288918RR1068": {"name": "SOUTHRIDGE CONGREGATION OF JEHOVAH'S WITNESSES", "designationCode": "C", "categoryCode": "61", "address": "2055 17 ST SE", "city": "MEDICINE HAT", "province": "AB", "country": "CA", "postalCode": "T1A2B4", "twitter": "None", "instagram": "None", "facebook": "None", "youtube": "None", "website": "None", "summary": "None", "logo": "None", "latitude": 50.02337750346244, "longitude": -110.65366333236193}, "894849041RR0001": {"name": "SOUTHRIDGE FELLOWSHIP BAPTIST CHURCH", "designationCode": "C", "categoryCode": "31", "address": "22756 48TH AVE", "city": "LANGLEY", "province": "BC", "country": "CA", "postalCode": "V2Z2T6", "twitter": "None", "instagram": "None", "facebook": "None", "youtube": "None", "website": "None", "summary": "None", "logo": "None", "latitude": 49.0893545017317, "longitude": -122.593302}, "119288918RR1424": {"name": "SOUTHSHORE CONGREGATION OF JEHOVAH'S WITNESSES, BARRIE, ONTARIO", "designationCode": "C", "categoryCode": "61", "address": "3825 EAST STREET", "city": "INNISFIL", "province": "ON", "country": "CA", "postalCode": "L9S2L9", "twitter": "None", "instagram": "None", "facebook": "None", "youtube": "None", "website": "None", "summary": "None", "logo": "None", "latitude": 44.39512932001269, "longitude": -79.52194379179441}, "127568186RR0001": {"name": "SOUTHSIDE BAPTIST CHURCH,", "designationCode": "C", "categoryCode": "31", "address": "2211 PITT RIVER RD", "city": "PORT COQUITLAM", "province": "BC", "country": "CA", "postalCode": "V3C1R7", "twitter": "None", "instagram": "None", "facebook": "None", "youtube": "None", "website": "None", "summary": "None", "logo": "None", "latitude": 49.25421519458694, "longitude": -122.77911672410421}, "128485562RR0001": {"name": "SOUTHSIDE BIBLE CHURCH", "designationCode": "C", "categoryCode": "39", "address": "1269 ST ANNE'S ROAD", "city": "WINNIPEG", "province": "MB", "country": "CA", "postalCode": "R2N4G4", "twitter": "None", "instagram": "None", "facebook": "None", "youtube": "None", "website": "None", "summary": "None", "logo": "None", "latitude": 49.81135090149445, "longitude": -97.07383747065654}, "119158541RR0001": {"name": "SOUTHSIDE BOULARDERIE VOLUNTEER FIRE DEPARTMENT", "designationCode": "C", "categoryCode": "59", "address": "3840 HILLSIDE BOULARDERIE RD", "city": "SOUTHSIDE BOULARDERIE", "province": "NS", "country": "CA", "postalCode": "B1Y2R2", "twitter": "None", "instagram": "None", "facebook": "None", "youtube": "None", "website": "None", "summary": "None", "logo": "None", "latitude": 46.17879548156257, "longitude": -60.477007796583585}, "106923626RR0001": {"name": "SOUTHSIDE CHURCH OF CHRIST", "designationCode": "C", "categoryCode": "39", "address": "2720 21 AVE SOUTH", "city": "LETHBRIDGE", "province": "AB", "country": "CA", "postalCode": "T1K1H8", "twitter": "None", "instagram": "None", "facebook": "None", "youtube": "None", "website": "None", "summary": "None", "logo": "None", "latitude": 49.67271954674263, "longitude": -112.8020328337469}, "107703415RR0001": {"name": "SOUTHSIDE COMMUNITY CHURCH", "designationCode": "C", "categoryCode": "39", "address": "PO BOX 332", "city": "MILTON", "province": "ON", "country": "CA", "postalCode": "L9T4Y9", "twitter": "None", "instagram": "None", "facebook": "None", "youtube": "None", "website": "None", "summary": "None", "logo": "None", "latitude": 43.51104600000005, "longitude": -79.88386399999993}, "891460362RR0001": {"name": "SOUTHSIDE COMMUNITY CHURCH", "designationCode": "C", "categoryCode": "31", "address": "12642-100TH AVENUE", "city": "SURREY", "province": "BC", "country": "CA", "postalCode": "V3V2X7", "twitter": "None", "instagram": "None", "facebook": "None", "youtube": "None", "website": "None", "summary": "None", "logo": "None", "latitude": 49.18446760536997, "longitude": -122.87169202898721}, "869388355RR0001": {"name": "SOUTHSIDE PENTECOSTAL ASSEMBLY", "designationCode": "C", "categoryCode": "36", "address": "41 BIRCHWOOD RD", "city": "REGINA", "province": "SK", "country": "CA", "postalCode": "S4S5N3", "twitter": "None", "instagram": "None", "facebook": "None", "youtube": "None", "website": "None", "summary": "None", "logo": "None", "latitude": 50.40001867055227, "longitude": -104.6044974119687}, "119158566RR0001": {"name": "SOUTHSIDE PENTECOSTAL ASSEMBLY OF EDMONTON", "designationCode": "C", "categoryCode": "36", "address": "2821-109 STREET", "city": "EDMONTON", "province": "AB", "country": "CA", "postalCode": "T6J6B7", "twitter": "None", "instagram": "None", "facebook": "None", "youtube": "None", "website": "None", "summary": "None", "logo": "None", "latitude": 53.45882498058163, "longitude": -113.509525841307}, "826341877RR0001": {"name": "SOUTHSIDE VICTORY CHURCH FELLOWSHIP", "designationCode": "C", "categoryCode": "39", "address": "6402 1A STREET SW", "city": "CALGARY", "province": "AB", "country": "CA", "postalCode": "T2H0G6", "twitter": "None", "instagram": "None", "facebook": "None", "youtube": "None", "website": "None", "summary": "None", "logo": "None", "latitude": 50.9955182072392, "longitude": -114.0675793156332}, "860010651RR0001": {"name": "SOUTHSIDE VOLUNTEER FIRE DEPARTMENT SOCIETY", "designationCode": "C", "categoryCode": "59", "address": "1122 WHITNEY WAY              P.O. BOX 99", "city": "SOUTHBANK", "province": "BC", "country": "CA", "postalCode": "V0J2P0", "twitter": "None", "instagram": "None", "facebook": "None", "youtube": "None", "website": "None", "summary": "None", "logo": "None", "latitude": 32.77240347017121, "longitude": -115.56422993239798}, "119158590RR0001": {"name": "SOUTHSIDE WORSHIP CENTRE", "designationCode": "C", "categoryCode": "36", "address": "55 EMPEROR STREET", "city": "AJAX", "province": "ON", "country": "CA", "postalCode": "L1S1M9", "twitter": "None", "instagram": "None", "facebook": "None", "youtube": "None", "website": "None", "summary": "None", "logo": "None", "latitude": 43.83911495862443, "longitude": -79.01163490423575}, "896967759RR0001": {"name": "SOUTHVAN FOUNDATION", "designationCode": "C", "categoryCode": "09", "address": "811 WINTHROP STREET", "city": "NEW WESTMINSTER", "province": "BC", "country": "CA", "postalCode": "V3L5N4", "twitter": "None", "instagram": "None", "facebook": "None", "youtube": "None", "website": "None", "summary": "None", "logo": "None", "latitude": 49.23231947648952, "longitude": -122.89693302351048}, "119158699RR0001": {"name": "SOUTHVIEW ALLIANCE CHURCH", "designationCode": "C", "categoryCode": "39", "address": "20200 WALDEN BLVD SE", "city": "CALGARY", "province": "AB", "country": "CA", "postalCode": "T2X0N4", "twitter": "None", "instagram": "None", "facebook": "None", "youtube": "None", "website": "None", "summary": "None", "logo": "None", "latitude": 50.87239971135091, "longitude": -114.02979757005613}, "870530904RR0001": {"name": "SOUTHVIEW CHRISTIAN FELLOWSHIP OF EDMONTON", "designationCode": "C", "categoryCode": "45", "address": "11404-44A AV", "city": "EDMONTON", "province": "AB", "country": "CA", "postalCode": "T6J0Z9", "twitter": "None", "instagram": "None", "facebook": "None", "youtube": "None", "website": "None", "summary": "None", "logo": "None", "latitude": 53.48238740940031, "longitude": -113.52466772286346}, "107997538RR0001": {"name": "SOUTHVIEW CHURCH OF GOD", "designationCode": "C", "categoryCode": "39", "address": "2366 SOUTHVIEW DRIVE S E", "city": "MEDICINE HAT", "province": "AB", "country": "CA", "postalCode": "T1B1R2", "twitter": "None", "instagram": "None", "facebook": "None", "youtube": "None", "website": "None", "summary": "None", "logo": "None", "latitude": 50.0165810460788, "longitude": -110.64263766639732}, "119158723RR0001": {"name": "SOUTHVILLE CHURCH OF CHRIST", "designationCode": "C", "categoryCode": "39", "address": "6709, RR#2", "city": "WEYMOUTH", "province": "NS", "country": "CA", "postalCode": "B0W3T0", "twitter": "None", "instagram": "None", "facebook": "None", "youtube": "None", "website": "None", "summary": "None", "logo": "None", "latitude": 44.40479821896017, "longitude": -65.99849728761068}}