{"131488579RR0001": {"name": "LEAMINGTON UNITED MENNONITE CHURCH", "designationCode": "C", "categoryCode": "34", "address": "78 OAK ST E", "city": "LEAMINGTON", "province": "ON", "country": "CA", "postalCode": "N8H2C6", "twitter": "None", "instagram": "None", "facebook": "None", "youtube": "None", "website": "None", "summary": "None", "logo": "None", "latitude": 42.04630552063048, "longitude": -82.59330505689883}, "871056842RR0001": {"name": "LEAR CORPORATION CANADA LTD EMPLOYEES CHARITY TRUST", "designationCode": "A", "categoryCode": "75", "address": "660 MONARCH AVE", "city": "AJAX", "province": "ON", "country": "CA", "postalCode": "L1S2G9", "twitter": "None", "instagram": "None", "facebook": "None", "youtube": "None", "website": "None", "summary": "None", "logo": "None", "latitude": 43.833153578637464, "longitude": -79.02026544584194}, "129598827RR0001": {"name": "LEARNING & GROWING DAYCARE INCORPORATED", "designationCode": "C", "categoryCode": "01", "address": "3659 ROBLIN BLVD", "city": "WINNIPEG", "province": "MB", "country": "CA", "postalCode": "R3R0E2", "twitter": "None", "instagram": "None", "facebook": "None", "youtube": "None", "website": "None", "summary": "None", "logo": "None", "latitude": 49.86830645325739, "longitude": -97.26123258396326}, "888753795RR0001": {"name": "LEARNING CENTRE FOR GEORGINA", "designationCode": "C", "categoryCode": "21", "address": "23324  WOODBINE AVE.", "city": "KESWICK", "province": "ON", "country": "CA", "postalCode": "L4P3E9", "twitter": "None", "instagram": "None", "facebook": "None", "youtube": "None", "website": "None", "summary": "None", "logo": "None", "latitude": 44.21246660058303, "longitude": -79.44329858070142}, "119251973RR0001": {"name": "LEARNING DIFFICULTIES CENTRE OF BC", "designationCode": "C", "categoryCode": "21", "address": "BOX 1068", "city": "PRINCE GEORGE", "province": "BC", "country": "CA", "postalCode": "V2L4V2", "twitter": "None", "instagram": "None", "facebook": "None", "youtube": "None", "website": "None", "summary": "None", "logo": "None", "latitude": 53.91241800000006, "longitude": -122.74463149999994}, "119010478RR0001": {"name": "LEARNING DISABILITIES ASSOCIATION OF ALBERTA", "designationCode": "C", "categoryCode": "11", "address": "PO BOX 29011 RPO PLEASANTVIEW", "city": "EDMONTON", "province": "AB", "country": "CA", "postalCode": "T6H5Z6", "twitter": "None", "instagram": "None", "facebook": "None", "youtube": "None", "website": "None", "summary": "None", "logo": "None", "latitude": 53.49372000000005, "longitude": -113.50692999999995}, "119010486RR0001": {"name": "LEARNING DISABILITIES ASSOCIATION OF ALBERTA - EDMONTON CHAPTER", "designationCode": "C", "categoryCode": "11", "address": "RM 120, 10510-45 AVENUE", "city": "EDMONTON", "province": "AB", "country": "CA", "postalCode": "T6H0A1", "twitter": "None", "instagram": "None", "facebook": "None", "youtube": "None", "website": "None", "summary": "None", "logo": "None", "latitude": 53.483136458306355, "longitude": -113.50337302553523}, "135677888RR0001": {"name": "LEARNING DISABILITIES ASSOCIATION OF ALBERTA-RED DEER CHAPTER", "designationCode": "C", "categoryCode": "21", "address": "3757 43RD AVE                 LOWER LEVEL", "city": "RED DEER", "province": "AB", "country": "CA", "postalCode": "T4N3B7", "twitter": "None", "instagram": "None", "facebook": "None", "youtube": "None", "website": "None", "summary": "None", "logo": "None", "latitude": 52.259112000000016, "longitude": -113.79580912681074}, "119206506RR0002": {"name": "LEARNING DISABILITIES ASSOCIATION OF B.C. FRASER SOUTH CHAPTER", "designationCode": "C", "categoryCode": "11", "address": "101 - 14225 57 AVE", "city": "SURREY", "province": "BC", "country": "CA", "postalCode": "V3X0H6", "twitter": "None", "instagram": "None", "facebook": "None", "youtube": "None", "website": "None", "summary": "None", "logo": "None", "latitude": 49.106462582759775, "longitude": -122.82784331548423}, "108166307RR0001": {"name": "LEARNING DISABILITIES ASSOCIATION OF BC - VANCOUVER CHAPTER", "designationCode": "C", "categoryCode": "11", "address": "3292 EAST BROADWAY", "city": "VANCOUVER", "province": "BC", "country": "CA", "postalCode": "V5M1Z8", "twitter": "None", "instagram": "None", "facebook": "None", "youtube": "None", "website": "None", "summary": "None", "logo": "None", "latitude": 49.26180847108959, "longitude": -123.03405524633638}, "107605800RR0001": {"name": "LEARNING DISABILITIES ASSOCIATION OF BRITISH COLUMBIA", "designationCode": "C", "categoryCode": "11", "address": "5 - 774 BAY ST", "city": "VICTORIA", "province": "BC", "country": "CA", "postalCode": "V8T5E4", "twitter": "None", "instagram": "None", "facebook": "None", "youtube": "None", "website": "None", "summary": "None", "logo": "None", "latitude": 48.4356314760513, "longitude": -123.36349984096027}, "866245442RR0001": {"name": "LEARNING DISABILITIES ASSOCIATION OF BRITISH COLUMBIA, VERNON CHAPTER", "designationCode": "C", "categoryCode": "11", "address": "SUITE 102, 3402-27 AVENUE", "city": "VERNON", "province": "BC", "country": "CA", "postalCode": "V1T1S1", "twitter": "None", "instagram": "None", "facebook": "None", "youtube": "None", "website": "None", "summary": "None", "logo": "None", "latitude": 50.26130859781307, "longitude": -119.27748610949848}, "107605776RR0001": {"name": "LEARNING DISABILITIES ASSOCIATION OF CHATHAM-KENT", "designationCode": "C", "categoryCode": "11", "address": "BOX 1424", "city": "CHATHAM", "province": "ON", "country": "CA", "postalCode": "N7M5W8", "twitter": "None", "instagram": "None", "facebook": "None", "youtube": "None", "website": "None", "summary": "None", "logo": "None", "latitude": 42.404613000000055, "longitude": -82.18960099999994}, "119010387RR0001": {"name": "LEARNING DISABILITIES ASSOCIATION OF HALTON", "designationCode": "C", "categoryCode": "11", "address": "560 GUELPH LINE", "city": "BURLINGTON", "province": "ON", "country": "CA", "postalCode": "L7R3M4", "twitter": "None", "instagram": "None", "facebook": "None", "youtube": "None", "website": "None", "summary": "None", "logo": "None"}, "896863370RR0001": {"name": "LEARNING DISABILITIES ASSOCIATION OF LAMBTON COUNTY", "designationCode": "C", "categoryCode": "11", "address": "394 BRADFORD DR", "city": "SARNIA", "province": "ON", "country": "CA", "postalCode": "N7S5Z2", "twitter": "None", "instagram": "None", "facebook": "None", "youtube": "None", "website": "None", "summary": "None", "logo": "None", "latitude": 42.97510288579983, "longitude": -82.36066769477223}, "119010452RR0001": {"name": "LEARNING DISABILITIES ASSOCIATION OF MANITOBA INC.", "designationCode": "C", "categoryCode": "11", "address": "617 ERIN STREET", "city": "WINNIPEG", "province": "MB", "country": "CA", "postalCode": "R3G2W1", "twitter": "None", "instagram": "None", "facebook": "None", "youtube": "None", "website": "None", "summary": "None", "logo": "None", "latitude": 49.88500904079868, "longitude": -97.1850676113744}, "119052710RR0001": {"name": "LEARNING DISABILITIES ASSOCIATION OF NEW BRUNSWICK INC.\\TROUBLES D'APPRENTISSAGE-ASSOCIATION DU NOUVEAU-BRUNSWICK INC.", "designationCode": "C", "categoryCode": "11", "address": "403 REGENT ST,SUITE 203", "city": "FREDERICTON", "province": "NB", "country": "CA", "postalCode": "E3B3X6", "twitter": "None", "instagram": "None", "facebook": "None", "youtube": "None", "website": "None", "summary": "None", "logo": "None", "latitude": 45.95485146878063, "longitude": -66.64417816501233}, "119010296RR0001": {"name": "LEARNING DISABILITIES ASSOCIATION OF NEWFOUNDLAND AND LABRADOR INC.", "designationCode": "C", "categoryCode": "11", "address": "301-66 KENMOUNT ROAD", "city": "ST. JOHN'S", "province": "NL", "country": "CA", "postalCode": "A1B3V7", "twitter": "None", "instagram": "None", "facebook": "None", "youtube": "None", "website": "None", "summary": "None", "logo": "None", "latitude": 47.55801547546392, "longitude": -52.757423161999014}, "732919097RR0001": {"name": "LEARNING DISABILITIES ASSOCIATION OF NIAGARA REGION", "designationCode": "C", "categoryCode": "11", "address": "366 ST. PAUL STREET", "city": "ST. CATHARINES", "province": "ON", "country": "CA", "postalCode": "L2R3N2", "twitter": "None", "instagram": "None", "facebook": "None", "youtube": "None", "website": "None", "summary": "None", "logo": "None", "latitude": 43.16044054896432, "longitude": -79.24139890905451}, "124367145RR0001": {"name": "LEARNING DISABILITIES ASSOCIATION OF ONTARIO", "designationCode": "C", "categoryCode": "11", "address": "365 EVANS AVENUE              SUITE 202", "city": "TORONTO", "province": "ON", "country": "CA", "postalCode": "M8Z1K2", "twitter": "None", "instagram": "None", "facebook": "None", "youtube": "None", "website": "None", "summary": "None", "logo": "None", "latitude": 43.616088673841816, "longitude": -79.52306911919334}, "119010304RR0001": {"name": "LEARNING DISABILITIES ASSOCIATION OF OTTAWA-CARLTON (ANGLOPHONE)", "designationCode": "C", "categoryCode": "11", "address": "160 PERCY STREET", "city": "OTTAWA", "province": "ON", "country": "CA", "postalCode": "K1R6E5", "twitter": "None", "instagram": "None", "facebook": "None", "youtube": "None", "website": "None", "summary": "None", "logo": "None", "latitude": 45.40984696805947, "longitude": -75.70188819851073}, "119103083RR0001": {"name": "LEARNING DISABILITIES ASSOCIATION OF P.E.I. INC.", "designationCode": "C", "categoryCode": "21", "address": "40 ENMAN CRES", "city": "CHARLOTTETOWN", "province": "PE", "country": "CA", "postalCode": "C1E1E6", "twitter": "None", "instagram": "None", "facebook": "None", "youtube": "None", "website": "None", "summary": "None", "logo": "None", "latitude": 46.26020892990774, "longitude": -63.147127340887}, "119010460RR0001": {"name": "LEARNING DISABILITIES ASSOCIATION OF SASKATCHEWAN INC.", "designationCode": "C", "categoryCode": "11", "address": "2221 HANSELMAN CRT", "city": "SASKATOON", "province": "SK", "country": "CA", "postalCode": "S7L6A8", "twitter": "None", "instagram": "None", "facebook": "None", "youtube": "None", "website": "None", "summary": "None", "logo": "None", "latitude": 52.1603154676841, "longitude": -106.68100006275587}, "119010403RR0001": {"name": "LEARNING DISABILITIES ASSOCIATION OF WELLINGTON COUNTY", "designationCode": "C", "categoryCode": "11", "address": "17A 218 SILVERCREEK PKWY      BOX 233", "city": "GUELPH", "province": "ON", "country": "CA", "postalCode": "N1H8E8", "twitter": "None", "instagram": "None", "facebook": "None", "youtube": "None", "website": "None", "summary": "None", "logo": "None", "latitude": 43.54344866910997, "longitude": -80.28531017701486}, "844417881RR0001": {"name": "LEARNING DISABILITIES ASSOCIATION OF WINDSOR-ESSEX COUNTY", "designationCode": "C", "categoryCode": "09", "address": "647 OUELLETTE AVENUE          SUITE 101", "city": "WINDSOR", "province": "ON", "country": "CA", "postalCode": "N9A4J4", "twitter": "None", "instagram": "None", "facebook": "None", "youtube": "None", "website": "None", "summary": "None", "logo": "None", "latitude": 42.31356382901505, "longitude": -83.03650048228371}, "846202034RR0001": {"name": "LEARNING DISABILITIES ASSOCIATION OF YORK REGION", "designationCode": "C", "categoryCode": "11", "address": "221-11181 YONGE ST.", "city": "RICHMOND HILL", "province": "ON", "country": "CA", "postalCode": "L4S1L2", "twitter": "None", "instagram": "None", "facebook": "None", "youtube": "None", "website": "None", "summary": "None", "logo": "None", "latitude": 43.90013167721735, "longitude": -79.44391532566819}, "123034464RR0001": {"name": "LEARNING DISABILITIES ASSOCIATION OF YUKON", "designationCode": "C", "categoryCode": "09", "address": "128A COPPER ROAD", "city": "WHITEHORSE", "province": "YT", "country": "CA", "postalCode": "Y1A2Z6", "twitter": "None", "instagram": "None", "facebook": "None", "youtube": "None", "website": "None", "summary": "None", "logo": "None", "latitude": 60.73857312976176, "longitude": -135.08020836419536}, "135549517RR0001": {"name": "LEARNING FOR A SUSTAINABLE FUTURE/L'EDUCATION AU SERVICE DE LA TERRE", "designationCode": "C", "categoryCode": "21", "address": "343 YORK LANES YORK UNIVERSITY4700 KEELE ST", "city": "NORTH YORK", "province": "ON", "country": "CA", "postalCode": "M3J1P3", "twitter": "None", "instagram": "None", "facebook": "None", "youtube": "None", "website": "None", "summary": "None", "logo": "None", "latitude": 43.774500000000046, "longitude": -79.49392999999998}, "877406421RR0001": {"name": "LEARNING MATTERS EDUCATION CHARITY", "designationCode": "C", "categoryCode": "21", "address": "1600 - 2235 SHEPPARD AVE E", "city": "NORTH YORK", "province": "ON", "country": "CA", "postalCode": "M2J5B8", "twitter": "None", "instagram": "None", "facebook": "None", "youtube": "None", "website": "None", "summary": "None", "logo": "None", "latitude": 43.77572210359478, "longitude": -79.34397475891957}, "891278491RR0001": {"name": "LEARNING SUPPORT COUNCIL OP CANADA", "designationCode": "C", "categoryCode": "21", "address": "53 MALLORY CRESCENT", "city": "TORONTO", "province": "ON", "country": "CA", "postalCode": "M4G3L6", "twitter": "None", "instagram": "None", "facebook": "None", "youtube": "None", "website": "None", "summary": "None", "logo": "None", "latitude": 43.69537215430787, "longitude": -79.36694808407883}, "107605917RR0001": {"name": "LEARNING TO LIVE", "designationCode": "C", "categoryCode": "47", "address": "2 HIGHBROOK ST", "city": "KITCHENER", "province": "ON", "country": "CA", "postalCode": "N2E3P1", "twitter": "None", "instagram": "None", "facebook": "None", "youtube": "None", "website": "None", "summary": "None", "logo": "None", "latitude": 43.41092838940501, "longitude": -80.50059042697235}, "128950268RR0001": {"name": "LEARNING TREE CHILD DEVELOPMENT CENTER INC.", "designationCode": "C", "categoryCode": "01", "address": "1122 103RD ST", "city": "NORTH BATTLEFORD", "province": "SK", "country": "CA", "postalCode": "S9A1K6", "twitter": "None", "instagram": "None", "facebook": "None", "youtube": "None", "website": "None", "summary": "None", "logo": "None", "latitude": 52.773782341498595, "longitude": -108.29458933857434}, "119010536RR0001": {"name": "LEARNXS FOUNDATION INCORPORATED", "designationCode": "C", "categoryCode": "23", "address": "5050 YONGE STREET, MAIL ROOM", "city": "TORONTO", "province": "ON", "country": "CA", "postalCode": "M2N5N8", "twitter": "None", "instagram": "None", "facebook": "None", "youtube": "None", "website": "None", "summary": "None", "logo": "None", "latitude": 43.7669130910324, "longitude": -79.41232595992248}, "107606014RR0001": {"name": "LEASIDE PRESBYTERIAN CHURCH", "designationCode": "C", "categoryCode": "37", "address": "670 EGLINTON AV E", "city": "TORONTO", "province": "ON", "country": "CA", "postalCode": "M4G2K4", "twitter": "None", "instagram": "None", "facebook": "None", "youtube": "None", "website": "None", "summary": "None", "logo": "None", "latitude": 43.71203018737357, "longitude": -79.37254944491885}, "129874459RR0002": {"name": "LEASIDE UNITED CHURCH,", "designationCode": "C", "categoryCode": "44", "address": "822 MILLWOOD RD", "city": "TORONTO", "province": "ON", "country": "CA", "postalCode": "M4G1W4", "twitter": "None", "instagram": "None", "facebook": "None", "youtube": "None", "website": "None", "summary": "None", "logo": "None", "latitude": 43.70493437333349, "longitude": -79.36881824978364}, "892470642RR0001": {"name": "LEASK CHARITABLE TRUST", "designationCode": "B", "categoryCode": "39", "address": "3425 2 AVENUE SOUTH", "city": "LETHBRIDGE", "province": "AB", "country": "CA", "postalCode": "T1J4V1", "twitter": "None", "instagram": "None", "facebook": "None", "youtube": "None", "website": "None", "summary": "None", "logo": "None", "latitude": 49.696839530439966, "longitude": -112.78914308381903}, "135253508RR0001": {"name": "LEBANESE & ARAB SOCIAL SERVICES AGENCY OF OTTAWA-CARLETON - AGENCE LIBANAISE & ARABE DES SERVICES SOCIAUX D'OTTAWA-CARLE", "designationCode": "C", "categoryCode": "59", "address": "2410 HOLLY LANE", "city": "OTTAWA", "province": "ON", "country": "CA", "postalCode": "K1V7P1", "twitter": "None", "instagram": "None", "facebook": "None", "youtube": "None", "website": "None", "summary": "None", "logo": "None", "latitude": 45.378291164031396, "longitude": -75.63934358087619}, "119010619RR0001": {"name": "LEBANESE SYRIAN CANADIAN LADIES' AID SOCIETY", "designationCode": "C", "categoryCode": "09", "address": "1600 BOUL HENRI-BOURASSA O    BUREAU 116", "city": "MONTREAL", "province": "QC", "country": "CA", "postalCode": "H3M3E2", "twitter": "None", "instagram": "None", "facebook": "None", "youtube": "None", "website": "None", "summary": "None", "logo": "None", "latitude": 45.53653775630453, "longitude": -73.67905408947452}, "119010650RR0001": {"name": "LEBRET HISTORY BOOK COMMITTEE INC.", "designationCode": "C", "categoryCode": "50", "address": "BOX 26", "city": "LEBRET", "province": "SK", "country": "CA", "postalCode": "S0G2Y0", "twitter": "None", "instagram": "None", "facebook": "None", "youtube": "None", "website": "None", "summary": "None", "logo": "None", "latitude": 50.757840000000044, "longitude": -103.70525999999995}, "890678592RR0001": {"name": "LECTORIUM ROSICRUCIANUM", "designationCode": "C", "categoryCode": "39", "address": "1209 WATERLOO STREET", "city": "BADEN", "province": "ON", "country": "CA", "postalCode": "N3A1T1", "twitter": "None", "instagram": "None", "facebook": "None", "youtube": "None", "website": "None", "summary": "None", "logo": "None", "latitude": 43.39265090911278, "longitude": -80.7084624230227}, "828779421RR0001": {"name": "LEDAfrica Charitable Society", "designationCode": "C", "categoryCode": "09", "address": "1544 SCARLET HILL ROAD", "city": "NANAIMO", "province": "BC", "country": "CA", "postalCode": "V9T1J3", "twitter": "None", "instagram": "None", "facebook": "None", "youtube": "None", "website": "None", "summary": "None", "logo": "None", "latitude": 49.209588568382706, "longitude": -123.97336563503372}, "892104084RR0001": {"name": "LEDERMAN FOUNDATION", "designationCode": "B", "categoryCode": "03", "address": "950-2015 PEEL STREET", "city": "MONTREAL", "province": "QC", "country": "CA", "postalCode": "H3A1T8", "twitter": "None", "instagram": "None", "facebook": "None", "youtube": "None", "website": "None", "summary": "None", "logo": "None", "latitude": 45.502285816834025, "longitude": -73.57740999230029}, "849597844RR0002": {"name": "LEDGE LEADERSHIP", "designationCode": "C", "categoryCode": "47", "address": "788277 GREY ROAD 13           BOX 321", "city": "CLARKSBURG", "province": "ON", "country": "CA", "postalCode": "N0H1J0", "twitter": "None", "instagram": "None", "facebook": "None", "youtube": "None", "website": "None", "summary": "None", "logo": "None", "latitude": 44.53704600000006, "longitude": -80.46707749999993}, "119012136RR0001": {"name": "LEDUC & DISTRICT FOOD BANK ASSOCIATION", "designationCode": "C", "categoryCode": "09", "address": "PO BOX 5008 STN MAIN", "city": "LEDUC", "province": "AB", "country": "CA", "postalCode": "T9E6L5", "twitter": "None", "instagram": "None", "facebook": "None", "youtube": "None", "website": "None", "summary": "None", "logo": "None", "latitude": 53.26475400000001, "longitude": -113.56141274999999}, "887698868RR0001": {"name": "LEDUC & DISTRICT SENIOR CENTRE", "designationCode": "C", "categoryCode": "56", "address": "4907-46 ST", "city": "LEDUC", "province": "AB", "country": "CA", "postalCode": "T9E5V9", "twitter": "None", "instagram": "None", "facebook": "None", "youtube": "None", "website": "None", "summary": "None", "logo": "None", "latitude": 53.26458120788847, "longitude": -113.54527513858307}, "133000596RR0001": {"name": "LEDUC ALLIANCE CHURCH", "designationCode": "C", "categoryCode": "39", "address": "5503 BLACK GOLD DR", "city": "LEDUC", "province": "AB", "country": "CA", "postalCode": "T9E8C4", "twitter": "None", "instagram": "None", "facebook": "None", "youtube": "None", "website": "None", "summary": "None", "logo": "None", "latitude": 53.25810046104767, "longitude": -113.56393920745577}, "895142495RR0001": {"name": "LEDUC AND DISTRICT VICTIM ASSISTANCE SOCIETY", "designationCode": "C", "categoryCode": "09", "address": "# 1, 4119- 50 STREET", "city": "LEDUC", "province": "AB", "country": "CA", "postalCode": "T9E7L9", "twitter": "None", "instagram": "None", "facebook": "None", "youtube": "None", "website": "None", "summary": "None", "logo": "None", "latitude": 53.25323109660098, "longitude": -113.54471973457846}, "862038841RR0001": {"name": "LEDUC COMMUNITY BAPTIST CHURCH FELLOWSHIP", "designationCode": "C", "categoryCode": "31", "address": "3205 COADY BLVD", "city": "LEDUC", "province": "AB", "country": "CA", "postalCode": "T9E7J9", "twitter": "None", "instagram": "None", "facebook": "None", "youtube": "None", "website": "None", "summary": "None", "logo": "None", "latitude": 53.24476775411149, "longitude": -113.52443086089826}, "107608523RR0001": {"name": "LEDUC COMMUNITY LIVING ASSOCIATION", "designationCode": "C", "categoryCode": "11", "address": "4906-51 AVENUE", "city": "LEDUC", "province": "AB", "country": "CA", "postalCode": "T9E7H6", "twitter": "None", "instagram": "None", "facebook": "None", "youtube": "None", "website": "None", "summary": "None", "logo": "None", "latitude": 53.26561349321933, "longitude": -113.5500331902591}, "134960871RR0001": {"name": "LEDUC FELLOWSHIP CHURCH", "designationCode": "C", "categoryCode": "31", "address": "4401 ROLLYVIEW RD", "city": "LEDUC", "province": "AB", "country": "CA", "postalCode": "T9E7H4", "twitter": "None", "instagram": "None", "facebook": "None", "youtube": "None", "website": "None", "summary": "None", "logo": "None", "latitude": 53.250429343411824, "longitude": -113.53320973932934}, "130295561RR0001": {"name": "LEDUC FOUNDATION", "designationCode": "C", "categoryCode": "01", "address": "5118A 50 AVE", "city": "LEDUC", "province": "AB", "country": "CA", "postalCode": "T9E6V4", "twitter": "None", "instagram": "None", "facebook": "None", "youtube": "None", "website": "None", "summary": "None", "logo": "None", "latitude": 53.264849480283814, "longitude": -113.55560079364894}, "131376394RR0001": {"name": "LEDUC MUSIC FESTIVAL ASSOCIATION", "designationCode": "C", "categoryCode": "56", "address": "41 CORINTHIA DRIVE", "city": "LEDUC", "province": "AB", "country": "CA", "postalCode": "T9E4M7", "twitter": "None", "instagram": "None", "facebook": "None", "youtube": "None", "website": "None", "summary": "None", "logo": "None", "latitude": 53.255409099342266, "longitude": -113.55382786133094}, "874078009RR0001": {"name": "LEDUC PERFORMING ARTS AND CULTURAL FOUNDATION", "designationCode": "C", "categoryCode": "22", "address": "4308 - 50TH STREET", "city": "LEDUC", "province": "AB", "country": "CA", "postalCode": "T9E6K8", "twitter": "None", "instagram": "None", "facebook": "None", "youtube": "None", "website": "None", "summary": "None", "logo": "None", "latitude": 53.2573323965897, "longitude": -113.54940350190365}, "129723094RR0001": {"name": "LEDUC RURAL CRIME WATCH ASSOCIATION", "designationCode": "C", "categoryCode": "59", "address": "#1- 4119- 50 STREET", "city": "LEDUC", "province": "AB", "country": "CA", "postalCode": "T9E7L9", "twitter": "None", "instagram": "None", "facebook": "None", "youtube": "None", "website": "None", "summary": "None", "logo": "None", "latitude": 53.25323109660098, "longitude": -113.54471973457846}, "119012185RR0001": {"name": "LEDUC SEVENTH-DAY ADVENTIST CHURCH", "designationCode": "C", "categoryCode": "41", "address": "5816 HIGHWAY 2A", "city": "LACOMBE", "province": "AB", "country": "CA", "postalCode": "T4L2G5", "twitter": "None", "instagram": "None", "facebook": "None", "youtube": "None", "website": "None", "summary": "None", "logo": "None", "latitude": 52.474063600197404, "longitude": -113.71692568401835}, "107608762RR0001": {"name": "LEDUC SOCIETY FOR CHRISTIAN EDUCATION", "designationCode": "C", "categoryCode": "20", "address": "PO BOX 3827 STN MAIN", "city": "LEDUC", "province": "AB", "country": "CA", "postalCode": "T9E6M7", "twitter": "None", "instagram": "None", "facebook": "None", "youtube": "None", "website": "None", "summary": "None", "logo": "None", "latitude": 53.26475400000001, "longitude": -113.56141274999999}, "869673111RR0001": {"name": "LEDUC STONE BARN GARDEN SOCIETY", "designationCode": "C", "categoryCode": "50", "address": "1 ALEXANDRA PK", "city": "LEDUC", "province": "AB", "country": "CA", "postalCode": "T9E4C4", "twitter": "None", "instagram": "None", "facebook": "None", "youtube": "None", "website": "None", "summary": "None", "logo": "None", "latitude": 53.260738617707155, "longitude": -113.5493779225312}, "892878968RR0001": {"name": "LEDUC WEST ANTIQUE SOCIETY", "designationCode": "C", "categoryCode": "50", "address": "9745 33 AVE NW", "city": "EDMONTON", "province": "AB", "country": "CA", "postalCode": "T6N1B6", "twitter": "None", "instagram": "None", "facebook": "None", "youtube": "None", "website": "None", "summary": "None", "logo": "None", "latitude": 53.465795512840195, "longitude": -113.481414}, "139768725RR0001": {"name": "LEDUC/DEVON OILFIELD HISTORICAL SOCIETY", "designationCode": "C", "categoryCode": "50", "address": "6-20 HAVEN AVE", "city": "DEVON", "province": "AB", "country": "CA", "postalCode": "T9G2B9", "twitter": "None", "instagram": "None", "facebook": "None", "youtube": "None", "website": "None", "summary": "None", "logo": "None", "latitude": 53.3620834727331, "longitude": -113.729724}, "119012078RR0001": {"name": "LEDUC, ALBERTA, CONGREGATION OF JEHOVAH'S WITNESSES", "designationCode": "C", "categoryCode": "61", "address": "250-23549 TOWNSHIP RD 510", "city": "LEDUC COUNTY", "province": "AB", "country": "CA", "postalCode": "T4X0T1", "twitter": "None", "instagram": "None", "facebook": "None", "youtube": "None", "website": "None", "summary": "None", "logo": "None", "latitude": 53.36680550346246, "longitude": -113.357304}, "871851796RR0001": {"name": "LEE & GLADYS PAYNE CHARITABLE TRUST #13244550", "designationCode": "B", "categoryCode": "25", "address": "380 WELLINGTON STREET.,       12TH FLOOR", "city": "LONDON", "province": "ON", "country": "CA", "postalCode": "N6A5B5", "twitter": "None", "instagram": "None", "facebook": "None", "youtube": "None", "website": "None", "summary": "None", "logo": "None", "latitude": 42.98403487844074, "longitude": -81.24475227780037}, "890857576RR0001": {"name": "LEE TAK WAI FOUNDATION", "designationCode": "B", "categoryCode": "03", "address": "17 BARNWOOD COURT", "city": "DON MILLS", "province": "ON", "country": "CA", "postalCode": "M3A3G2", "twitter": "None", "instagram": "None", "facebook": "None", "youtube": "None", "website": "None", "summary": "None", "logo": "None", "latitude": 43.751528194818086, "longitude": -79.3400614758211}, "861215317RR0001": {"name": "LEE'S SENIORS HOUSING SOCIETY", "designationCode": "C", "categoryCode": "09", "address": "313 EAST PENDER ST.", "city": "VANCOUVER", "province": "BC", "country": "CA", "postalCode": "V6A1V1", "twitter": "None", "instagram": "None", "facebook": "None", "youtube": "None", "website": "None", "summary": "None", "logo": "None", "latitude": 49.28041271852503, "longitude": -123.0970351267272}, "141048546RR0001": {"name": "LEEDALE CHARITABLE TRUST", "designationCode": "B", "categoryCode": "39", "address": "3425 - 2 AVENUE SOUTH", "city": "LETHBRIDGE", "province": "AB", "country": "CA", "postalCode": "T1J4V1", "twitter": "None", "instagram": "None", "facebook": "None", "youtube": "None", "website": "None", "summary": "None", "logo": "None", "latitude": 49.696839530439966, "longitude": -112.78914308381903}, "107608945RR0001": {"name": "LEEDS AND GRENVILLE INTERVAL HOUSE", "designationCode": "C", "categoryCode": "01", "address": "2 COWAN AVE", "city": "BROCKVILLE", "province": "ON", "country": "CA", "postalCode": "K6V1W1", "twitter": "None", "instagram": "None", "facebook": "None", "youtube": "None", "website": "None", "summary": "None", "logo": "None", "latitude": 44.60017230207288, "longitude": -75.68926099087771}, "133080309RR0001": {"name": "LEESIDE SOCIETY", "designationCode": "C", "categoryCode": "09", "address": "PO BOX 6913", "city": "PORT HAWKSBURY", "province": "NS", "country": "CA", "postalCode": "B9A2W2", "twitter": "None", "instagram": "None", "facebook": "None", "youtube": "None", "website": "None", "summary": "None", "logo": "None", "latitude": 45.61601100000006, "longitude": -61.355122999999935}, "119012482RR0001": {"name": "LEFROY UNITED CHURCH", "designationCode": "C", "categoryCode": "44", "address": "PO BOX 38", "city": "LEFROY", "province": "ON", "country": "CA", "postalCode": "L0L1W0", "twitter": "None", "instagram": "None", "facebook": "None", "youtube": "None", "website": "None", "summary": "None", "logo": "None", "latitude": 44.26257000000004, "longitude": -79.55270999999993}, "131109563RR0001": {"name": "LEGACY - A CHURCH OF THE NAZARENE", "designationCode": "C", "categoryCode": "39", "address": "9012-160 ST", "city": "SURREY", "province": "BC", "country": "CA", "postalCode": "V4N3A5", "twitter": "None", "instagram": "None", "facebook": "None", "youtube": "None", "website": "None", "summary": "None", "logo": "None", "latitude": 49.166765999999996, "longitude": -122.77883998776632}, "814515854RR0001": {"name": "LEGACY CENTRE FOR THE PERFORMING ARTS SOCIETY", "designationCode": "C", "categoryCode": "22", "address": "1113 MARGINAL ROAD", "city": "HALIFAX", "province": "NS", "country": "CA", "postalCode": "B3H4P7", "twitter": "None", "instagram": "None", "facebook": "None", "youtube": "None", "website": "None", "summary": "None", "logo": "None", "latitude": 44.639260983351576, "longitude": -63.56640067941039}, "849539275RR0001": {"name": "LEGACY FOUNDATION OF CANADA", "designationCode": "A", "categoryCode": "03", "address": "1245 FRANKLIN BLVD", "city": "CAMBRIDGE", "province": "ON", "country": "CA", "postalCode": "N1R7E5", "twitter": "None", "instagram": "None", "facebook": "None", "youtube": "None", "website": "None", "summary": "None", "logo": "None", "latitude": 43.40878833778629, "longitude": -80.30762699368161}, "863471520RR0001": {"name": "LEGACY OF HOPE FOUNDATION", "designationCode": "C", "categoryCode": "09", "address": "4B - 1427 OGILVIE RD", "city": "GLOUCESTER", "province": "ON", "country": "CA", "postalCode": "K1J8M7", "twitter": "None", "instagram": "None", "facebook": "None", "youtube": "None", "website": "None", "summary": "None", "logo": "None", "latitude": 45.43080449518123, "longitude": -75.62027405845669}, "855622502RR0001": {"name": "LEGACY TO MEMBERS OF DUNREA ELEVATOR", "designationCode": "C", "categoryCode": "21", "address": "BOX 179", "city": "KILLARNEY", "province": "MB", "country": "CA", "postalCode": "R0K1G0", "twitter": "None", "instagram": "None", "facebook": "None", "youtube": "None", "website": "None", "summary": "None", "logo": "None", "latitude": 49.18482000000006, "longitude": -99.66915999999998}, "894166131RR0001": {"name": "LEGAL ARCHIVES SOCIETY OF ALBERTA", "designationCode": "C", "categoryCode": "50", "address": "400-1015 4TH ST SW", "city": "CALGARY", "province": "AB", "country": "CA", "postalCode": "T2R1J4", "twitter": "None", "instagram": "None", "facebook": "None", "youtube": "None", "website": "None", "summary": "None", "logo": "None", "latitude": 51.042865500000005, "longitude": -114.07157099999999}, "119012490RR0001": {"name": "LEGAL ASSISTANCE OF WINDSOR", "designationCode": "C", "categoryCode": "59", "address": "443 OUELLETTE AVE, 2ND FLOOR", "city": "WINDSOR", "province": "ON", "country": "CA", "postalCode": "N9A4J2", "twitter": "None", "instagram": "None", "facebook": "None", "youtube": "None", "website": "None", "summary": "None", "logo": "None", "latitude": 42.31576133720937, "longitude": -83.0379183294764}, "107865735RR0001": {"name": "LEGAL INFORMATION SOCIETY OF NOVA SCOTIA", "designationCode": "C", "categoryCode": "21", "address": "200 - 1663 BRUNSWICK ST", "city": "HALIFAX", "province": "NS", "country": "CA", "postalCode": "B3J3Z6", "twitter": "None", "instagram": "None", "facebook": "None", "youtube": "None", "website": "None", "summary": "None", "logo": "None", "latitude": 44.646173852905505, "longitude": -63.57649038132625}, "894515147RR0001": {"name": "LEGAL LIONS COMMUNITY TRANSPORTATION", "designationCode": "C", "categoryCode": "09", "address": "BOX 176", "city": "LEGAL", "province": "AB", "country": "CA", "postalCode": "T0G1L0", "twitter": "None", "instagram": "None", "facebook": "None", "youtube": "None", "website": "None", "summary": "None", "logo": "None", "latitude": 53.94802000000004, "longitude": -113.59432999999996}, "119012516RR0001": {"name": "LEGAL RESOURCE CENTRE OF ALBERTA LTD.", "designationCode": "C", "categoryCode": "20", "address": "800 10050 112 STREET", "city": "EDMONTON", "province": "AB", "country": "CA", "postalCode": "T5K2J1", "twitter": "None", "instagram": "None", "facebook": "None", "youtube": "None", "website": "None", "summary": "None", "logo": "None", "latitude": 53.54010883236194, "longitude": -113.51399673651078}, "132364951RR0001": {"name": "LEGAL SERVICES SOCIETY", "designationCode": "C", "categoryCode": "59", "address": "400-510 BURRARD ST", "city": "VANCOUVER", "province": "BC", "country": "CA", "postalCode": "V6C3A8", "twitter": "None", "instagram": "None", "facebook": "None", "youtube": "None", "website": "None", "summary": "None", "logo": "None", "latitude": 49.28636771492895, "longitude": -123.11808700092362}, "119012540RR0001": {"name": "LEGGATT'S POINT PRESBYTERIAN CHURCH", "designationCode": "C", "categoryCode": "37", "address": "P.O. BOX 189", "city": "PRICE", "province": "QC", "country": "CA", "postalCode": "G0J1Z0", "twitter": "None", "instagram": "None", "facebook": "None", "youtube": "None", "website": "None", "summary": "None", "logo": "None", "latitude": 48.600010011690344, "longitude": -68.12884220728456}, "119012557RR0001": {"name": "LEGION DE MARIE SENATUS DE MONTREAL", "designationCode": "C", "categoryCode": "49", "address": "1071 RUE DE LA CATHEDRALE", "city": "MONTREAL", "province": "QC", "country": "CA", "postalCode": "H3B2V4", "twitter": "None", "instagram": "None", "facebook": "None", "youtube": "None", "website": "None", "summary": "None", "logo": "None", "latitude": 45.49842495504641, "longitude": -73.56775853690353}, "871739769RR0001": {"name": "LEGION HOSPITAL TELETHON", "designationCode": "A", "categoryCode": "15", "address": "55 ANDERSON ST. P.O BOX 272", "city": "WABUSH", "province": "NL", "country": "CA", "postalCode": "A0R1B0", "twitter": "None", "instagram": "None", "facebook": "None", "youtube": "None", "website": "None", "summary": "None", "logo": "None", "latitude": 52.90523883628268, "longitude": -66.86899326259483}, "888005246RR0001": {"name": "LEGION OF CHRIST, CANADA, INCORPORATED", "designationCode": "C", "categoryCode": "46", "address": "RR1, CIVIC #19119             HWY #2", "city": "CORNWALL", "province": "ON", "country": "CA", "postalCode": "K6H5R5", "twitter": "None", "instagram": "None", "facebook": "None", "youtube": "None", "website": "None", "summary": "None", "logo": "None", "latitude": 45.055796684456254, "longitude": -74.56800188606158}, "893211375RR0001": {"name": "LEGION OF MARY - HAMILTON COMITIUM", "designationCode": "C", "categoryCode": "47", "address": "129 HUNTINGWOOD AVE", "city": "DUNDAS", "province": "ON", "country": "CA", "postalCode": "L9H6X5", "twitter": "None", "instagram": "None", "facebook": "None", "youtube": "None", "website": "None", "summary": "None", "logo": "None", "latitude": 43.25945531836791, "longitude": -79.98297839523337}, "889351847RR0001": {"name": "LEGION OF MARY REGIA OF OTTAWA", "designationCode": "C", "categoryCode": "49", "address": "348 - 340 MCLEOD ST", "city": "OTTAWA", "province": "ON", "country": "CA", "postalCode": "K2P1A4", "twitter": "None", "instagram": "None", "facebook": "None", "youtube": "None", "website": "None", "summary": "None", "logo": "None", "latitude": 45.41184362585846, "longitude": -75.6923210158117}, "894178987RR0001": {"name": "LEGION ROYALE CANADIENNE \"ORTONA 42\" FONDS DU COQUELICOT", "designationCode": "C", "categoryCode": "05", "address": "261 AVENUE HOTEL DE VILLE", "city": "SHIPPAGAN", "province": "NB", "country": "CA", "postalCode": "E8S1L4", "twitter": "None", "instagram": "None", "facebook": "None", "youtube": "None", "website": "None", "summary": "None", "logo": "None"}, "119012581RR0001": {"name": "LEGION ROYALE CANADIENNE CAISSE DU COQUELICOT FILIALE 44", "designationCode": "C", "categoryCode": "09", "address": "5315 BOUL ROYALE", "city": "SHAWINIGAN", "province": "QC", "country": "CA", "postalCode": "G9N8G6", "twitter": "None", "instagram": "None", "facebook": "None", "youtube": "None", "website": "None", "summary": "None", "logo": "None", "latitude": 46.57004714686336, "longitude": -72.72533616769537}, "890744196RR0001": {"name": "LEICESTER CEMETERY SOCIETY", "designationCode": "C", "categoryCode": "59", "address": "3864 HWY.204", "city": "EAST LEICESTER", "province": "NS", "country": "CA", "postalCode": "B4H3Y1", "twitter": "None", "instagram": "None", "facebook": "None", "youtube": "None", "website": "None", "summary": "None", "logo": "None", "latitude": 45.78863902977162, "longitude": -63.994513611065}, "119288918RR0377": {"name": "LEIGH CONGREGATION OF JEHOVAH'S WITNESSES, KAMLOOPS, BRITISHCOLUMBIA", "designationCode": "C", "categoryCode": "61", "address": "35-1800 TRANQUILLE ROAD       P.O.BOX 25012", "city": "KAMLOOPS", "province": "BC", "country": "CA", "postalCode": "V2B3L9", "twitter": "None", "instagram": "None", "facebook": "None", "youtube": "None", "website": "None", "summary": "None", "logo": "None", "latitude": 50.69965551154118, "longitude": -120.3952023805182}, "119013050RR0001": {"name": "LEIGHTON FORD MINISTRIES", "designationCode": "C", "categoryCode": "47", "address": "8 LEYLAND PUT", "city": "OTTAWA", "province": "ON", "country": "CA", "postalCode": "K1V0X8", "twitter": "None", "instagram": "None", "facebook": "None", "youtube": "None", "website": "None", "summary": "None", "logo": "None", "latitude": 45.35419563056166, "longitude": -75.67014639231918}, "118933399RR0001": {"name": "LEMA'AN ZION", "designationCode": "C", "categoryCode": "47", "address": "26 HALE ROAD                  PO BOX 188", "city": "BRAMPTON", "province": "ON", "country": "CA", "postalCode": "L6V2L1", "twitter": "None", "instagram": "None", "facebook": "None", "youtube": "None", "website": "None", "summary": "None", "logo": "None", "latitude": 43.68523130867304, "longitude": -79.72001316313734}, "119013118RR0001": {"name": "LEMBERG & DISTRICT DONORS CHOICE", "designationCode": "A", "categoryCode": "05", "address": "BOX 431", "city": "LEMBERG", "province": "SK", "country": "CA", "postalCode": "S0A2B0", "twitter": "None", "instagram": "None", "facebook": "None", "youtube": "None", "website": "None", "summary": "None", "logo": "None", "latitude": 50.725130000000036, "longitude": -103.20305999999994}, "875384620RR0001": {"name": "LEMBERG PENTECOSTAL ASSEMBLY", "designationCode": "C", "categoryCode": "36", "address": "BOX 215", "city": "LEMBERG", "province": "SK", "country": "CA", "postalCode": "S0A2B0", "twitter": "None", "instagram": "None", "facebook": "None", "youtube": "None", "website": "None", "summary": "None", "logo": "None", "latitude": 50.725130000000036, "longitude": -103.20305999999994}, "123052623RR0001": {"name": "LEMOINE VOLUNTEER FIRE DEPARTMENT", "designationCode": "C", "categoryCode": "59", "address": "PO BOX 103", "city": "ST-JOSEPH-DU-MOINE", "province": "NS", "country": "CA", "postalCode": "B0E3A0", "twitter": "None", "instagram": "None", "facebook": "None", "youtube": "None", "website": "None", "summary": "None", "logo": "None", "latitude": 45.62300846856933, "longitude": -60.630467234284666}, "118798560RR0001": {"name": "LEMONVILLE PASTORAL CHARGE", "designationCode": "C", "categoryCode": "44", "address": "13523 MCCOWAN RD", "city": "STOUFFVILLE", "province": "ON", "country": "CA", "postalCode": "L4A3Y5", "twitter": "None", "instagram": "None", "facebook": "None", "youtube": "None", "website": "None", "summary": "None", "logo": "None", "latitude": 43.99010467721737, "longitude": -79.310576260171}, "107611535RR0001": {"name": "LEMSFORD FERRY REGIONAL PARK AUTHORITY", "designationCode": "C", "categoryCode": "52", "address": "PO BOX 24", "city": "GLIDDEN", "province": "SK", "country": "CA", "postalCode": "S0L1H0", "twitter": "None", "instagram": "None", "facebook": "None", "youtube": "None", "website": "None", "summary": "None", "logo": "None", "latitude": 51.237610000000075, "longitude": -109.16683999999998}, "119013282RR0001": {"name": "LENADCO AUXILIARY MEMORIAL FUND", "designationCode": "C", "categoryCode": "19", "address": "12 - 140 CHURCH ST", "city": "NAPANEE", "province": "ON", "country": "CA", "postalCode": "K7R4A9", "twitter": "None", "instagram": "None", "facebook": "None", "youtube": "None", "website": "None", "summary": "None", "logo": "None", "latitude": 44.25586259184206, "longitude": -76.9499263127939}, "887420867RR0001": {"name": "LEND A HAND MEALS", "designationCode": "C", "categoryCode": "09", "address": "1028 ELIZABETH STREET", "city": "WALLACEBURG", "province": "ON", "country": "CA", "postalCode": "N8A3A7", "twitter": "None", "instagram": "None", "facebook": "None", "youtube": "None", "website": "None", "summary": "None", "logo": "None", "latitude": 42.59420549321934, "longitude": -82.39355130391252}, "107611733RR0001": {"name": "LENDRUM MENNONITE BRETHREN CHURCH", "designationCode": "C", "categoryCode": "34", "address": "11210 59 AVENUE", "city": "EDMONTON", "province": "AB", "country": "CA", "postalCode": "T6H1G3", "twitter": "None", "instagram": "None", "facebook": "None", "youtube": "None", "website": "None", "summary": "None", "logo": "None", "latitude": 53.496659376651714, "longitude": -113.51950805661038}, "861770998RR0001": {"name": "LENENTINE CEMETERY INC.", "designationCode": "C", "categoryCode": "59", "address": "1715 ROUTE 105", "city": "SOUTHAMPTON", "province": "NB", "country": "CA", "postalCode": "E6G1M5", "twitter": "None", "instagram": "None", "facebook": "None", "youtube": "None", "website": "None", "summary": "None", "logo": "None", "latitude": 45.98618678210447, "longitude": -67.41789303222605}, "897818993RR0001": {"name": "LENNOX & ADDINGTON CORNERSTONE CHRISTIAN ACADEMY", "designationCode": "C", "categoryCode": "20", "address": "POST OFFICE BOX 296", "city": "NAPANEE", "province": "ON", "country": "CA", "postalCode": "K7R3M4", "twitter": "None", "instagram": "None", "facebook": "None", "youtube": "None", "website": "None", "summary": "None", "logo": "None", "latitude": 44.24834400000006, "longitude": -76.95158299999993}}