{"119200186RR0001": {"name": "STRATHCONA CHINESE STROKE CLUB SOCIETY", "designationCode": "C", "categoryCode": "11", "address": "601 KEEFER ST", "city": "VANCOUVER", "province": "BC", "country": "CA", "postalCode": "V6A3V8", "twitter": "None", "instagram": "None", "facebook": "None", "youtube": "None", "website": "None", "summary": "None", "logo": "None", "latitude": 49.279336519331466, "longitude": -123.09156055536961}, "130636939RR0001": {"name": "STRATHCONA CHRISTIAN ACADEMY SOCIETY", "designationCode": "C", "categoryCode": "20", "address": "1011 CLOVERBAR RD", "city": "SHERWOOD PARK", "province": "AB", "country": "CA", "postalCode": "T8A4V7", "twitter": "None", "instagram": "None", "facebook": "None", "youtube": "None", "website": "None", "summary": "None", "logo": "None", "latitude": 53.51348400000006, "longitude": -113.27037199999992}, "890463383RR0001": {"name": "STRATHCONA CHRISTMAS BUREAU", "designationCode": "C", "categoryCode": "09", "address": "BOX 3525 STN MAIN", "city": "SHERWOOD PARK", "province": "AB", "country": "CA", "postalCode": "T8H2T4", "twitter": "None", "instagram": "None", "facebook": "None", "youtube": "None", "website": "None", "summary": "None", "logo": "None", "latitude": 53.52731700000005, "longitude": -113.29574299999993}, "119200210RR0001": {"name": "STRATHCONA COMMUNITY CENTRE ASSOCIATION (1972)", "designationCode": "C", "categoryCode": "56", "address": "601 KEEFER ST", "city": "VANCOUVER", "province": "BC", "country": "CA", "postalCode": "V6A3V8", "twitter": "None", "instagram": "None", "facebook": "None", "youtube": "None", "website": "None", "summary": "None", "logo": "None", "latitude": 49.279336519331466, "longitude": -123.09156055536961}, "119200228RR0001": {"name": "STRATHCONA COMMUNITY GARDENERS SOCIETY", "designationCode": "C", "categoryCode": "56", "address": "601 KEEFER STREET", "city": "VANCOUVER", "province": "BC", "country": "CA", "postalCode": "V6A3V8", "twitter": "None", "instagram": "None", "facebook": "None", "youtube": "None", "website": "None", "summary": "None", "logo": "None", "latitude": 49.279336519331466, "longitude": -123.09156055536961}, "863514188RR0001": {"name": "STRATHCONA COUNTY CITIZENS ON PATROL SOCIETY", "designationCode": "C", "categoryCode": "59", "address": "911 BISON WAY                 STRATHCONA COUNTY R.C.M.P.", "city": "SHERWOOD PARK", "province": "AB", "country": "CA", "postalCode": "T8H1S9", "twitter": "None", "instagram": "None", "facebook": "None", "youtube": "None", "website": "None", "summary": "None", "logo": "None", "latitude": 53.550366000000054, "longitude": -113.29898749999992}, "896980752RR0001": {"name": "STRATHCONA COUNTY COMMUNITY MEDIATION SOCIETY", "designationCode": "C", "categoryCode": "59", "address": "200 - 501 FESTIVAL AVE", "city": "SHERWOOD PARK", "province": "AB", "country": "CA", "postalCode": "T8A4X3", "twitter": "None", "instagram": "None", "facebook": "None", "youtube": "None", "website": "None", "summary": "None", "logo": "None", "latitude": 53.52670755063776, "longitude": -113.29682416195391}, "887966836RR0001": {"name": "STRATHCONA COUNTY CRIME WATCH ASSOCIATION", "designationCode": "C", "categoryCode": "59", "address": "911 BISON WAY", "city": "SHERWOOD PARK", "province": "AB", "country": "CA", "postalCode": "T8H1S9", "twitter": "None", "instagram": "None", "facebook": "None", "youtube": "None", "website": "None", "summary": "None", "logo": "None", "latitude": 53.550377369438365, "longitude": -113.29794638510582}, "827976143RR0001": {"name": "STRATHCONA COUNTY EVANGELICAL FREE CHURCH", "designationCode": "C", "categoryCode": "39", "address": "49 CASCADE CRES", "city": "SHERWOOD PARK", "province": "AB", "country": "CA", "postalCode": "T8H0L9", "twitter": "None", "instagram": "None", "facebook": "None", "youtube": "None", "website": "None", "summary": "None", "logo": "None", "latitude": 53.54803551788916, "longitude": -113.27432408381902}, "118877760RR0001": {"name": "STRATHCONA COUNTY LIBRARY BOARD", "designationCode": "C", "categoryCode": "50", "address": "401 FESTIVAL LANE", "city": "SHERWOOD PARK", "province": "AB", "country": "CA", "postalCode": "T8A5P7", "twitter": "None", "instagram": "None", "facebook": "None", "youtube": "None", "website": "None", "summary": "None", "logo": "None", "latitude": 53.52673020286814, "longitude": -113.29816966414695}, "119200251RR0001": {"name": "STRATHCONA DROP-IN CENTRE INCORPORATED", "designationCode": "C", "categoryCode": "56", "address": "PO BOX 192", "city": "BELMONT", "province": "MB", "country": "CA", "postalCode": "R0K0C0", "twitter": "None", "instagram": "None", "facebook": "None", "youtube": "None", "website": "None", "summary": "None", "logo": "None", "latitude": 49.41124000000008, "longitude": -99.45502999999997}, "889648663RR0001": {"name": "STRATHCONA FOOD BANK ASSOCIATION", "designationCode": "C", "categoryCode": "09", "address": "255 KASKA ROAD", "city": "SHERWOOD PARK", "province": "AB", "country": "CA", "postalCode": "T8A4E8", "twitter": "None", "instagram": "None", "facebook": "None", "youtube": "None", "website": "None", "summary": "None", "logo": "None", "latitude": 53.5389265461657, "longitude": -113.32818989064575}, "899469969RR0001": {"name": "STRATHCONA GOSPEL TRUST FELLOWSHIP", "designationCode": "C", "categoryCode": "39", "address": "11113-29A AVENUE", "city": "EDMONTON", "province": "AB", "country": "CA", "postalCode": "T6J3T4", "twitter": "None", "instagram": "None", "facebook": "None", "youtube": "None", "website": "None", "summary": "None", "logo": "None", "latitude": 53.46219078377298, "longitude": -113.51795413737098}, "872527312RR0001": {"name": "STRATHCONA HEALTH SOCIETY", "designationCode": "C", "categoryCode": "11", "address": "601 KEEFER STREET", "city": "VANCOUVER", "province": "BC", "country": "CA", "postalCode": "V6A3V8", "twitter": "None", "instagram": "None", "facebook": "None", "youtube": "None", "website": "None", "summary": "None", "logo": "None", "latitude": 49.279336519331466, "longitude": -123.09156055536961}, "108040502RR0001": {"name": "STRATHCONA NURSERY SCHOOL INC.", "designationCode": "C", "categoryCode": "20", "address": "8530 101 ST NW", "city": "EDMONTON", "province": "AB", "country": "CA", "postalCode": "T6E3Z5", "twitter": "None", "instagram": "None", "facebook": "None", "youtube": "None", "website": "None", "summary": "None", "logo": "None", "latitude": 53.52123193123642, "longitude": -113.49131724371497}, "108040544RR0001": {"name": "STRATHCONA PARK PRESBYTERIAN CHURCH", "designationCode": "C", "categoryCode": "37", "address": "244 MCMAHON AVENUE", "city": "KINGSTON", "province": "ON", "country": "CA", "postalCode": "K7M3K2", "twitter": "None", "instagram": "None", "facebook": "None", "youtube": "None", "website": "None", "summary": "None", "logo": "None", "latitude": 44.249922546742624, "longitude": -76.52248311073923}, "108040585RR0001": {"name": "STRATHCONA PLACE", "designationCode": "C", "categoryCode": "56", "address": "10831 UNIVERSITY AVE NW", "city": "EDMONTON", "province": "AB", "country": "CA", "postalCode": "T6E4R1", "twitter": "None", "instagram": "None", "facebook": "None", "youtube": "None", "website": "None", "summary": "None", "logo": "None", "latitude": 53.51385264888352, "longitude": -113.51078763656291}, "108040601RR0001": {"name": "STRATHCONA PRESBYTERIAN CHURCH", "designationCode": "C", "categoryCode": "37", "address": "6607 31 AVE NW", "city": "EDMONTON", "province": "AB", "country": "CA", "postalCode": "T6K4B3", "twitter": "None", "instagram": "None", "facebook": "None", "youtube": "None", "website": "None", "summary": "None", "logo": "None", "latitude": 53.46201059723614, "longitude": -113.43535026712456}, "891233108RR0001": {"name": "STRATHCONA SCHIZOPHRENIA HOUSING FOUNDATION", "designationCode": "C", "categoryCode": "09", "address": "EPO 57260 SHERWOOD DRIVE", "city": "SHERWOOD PARK", "province": "AB", "country": "CA", "postalCode": "T8A5L7", "twitter": "None", "instagram": "None", "facebook": "None", "youtube": "None", "website": "None", "summary": "None", "logo": "None", "latitude": 53.52422905503492, "longitude": -113.3003039683932}, "119200327RR0001": {"name": "STRATHCONA SHELTER SOCIETY LTD.", "designationCode": "C", "categoryCode": "01", "address": "PO BOX 3282 STN MAIN", "city": "SHERWOOD PARK", "province": "AB", "country": "CA", "postalCode": "T8H2T2", "twitter": "None", "instagram": "None", "facebook": "None", "youtube": "None", "website": "None", "summary": "None", "logo": "None", "latitude": 53.52731700000005, "longitude": -113.29574299999993}, "108040627RR0001": {"name": "STRATHCONA TWEEDSMUIR SCHOOL", "designationCode": "C", "categoryCode": "20", "address": "R.R. #2", "city": "OKOTOKS", "province": "AB", "country": "CA", "postalCode": "T1S1A2", "twitter": "None", "instagram": "None", "facebook": "None", "youtube": "None", "website": "None", "summary": "None", "logo": "None", "latitude": 50.72984346047074, "longitude": -113.97453316763806}, "861546927RR0001": {"name": "STRATHCONA-TWEEDSMUIR SCHOOL FOUNDATION", "designationCode": "C", "categoryCode": "23", "address": "4500, 855-2ND STREET S.W.", "city": "CALGARY", "province": "AB", "country": "CA", "postalCode": "T2P4K7", "twitter": "None", "instagram": "None", "facebook": "None", "youtube": "None", "website": "None", "summary": "None", "logo": "None", "latitude": 51.04920186667524, "longitude": -114.0676309458328}, "108040650RR0001": {"name": "STRATHEARN UNITED CHURCH", "designationCode": "C", "categoryCode": "44", "address": "8510 95 AVE NW", "city": "EDMONTON", "province": "AB", "country": "CA", "postalCode": "T6C1Y7", "twitter": "None", "instagram": "None", "facebook": "None", "youtube": "None", "website": "None", "summary": "None", "logo": "None", "latitude": 53.531782478792614, "longitude": -113.45862166763806}, "108040718RR0001": {"name": "STRATHMILLAN CHILDREN'S CENTER INC.", "designationCode": "C", "categoryCode": "01", "address": "339 STRATHMILLAN RD", "city": "WINNIPEG", "province": "MB", "country": "CA", "postalCode": "R3J2V6", "twitter": "None", "instagram": "None", "facebook": "None", "youtube": "None", "website": "None", "summary": "None", "logo": "None", "latitude": 49.88133984901036, "longitude": -97.25078781450236}, "890699549RR0001": {"name": "STRATHMORE & DISTRICT CHRISTMAS HAMPER SOCIETY", "designationCode": "C", "categoryCode": "09", "address": "680 WESTCHESTER ROAD", "city": "STRATHMORE", "province": "AB", "country": "CA", "postalCode": "T1P1J1", "twitter": "None", "instagram": "None", "facebook": "None", "youtube": "None", "website": "None", "summary": "None", "logo": "None", "latitude": 51.04046373209023, "longitude": -113.40290126790978}, "108040726RR0001": {"name": "STRATHMORE ALLIANCE CHURCH", "designationCode": "C", "categoryCode": "39", "address": "325 FIRST AVE", "city": "STRATHMORE", "province": "AB", "country": "CA", "postalCode": "T1P1B3", "twitter": "None", "instagram": "None", "facebook": "None", "youtube": "None", "website": "None", "summary": "None", "logo": "None", "latitude": 51.0428177510244, "longitude": -113.39981529641071}, "119200384RR0001": {"name": "STRATHMORE BOULEVARD CHURCH OF CHRIST", "designationCode": "C", "categoryCode": "39", "address": "346 STRATHMORE BLVD", "city": "TORONTO", "province": "ON", "country": "CA", "postalCode": "M4C1N3", "twitter": "None", "instagram": "None", "facebook": "None", "youtube": "None", "website": "None", "summary": "None", "logo": "None", "latitude": 43.68433024176225, "longitude": -79.32328653595123}, "135120301RR0001": {"name": "STRATHMORE CONGREGATION OF JEHOVAH'S WITNESSES", "designationCode": "C", "categoryCode": "61", "address": "131 STRATHAVEN CRESCENT", "city": "STRATHMORE", "province": "AB", "country": "CA", "postalCode": "T1P1M2", "twitter": "None", "instagram": "None", "facebook": "None", "youtube": "None", "website": "None", "summary": "None", "logo": "None", "latitude": 51.062508335276135, "longitude": -113.37862977474195}, "898378385RR0001": {"name": "STRATHMORE DISTRICT HEALTH FOUNDATION", "designationCode": "A", "categoryCode": "13", "address": "200 BRENT BLVD", "city": "STRATHMORE", "province": "AB", "country": "CA", "postalCode": "T1P1J9", "twitter": "None", "instagram": "None", "facebook": "None", "youtube": "None", "website": "None", "summary": "None", "logo": "None", "latitude": 51.05965587439223, "longitude": -113.38635962560777}, "119214799RR0001": {"name": "STRATHMORE DISTRICT HEALTH SERVICES AUXILIARY", "designationCode": "C", "categoryCode": "19", "address": "200 BRENT BLVD", "city": "STRATHMORE", "province": "AB", "country": "CA", "postalCode": "T1P1J6", "twitter": "None", "instagram": "None", "facebook": "None", "youtube": "None", "website": "None", "summary": "None", "logo": "None", "latitude": 51.05965587439223, "longitude": -113.38635962560777}, "108040759RR0001": {"name": "STRATHMORE FULL GOSPEL CHURCH", "designationCode": "C", "categoryCode": "39", "address": "50 MAPLEWOOD DR", "city": "STRATHMORE", "province": "AB", "country": "CA", "postalCode": "T1P1G5", "twitter": "None", "instagram": "None", "facebook": "None", "youtube": "None", "website": "None", "summary": "None", "logo": "None", "latitude": 51.05388995195933, "longitude": -113.38589000781894}, "120662580RR0001": {"name": "STRATHMORE HANDI-BUS ASSOCIATION", "designationCode": "C", "categoryCode": "09", "address": "680 WESTCHESTER RD", "city": "STRATHMORE", "province": "AB", "country": "CA", "postalCode": "T1P1J1", "twitter": "None", "instagram": "None", "facebook": "None", "youtube": "None", "website": "None", "summary": "None", "logo": "None", "latitude": 51.04046373209023, "longitude": -113.40290126790978}, "890210594RR0001": {"name": "STRATHMORE MEALS ON WHEELS", "designationCode": "C", "categoryCode": "09", "address": "84 CAMBRIDGE GLEN DR", "city": "STRATHMORE", "province": "AB", "country": "CA", "postalCode": "T1P1R9", "twitter": "None", "instagram": "None", "facebook": "None", "youtube": "None", "website": "None", "summary": "None", "logo": "None", "latitude": 51.05596515681804, "longitude": -113.37927698407273}, "119200400RR0001": {"name": "STRATHMORE PASTORAL CHARGE,", "designationCode": "C", "categoryCode": "44", "address": "410 FOURTH ST", "city": "STRATHMORE", "province": "AB", "country": "CA", "postalCode": "T1P1B4", "twitter": "None", "instagram": "None", "facebook": "None", "youtube": "None", "website": "None", "summary": "None", "logo": "None", "latitude": 51.0406774950689, "longitude": -113.39956933211165}, "865667273RR0001": {"name": "STRATHMORE REGIONAL VICTIM SERVICES SOCIETY", "designationCode": "C", "categoryCode": "59", "address": "500 WESTLAKE ROAD", "city": "STRATHMORE", "province": "AB", "country": "CA", "postalCode": "T1P1M7", "twitter": "None", "instagram": "None", "facebook": "None", "youtube": "None", "website": "None", "summary": "None", "logo": "None", "latitude": 51.03924251543635, "longitude": -113.40214208381903}, "137947164RR0001": {"name": "STRATHROY & DISTRICT CHRISTIAN DAY CARE CENTRE", "designationCode": "C", "categoryCode": "01", "address": "421 ALBERT ST", "city": "STRATHROY", "province": "ON", "country": "CA", "postalCode": "N7G1W8", "twitter": "None", "instagram": "None", "facebook": "None", "youtube": "None", "website": "None", "summary": "None", "logo": "None", "latitude": 42.95557548268775, "longitude": -81.6379335}, "889587374RR0001": {"name": "STRATHROY & DISTRICT CHRISTIAN RETIREMENT ASSOCIATION INCORPORATED", "designationCode": "C", "categoryCode": "09", "address": "400 DOMINION ST", "city": "STRATHROY", "province": "ON", "country": "CA", "postalCode": "N7G3G8", "twitter": "None", "instagram": "None", "facebook": "None", "youtube": "None", "website": "None", "summary": "None", "logo": "None", "latitude": 42.96244533527613, "longitude": -81.64131002654483}, "888747847RR0001": {"name": "STRATHROY COMMUNITY CHRISTIAN SCHOOL SOCIETY", "designationCode": "C", "categoryCode": "20", "address": "7880 WALKER DRIVE, R.R. #2", "city": "STRATHROY", "province": "ON", "country": "CA", "postalCode": "N7G3H4", "twitter": "None", "instagram": "None", "facebook": "None", "youtube": "None", "website": "None", "summary": "None", "logo": "None", "latitude": 42.93668333031312, "longitude": -81.6011584538343}, "886176718RR0001": {"name": "STRATHROY DISTRICT ARTS COUNCIL", "designationCode": "C", "categoryCode": "22", "address": "85 CARADOC STREET NORTH", "city": "STRATHROY", "province": "ON", "country": "CA", "postalCode": "N7G2M5", "twitter": "None", "instagram": "None", "facebook": "None", "youtube": "None", "website": "None", "summary": "None", "logo": "None", "latitude": 42.95826764752718, "longitude": -81.62368028876465}, "891709644RR0001": {"name": "STRATHROY DISTRICT COLLEGIATE INSTITUTE ALUMNI FOUNDATION", "designationCode": "A", "categoryCode": "21", "address": "2321 CHURCH ST", "city": "MT BRYDGES", "province": "ON", "country": "CA", "postalCode": "N0L1W0", "twitter": "None", "instagram": "None", "facebook": "None", "youtube": "None", "website": "None", "summary": "None", "logo": "None", "latitude": 42.90228746255164, "longitude": -81.48792456756816}, "132410671RR0027": {"name": "STRATHROY ECONOMY SHOP", "designationCode": "C", "categoryCode": "09", "address": "71 RICHMOND STREET", "city": "STRATHROY", "province": "ON", "country": "CA", "postalCode": "N7G2Z1", "twitter": "None", "instagram": "None", "facebook": "None", "youtube": "None", "website": "None", "summary": "None", "logo": "None", "latitude": 42.95473213627446, "longitude": -81.6269129662418}, "119200459RR0001": {"name": "STRATHROY HOUSING FOR THE HANDICAPPED CORPORATION", "designationCode": "C", "categoryCode": "11", "address": "82 FRONT STREET WEST", "city": "STRATHROY", "province": "ON", "country": "CA", "postalCode": "N7G1X7", "twitter": "None", "instagram": "None", "facebook": "None", "youtube": "None", "website": "None", "summary": "None", "logo": "None", "latitude": 42.9572763291593, "longitude": -81.62648959227315}, "108040841RR0001": {"name": "STRATHROY MIDDLESEX GENERAL HOSPITAL", "designationCode": "C", "categoryCode": "10", "address": "395 CARRIE ST", "city": "STRATHROY", "province": "ON", "country": "CA", "postalCode": "N7G3C9", "twitter": "None", "instagram": "None", "facebook": "None", "youtube": "None", "website": "None", "summary": "None", "logo": "None", "latitude": 42.960872663983615, "longitude": -81.63466247061918}, "129125480RR0001": {"name": "STRATHROY MIDDLESEX GENERAL HOSPITAL AUXILIARY", "designationCode": "C", "categoryCode": "19", "address": "395 CARRIE STREET", "city": "STRATHROY", "province": "ON", "country": "CA", "postalCode": "N7G3C9", "twitter": "None", "instagram": "None", "facebook": "None", "youtube": "None", "website": "None", "summary": "None", "logo": "None", "latitude": 42.960872663983615, "longitude": -81.63466247061918}, "132974270RR0001": {"name": "STRATHROY MIDDLESEX GENERAL HOSPITAL FOUNDATION", "designationCode": "A", "categoryCode": "13", "address": "395 CARRIE STREET", "city": "STRATHROY", "province": "ON", "country": "CA", "postalCode": "N7G3J4", "twitter": "None", "instagram": "None", "facebook": "None", "youtube": "None", "website": "None", "summary": "None", "logo": "None", "latitude": 42.960872663983615, "longitude": -81.63466247061918}, "887424992RR0001": {"name": "STRATHROY MIDDLESEX MUSEUM", "designationCode": "C", "categoryCode": "50", "address": "52 FRANK STREET", "city": "STRATHROY", "province": "ON", "country": "CA", "postalCode": "N7G2R4", "twitter": "None", "instagram": "None", "facebook": "None", "youtube": "None", "website": "None", "summary": "None", "logo": "None", "latitude": 42.95641980959668, "longitude": -81.62435320540696}, "875260119RR0001": {"name": "STRATHROY MIDDLESEX MUSEUM FOUNDATION", "designationCode": "A", "categoryCode": "03", "address": "34 FRANK ST.", "city": "STRATHROY", "province": "ON", "country": "CA", "postalCode": "N7G2R4", "twitter": "None", "instagram": "None", "facebook": "None", "youtube": "None", "website": "None", "summary": "None", "logo": "None", "latitude": 42.95611776963472, "longitude": -81.6240437204106}, "119288918RR0124": {"name": "STRATHROY ONTARIO CONGREGATION OF JEHOVAH'S WITNESSES", "designationCode": "C", "categoryCode": "61", "address": "50 ONTARIO ST", "city": "STRATHROY", "province": "ON", "country": "CA", "postalCode": "N7G3N9", "twitter": "None", "instagram": "None", "facebook": "None", "youtube": "None", "website": "None", "summary": "None", "logo": "None", "latitude": 42.94849587065045, "longitude": -81.61284550386648}, "119200491RR0001": {"name": "STRATHROY SENIORS HYMNBOOK COMMITTEE", "designationCode": "C", "categoryCode": "09", "address": "209 HULL ROAD", "city": "STRATHROY", "province": "ON", "country": "CA", "postalCode": "N7G2B8", "twitter": "None", "instagram": "None", "facebook": "None", "youtube": "None", "website": "None", "summary": "None", "logo": "None", "latitude": 42.96587052986305, "longitude": -81.6217605}, "132581778RR0001": {"name": "STRATHROY UNITED CHURCH", "designationCode": "C", "categoryCode": "44", "address": "92 MARIA STREET", "city": "STRATHROY", "province": "ON", "country": "CA", "postalCode": "N7G2W8", "twitter": "None", "instagram": "None", "facebook": "None", "youtube": "None", "website": "None", "summary": "None", "logo": "None", "latitude": 42.956386663216996, "longitude": -81.62791059554796}, "895227726RR0001": {"name": "STRATHSPEY PLACE ASSOCIATION", "designationCode": "C", "categoryCode": "22", "address": "11156 ROUTE 19                P. O. BOX 235", "city": "MABOU CAPE BRETON", "province": "NS", "country": "CA", "postalCode": "B0E1X0", "twitter": "None", "instagram": "None", "facebook": "None", "youtube": "None", "website": "None", "summary": "None", "logo": "None", "latitude": 46.061325349777434, "longitude": -61.40997633867169}, "890584543RR0001": {"name": "STRAWBERRY ISLE RESEARCH SOCIETY", "designationCode": "C", "categoryCode": "21", "address": "PO BOX 213", "city": "TOFINO", "province": "BC", "country": "CA", "postalCode": "V0R2Z0", "twitter": "None", "instagram": "None", "facebook": "None", "youtube": "None", "website": "None", "summary": "None", "logo": "None", "latitude": 49.15262000000007, "longitude": -125.90403999999995}, "108040965RR0001": {"name": "STRAWBERRY POINT CHRISTIAN CAMP INC.", "designationCode": "C", "categoryCode": "49", "address": "12205B HWY 540 RR#1", "city": "GOREBAY", "province": "ON", "country": "CA", "postalCode": "P0P1H0", "twitter": "None", "instagram": "None", "facebook": "None", "youtube": "None", "website": "None", "summary": "None", "logo": "None", "latitude": 45.896457965383306, "longitude": -82.49325593259502}, "140709775RR0001": {"name": "STRAWBERRY VALE PRESCHOOL SOCIETY", "designationCode": "C", "categoryCode": "20", "address": "4130 ROSEDALE AVENUE", "city": "VICTORIA", "province": "BC", "country": "CA", "postalCode": "V8Z6B1", "twitter": "None", "instagram": "None", "facebook": "None", "youtube": "None", "website": "None", "summary": "None", "logo": "None", "latitude": 48.4790558520688, "longitude": -123.41691023899227}, "879473809RR0001": {"name": "STREAM OF DREAMS MURALS SOCIETY", "designationCode": "C", "categoryCode": "52", "address": "7290 STRIDE AVE", "city": "BURNABY", "province": "BC", "country": "CA", "postalCode": "V3N1V2", "twitter": "None", "instagram": "None", "facebook": "None", "youtube": "None", "website": "None", "summary": "None", "logo": "None", "latitude": 49.215682059380335, "longitude": -122.94713585954194}, "132270158RR0001": {"name": "STREAMS CHRISTIAN CHURCH", "designationCode": "C", "categoryCode": "36", "address": "5350 46 AVENUE", "city": "RED DEER", "province": "AB", "country": "CA", "postalCode": "T4N3N4", "twitter": "None", "instagram": "None", "facebook": "None", "youtube": "None", "website": "None", "summary": "None", "logo": "None", "latitude": 52.27337700000001, "longitude": -113.80306492425971}, "899996714RR0001": {"name": "STREAMS MINISTRIES CANADA SOCIETY", "designationCode": "C", "categoryCode": "39", "address": "105 - 777 BLANSHARD ST", "city": "VICTORIA", "province": "BC", "country": "CA", "postalCode": "V8W2G9", "twitter": "None", "instagram": "None", "facebook": "None", "youtube": "None", "website": "None", "summary": "None", "logo": "None", "latitude": 48.42133716541636, "longitude": -123.36298000704046}, "852811140RR0001": {"name": "STREAMS OF LIFE MINISTRIES", "designationCode": "C", "categoryCode": "47", "address": "1 WELLINGTON ST.              PO BOX 34", "city": "NEWBURY", "province": "ON", "country": "CA", "postalCode": "N0L1Z0", "twitter": "None", "instagram": "None", "facebook": "None", "youtube": "None", "website": "None", "summary": "None", "logo": "None", "latitude": 42.682490067170605, "longitude": -81.79817858327077}, "119200533RR0001": {"name": "STREAMS OF LIFE MINISTRY", "designationCode": "C", "categoryCode": "49", "address": "437 LINWELL RD", "city": "ST CATHARINES", "province": "ON", "country": "CA", "postalCode": "L2M2P5", "twitter": "None", "instagram": "None", "facebook": "None", "youtube": "None", "website": "None", "summary": "None", "logo": "None", "latitude": 43.20183957120998, "longitude": -79.21979379629514}, "871322368RR0001": {"name": "STREAMS OF VICTORY CHURCH", "designationCode": "C", "categoryCode": "39", "address": "P.O. BOX 704 DON MILLS STATION", "city": "DON MILLS", "province": "ON", "country": "CA", "postalCode": "M3C2T6", "twitter": "None", "instagram": "None", "facebook": "None", "youtube": "None", "website": "None", "summary": "None", "logo": "None", "latitude": 43.708179055694835, "longitude": -79.33384518793717}, "842241341RR0001": {"name": "STREET CATS-CAT RESCUE AND ADOPTION INC.", "designationCode": "C", "categoryCode": "54", "address": "215 PARKSIDE CRES", "city": "INNISFIL", "province": "ON", "country": "CA", "postalCode": "L9S1G2", "twitter": "None", "instagram": "None", "facebook": "None", "youtube": "None", "website": "None", "summary": "None", "logo": "None", "latitude": 44.330804845375035, "longitude": -79.6143159755613}, "840873079RR0001": {"name": "STREET CHURCH MISSION OF PRINCE GEORGE", "designationCode": "B", "categoryCode": "47", "address": "2172 PINE ST", "city": "PRINCE GEORGE", "province": "BC", "country": "CA", "postalCode": "V2L2E2", "twitter": "None", "instagram": "None", "facebook": "None", "youtube": "None", "website": "None", "summary": "None", "logo": "None", "latitude": 53.90290825145709, "longitude": -122.75202390267786}, "872142138RR0001": {"name": "STREET CULTURE KIDZ PROJECT INC.", "designationCode": "C", "categoryCode": "09", "address": "3612 ALBERT ST", "city": "REGINA", "province": "SK", "country": "CA", "postalCode": "S4S3P6", "twitter": "None", "instagram": "None", "facebook": "None", "youtube": "None", "website": "None", "summary": "None", "logo": "None", "latitude": 50.420852999999994, "longitude": -104.61812716074182}, "119200541RR0001": {"name": "STREET HEALTH COMMUNITY NURSING FOUNDATION", "designationCode": "C", "categoryCode": "11", "address": "338 DUNDAS ST.EAST", "city": "TORONTO", "province": "ON", "country": "CA", "postalCode": "M5A2A1", "twitter": "None", "instagram": "None", "facebook": "None", "youtube": "None", "website": "None", "summary": "None", "logo": "None", "latitude": 43.658589121299485, "longitude": -79.36986838856826}, "864611223RR0001": {"name": "STREET LEVEL MINISTIRES", "designationCode": "B", "categoryCode": "49", "address": "P.O.BOX 7", "city": "ELLERSHOUSE", "province": "NS", "country": "CA", "postalCode": "B0N1L0", "twitter": "None", "instagram": "None", "facebook": "None", "youtube": "None", "website": "None", "summary": "None", "logo": "None", "latitude": 44.94507755254839, "longitude": -64.0064826779144}, "813384211RR0001": {"name": "STREET SOCCER CANADA", "designationCode": "C", "categoryCode": "09", "address": "36 WATERLOO AVE", "city": "GUELPH", "province": "ON", "country": "CA", "postalCode": "N1H3H5", "twitter": "None", "instagram": "None", "facebook": "None", "youtube": "None", "website": "None", "summary": "None", "logo": "None", "latitude": 43.540340554244445, "longitude": -80.25089912597402}, "878985100RR0001": {"name": "STREET TO TRAIL ASSOCIATION", "designationCode": "C", "categoryCode": "29", "address": "PO BOX 745                    31 ADELAIDE STREET EAST", "city": "TORONTO", "province": "ON", "country": "CA", "postalCode": "M5C2J8", "twitter": "None", "instagram": "None", "facebook": "None", "youtube": "None", "website": "None", "summary": "None", "logo": "None", "latitude": 43.650717853165304, "longitude": -79.37698425644875}, "896582293RR0001": {"name": "STREET WORKER'S ADVOCACY PROJECT REGINA INC.", "designationCode": "C", "categoryCode": "59", "address": "1355 ALBERT ST", "city": "REGINA", "province": "SK", "country": "CA", "postalCode": "S4R2R6", "twitter": "None", "instagram": "None", "facebook": "None", "youtube": "None", "website": "None", "summary": "None", "logo": "None", "latitude": 50.45724000000001, "longitude": -104.6179868759019}, "871254728RR0001": {"name": "STREETCORNERS MINISTRIES", "designationCode": "C", "categoryCode": "39", "address": "P.O. BOX 771                  4256 JALKPINE RD.", "city": "TELKWA", "province": "BC", "country": "CA", "postalCode": "V0J2X0", "twitter": "None", "instagram": "None", "facebook": "None", "youtube": "None", "website": "None", "summary": "None", "logo": "None", "latitude": 54.65758154286557, "longitude": -127.06792659971534}, "853549087RR0001": {"name": "STREETLIGHT MINISTRIES", "designationCode": "C", "categoryCode": "47", "address": "82 FERGUSON AVE N", "city": "HAMILTON", "province": "ON", "country": "CA", "postalCode": "L8R1L4", "twitter": "None", "instagram": "None", "facebook": "None", "youtube": "None", "website": "None", "summary": "None", "logo": "None", "latitude": 43.25670853926946, "longitude": -79.86061789673391}, "140777038RR0001": {"name": "STREETLIGHT THEATRE COMPANY INC.", "designationCode": "C", "categoryCode": "22", "address": "PO BOX 1313", "city": "PEMBROKE", "province": "ON", "country": "CA", "postalCode": "K8A6Y6", "twitter": "None", "instagram": "None", "facebook": "None", "youtube": "None", "website": "None", "summary": "None", "logo": "None", "latitude": 45.826494000000054, "longitude": -77.11217449999994}, "141054502RR0001": {"name": "STREETS ALIVE FAMILY SUPPORT ASSOCIATION", "designationCode": "C", "categoryCode": "09", "address": "323 - 4TH STREET S", "city": "LETHBRIDGE", "province": "AB", "country": "CA", "postalCode": "T1J1Z9", "twitter": "None", "instagram": "None", "facebook": "None", "youtube": "None", "website": "None", "summary": "None", "logo": "None", "latitude": 49.69549631946065, "longitude": -112.84184294681411}, "866197395RR0001": {"name": "STREETSCAPE 2001", "designationCode": "C", "categoryCode": "52", "address": "P.O. BOX 1120", "city": "KINDERSLEY", "province": "SK", "country": "CA", "postalCode": "S0L1S0", "twitter": "None", "instagram": "None", "facebook": "None", "youtube": "None", "website": "None", "summary": "None", "logo": "None", "latitude": 51.46791900000005, "longitude": -109.15522999999993}, "119200574RR0001": {"name": "STREETSVILLE BAPTIST CHURCH,", "designationCode": "C", "categoryCode": "31", "address": "121 VISTA BLVD", "city": "MISSISSAUGA", "province": "ON", "country": "CA", "postalCode": "L5M1W1", "twitter": "None", "instagram": "None", "facebook": "None", "youtube": "None", "website": "None", "summary": "None", "logo": "None", "latitude": 43.575696427722164, "longitude": -79.72150710629583}, "119288918RR0987": {"name": "STREETSVILLE CONGREGATION OF JEHOVAH'S WITNESSES", "designationCode": "C", "categoryCode": "61", "address": "P.O. BOX 4100", "city": "GEORGETOWN", "province": "ON", "country": "CA", "postalCode": "L7G4Y4", "twitter": "None", "instagram": "None", "facebook": "None", "youtube": "None", "website": "None", "summary": "None", "logo": "None", "latitude": 43.65006000000005, "longitude": -79.89909199999994}, "130527278RR0001": {"name": "STREETSVILLE UNITED CHURCH", "designationCode": "C", "categoryCode": "44", "address": "274 QUEEN STREET SOUTH", "city": "MISSISSAUGA", "province": "ON", "country": "CA", "postalCode": "L5M1L8", "twitter": "None", "instagram": "None", "facebook": "None", "youtube": "None", "website": "None", "summary": "None", "logo": "None", "latitude": 43.57953881236665, "longitude": -79.71086961270113}, "135128619RR0001": {"name": "STRENGTH TO WALK IN FREEDOM TOGETHER (SWIFT) INC", "designationCode": "C", "categoryCode": "59", "address": "505-675 COCHRANE DRIVE        EAST TOWER", "city": "MARKHAM", "province": "ON", "country": "CA", "postalCode": "L3R0B8", "twitter": "None", "instagram": "None", "facebook": "None", "youtube": "None", "website": "None", "summary": "None", "logo": "None", "latitude": 43.84575600000005, "longitude": -79.36636849999994}, "861820785RR0001": {"name": "STRETCHED ARM SOCIETY", "designationCode": "C", "categoryCode": "39", "address": "43 ROLLINGWOOD DR", "city": "NORTH YORK", "province": "ON", "country": "CA", "postalCode": "M2H2M4", "twitter": "None", "instagram": "None", "facebook": "None", "youtube": "None", "website": "None", "summary": "None", "logo": "None", "latitude": 43.80246084846211, "longitude": -79.35239325142844}, "120561352RR0001": {"name": "STRIDE ART GALLERY ASSOCIATION", "designationCode": "C", "categoryCode": "22", "address": "1006 MACLEOD TRAIL SE", "city": "CALGARY", "province": "AB", "country": "CA", "postalCode": "T2G2M7", "twitter": "None", "instagram": "None", "facebook": "None", "youtube": "None", "website": "None", "summary": "None", "logo": "None", "latitude": 51.043045338320184, "longitude": -114.05824647393702}, "119200632RR0001": {"name": "STRIDE ASSISTANCE FOR THE DISABLED INC.", "designationCode": "C", "categoryCode": "09", "address": "1725 STONEBOAT CRES", "city": "ORLEANS", "province": "ON", "country": "CA", "postalCode": "K1C1W7", "twitter": "None", "instagram": "None", "facebook": "None", "youtube": "None", "website": "None", "summary": "None", "logo": "None", "latitude": 45.47209537745977, "longitude": -75.53246760770946}, "119200640RR0001": {"name": "STRING MUSIC ATLANTIC MUSIQUE A CORDES DE L'ATLANTIQUE", "designationCode": "C", "categoryCode": "22", "address": "1 LAKEVIEW TERRACE", "city": "HAMMONDS PLAINS", "province": "NS", "country": "CA", "postalCode": "B3Z1K2", "twitter": "None", "instagram": "None", "facebook": "None", "youtube": "None", "website": "None", "summary": "None", "logo": "None", "latitude": 44.724054016936876, "longitude": -63.811728923855675}, "889444444RR0001": {"name": "STRINGS ACROSS THE SKY FOUNDATION", "designationCode": "C", "categoryCode": "22", "address": "43 CHURCH ST", "city": "PARRY SOUND", "province": "ON", "country": "CA", "postalCode": "P2A1Y6", "twitter": "None", "instagram": "None", "facebook": "None", "youtube": "None", "website": "None", "summary": "None", "logo": "None", "latitude": 45.3479746275319, "longitude": -80.0361940563219}, "107494908RR0001": {"name": "STRIVE LIVING SOCIETY", "designationCode": "C", "categoryCode": "01", "address": "500 - 4370 DOMINION ST", "city": "BURNABY", "province": "BC", "country": "CA", "postalCode": "V5G4L7", "twitter": "None", "instagram": "None", "facebook": "None", "youtube": "None", "website": "None", "summary": "None", "logo": "None", "latitude": 49.2563015323159, "longitude": -123.006564}, "888236510RR0001": {"name": "STROKE RECOVERY ASSOCIATION CAMBRIDGE & DISTRICT CHAPTER", "designationCode": "C", "categoryCode": "11", "address": "509 - 425 HESPELER RD", "city": "CAMBRIDGE", "province": "ON", "country": "CA", "postalCode": "N1R8J6", "twitter": "None", "instagram": "None", "facebook": "None", "youtube": "None", "website": "None", "summary": "None", "logo": "None", "latitude": 43.3958212028968, "longitude": -80.3239978882225}, "130532500RR0001": {"name": "STROKE RECOVERY ASSOCIATION OF BRITISH COLUMBIA", "designationCode": "C", "categoryCode": "11", "address": "301-1212 BROADWAY W", "city": "VANCOUVER", "province": "BC", "country": "CA", "postalCode": "V6H3V1", "twitter": "None", "instagram": "None", "facebook": "None", "youtube": "None", "website": "None", "summary": "None", "logo": "None", "latitude": 49.26342849567218, "longitude": -123.13192436081135}, "132014291RR0001": {"name": "STROKE RECOVERY ASSOCIATION OF CALGARY", "designationCode": "C", "categoryCode": "11", "address": "PO BOX 5051 STATION A", "city": "CALGARY", "province": "AB", "country": "CA", "postalCode": "T2H1X1", "twitter": "None", "instagram": "None", "facebook": "None", "youtube": "None", "website": "None", "summary": "None", "logo": "None", "latitude": 51.04531500000006, "longitude": -114.06301099999993}, "122979180RR0001": {"name": "STROKE RECOVERY ASSOCIATION OF EDMONTON", "designationCode": "C", "categoryCode": "59", "address": "BOX 231 STN MAIN", "city": "EDMONTON", "province": "AB", "country": "CA", "postalCode": "T5J2J1", "twitter": "None", "instagram": "None", "facebook": "None", "youtube": "None", "website": "None", "summary": "None", "logo": "None", "latitude": 53.54623500000005, "longitude": -113.49037249999994}, "876015215RR0001": {"name": "STROKE RECOVERY ASSOCIATION-RICHMOND HILL CHAPTER", "designationCode": "C", "categoryCode": "11", "address": "95 WELDRICK ROAD EAST         UNIT 18", "city": "RICHMOND HILL", "province": "ON", "country": "CA", "postalCode": "L4C0H6", "twitter": "None", "instagram": "None", "facebook": "None", "youtube": "None", "website": "None", "summary": "None", "logo": "None", "latitude": 43.86535284422119, "longitude": -79.42913732566818}, "847679073RR0001": {"name": "STROKE SURVIVORS ASSOCIATION OF OTTAWA", "designationCode": "C", "categoryCode": "09", "address": "UNIT 72                       323 COVENTRY ROAD", "city": "OTTAWA", "province": "ON", "country": "CA", "postalCode": "K1K3X6", "twitter": "None", "instagram": "None", "facebook": "None", "youtube": "None", "website": "None", "summary": "None", "logo": "None", "latitude": 45.4213154976914, "longitude": -75.6514928551272}, "119200780RR0001": {"name": "STROME AND DISTRICT HISTORICAL SOCIETY", "designationCode": "C", "categoryCode": "50", "address": "BOX 151", "city": "STROME", "province": "AB", "country": "CA", "postalCode": "T0B4H0", "twitter": "None", "instagram": "None", "facebook": "None", "youtube": "None", "website": "None", "summary": "None", "logo": "None", "latitude": 52.808710000000076, "longitude": -112.06817999999998}, "869024026RR0001": {"name": "STROME COMMUNITY CHURCH", "designationCode": "C", "categoryCode": "39", "address": "P.O. BOX 234", "city": "STROME", "province": "AB", "country": "CA", "postalCode": "T0B4H0", "twitter": "None", "instagram": "None", "facebook": "None", "youtube": "None", "website": "None", "summary": "None", "logo": "None", "latitude": 52.808710000000076, "longitude": -112.06817999999998}, "832031561RR0001": {"name": "STRONACH FAMILY FOUNDATION", "designationCode": "B", "categoryCode": "03", "address": "700-2695 GRANVILLE STREET", "city": "VANCOUVER", "province": "BC", "country": "CA", "postalCode": "V6H3H4", "twitter": "None", "instagram": "None", "facebook": "None", "youtube": "None", "website": "None", "summary": "None", "logo": "None", "latitude": 49.261897288649095, "longitude": -123.13869492509642}, "119200798RR0001": {"name": "STRONG AGRICULTURAL SOCIETY,", "designationCode": "C", "categoryCode": "56", "address": "BOX 1012", "city": "SUNDRIDGE", "province": "ON", "country": "CA", "postalCode": "P0A1Z0", "twitter": "None", "instagram": "None", "facebook": "None", "youtube": "None", "website": "None", "summary": "None", "logo": "None", "latitude": 45.75507926133678, "longitude": -79.41022764524283}, "825948060RR0001": {"name": "STRONG START CHARITABLE ORGANIZATION", "designationCode": "C", "categoryCode": "25", "address": "20 CRESTVIEW PLACE", "city": "KITCHENER", "province": "ON", "country": "CA", "postalCode": "N2B0A2", "twitter": "None", "instagram": "None", "facebook": "None", "youtube": "None", "website": "None", "summary": "None", "logo": "None", "latitude": 43.479014582866746, "longitude": -80.43120463038876}, "119200806RR0001": {"name": "STRONGFIELD & DISTRICT DONORS CHOICE COMBINED APPEAL", "designationCode": "A", "categoryCode": "05", "address": "BOX 116", "city": "STRONGFIELD", "province": "SK", "country": "CA", "postalCode": "S0H3Z0", "twitter": "None", "instagram": "None", "facebook": "None", "youtube": "None", "website": "None", "summary": "None", "logo": "None", "latitude": 51.33337000000006, "longitude": -106.58454999999998}, "133712596RR0001": {"name": "STRONGVILLE GOSPEL HALL", "designationCode": "C", "categoryCode": "39", "address": "4 CEDAR POINTE DR             UNIT R", "city": "BARRIE", "province": "ON", "country": "CA", "postalCode": "L4N5R7", "twitter": "None", "instagram": "None", "facebook": "None", "youtube": "None", "website": "None", "summary": "None", "logo": "None", "latitude": 44.37900296985677, "longitude": -79.71389244684802}, "119288918RR1304": {"name": "STROUD CONGREGATION OF JEHOVAH'S WITNESSES", "designationCode": "C", "categoryCode": "61", "address": "1935 ROMANIA COURT", "city": "INNISFIL", "province": "ON", "country": "CA", "postalCode": "L9S4X9", "twitter": "None", "instagram": "None", "facebook": "None", "youtube": "None", "website": "None", "summary": "None", "logo": "None", "latitude": 44.30217300000005, "longitude": -79.56896299999994}, "119200871RR0001": {"name": "STROUD PRESBYTERIAN CHURCH", "designationCode": "C", "categoryCode": "37", "address": "2180 VICTORIA STREET", "city": "INNISFIL", "province": "ON", "country": "CA", "postalCode": "L9S1K4", "twitter": "None", "instagram": "None", "facebook": "None", "youtube": "None", "website": "None", "summary": "None", "logo": "None", "latitude": 44.324718157375315, "longitude": -79.61823318286947}, "119200913RR0001": {"name": "STS ANDREW AND MARGARET PARISH", "designationCode": "C", "categoryCode": "38", "address": "3597 MAIN ST", "city": "WEST ST PAUL", "province": "MB", "country": "CA", "postalCode": "R4A5A2", "twitter": "None", "instagram": "None", "facebook": "None", "youtube": "None", "website": "None", "summary": "None", "logo": "None", "latitude": 49.980466357431986, "longitude": -97.0663461020567}, "119201051RR0001": {"name": "STS CYRIL & METHODIUS CHURCH", "designationCode": "C", "categoryCode": "38", "address": "14 ROLLS AVE", "city": "ST CATHARINES", "province": "ON", "country": "CA", "postalCode": "L2N1W1", "twitter": "None", "instagram": "None", "facebook": "None", "youtube": "None", "website": "None", "summary": "None", "logo": "None", "latitude": 43.17404345325738, "longitude": -79.23163436081136}}