{"849759238RR0001": {"name": "\u00c9glise Alliance de Vie / Iglesia Alianza de Vida", "designationCode": "C", "categoryCode": "39", "address": "8350, BOUL. SAINT-MICHEL", "city": "MONTREAL", "province": "QC", "country": "CA", "postalCode": "H1Z4G3", "twitter": "None", "instagram": "None", "facebook": "None", "youtube": "None", "website": "None", "summary": "None", "logo": "None", "latitude": 45.56558075685278, "longitude": -73.61384219138426}, "838869055RR0001": {"name": "\u00c9glise Anglicane Biblique St-Timoth\u00e9e / St.Timothy's Anglican Bible Church", "designationCode": "C", "categoryCode": "30", "address": "174 REGATTA AVE", "city": "POINTE-CLAIRE", "province": "QC", "country": "CA", "postalCode": "H9S3Z6", "twitter": "None", "instagram": "None", "facebook": "None", "youtube": "None", "website": "None", "summary": "None", "logo": "None", "latitude": 45.44115079098636, "longitude": -73.81180788022974}, "825286776RR0001": {"name": "\u00c9glise Apostolique du Phare / Lighthouse Tabernacle Apostolic", "designationCode": "B", "categoryCode": "39", "address": "308 PLACE SAMSON", "city": "LAVAL", "province": "QC", "country": "CA", "postalCode": "H7W3T7", "twitter": "None", "instagram": "None", "facebook": "None", "youtube": "None", "website": "None", "summary": "None", "logo": "None", "latitude": 45.53041024395528, "longitude": -73.7540076468347}, "841270705RR0001": {"name": "\u00c9glise Assembl\u00e9e de la Gr\u00e2ce", "designationCode": "C", "categoryCode": "39", "address": "6555 GU\u00c9NARD", "city": "LAVAL", "province": "QC", "country": "CA", "postalCode": "H7B1C1", "twitter": "None", "instagram": "None", "facebook": "None", "youtube": "None", "website": "None", "summary": "None", "logo": "None", "latitude": 45.679903522072784, "longitude": -73.62751066763806}, "130146384RR0001": {"name": "\u00c9glise Baptiste \u00e9vang\u00e9lique connexion", "designationCode": "C", "categoryCode": "31", "address": "CP 442", "city": "PLESSISVILLE", "province": "QC", "country": "CA", "postalCode": "G6L2Y8", "twitter": "None", "instagram": "None", "facebook": "None", "youtube": "None", "website": "None", "summary": "None", "logo": "None", "latitude": 46.21488000000005, "longitude": -71.76541399999994}, "818881435RR0001": {"name": "\u00c9glise Baptiste \u00c9vang\u00e9lique des Nations", "designationCode": "C", "categoryCode": "39", "address": "1010, BESSI\u00c8RES", "city": "LAVAL", "province": "QC", "country": "CA", "postalCode": "H7X3B3", "twitter": "None", "instagram": "None", "facebook": "None", "youtube": "None", "website": "None", "summary": "None", "logo": "None", "latitude": 45.531798117692794, "longitude": -73.80712070884076}, "840539332RR0001": {"name": "\u00c9glise Baptiste \u00c9vang\u00e9lique du Coin", "designationCode": "C", "categoryCode": "31", "address": "402, RUE ST-ZOTIQUE EST", "city": "MONTR\u00c9AL", "province": "QC", "country": "CA", "postalCode": "H2S1L9", "twitter": "None", "instagram": "None", "facebook": "None", "youtube": "None", "website": "None", "summary": "None", "logo": "None", "latitude": 45.535619776848094, "longitude": -73.60836734373024}, "831775309RR0001": {"name": "\u00c9glise Baptiste \u00c9vang\u00e9lique l'Oasis", "designationCode": "C", "categoryCode": "39", "address": "7450 DU PLATEAU", "city": "LAVAL", "province": "QC", "country": "CA", "postalCode": "H7A2P1", "twitter": "None", "instagram": "None", "facebook": "None", "youtube": "None", "website": "None", "summary": "None", "logo": "None", "latitude": 45.653758942812715, "longitude": -73.60585102149585}, "118895242RR0001": {"name": "\u00c9glise Baptiste \u00c9vang\u00e9lique Geths\u00e9manie", "designationCode": "C", "categoryCode": "39", "address": "1350 DE L'HARMONIE", "city": "LAVAL", "province": "QC", "country": "CA", "postalCode": "H7A4E5", "twitter": "None", "instagram": "None", "facebook": "None", "youtube": "None", "website": "None", "summary": "None", "logo": "None", "latitude": 45.67085666887882, "longitude": -73.59178226937492}, "853121887RR0001": {"name": "\u00c9glise Baptiste \u00c9vangelique D'Aujourdhui", "designationCode": "C", "categoryCode": "31", "address": "1220 AV DES PENSEES", "city": "BECANCOUR", "province": "QC", "country": "CA", "postalCode": "G9H2T2", "twitter": "None", "instagram": "None", "facebook": "None", "youtube": "None", "website": "None", "summary": "None", "logo": "None", "latitude": 46.33120341159334, "longitude": -72.51127181017358}, "838872851RR0001": {"name": "\u00c9glise Baptiste de la foi de la Mauricie / Faith Baptist Church of the Mauricie", "designationCode": "C", "categoryCode": "31", "address": "407, RUE SAINT-ALEXIS OUEST", "city": "TROIS-RIVI\u00c8RES", "province": "QC", "country": "CA", "postalCode": "G8W2E2", "twitter": "None", "instagram": "None", "facebook": "None", "youtube": "None", "website": "None", "summary": "None", "logo": "None", "latitude": 46.395235749379644, "longitude": -72.57888110176552}, "822098992RR0001": {"name": "\u00c9glise Baptiste de la Foi de Laval/Faith Baptist Church of Laval", "designationCode": "C", "categoryCode": "39", "address": "203 33E AV", "city": "SAINT-EUSTACHE", "province": "QC", "country": "CA", "postalCode": "J7P2Y8", "twitter": "None", "instagram": "None", "facebook": "None", "youtube": "None", "website": "None", "summary": "None", "logo": "None"}, "812189553RR0001": {"name": "\u00c9glise Baptiste de la Saintet\u00e9 de Toronto - Toronto Holiness Baptist Church", "designationCode": "C", "categoryCode": "31", "address": "28 HOWDEN RD", "city": "SCARBOROUGH", "province": "ON", "country": "CA", "postalCode": "M1R3C7", "twitter": "None", "instagram": "None", "facebook": "None", "youtube": "None", "website": "None", "summary": "None", "logo": "None", "latitude": 43.74885834802942, "longitude": -79.2888450192159}, "107286411RR0001": {"name": "\u00c9glise Baptiste de Charlesbourg", "designationCode": "C", "categoryCode": "31", "address": "4580 AV CHAUVEAU", "city": "QUEBEC", "province": "QC", "country": "CA", "postalCode": "G2C1A7", "twitter": "None", "instagram": "None", "facebook": "None", "youtube": "None", "website": "None", "summary": "None", "logo": "None", "latitude": 46.82687210242937, "longitude": -71.35749939635855}, "808370712RR0001": {"name": "\u00c9glise Baptiste nouvelle vie de Montr\u00e9al / New Life Baptist Church of Montr\u00e9al/Igreja Batista Vida Nova De Montr\u00e9al", "designationCode": "C", "categoryCode": "39", "address": "553 RUE PROVOST", "city": "LAVAL", "province": "QC", "country": "CA", "postalCode": "H7X4G4", "twitter": "None", "instagram": "None", "facebook": "None", "youtube": "None", "website": "None", "summary": "None", "logo": "None", "latitude": 45.52451260228512, "longitude": -73.78625770356064}, "766151898RR0001": {"name": "\u00c9glise Baptiste Bellevue Salem du Canada", "designationCode": "B", "categoryCode": "31", "address": "57 RUE MARCELLE-FERRON", "city": "GATINEAU", "province": "QC", "country": "CA", "postalCode": "J8P0H1", "twitter": "None", "instagram": "None", "facebook": "None", "youtube": "None", "website": "None", "summary": "None", "logo": "None", "latitude": 45.50027891395928, "longitude": -75.61953877312584}, "737987693RR0001": {"name": "\u00c9glise Baptiste Biblique internationale", "designationCode": "C", "categoryCode": "39", "address": "2540 AV GERARD-LEDUC", "city": "TERREBONNE", "province": "QC", "country": "CA", "postalCode": "J6Y2C5", "twitter": "None", "instagram": "None", "facebook": "None", "youtube": "None", "website": "None", "summary": "None", "logo": "None", "latitude": 45.695123560909536, "longitude": -73.78859210548778}, "769242728RR0001": {"name": "\u00c9glise Baptiste Connexion Ahuntsic", "designationCode": "C", "categoryCode": "31", "address": "10279 AV PAPINEAU", "city": "MONTREAL", "province": "QC", "country": "CA", "postalCode": "H2B2A1", "twitter": "None", "instagram": "None", "facebook": "None", "youtube": "None", "website": "None", "summary": "None", "logo": "None", "latitude": 45.5680983341796, "longitude": -73.65307863667849}, "832347736RR0001": {"name": "\u00c9glise Baptiste Salem d'Ottawa", "designationCode": "C", "categoryCode": "31", "address": "2732 COLMAN ST", "city": "OTTAWA", "province": "ON", "country": "CA", "postalCode": "K1V8J9", "twitter": "None", "instagram": "None", "facebook": "None", "youtube": "None", "website": "None", "summary": "None", "logo": "None", "latitude": 45.36571145850885, "longitude": -75.67952770180028}, "891628182RR0001": {"name": "\u00c9glise Bethesda des assembl\u00e9es de Dieu ind\u00e9pendantes et internationales", "designationCode": "C", "categoryCode": "39", "address": "1892 MARCHAND", "city": "LAVAL", "province": "QC", "country": "CA", "postalCode": "H7G4V6", "twitter": "None", "instagram": "None", "facebook": "None", "youtube": "None", "website": "None", "summary": "None", "logo": "None", "latitude": 45.59181127116395, "longitude": -73.68913504633858}, "788612687RR0001": {"name": "\u00c9glise Bonnes Nouvelles du Canada / Good News Church of Canada / Iglesia Buenas Noticias de Canada", "designationCode": "C", "categoryCode": "39", "address": "2 RUE DE VERSAILLES", "city": "SAINT-CONSTANT", "province": "QC", "country": "CA", "postalCode": "J5A2M8", "twitter": "None", "instagram": "None", "facebook": "None", "youtube": "None", "website": "None", "summary": "None", "logo": "None", "latitude": 45.381872107940616, "longitude": -73.59804095227643}, "810320242RR0001": {"name": "\u00c9glise Bulgare - Assomption de la Vierge Marie", "designationCode": "C", "categoryCode": "39", "address": "150-3850, RUE JEAN-TALON OUEST", "city": "MONTREAL", "province": "QC", "country": "CA", "postalCode": "H3R2G8", "twitter": "None", "instagram": "None", "facebook": "None", "youtube": "None", "website": "None", "summary": "None", "logo": "None", "latitude": 45.50748788219701, "longitude": -73.63804856585075}, "815366182RR0001": {"name": "\u00c9glise Casa Firme Una Esperanza Viva", "designationCode": "C", "categoryCode": "39", "address": "7573 RUE LOUIS-DARVEAU", "city": "MONTREAL", "province": "QC", "country": "CA", "postalCode": "H1E7N1", "twitter": "None", "instagram": "None", "facebook": "None", "youtube": "None", "website": "None", "summary": "None", "logo": "None", "latitude": 45.63610467084072, "longitude": -73.6061482131686}, "106727514RR0001": {"name": "\u00c9glise Catch The Fire-Montr\u00e9al", "designationCode": "C", "categoryCode": "36", "address": "4747 BOUL SAINT-CHARLES", "city": "PIERREFONDS", "province": "QC", "country": "CA", "postalCode": "H9H3C7", "twitter": "None", "instagram": "None", "facebook": "None", "youtube": "None", "website": "None", "summary": "None", "logo": "None", "latitude": 45.464117813780284, "longitude": -73.87190206047684}, "820506244RR0001": {"name": "\u00c9glise Catholique Eucharistique/The Eucharistic Catholic C hurch", "designationCode": "C", "categoryCode": "39", "address": "250 SEATON STREET", "city": "TORONTO", "province": "ON", "country": "CA", "postalCode": "M5A2T4", "twitter": "None", "instagram": "None", "facebook": "None", "youtube": "None", "website": "None", "summary": "None", "logo": "None", "latitude": 43.66055868720069, "longitude": -79.37033676951916}, "831397401RR0001": {"name": "\u00c9glise Centrale Hispanique de Montr\u00e9al du Nazar\u00e9en / Montr\u00e9al Central Hispanic Church of the Nazarene", "designationCode": "C", "categoryCode": "39", "address": "2960 BOUL DE LA CONCORDE E", "city": "LAVAL", "province": "QC", "country": "CA", "postalCode": "H7E2B6", "twitter": "None", "instagram": "None", "facebook": "None", "youtube": "None", "website": "None", "summary": "None", "logo": "None", "latitude": 45.59190139990793, "longitude": -73.6692054551333}, "830491809RR0001": {"name": "\u00c9glise Chr\u00e9tienne de la Pent\u00e9c\u00f4te Missionnaire des Pri\u00e8res (Disciples du Christ)", "designationCode": "C", "categoryCode": "39", "address": "68 BOUL CARTIER O", "city": "LAVAL", "province": "QC", "country": "CA", "postalCode": "H7N2H5", "twitter": "None", "instagram": "None", "facebook": "None", "youtube": "None", "website": "None", "summary": "None", "logo": "None", "latitude": 45.55893545325739, "longitude": -73.68985569470249}, "809085848RR0001": {"name": "\u00c9glise Chr\u00e9tienne de Gatineau \"Dieu le potier\"", "designationCode": "C", "categoryCode": "39", "address": "188 RUE DE SAINT-EMILLION", "city": "GATINEAU", "province": "QC", "country": "CA", "postalCode": "J8R2R5", "twitter": "None", "instagram": "None", "facebook": "None", "youtube": "None", "website": "None", "summary": "None", "logo": "None", "latitude": 45.49892151788919, "longitude": -75.67389084387446}, "893857383RR0001": {"name": "\u00c9glise Chr\u00e9tienne de Laval/Laval Christian Fellowship", "designationCode": "C", "categoryCode": "39", "address": "1645 BOULEVARD DES LAURENTIDES", "city": "LAVAL", "province": "QC", "country": "CA", "postalCode": "H7M2P2", "twitter": "None", "instagram": "None", "facebook": "None", "youtube": "None", "website": "None", "summary": "None", "logo": "None", "latitude": 45.59508448294754, "longitude": -73.71987613486083}, "107287054RR0001": {"name": "\u00c9glise Chr\u00e9tienne le Rocher", "designationCode": "C", "categoryCode": "31", "address": "4, RUE DU PARC OUEST", "city": "CH\u00c2TEAUGUAY", "province": "QC", "country": "CA", "postalCode": "J6K1P6", "twitter": "None", "instagram": "None", "facebook": "None", "youtube": "None", "website": "None", "summary": "None", "logo": "None", "latitude": 45.354609590022775, "longitude": -73.71740499293087}, "801801713RR0001": {"name": "\u00c9glise Chr\u00e9tienne Apostolique (ECA)", "designationCode": "C", "categoryCode": "39", "address": "597 PETRICHOR CRES", "city": "ORLEANS", "province": "ON", "country": "CA", "postalCode": "K4A0Y4", "twitter": "None", "instagram": "None", "facebook": "None", "youtube": "None", "website": "None", "summary": "None", "logo": "None"}, "819232190RR0001": {"name": "\u00c9glise Christ de la Nouvelle Alliance", "designationCode": "C", "categoryCode": "47", "address": "1121 RUE BIENCOURT", "city": "LAVAL", "province": "QC", "country": "CA", "postalCode": "H7G0A3", "twitter": "None", "instagram": "None", "facebook": "None", "youtube": "None", "website": "None", "summary": "None", "logo": "None", "latitude": 45.579318496797356, "longitude": -73.69483731666581}, "716916895RR0001": {"name": "\u00c9glise Christ Ressuscit\u00e9", "designationCode": "C", "categoryCode": "39", "address": "3983 RUE WELLINGTON", "city": "VERDUN", "province": "QC", "country": "CA", "postalCode": "H4G1V6", "twitter": "None", "instagram": "None", "facebook": "None", "youtube": "None", "website": "None", "summary": "None", "logo": "None", "latitude": 45.46396188121068, "longitude": -73.56696078714852}, "842907586RR0001": {"name": "\u00c9glise Cit\u00e9 Peniel/ Peniel City Church", "designationCode": "C", "categoryCode": "39", "address": "2 - 389 BOUL DE LA CITE", "city": "GATINEAU", "province": "QC", "country": "CA", "postalCode": "J8T7Z9", "twitter": "None", "instagram": "None", "facebook": "None", "youtube": "None", "website": "None", "summary": "None", "logo": "None", "latitude": 45.492605980108785, "longitude": -75.6823905}, "816044382RR0001": {"name": "\u00c9glise Citoyen du Royaume", "designationCode": "B", "categoryCode": "49", "address": "57 RUE DE LA DAUPHINE", "city": "SAINT-COLOMBAN", "province": "QC", "country": "CA", "postalCode": "J5K0A2", "twitter": "None", "instagram": "None", "facebook": "None", "youtube": "None", "website": "None", "summary": "None", "logo": "None", "latitude": 45.76984858061638, "longitude": -74.08513986381246}, "855809240RR0001": {"name": "\u00c9glise Communaut\u00e9 des Fr\u00e8res Chr\u00e9tiens de Sherbrooke", "designationCode": "C", "categoryCode": "39", "address": "1678 RUE PROSPECT", "city": "SHERBROOKE", "province": "QC", "country": "CA", "postalCode": "J1J1K5", "twitter": "None", "instagram": "None", "facebook": "None", "youtube": "None", "website": "None", "summary": "None", "logo": "None", "latitude": 45.40925047403208, "longitude": -71.91640366763806}, "797808722RR0001": {"name": "\u00c9glise Communaut\u00e9 Chr\u00e9tienne du Foi Canada / Christian Community of Faith Church of Canada / Iglesia Comunidad Cristiana De Fe Canada", "designationCode": "C", "categoryCode": "39", "address": "9572 RUE RIVERIN", "city": "BROSSARD", "province": "QC", "country": "CA", "postalCode": "J4X2Z2", "twitter": "None", "instagram": "None", "facebook": "None", "youtube": "None", "website": "None", "summary": "None", "logo": "None", "latitude": 45.432422550637774, "longitude": -73.48881508826244}, "844446757RR0001": {"name": "\u00c9glise Communautaire Mosa\u00efque / Mosaic Community Church", "designationCode": "C", "categoryCode": "39", "address": "340, RUE DE MONTMARTRE", "city": "QUEBEC", "province": "QC", "country": "CA", "postalCode": "G1K1E2", "twitter": "None", "instagram": "None", "facebook": "None", "youtube": "None", "website": "None", "summary": "None", "logo": "None", "latitude": 46.81320152152451, "longitude": -71.23987883654553}, "732309893RR0001": {"name": "\u00c9glise Copte Orthodoxe de Saint Jean Baptiste-Coptic Orthodox Church of Saint John the Baptist", "designationCode": "C", "categoryCode": "39", "address": "17400 BOUL DE PIERREFONDS", "city": "PIERREFONDS", "province": "QC", "country": "CA", "postalCode": "H9J2V4", "twitter": "None", "instagram": "None", "facebook": "None", "youtube": "None", "website": "None", "summary": "None", "logo": "None", "latitude": 45.46595734883747, "longitude": -73.87963420990863}, "732265699RR0001": {"name": "\u00c9glise Copte Orthodoxe de Saint Mina et Pape Cyrille VI", "designationCode": "C", "categoryCode": "39", "address": "3615 RUE DES ABENAKIS", "city": "LAVAL", "province": "QC", "country": "CA", "postalCode": "H7P6A4", "twitter": "None", "instagram": "None", "facebook": "None", "youtube": "None", "website": "None", "summary": "None", "logo": "None", "latitude": 45.587997365543224, "longitude": -73.81990673189448}, "141228841RR0001": {"name": "\u00c9glise Eben-Ezer de Pent\u00e9c\u00f4te / Eglesia Pentecostal Eben- Ezer", "designationCode": "C", "categoryCode": "39", "address": "8020  18E AVENUE", "city": "MONTREAL", "province": "QC", "country": "CA", "postalCode": "H1Z3R8", "twitter": "None", "instagram": "None", "facebook": "None", "youtube": "None", "website": "None", "summary": "None", "logo": "None", "latitude": 45.56854969856898, "longitude": -73.6042320564948}, "118846872RR0001": {"name": "\u00c9glise Espoir et Vie de Ste-Anne-des-Monts", "designationCode": "C", "categoryCode": "36", "address": "1, PLACE DES VENTS", "city": "STE-ANNE-DES-MONTS", "province": "QC", "country": "CA", "postalCode": "G4V2K2", "twitter": "None", "instagram": "None", "facebook": "None", "youtube": "None", "website": "None", "summary": "None", "logo": "None", "latitude": 49.12705691144911, "longitude": -66.49358678766814}, "821218989RR0001": {"name": "\u00c9glise Fleuve D'eau Vive de Gatineau", "designationCode": "C", "categoryCode": "39", "address": "407 RUE NOBERT", "city": "GATINEAU", "province": "QC", "country": "CA", "postalCode": "J8R3P3", "twitter": "None", "instagram": "None", "facebook": "None", "youtube": "None", "website": "None", "summary": "None", "logo": "None", "latitude": 45.5031611862484, "longitude": -75.66857628409011}, "777312711RR0001": {"name": "\u00c9glise G\u00e9n\u00e9ration", "designationCode": "C", "categoryCode": "36", "address": "1645 BOUL DES LAURENTIDES", "city": "LAVAL", "province": "QC", "country": "CA", "postalCode": "H7M2P2", "twitter": "None", "instagram": "None", "facebook": "None", "youtube": "None", "website": "None", "summary": "None", "logo": "None", "latitude": 45.59508448294754, "longitude": -73.71987613486083}, "780840922RR0001": {"name": "\u00c9glise Glorieuse de Christ", "designationCode": "C", "categoryCode": "39", "address": "9053 RUE BOIVIN", "city": "LASALLE", "province": "QC", "country": "CA", "postalCode": "H8R2E2", "twitter": "None", "instagram": "None", "facebook": "None", "youtube": "None", "website": "None", "summary": "None", "logo": "None", "latitude": 45.42172916515658, "longitude": -73.63227457048882}, "107606964RR0001": {"name": "\u00c9glise Gospelvie", "designationCode": "C", "categoryCode": "36", "address": "1455, AVE. PAPINEAU", "city": "MONTR\u00c9AL", "province": "QC", "country": "CA", "postalCode": "H2K4H5", "twitter": "None", "instagram": "None", "facebook": "None", "youtube": "None", "website": "None", "summary": "None", "logo": "None", "latitude": 45.52308808661766, "longitude": -73.553349710774}, "130043490RR0001": {"name": "\u00c9glise Gr\u00e2ce de Lasalle / Grace Church of Lasalle", "designationCode": "C", "categoryCode": "39", "address": "501 5E AV", "city": "VERDUN", "province": "QC", "country": "CA", "postalCode": "H4G2Z2", "twitter": "None", "instagram": "None", "facebook": "None", "youtube": "None", "website": "None", "summary": "None", "logo": "None", "latitude": 45.456254474897484, "longitude": -73.57099030099833}, "844721688RR0001": {"name": "\u00c9glise Gr\u00e9co-Catholique Roumaine, Paroisse de \"La Nativit\u00e9 de la Sainte Vierge\" / Biserica Romana Unita cu Roma Greco-Catolica Parohia \"Nasterea Maicii Domnului\"", "designationCode": "C", "categoryCode": "38", "address": "5107 RUE DE  SAVOIE", "city": "PIERREFONDS", "province": "QC", "country": "CA", "postalCode": "H8Z1C4", "twitter": "None", "instagram": "None", "facebook": "None", "youtube": "None", "website": "None", "summary": "None", "logo": "None", "latitude": 45.51065542404267, "longitude": -73.82920501311008}, "859096380RR0001": {"name": "\u00c9glise Havre De Paix / Haven Of Peace Church", "designationCode": "C", "categoryCode": "39", "address": "8025,ROUTE LOUIS S.           ST-LAURENT", "city": "COMPTON", "province": "QC", "country": "CA", "postalCode": "J0B1L0", "twitter": "None", "instagram": "None", "facebook": "None", "youtube": "None", "website": "None", "summary": "None", "logo": "None", "latitude": 45.17530703951128, "longitude": -71.80391223720768}, "803345560RR0001": {"name": "\u00c9glise L'impact de Joliette", "designationCode": "C", "categoryCode": "39", "address": "65 RUE DES FLEURS", "city": "SAINT-JEAN-DE-MATHA", "province": "QC", "country": "CA", "postalCode": "J0K2S0", "twitter": "None", "instagram": "None", "facebook": "None", "youtube": "None", "website": "None", "summary": "None", "logo": "None", "latitude": 46.25356283207347, "longitude": -73.5376374755613}, "829777168RR0001": {"name": "\u00c9glise La Lumi\u00e8re Du Monde", "designationCode": "C", "categoryCode": "39", "address": "5 RUE DE BEAUPRE", "city": "MERCIER", "province": "QC", "country": "CA", "postalCode": "J6R2J2", "twitter": "None", "instagram": "None", "facebook": "None", "youtube": "None", "website": "None", "summary": "None", "logo": "None", "latitude": 45.3427113655432, "longitude": -73.73463035483874}, "108188061RR0001": {"name": "\u00c9glise La P\u00eache / La P\u00eache Church", "designationCode": "C", "categoryCode": "39", "address": "889 RIVERSIDE                 BOX 148", "city": "WAKEFIELD", "province": "QC", "country": "CA", "postalCode": "J0X3G0", "twitter": "None", "instagram": "None", "facebook": "None", "youtube": "None", "website": "None", "summary": "None", "logo": "None", "latitude": 45.646288899532536, "longitude": -75.92823040039792}, "793023086RR0001": {"name": "\u00c9glise Le Parcours/The Journey Church", "designationCode": "C", "categoryCode": "39", "address": "922 BOUL SAINTE-ANNE", "city": "RIMOUSKI", "province": "QC", "country": "CA", "postalCode": "G5M1J3", "twitter": "None", "instagram": "None", "facebook": "None", "youtube": "None", "website": "None", "summary": "None", "logo": "None", "latitude": 48.50867540579362, "longitude": -68.46285705389772}, "713296499RR0001": {"name": "\u00c9glise Missionnaire \u00c9vang\u00e9lique Baptiste de L'Outaouais", "designationCode": "C", "categoryCode": "31", "address": "84 RUE LOIS", "city": "GATINEAU", "province": "QC", "country": "CA", "postalCode": "J8Y3R4", "twitter": "None", "instagram": "None", "facebook": "None", "youtube": "None", "website": "None", "summary": "None", "logo": "None", "latitude": 45.43373621426511, "longitude": -75.73211190311056}, "872976840RR0001": {"name": "\u00c9glise Missionnaire des Ambassadeurs du Christ/Missionary Church of Ambassadors of Christ", "designationCode": "C", "categoryCode": "39", "address": "408 - 1575 RUE EVANGELINE", "city": "SHERBROOKE", "province": "QC", "country": "CA", "postalCode": "J1H6C8", "twitter": "None", "instagram": "None", "facebook": "None", "youtube": "None", "website": "None", "summary": "None", "logo": "None", "latitude": 45.38242830391252, "longitude": -71.88672161189308}, "890021546RR0001": {"name": "\u00c9glise Missionnaire du Christ (Qu\u00e9bec) inc./Iglesia de Cristo Misionera Qu\u00e9bec Inc.", "designationCode": "C", "categoryCode": "39", "address": "3180, RUE PETER-CURRY", "city": "MONTR\u00c9AL", "province": "QC", "country": "CA", "postalCode": "H1H2P9", "twitter": "None", "instagram": "None", "facebook": "None", "youtube": "None", "website": "None", "summary": "None", "logo": "None", "latitude": 45.579950980004696, "longitude": -73.64496097250287}, "812026409RR0001": {"name": "\u00c9glise Missionnaire Pentec\u00f4tiste Mont Sion", "designationCode": "C", "categoryCode": "39", "address": "10540 RUE EMILIE-DU CHATELET", "city": "MONTREAL", "province": "QC", "country": "CA", "postalCode": "H1C2K2", "twitter": "None", "instagram": "None", "facebook": "None", "youtube": "None", "website": "None", "summary": "None", "logo": "None", "latitude": 45.664806479860474, "longitude": -73.54987311697164}, "850133356RR0001": {"name": "\u00c9glise Nouveau D\u00e9part de Waterloo / New Beginning Church of Waterloo", "designationCode": "C", "categoryCode": "39", "address": "4920-1, RUE FOSTER            C.P. 1350", "city": "WATERLOO", "province": "QC", "country": "CA", "postalCode": "J0E2N0", "twitter": "None", "instagram": "None", "facebook": "None", "youtube": "None", "website": "None", "summary": "None", "logo": "None", "latitude": 45.349098000000055, "longitude": -72.52319149999994}, "817998305RR0001": {"name": "\u00c9glise Nouvel Espoir", "designationCode": "C", "categoryCode": "39", "address": "2224 RUE INNES", "city": "OTTAWA", "province": "ON", "country": "CA", "postalCode": "K1B4C4", "twitter": "None", "instagram": "None", "facebook": "None", "youtube": "None", "website": "None", "summary": "None", "logo": "None", "latitude": 45.42577398738494, "longitude": -75.57812834419595}, "107610214RR0001": {"name": "\u00c9glise Nouvel Horizon", "designationCode": "C", "categoryCode": "31", "address": "800 BOUL RAYMOND", "city": "BEAUPORT", "province": "QC", "country": "CA", "postalCode": "G1C6Y5", "twitter": "None", "instagram": "None", "facebook": "None", "youtube": "None", "website": "None", "summary": "None", "logo": "None", "latitude": 46.89431918235324, "longitude": -71.19032197896644}, "885146027RR0001": {"name": "\u00c9glise Nouvelle Esp\u00e9rance", "designationCode": "C", "categoryCode": "39", "address": "1620 CHAMPLAIN ST", "city": "DIEPPE", "province": "NB", "country": "CA", "postalCode": "E1A1R8", "twitter": "None", "instagram": "None", "facebook": "None", "youtube": "None", "website": "None", "summary": "None", "logo": "None", "latitude": 46.10372153952925, "longitude": -64.67784765736627}, "816075758RR0001": {"name": "\u00c9glise Orthodoxe d'Antioche Saint Jean Baptiste", "designationCode": "C", "categoryCode": "39", "address": "4590, BOUL. HENRI BOURASSA O", "city": "ST-LAURENT", "province": "QC", "country": "CA", "postalCode": "H4L1A8", "twitter": "None", "instagram": "None", "facebook": "None", "youtube": "None", "website": "None", "summary": "None", "logo": "None", "latitude": 45.52380680345118, "longitude": -73.7039107386465}, "846878700RR0001": {"name": "\u00c9glise Orthodoxe Roumain Saint Dimitri le nouveau / Romanian Orthodox Church Saint Dimitrios the new Biserica Orthodoxa Romana Sfantul Dimitrie Cel Nou", "designationCode": "C", "categoryCode": "39", "address": "10200 AVE BOIS DE BOULOGNE    APP. 304", "city": "MONTR\u00c9AL", "province": "QC", "country": "CA", "postalCode": "H4N1K8", "twitter": "None", "instagram": "None", "facebook": "None", "youtube": "None", "website": "None", "summary": "None", "logo": "None", "latitude": 45.536955067978674, "longitude": -73.6709501199145}, "824435846RR0001": {"name": "\u00c9glise Orthodoxe Roumaine Sainte Parascheva/ Romanian Orthodox Church Sainte Parascheva", "designationCode": "C", "categoryCode": "39", "address": "4939 RUE CHERRIER", "city": "LAVAL", "province": "QC", "country": "CA", "postalCode": "H7T0E8", "twitter": "None", "instagram": "None", "facebook": "None", "youtube": "None", "website": "None", "summary": "None", "logo": "None", "latitude": 45.550940761873115, "longitude": -73.79144713364872}, "834783896RR0001": {"name": "\u00c9glise Orthodoxe Roumaine\"La Naissance de la Sainte-Vierge Marie\" Laval, Qu\u00e9bec / Biserica Ortodoxa Romana \"Nasterea Maicii Domnului\" Laval, Qu\u00e9bec", "designationCode": "C", "categoryCode": "39", "address": "109, LEVESQUE, E", "city": "LAVAL", "province": "QC", "country": "CA", "postalCode": "H7G4P7", "twitter": "None", "instagram": "None", "facebook": "None", "youtube": "None", "website": "None", "summary": "None", "logo": "None", "latitude": 45.56353726366213, "longitude": -73.67840722424843}, "829038553RR0001": {"name": "\u00c9glise Pastos Verdes", "designationCode": "B", "categoryCode": "39", "address": "110-1051 DUCAS", "city": "VILLE LASALLE", "province": "QC", "country": "CA", "postalCode": "H8N2K5", "twitter": "None", "instagram": "None", "facebook": "None", "youtube": "None", "website": "None", "summary": "None", "logo": "None", "latitude": 45.43747261679153, "longitude": -73.60596659915072}, "835183518RR0001": {"name": "\u00c9glise Peniel Face de Dieu", "designationCode": "C", "categoryCode": "39", "address": "9267 AV CERES", "city": "PIERREFONDS", "province": "QC", "country": "CA", "postalCode": "H8Y3P2", "twitter": "None", "instagram": "None", "facebook": "None", "youtube": "None", "website": "None", "summary": "None", "logo": "None", "latitude": 45.50209850377957, "longitude": -73.78175921394799}, "811795632RR0001": {"name": "\u00c9glise Pentec\u00f4te francophone de Sudbury", "designationCode": "C", "categoryCode": "39", "address": "PO BOX 22032, NEW SUDBURY PLAZ555 BARRY DOWNE ROAD", "city": "SUDBURY", "province": "ON", "country": "CA", "postalCode": "P3A3T1", "twitter": "None", "instagram": "None", "facebook": "None", "youtube": "None", "website": "None", "summary": "None", "logo": "None"}, "834826422RR0001": {"name": "\u00c9glise Pentec\u00f4te Rocher de Jacob", "designationCode": "C", "categoryCode": "36", "address": "10465 AV BALZAC", "city": "MONTREAL-NORD", "province": "QC", "country": "CA", "postalCode": "H1H3L6", "twitter": "None", "instagram": "None", "facebook": "None", "youtube": "None", "website": "None", "summary": "None", "logo": "None", "latitude": 45.59056702859364, "longitude": -73.62761950178901}, "844572487RR0001": {"name": "\u00c9glise Pentec\u00f4tiste du vrai chemin / Rightway Pentecostal Church", "designationCode": "C", "categoryCode": "36", "address": "536 TSSE BAYNE", "city": "LASALLE", "province": "QC", "country": "CA", "postalCode": "H8R2X7", "twitter": "None", "instagram": "None", "facebook": "None", "youtube": "None", "website": "None", "summary": "None", "logo": "None", "latitude": 45.421987200675126, "longitude": -73.63993564671912}, "846431047RR0001": {"name": "\u00c9glise Pentec\u00f4tiste du Christ-Roi Sauveur (EPCRS)", "designationCode": "C", "categoryCode": "36", "address": "17, RUE DE LAUSANNE", "city": "GATINEAU", "province": "QC", "country": "CA", "postalCode": "J8T2Y8", "twitter": "None", "instagram": "None", "facebook": "None", "youtube": "None", "website": "None", "summary": "None", "logo": "None", "latitude": 45.475468888712506, "longitude": -75.68572389529163}, "807041975RR0001": {"name": "\u00c9glise Pentec\u00f4tiste Goshene", "designationCode": "C", "categoryCode": "39", "address": "3 - 25 MONTREAL RD", "city": "VANIER", "province": "ON", "country": "CA", "postalCode": "K1L6E8", "twitter": "None", "instagram": "None", "facebook": "None", "youtube": "None", "website": "None", "summary": "None", "logo": "None", "latitude": 45.43325061117192, "longitude": -75.66896210603603}, "845505403RR0001": {"name": "\u00c9glise Pentec\u00f4tiste Missionnaire en lib\u00e9rant le captif / Iglesia Pentecostal Misionera Libertando Al Cautivo", "designationCode": "C", "categoryCode": "39", "address": "425, RUE PROVENCE", "city": "LAVAL", "province": "QC", "country": "CA", "postalCode": "H7K1G9", "twitter": "None", "instagram": "None", "facebook": "None", "youtube": "None", "website": "None", "summary": "None", "logo": "None", "latitude": 45.624372076605674, "longitude": -73.74299958231849}, "821397205RR0001": {"name": "\u00c9glise Pentec\u00f4tiste Missionnaire getsemani d'Ottawa", "designationCode": "C", "categoryCode": "36", "address": "391 RUE DE POINTE-GATINEAU", "city": "GATINEAU", "province": "QC", "country": "CA", "postalCode": "J8T2B9", "twitter": "None", "instagram": "None", "facebook": "None", "youtube": "None", "website": "None", "summary": "None", "logo": "None", "latitude": 45.46710148600596, "longitude": -75.69550208534825}, "831226774RR0001": {"name": "\u00c9glise Pentec\u00f4tiste Unie de l'Est de Montr\u00e9al / Eastern Montr\u00e9al United Pentecostal Church", "designationCode": "C", "categoryCode": "39", "address": "1310, TERRASSE JACQUES-L\u00c9ONARD", "city": "MONTR\u00c9AL", "province": "QC", "country": "CA", "postalCode": "H1A3K3", "twitter": "None", "instagram": "None", "facebook": "None", "youtube": "None", "website": "None", "summary": "None", "logo": "None", "latitude": 45.65745233611286, "longitude": -73.49763825797795}, "805262987RR0001": {"name": "\u00c9glise Pentec\u00f4tiste Unie Nouvelle J\u00e9rusalem", "designationCode": "C", "categoryCode": "36", "address": "1775 RUE DECARIE", "city": "SAINT-LAURENT", "province": "QC", "country": "CA", "postalCode": "H4L3N5", "twitter": "None", "instagram": "None", "facebook": "None", "youtube": "None", "website": "None", "summary": "None", "logo": "None", "latitude": 45.52084186929413, "longitude": -73.69291675004345}, "823895933RR0001": {"name": "\u00c9glise Pr\u00e9sence de Dieu", "designationCode": "C", "categoryCode": "39", "address": "63 RUE DU HIBOU", "city": "SAINT-APOLLINAIRE", "province": "QC", "country": "CA", "postalCode": "G0S2E0", "twitter": "None", "instagram": "None", "facebook": "None", "youtube": "None", "website": "None", "summary": "None", "logo": "None", "latitude": 46.60243173772286, "longitude": -71.44105656174625}, "795269729RR0001": {"name": "\u00c9glise Primitive de la Pentec\u00f4te", "designationCode": "C", "categoryCode": "39", "address": "7 - 645 27E AV", "city": "POINTE AUX TREMBLES", "province": "QC", "country": "CA", "postalCode": "H1A3N9", "twitter": "None", "instagram": "None", "facebook": "None", "youtube": "None", "website": "None", "summary": "None", "logo": "None", "latitude": 45.65275643104039, "longitude": -73.49240264654624}, "811463991RR0001": {"name": "\u00c9glise Protestante Baptiste Oeuvres et Mission Internationale-EPBONI", "designationCode": "C", "categoryCode": "39", "address": "5905A CH UPPER-LACHINE", "city": "MONTREAL", "province": "QC", "country": "CA", "postalCode": "H4A2C2", "twitter": "None", "instagram": "None", "facebook": "None", "youtube": "None", "website": "None", "summary": "None", "logo": "None", "latitude": 45.46641048848908, "longitude": -73.61326159515507}, "827019183RR0001": {"name": "\u00c9glise Ramwon de Montr\u00e9al Montreal Ramwon Church", "designationCode": "C", "categoryCode": "39", "address": "2097 AV UNION", "city": "MONTREAL", "province": "QC", "country": "CA", "postalCode": "H3A2C3", "twitter": "None", "instagram": "None", "facebook": "None", "youtube": "None", "website": "None", "summary": "None", "logo": "None", "latitude": 45.50534012989782, "longitude": -73.57243178406145}, "835008632RR0001": {"name": "\u00c9glise Reflet de Christ", "designationCode": "C", "categoryCode": "39", "address": "4821 RUE DE ROUEN", "city": "MONTREAL", "province": "QC", "country": "CA", "postalCode": "H1V1H6", "twitter": "None", "instagram": "None", "facebook": "None", "youtube": "None", "website": "None", "summary": "None", "logo": "None", "latitude": 45.559196307807674, "longitude": -73.53978797449344}, "818241291RR0001": {"name": "\u00c9glise Renaissance de Sherbrooke/Renaissance Church of Sherbrooke", "designationCode": "C", "categoryCode": "39", "address": "1029 RUE EDMOND-MASSICOTTE", "city": "QUEBEC", "province": "QC", "country": "CA", "postalCode": "G1X4M3", "twitter": "None", "instagram": "None", "facebook": "None", "youtube": "None", "website": "None", "summary": "None", "logo": "None", "latitude": 46.76288670384911, "longitude": -71.3618059236828}, "849923438RR0001": {"name": "\u00c9glise Saint Paul Ap\u00f4tre des Syriaques Catholiques", "designationCode": "C", "categoryCode": "39", "address": "344 CYR AVENUE", "city": "OTTAWA", "province": "ON", "country": "CA", "postalCode": "K1L7P1", "twitter": "None", "instagram": "None", "facebook": "None", "youtube": "None", "website": "None", "summary": "None", "logo": "None", "latitude": 45.432447810433395, "longitude": -75.66245195576754}, "777871294RR0001": {"name": "\u00c9glise Santa Monica des Chald\u00e9ens Catholiques d'Ottawa", "designationCode": "C", "categoryCode": "39", "address": "356 RUE PRESTON", "city": "OTTAWA", "province": "ON", "country": "CA", "postalCode": "K1S4M7", "twitter": "None", "instagram": "None", "facebook": "None", "youtube": "None", "website": "None", "summary": "None", "logo": "None", "latitude": 45.40154171634258, "longitude": -75.71012177174086}, "834138315RR0001": {"name": "\u00c9glise Shekinah Gloire", "designationCode": "C", "categoryCode": "39", "address": "2 RUE ROBERT", "city": "L'ILE-BIZARD", "province": "QC", "country": "CA", "postalCode": "H9C1H4", "twitter": "None", "instagram": "None", "facebook": "None", "youtube": "None", "website": "None", "summary": "None", "logo": "None", "latitude": 45.49167787844074, "longitude": -73.88473480558596}, "847076916RR0001": {"name": "\u00c9glise Spirituelle Inter-Foi, Qu\u00e9bec, Canada Inc / Qu\u00e9bec, Canada, Interfaith Spiritual Church Inc.", "designationCode": "C", "categoryCode": "39", "address": "5 RUE MAIN", "city": "NORTH HATLEY", "province": "QC", "country": "CA", "postalCode": "J0B2C0", "twitter": "None", "instagram": "None", "facebook": "None", "youtube": "None", "website": "None", "summary": "None", "logo": "None", "latitude": 45.27684225174556, "longitude": -71.9740850040107}, "869111971RR0001": {"name": "\u00c9glise Terre Promise / Promise Land Church", "designationCode": "C", "categoryCode": "47", "address": "1403 RUE DEZERY", "city": "MONTREAL", "province": "QC", "country": "CA", "postalCode": "H1W2R2", "twitter": "None", "instagram": "None", "facebook": "None", "youtube": "None", "website": "None", "summary": "None", "logo": "None", "latitude": 45.53931094976627, "longitude": -73.5414734023025}, "728499526RR0001": {"name": "\u00c9glise Urbaine D'alma", "designationCode": "C", "categoryCode": "39", "address": "490 RUE SAINTE-THERESE O", "city": "ALMA", "province": "QC", "country": "CA", "postalCode": "G8B4M7", "twitter": "None", "instagram": "None", "facebook": "None", "youtube": "None", "website": "None", "summary": "None", "logo": "None", "latitude": 48.55603037050621, "longitude": -71.64544079199595}, "825135775RR0001": {"name": "\u00c9glise Vases d'Honneur Montr\u00e9al / Church Vases of Honour Montr\u00e9al", "designationCode": "C", "categoryCode": "39", "address": "2207 AVENUE CHARLAND          1 ETAGE", "city": "MONTREAL", "province": "QC", "country": "CA", "postalCode": "H1Z1B5", "twitter": "None", "instagram": "None", "facebook": "None", "youtube": "None", "website": "None", "summary": "None", "logo": "None", "latitude": 45.569014228432025, "longitude": -73.64109706636255}, "834497539RR0001": {"name": "\u00c9glise Wesleyan lumi\u00e8re de la fronti\u00e8re / Iglesia Wesleyana Luz de la Frontera", "designationCode": "C", "categoryCode": "39", "address": "2822 RUE MODUGNO", "city": "MONTREAL", "province": "QC", "country": "CA", "postalCode": "H4R1V7", "twitter": "None", "instagram": "None", "facebook": "None", "youtube": "None", "website": "None", "summary": "None", "logo": "None", "latitude": 45.50261892368278, "longitude": -73.70363552371755}, "849639265RR0001": {"name": "\u00c9glise-\u00c9cole C.A.D.O.", "designationCode": "C", "categoryCode": "20", "address": "858 BOUL MALONEY EST", "city": "GATINEAU", "province": "QC", "country": "CA", "postalCode": "J8P1H1", "twitter": "None", "instagram": "None", "facebook": "None", "youtube": "None", "website": "None", "summary": "None", "logo": "None", "latitude": 45.48575969467385, "longitude": -75.60614226045946}, "847638202RR0001": {"name": "\u00c9glise-\u00c9cole F.C.A", "designationCode": "C", "categoryCode": "20", "address": "490 RUE CHICOINE", "city": "VAUDREUIL-DORION", "province": "QC", "country": "CA", "postalCode": "J7V7E4", "twitter": "None", "instagram": "None", "facebook": "None", "youtube": "None", "website": "None", "summary": "None", "logo": "None", "latitude": 45.376528957239444, "longitude": -74.02233097763876}, "815609128RR0001": {"name": "\u00c9glises Vertes Green Churches", "designationCode": "C", "categoryCode": "49", "address": "15 - 16 BOUL SAINT-ELZEAR E", "city": "LAVAL", "province": "QC", "country": "CA", "postalCode": "H7M1C2", "twitter": "None", "instagram": "None", "facebook": "None", "youtube": "None", "website": "None", "summary": "None", "logo": "None", "latitude": 45.603541205926575, "longitude": -73.72787122534496}, "896147386RR0001": {"name": "\u00c9missaire", "designationCode": "C", "categoryCode": "19", "address": "101-1005 BOUL. CUR\u00c9-POIRIER O.", "city": "LONGUEUIL", "province": "QC", "country": "CA", "postalCode": "J4K2E2", "twitter": "None", "instagram": "None", "facebook": "None", "youtube": "None", "website": "None", "summary": "None", "logo": "None", "latitude": 45.51761792146108, "longitude": -73.48934851736956}, "839354883RR0001": {"name": "\u00c9picerie communautaire; Le Garde Manger", "designationCode": "C", "categoryCode": "09", "address": "203A BOUL SAINT-MICHEL", "city": "DOLBEAU-MISTASSINI", "province": "QC", "country": "CA", "postalCode": "G8L5Y9", "twitter": "None", "instagram": "None", "facebook": "None", "youtube": "None", "website": "None", "summary": "None", "logo": "None", "latitude": 48.892573553593664, "longitude": -72.20241026777674}, "814421533RR0001": {"name": "\u00c9picerie Halte-ternative", "designationCode": "C", "categoryCode": "09", "address": "3958 RUE DE LA FABRIQUE", "city": "JONQUIERE", "province": "QC", "country": "CA", "postalCode": "G7X3N2", "twitter": "None", "instagram": "None", "facebook": "None", "youtube": "None", "website": "None", "summary": "None", "logo": "None", "latitude": 48.408302398291795, "longitude": -71.25457690729417}, "865334197RR0001": {"name": "\u00c9qui Vox", "designationCode": "C", "categoryCode": "22", "address": "230 RUE ST-HENRI APP. 404", "city": "LA PRAIRIE", "province": "QC", "country": "CA", "postalCode": "J5R5C8", "twitter": "None", "instagram": "None", "facebook": "None", "youtube": "None", "website": "None", "summary": "None", "logo": "None", "latitude": 45.416243800132946, "longitude": -73.49573531574217}, "847863107RR0001": {"name": "\u00c9quipe d'intervention d'urgence de la M.R.C. d'Arthabaska", "designationCode": "C", "categoryCode": "59", "address": "181 BOUL. BOIS-FRANCS SUD", "city": "VICTORIAVILLE", "province": "QC", "country": "CA", "postalCode": "G6P4S5", "twitter": "None", "instagram": "None", "facebook": "None", "youtube": "None", "website": "None", "summary": "None", "logo": "None", "latitude": 46.05661137186252, "longitude": -71.9471742909281}, "758040125RR0001": {"name": "\u00c9quipe d'Intervention d'Urgence de la Mauricie", "designationCode": "C", "categoryCode": "59", "address": "720 CH DU LAC-BELL", "city": "SAINT-ELIE-DE-CAXTON", "province": "QC", "country": "CA", "postalCode": "G0X2N0", "twitter": "None", "instagram": "None", "facebook": "None", "youtube": "None", "website": "None", "summary": "None", "logo": "None", "latitude": 46.51783479684338, "longitude": -72.93978491745037}, "893747048RR0001": {"name": "\u00c9quipe La Petite Rencontre", "designationCode": "C", "categoryCode": "09", "address": "1110 4E AVENUE", "city": "VAL-D'OR", "province": "QC", "country": "CA", "postalCode": "J9P1J8", "twitter": "None", "instagram": "None", "facebook": "None", "youtube": "None", "website": "None", "summary": "None", "logo": "None", "latitude": 48.10540130004604, "longitude": -77.79443782486011}}