{"890550247RR0001": {"name": "MAISON DOMINIQUE", "designationCode": "C", "categoryCode": "11", "address": "151 AVENUE GIROUX", "city": "LAVAL", "province": "QC", "country": "CA", "postalCode": "H7N3H5", "twitter": "None", "instagram": "None", "facebook": "None", "youtube": "None", "website": "None", "summary": "None", "logo": "None", "latitude": 45.55060580267176, "longitude": -73.71624050608818}, "136443975RR0001": {"name": "MAISON DU COEUR POUR FEMMES", "designationCode": "C", "categoryCode": "01", "address": "CP 34094", "city": "QUEBEC", "province": "QC", "country": "CA", "postalCode": "G1G6P2", "twitter": "None", "instagram": "None", "facebook": "None", "youtube": "None", "website": "None", "summary": "None", "logo": "None", "latitude": 46.87673100000005, "longitude": -71.28341899999994}, "131116626RR0001": {"name": "MAISON DU GESU", "designationCode": "C", "categoryCode": "09", "address": "1200 RUE DE BLEURY", "city": "MONTREAL", "province": "QC", "country": "CA", "postalCode": "H3B3J3", "twitter": "None", "instagram": "None", "facebook": "None", "youtube": "None", "website": "None", "summary": "None", "logo": "None", "latitude": 45.50574589837872, "longitude": -73.5659029718677}, "138899265RR0001": {"name": "MAISON DU PARC INC", "designationCode": "C", "categoryCode": "01", "address": "1287 RACHEL EST", "city": "MONTREAL", "province": "QC", "country": "CA", "postalCode": "H2J2J9", "twitter": "None", "instagram": "None", "facebook": "None", "youtube": "None", "website": "None", "summary": "None", "logo": "None", "latitude": 45.52737109215758, "longitude": -73.5725534227305}, "119028850RR0001": {"name": "MAISON EMMANUEL (CENTRE EDUCATIF)", "designationCode": "C", "categoryCode": "01", "address": "1561 CHEMIN BEAULNE", "city": "VAL-MORIN", "province": "QC", "country": "CA", "postalCode": "J0T2R0", "twitter": "None", "instagram": "None", "facebook": "None", "youtube": "None", "website": "None", "summary": "None", "logo": "None", "latitude": 45.98374057170093, "longitude": -74.22442859088815}, "859172777RR0001": {"name": "MAISON EMMANUEL/EMMANUEL HOUSE", "designationCode": "C", "categoryCode": "09", "address": "401 - 455 AV DES OBLATS", "city": "QUEBEC", "province": "QC", "country": "CA", "postalCode": "G1K8P2", "twitter": "None", "instagram": "None", "facebook": "None", "youtube": "None", "website": "None", "summary": "None", "logo": "None", "latitude": 46.80967851122408, "longitude": -71.23850750302975}, "133714923RR0001": {"name": "MAISON ENTRE-DEUX DE CABANO", "designationCode": "C", "categoryCode": "09", "address": "35 RUE SAINT-PHILIPPE", "city": "CABANO", "province": "QC", "country": "CA", "postalCode": "G0L1E0", "twitter": "None", "instagram": "None", "facebook": "None", "youtube": "None", "website": "None", "summary": "None", "logo": "None", "latitude": 47.681243057995346, "longitude": -68.87978082558126}, "132962713RR0001": {"name": "MAISON ET JARDINS ANTOINE LACOMBE INC.", "designationCode": "C", "categoryCode": "50", "address": "895 RUE VISITATION", "city": "SAINT-CHARLES-BORROMEE", "province": "QC", "country": "CA", "postalCode": "J6E7Y8", "twitter": "None", "instagram": "None", "facebook": "None", "youtube": "None", "website": "None", "summary": "None", "logo": "None", "latitude": 46.055189893675504, "longitude": -73.47512772540227}, "890489578RR0001": {"name": "MAISON FLORA TRISTAN INC", "designationCode": "C", "categoryCode": "09", "address": "CP 72138 CSP ATWATER", "city": "MONTREAL", "province": "QC", "country": "CA", "postalCode": "H3J2Z6", "twitter": "None", "instagram": "None", "facebook": "None", "youtube": "None", "website": "None", "summary": "None", "logo": "None", "latitude": 45.48222913368028, "longitude": -73.57850738020817}, "119028868RR0001": {"name": "MAISON FONTAINE DE VIE", "designationCode": "C", "categoryCode": "11", "address": "CP 367", "city": "VICTORIAVILLE", "province": "QC", "country": "CA", "postalCode": "G6P6T2", "twitter": "None", "instagram": "None", "facebook": "None", "youtube": "None", "website": "None", "summary": "None", "logo": "None", "latitude": 46.05566100000006, "longitude": -71.95945399999994}, "107656100RR0001": {"name": "MAISON FRATERNITE", "designationCode": "C", "categoryCode": "01", "address": "242 RUE CANTIN", "city": "VANIER", "province": "ON", "country": "CA", "postalCode": "K1L6T2", "twitter": "None", "instagram": "None", "facebook": "None", "youtube": "None", "website": "None", "summary": "None", "logo": "None", "latitude": 45.43943154870452, "longitude": -75.65402999474853}, "119028892RR0001": {"name": "MAISON GETHSEMANI", "designationCode": "C", "categoryCode": "38", "address": "6810 COUNTY ROAD 10", "city": "VANKLEEK HILL", "province": "ON", "country": "CA", "postalCode": "K0B1R0", "twitter": "None", "instagram": "None", "facebook": "None", "youtube": "None", "website": "None", "summary": "None", "logo": "None", "latitude": 45.52999765367221, "longitude": -74.70013318419434}, "107656191RR0001": {"name": "MAISON H\u00c9L\u00c8NE LACROIX", "designationCode": "B", "categoryCode": "01", "address": "CP 8718                       SUCC. STE-FOY", "city": "QU\u00c9BEC", "province": "QC", "country": "CA", "postalCode": "G1V4N6", "twitter": "None", "instagram": "None", "facebook": "None", "youtube": "None", "website": "None", "summary": "None", "logo": "None", "latitude": 46.78481673911341, "longitude": -71.28547031164715}, "103464129RR0001": {"name": "MAISON HABIT-ACTION DE DRUMMONDVILLE INC.", "designationCode": "C", "categoryCode": "01", "address": "655 RUE LINDSAY", "city": "DRUMMONDVILLE", "province": "QC", "country": "CA", "postalCode": "J2B1J1", "twitter": "None", "instagram": "None", "facebook": "None", "youtube": "None", "website": "None", "summary": "None", "logo": "None", "latitude": 45.876273895348945, "longitude": -72.47621678175284}, "103025102RR0001": {"name": "MAISON HINA INC.", "designationCode": "C", "categoryCode": "01", "address": "C.P. 368", "city": "SAINT-JEAN-SUR-RICHELIEU", "province": "QC", "country": "CA", "postalCode": "J3B6Z5", "twitter": "None", "instagram": "None", "facebook": "None", "youtube": "None", "website": "None", "summary": "None", "logo": "None", "latitude": 45.30610500000006, "longitude": -73.25031049999993}, "893683698RR0001": {"name": "MAISON HISTORIQUE PIERRE LACROIX INC.", "designationCode": "C", "categoryCode": "52", "address": "552 RUE N-DAME N", "city": "STE MAREE BCE", "province": "QC", "country": "CA", "postalCode": "G6E2K9", "twitter": "None", "instagram": "None", "facebook": "None", "youtube": "None", "website": "None", "summary": "None", "logo": "None", "latitude": 46.44516300000005, "longitude": -71.03667049999993}, "119028934RR0001": {"name": "MAISON HOSANNA", "designationCode": "C", "categoryCode": "49", "address": "195 RANG DE LA GRANDE-TERRE", "city": "SAINT-FRANCOIS-DU-LAC", "province": "QC", "country": "CA", "postalCode": "J0G1M0", "twitter": "None", "instagram": "None", "facebook": "None", "youtube": "None", "website": "None", "summary": "None", "logo": "None", "latitude": 46.077306118241054, "longitude": -72.86031484150854}, "119028942RR0001": {"name": "MAISON INTERLUDE HOUSE INC.", "designationCode": "C", "categoryCode": "09", "address": "1180 RUE LANSDOWNE", "city": "HAWKESBURY", "province": "ON", "country": "CA", "postalCode": "K6A1J1", "twitter": "None", "instagram": "None", "facebook": "None", "youtube": "None", "website": "None", "summary": "None", "logo": "None", "latitude": 45.606333558834, "longitude": -74.59128557207082}, "130243785RR0001": {"name": "MAISON INTERNATIONALE DE LA RIVE SUD INC", "designationCode": "C", "categoryCode": "09", "address": "2152 LAPINIERE                BUREAU 220", "city": "BROSSARD", "province": "QC", "country": "CA", "postalCode": "J4W1L9", "twitter": "None", "instagram": "None", "facebook": "None", "youtube": "None", "website": "None", "summary": "None", "logo": "None", "latitude": 45.47496658508843, "longitude": -73.47197634246082}, "119028959RR0001": {"name": "MAISON ISRAELITE COMMUNAUTAIRE DES EAUX VIVANTES POUR LES HEBREUX INC.", "designationCode": "C", "categoryCode": "49", "address": "6237 MOUNTAIN SIGHTS", "city": "MONTREAL", "province": "QC", "country": "CA", "postalCode": "H3W2Z4", "twitter": "None", "instagram": "None", "facebook": "None", "youtube": "None", "website": "None", "summary": "None", "logo": "None", "latitude": 45.49112919207678, "longitude": -73.641999940591}, "141004150RR0001": {"name": "MAISON JEAN-LEPAGE INC", "designationCode": "C", "categoryCode": "57", "address": "166 RUE LORANGER CP155", "city": "TROIS RIVIERES", "province": "QC", "country": "CA", "postalCode": "G9A5G1", "twitter": "None", "instagram": "None", "facebook": "None", "youtube": "None", "website": "None", "summary": "None", "logo": "None", "latitude": 46.365912860926926, "longitude": -72.50643429291958}, "132433590RR0001": {"name": "MAISON JEUN'AIDE", "designationCode": "C", "categoryCode": "09", "address": "4430 RUE SAINT-JACQUES OUEST", "city": "MONTR\u00c9AL", "province": "QC", "country": "CA", "postalCode": "H4C1K2", "twitter": "None", "instagram": "None", "facebook": "None", "youtube": "None", "website": "None", "summary": "None", "logo": "None", "latitude": 45.475839556466134, "longitude": -73.59037163959268}, "129879029RR0001": {"name": "MAISON JEUNES-EST", "designationCode": "C", "categoryCode": "01", "address": "393 RUE KING EST", "city": "SHERBROOKE", "province": "QC", "country": "CA", "postalCode": "J1G1B4", "twitter": "None", "instagram": "None", "facebook": "None", "youtube": "None", "website": "None", "summary": "None", "logo": "None", "latitude": 45.4080838765075, "longitude": -71.8801666439205}, "820162279RR0001": {"name": "MAISON JEUNESSE L'OXY-BULLE DE ROXTON", "designationCode": "C", "categoryCode": "09", "address": "250, RUE NOTRE-DAME", "city": "ROXTON FALLS", "province": "QC", "country": "CA", "postalCode": "J0H1E0", "twitter": "None", "instagram": "None", "facebook": "None", "youtube": "None", "website": "None", "summary": "None", "logo": "None", "latitude": 45.57319332056095, "longitude": -72.5223762038491}, "128143708RR0001": {"name": "MAISON L'\u00c9CHELON INC.", "designationCode": "C", "categoryCode": "01", "address": "8777, RUE HOCHELAGA", "city": "MONTR\u00c9AL", "province": "QC", "country": "CA", "postalCode": "H1L2N1", "twitter": "None", "instagram": "None", "facebook": "None", "youtube": "None", "website": "None", "summary": "None", "logo": "None", "latitude": 45.60232422079369, "longitude": -73.51941481084071}, "890843147RR0001": {"name": "MAISON L'\u00c9CLAIRCIE", "designationCode": "C", "categoryCode": "01", "address": "2860 RUE MONTREUIL", "city": "QU\u00c9BEC", "province": "QC", "country": "CA", "postalCode": "G1V2E3", "twitter": "None", "instagram": "None", "facebook": "None", "youtube": "None", "website": "None", "summary": "None", "logo": "None", "latitude": 46.77170932113786, "longitude": -71.29358964198727}, "103464301RR0001": {"name": "MAISON L'ALC\u00d4VE INC.", "designationCode": "C", "categoryCode": "57", "address": "CP 730 SUCC BUREAU-CHEF       5000 BOUL LAURIER", "city": "SAINT-HYACINTHE", "province": "QC", "country": "CA", "postalCode": "J2S7P5", "twitter": "None", "instagram": "None", "facebook": "None", "youtube": "None", "website": "None", "summary": "None", "logo": "None", "latitude": 45.606626251831344, "longitude": -72.97621672305928}, "135678191RR0001": {"name": "MAISON L'AMIE D'ELLE INC", "designationCode": "C", "categoryCode": "09", "address": "C.P. 4008", "city": "FORESTVILLE", "province": "QC", "country": "CA", "postalCode": "G0T1E0", "twitter": "None", "instagram": "None", "facebook": "None", "youtube": "None", "website": "None", "summary": "None", "logo": "None"}, "876733742RR0001": {"name": "MAISON L'ECLAIRCIE DE MONTREAL", "designationCode": "C", "categoryCode": "01", "address": "10375 RUE PAPINEAU", "city": "MONTREAL", "province": "QC", "country": "CA", "postalCode": "H2B2A3", "twitter": "None", "instagram": "None", "facebook": "None", "youtube": "None", "website": "None", "summary": "None", "logo": "None", "latitude": 45.568611417998646, "longitude": -73.65431213959268}, "141036095RR0001": {"name": "MAISON L'ESTHER", "designationCode": "C", "categoryCode": "01", "address": "CP 43082                      SUCC VILAMONT", "city": "LAVAL", "province": "QC", "country": "CA", "postalCode": "H7M6A1", "twitter": "None", "instagram": "None", "facebook": "None", "youtube": "None", "website": "None", "summary": "None", "logo": "None", "latitude": 45.59591400000005, "longitude": -73.71887299999993}, "103464392RR0001": {"name": "MAISON L'INTERVALLE", "designationCode": "C", "categoryCode": "09", "address": "3497 RUE AYLWIN", "city": "MONTREAL", "province": "QC", "country": "CA", "postalCode": "H1W3E2", "twitter": "None", "instagram": "None", "facebook": "None", "youtube": "None", "website": "None", "summary": "None", "logo": "None", "latitude": 45.54778689537761, "longitude": -73.55683519802072}, "137093019RR0001": {"name": "MAISON L'OCEANE", "designationCode": "C", "categoryCode": "01", "address": "CP 47556 CSP PLAT MONT-ROYAL", "city": "MONTREAL", "province": "QC", "country": "CA", "postalCode": "H2H2S8", "twitter": "None", "instagram": "None", "facebook": "None", "youtube": "None", "website": "None", "summary": "None", "logo": "None", "latitude": 45.5361163946157, "longitude": -73.57153714764537}, "865449722RR0001": {"name": "MAISON LA BOUEE 2000", "designationCode": "C", "categoryCode": "11", "address": "169 BOUL SAINTE-ROSE", "city": "LAVAL", "province": "QC", "country": "CA", "postalCode": "H7L1L2", "twitter": "None", "instagram": "None", "facebook": "None", "youtube": "None", "website": "None", "summary": "None", "logo": "None", "latitude": 45.61579896364474, "longitude": -73.78402790689013}, "120795125RR0001": {"name": "MAISON LA MARGELLE INC", "designationCode": "C", "categoryCode": "57", "address": "1905 RTE MARIE-VICTORIN", "city": "TRACY", "province": "QC", "country": "CA", "postalCode": "J3R1M8", "twitter": "None", "instagram": "None", "facebook": "None", "youtube": "None", "website": "None", "summary": "None", "logo": "None", "latitude": 46.03408253263303, "longitude": -73.1523246628766}, "133722686RR0001": {"name": "MAISON LA SOURCE DU RICHELIEU", "designationCode": "C", "categoryCode": "09", "address": "C.P.585", "city": "SOREL", "province": "QC", "country": "CA", "postalCode": "J3P5N9", "twitter": "None", "instagram": "None", "facebook": "None", "youtube": "None", "website": "None", "summary": "None", "logo": "None", "latitude": 46.04237700000006, "longitude": -73.11261049999993}, "869682898RR0001": {"name": "MAISON LA TRACE", "designationCode": "C", "categoryCode": "09", "address": "245 STE-URSULE", "city": "L'ASSOMPTION", "province": "QC", "country": "CA", "postalCode": "J5W1M6", "twitter": "None", "instagram": "None", "facebook": "None", "youtube": "None", "website": "None", "summary": "None", "logo": "None", "latitude": 45.829734996970245, "longitude": -73.42335742578891}, "140382086RR0001": {"name": "MAISON LA VIREVOLTE", "designationCode": "C", "categoryCode": "09", "address": "335, RUE LEMOYNE OUEST", "city": "LONGUEUIL", "province": "QC", "country": "CA", "postalCode": "J4H1W4", "twitter": "None", "instagram": "None", "facebook": "None", "youtube": "None", "website": "None", "summary": "None", "logo": "None", "latitude": 45.50450850000001, "longitude": -73.496646}, "131596231RR0001": {"name": "MAISON LE BALUCHON", "designationCode": "C", "categoryCode": "01", "address": "C.P. 653 SUCC BUREAU-CHEF", "city": "ST-HYACINTHE", "province": "QC", "country": "CA", "postalCode": "J2S7P5", "twitter": "None", "instagram": "None", "facebook": "None", "youtube": "None", "website": "None", "summary": "None", "logo": "None", "latitude": 45.62664000000005, "longitude": -72.94719049999993}, "139755623RR0001": {"name": "MAISON LE BUISSON ARDENT", "designationCode": "C", "categoryCode": "49", "address": "2189 DE MONTFORT", "city": "JONQUIERE", "province": "QC", "country": "CA", "postalCode": "G7X4P6", "twitter": "None", "instagram": "None", "facebook": "None", "youtube": "None", "website": "None", "summary": "None", "logo": "None", "latitude": 48.41463520454158, "longitude": -71.23779636545723}, "140678012RR0001": {"name": "MAISON LE PARCOURS INC.", "designationCode": "C", "categoryCode": "09", "address": "12-6869 PAPINEAU", "city": "MONTREAL", "province": "QC", "country": "CA", "postalCode": "H2G2X5", "twitter": "None", "instagram": "None", "facebook": "None", "youtube": "None", "website": "None", "summary": "None", "logo": "None", "latitude": 45.546084166541554, "longitude": -73.602831940591}, "894227982RR0001": {"name": "MAISON LE PASSEUR", "designationCode": "C", "categoryCode": "09", "address": "CP 181 SUCC BUREAU-CHEF", "city": "SOREL-TRACY", "province": "QC", "country": "CA", "postalCode": "J3P6M2", "twitter": "None", "instagram": "None", "facebook": "None", "youtube": "None", "website": "None", "summary": "None", "logo": "None", "latitude": 46.04237700000006, "longitude": -73.11261049999993}, "119029007RR0001": {"name": "MAISON LE POINT COMMUN", "designationCode": "C", "categoryCode": "09", "address": "177 LONGUEUIL", "city": "ST-JEAN-SUR-RICHELIEU", "province": "QC", "country": "CA", "postalCode": "J3B6P2", "twitter": "None", "instagram": "None", "facebook": "None", "youtube": "None", "website": "None", "summary": "None", "logo": "None", "latitude": 45.30514500000001, "longitude": -73.25474243585916}, "129539318RR0001": {"name": "MAISON LE PRELUDE INC", "designationCode": "C", "categoryCode": "01", "address": "C.P. 173, SUCCURSALE ST-MARTIN", "city": "LAVAL", "province": "QC", "country": "CA", "postalCode": "H7V3P5", "twitter": "None", "instagram": "None", "facebook": "None", "youtube": "None", "website": "None", "summary": "None", "logo": "None", "latitude": 45.546459000000056, "longitude": -73.73737699999994}, "122380322RR0001": {"name": "MAISON LE RICOCHET", "designationCode": "C", "categoryCode": "09", "address": "C.P. 121", "city": "LA PECHE", "province": "QC", "country": "CA", "postalCode": "J0X2W0", "twitter": "None", "instagram": "None", "facebook": "None", "youtube": "None", "website": "None", "summary": "None", "logo": "None", "latitude": 46.2935075900228, "longitude": -75.88341610228511}, "130976772RR0001": {"name": "MAISON LES ETAPES INC / FORWARD HOUSE INC", "designationCode": "C", "categoryCode": "09", "address": "2240 AVENUE GIROUARD", "city": "MONTREAL", "province": "QC", "country": "CA", "postalCode": "H4A3C3", "twitter": "None", "instagram": "None", "facebook": "None", "youtube": "None", "website": "None", "summary": "None", "logo": "None", "latitude": 45.472043840671816, "longitude": -73.6109535266604}, "136530763RR0001": {"name": "MAISON LIBERE-ELLES", "designationCode": "C", "categoryCode": "09", "address": "C.P. 1705", "city": "CHELSEA", "province": "QC", "country": "CA", "postalCode": "J9B1A1", "twitter": "None", "instagram": "None", "facebook": "None", "youtube": "None", "website": "None", "summary": "None", "logo": "None", "latitude": 45.52696500000006, "longitude": -75.80437099999993}, "135405223RR0001": {"name": "MAISON LYSE-BEAUCHAMP", "designationCode": "C", "categoryCode": "09", "address": "1-770 OLIVIER-GUIMOND", "city": "MONT-LAURIER", "province": "QC", "country": "CA", "postalCode": "J9L2Y6", "twitter": "None", "instagram": "None", "facebook": "None", "youtube": "None", "website": "None", "summary": "None", "logo": "None", "latitude": 46.55734291338234, "longitude": -75.4914852011078}, "884279118RR0001": {"name": "MAISON M\u00c9MOIRE DU COEUR", "designationCode": "C", "categoryCode": "01", "address": "77 DR. JEAN-PAUL MIREAULT", "city": "ST-CHARLES-BORROM\u00c9E", "province": "QC", "country": "CA", "postalCode": "J6E9C5", "twitter": "None", "instagram": "None", "facebook": "None", "youtube": "None", "website": "None", "summary": "None", "logo": "None", "latitude": 46.0402801090658, "longitude": -73.45100730500904}, "132002569RR0001": {"name": "MAISON MARIE FREDERIC", "designationCode": "C", "categoryCode": "01", "address": "990  ST-VALLIER OUEST", "city": "QUEBEC", "province": "QC", "country": "CA", "postalCode": "G1N1G3", "twitter": "None", "instagram": "None", "facebook": "None", "youtube": "None", "website": "None", "summary": "None", "logo": "None", "latitude": 46.8075950774424, "longitude": -71.25365114293955}, "887211688RR0001": {"name": "MAISON MARIE RIVIER DE DRUMMONDVILLE INC", "designationCode": "C", "categoryCode": "09", "address": "460 ST-ALFRED", "city": "DRUMMONDVILLE", "province": "QC", "country": "CA", "postalCode": "J2C4A7", "twitter": "None", "instagram": "None", "facebook": "None", "youtube": "None", "website": "None", "summary": "None", "logo": "None", "latitude": 45.88295547902376, "longitude": -72.50111209807287}, "840397673RR0001": {"name": "MAISON MARIE-LOUISE", "designationCode": "C", "categoryCode": "59", "address": "235, AVENUE STE.ANNE", "city": "OTTAWA", "province": "ON", "country": "CA", "postalCode": "K1L7C3", "twitter": "None", "instagram": "None", "facebook": "None", "youtube": "None", "website": "None", "summary": "None", "logo": "None", "latitude": 45.43877865528881, "longitude": -75.65906216178102}, "825908528RR0001": {"name": "MAISON MATHIEU FROMENT-SAVOIE (1997) INC.", "designationCode": "C", "categoryCode": "01", "address": "170 RUE SHERBROOKE", "city": "GATINEAU", "province": "QC", "country": "CA", "postalCode": "J8Y2L6", "twitter": "None", "instagram": "None", "facebook": "None", "youtube": "None", "website": "None", "summary": "None", "logo": "None", "latitude": 45.438047474897466, "longitude": -75.74292377699231}, "138684956RR0001": {"name": "MAISON MAURICE-DELORME", "designationCode": "C", "categoryCode": "09", "address": "1380 BOUL. DE PORTLAND", "city": "SHERBROOKE", "province": "QC", "country": "CA", "postalCode": "J1J1S3", "twitter": "None", "instagram": "None", "facebook": "None", "youtube": "None", "website": "None", "summary": "None", "logo": "None", "latitude": 45.40357251341711, "longitude": -71.909964}, "878465574RR0001": {"name": "MAISON NATALE DE LOUIS FR\u00c9CHETTE", "designationCode": "C", "categoryCode": "50", "address": "4385, RUE ST-LAURENT", "city": "LEVIS", "province": "QC", "country": "CA", "postalCode": "G6V8M8", "twitter": "None", "instagram": "None", "facebook": "None", "youtube": "None", "website": "None", "summary": "None", "logo": "None", "latitude": 46.78423674577296, "longitude": -71.19604462505038}, "103244091RR0001": {"name": "MAISON NATIONALE DES PATRIOTES", "designationCode": "C", "categoryCode": "50", "address": "610,CHEMIN DES PATRIOTES", "city": "SAINT-DENIS-SUR-RICHELIEU", "province": "QC", "country": "CA", "postalCode": "J0H1K0", "twitter": "None", "instagram": "None", "facebook": "None", "youtube": "None", "website": "None", "summary": "None", "logo": "None", "latitude": 45.78493544073523, "longitude": -73.16007269314463}, "130783574RR0001": {"name": "MAISON NAZARETH INC", "designationCode": "C", "categoryCode": "09", "address": "14 RUE CLARK", "city": "MONCTON", "province": "NB", "country": "CA", "postalCode": "E1C2V7", "twitter": "None", "instagram": "None", "facebook": "None", "youtube": "None", "website": "None", "summary": "None", "logo": "None", "latitude": 46.09532062003006, "longitude": -64.7811665671706}, "119029122RR0001": {"name": "MAISON NOUVEL HORIZON", "designationCode": "C", "categoryCode": "01", "address": "CP 56591 PROM ONTARIO", "city": "MONTREAL", "province": "QC", "country": "CA", "postalCode": "H1W3Z3", "twitter": "None", "instagram": "None", "facebook": "None", "youtube": "None", "website": "None", "summary": "None", "logo": "None", "latitude": 45.54463841191758, "longitude": -73.54510981772454}, "107656605RR0001": {"name": "MAISON ODETTE", "designationCode": "C", "categoryCode": "11", "address": "12,225 RUE GRENET", "city": "MONTREAL", "province": "QC", "country": "CA", "postalCode": "H4J2N7", "twitter": "None", "instagram": "None", "facebook": "None", "youtube": "None", "website": "None", "summary": "None", "logo": "None", "latitude": 45.533803234961965, "longitude": -73.72159860654064}, "842645178RR0001": {"name": "MAISON OXYG\u00c8NE VERS L'AUTONOMIE", "designationCode": "C", "categoryCode": "09", "address": "3545 CH ROYAL", "city": "QUEBEC", "province": "QC", "country": "CA", "postalCode": "G1E1X1", "twitter": "None", "instagram": "None", "facebook": "None", "youtube": "None", "website": "None", "summary": "None", "logo": "None", "latitude": 46.853903723844404, "longitude": -71.20398062476193}, "133133090RR0001": {"name": "MAISON PARENT-AISE", "designationCode": "C", "categoryCode": "09", "address": "98 ST PIERRE SUD", "city": "JOLIETTE", "province": "QC", "country": "CA", "postalCode": "J6E5Y6", "twitter": "None", "instagram": "None", "facebook": "None", "youtube": "None", "website": "None", "summary": "None", "logo": "None", "latitude": 46.01910167222571, "longitude": -73.44586649235394}, "854018900RR0001": {"name": "MAISON PAULINE BONIN", "designationCode": "C", "categoryCode": "09", "address": "144 RUE ST-JOSEPH", "city": "JOLIETTE", "province": "QC", "country": "CA", "postalCode": "J6E5C4", "twitter": "None", "instagram": "None", "facebook": "None", "youtube": "None", "website": "None", "summary": "None", "logo": "None", "latitude": 46.026606530122855, "longitude": -73.44158207325879}, "891822454RR0001": {"name": "MAISON PAUSE-PARENT", "designationCode": "C", "categoryCode": "09", "address": "424, RUE DU PALAIS", "city": "ST-JEROME", "province": "QC", "country": "CA", "postalCode": "J7Z1Y1", "twitter": "None", "instagram": "None", "facebook": "None", "youtube": "None", "website": "None", "summary": "None", "logo": "None"}, "133895094RR0001": {"name": "MAISON PLEIN COEUR", "designationCode": "C", "categoryCode": "09", "address": "1611 RUE DORION", "city": "MONTREAL", "province": "QC", "country": "CA", "postalCode": "H2K4A5", "twitter": "None", "instagram": "None", "facebook": "None", "youtube": "None", "website": "None", "summary": "None", "logo": "None", "latitude": 45.52476115543304, "longitude": -73.55372006105377}, "140284613RR0001": {"name": "MAISON POPULAIRE D'ARGENTEUIL", "designationCode": "C", "categoryCode": "21", "address": "335 RUE PRINCIPALE", "city": "LACHUTE", "province": "QC", "country": "CA", "postalCode": "J8H2Z7", "twitter": "None", "instagram": "None", "facebook": "None", "youtube": "None", "website": "None", "summary": "None", "logo": "None", "latitude": 45.654309837093784, "longitude": -74.3454198275145}, "119029163RR0001": {"name": "MAISON POPULAIRE DE JOLIETTE", "designationCode": "C", "categoryCode": "01", "address": "712, RUE DE LANAUDI\u00c8RE", "city": "JOLIETTE", "province": "QC", "country": "CA", "postalCode": "J6E3N1", "twitter": "None", "instagram": "None", "facebook": "None", "youtube": "None", "website": "None", "summary": "None", "logo": "None", "latitude": 46.0204894318771, "longitude": -73.44144814934486}, "848694386RR0001": {"name": "MAISON POUR A\u00ceN\u00c9S MER ET MONTAGNES", "designationCode": "C", "categoryCode": "09", "address": "81 1RE AVENUE EST", "city": "MONT-LOUIS", "province": "QC", "country": "CA", "postalCode": "G0E1T0", "twitter": "None", "instagram": "None", "facebook": "None", "youtube": "None", "website": "None", "summary": "None", "logo": "None", "latitude": 49.23427996422165, "longitude": -65.71826754486669}, "129965166RR0001": {"name": "MAISON POUR FEMMES IMMIGRANTES", "designationCode": "C", "categoryCode": "09", "address": "C.P. 9846", "city": "QU\u00c9BEC", "province": "QC", "country": "CA", "postalCode": "G1V4C3", "twitter": "None", "instagram": "None", "facebook": "None", "youtube": "None", "website": "None", "summary": "None", "logo": "None", "latitude": 46.77846900000006, "longitude": -71.29340449999994}, "119029171RR0001": {"name": "MAISON QUEBECOISE DU THEATRE POUR L'ENFANCE ET LA JEUNESSE", "designationCode": "C", "categoryCode": "22", "address": "245 RUE ONTARIO EST", "city": "MONTREAL", "province": "QC", "country": "CA", "postalCode": "H2X3Y6", "twitter": "None", "instagram": "None", "facebook": "None", "youtube": "None", "website": "None", "summary": "None", "logo": "None", "latitude": 45.51430967167743, "longitude": -73.56577688934674}, "107656837RR0001": {"name": "MAISON RADISSON INC.", "designationCode": "C", "categoryCode": "59", "address": "962 RUE SAINTE-GENEVIEVE", "city": "TROIS-RIVIERES", "province": "QC", "country": "CA", "postalCode": "G9A5K4", "twitter": "None", "instagram": "None", "facebook": "None", "youtube": "None", "website": "None", "summary": "None", "logo": "None", "latitude": 46.34632588233588, "longitude": -72.54370494437059}, "120816335RR0001": {"name": "MAISON RAYMOND ROY", "designationCode": "C", "categoryCode": "01", "address": "91 RUE D'ASTON", "city": "VICTORIAVILLE", "province": "QC", "country": "CA", "postalCode": "G6P9N9", "twitter": "None", "instagram": "None", "facebook": "None", "youtube": "None", "website": "None", "summary": "None", "logo": "None", "latitude": 46.06313956506448, "longitude": -71.96488430988512}, "138208871RR0001": {"name": "MAISON RE-NE INC", "designationCode": "C", "categoryCode": "11", "address": "2800 BOUL DES FORGES", "city": "TROIS-RIVIERES", "province": "QC", "country": "CA", "postalCode": "G8Z1V2", "twitter": "None", "instagram": "None", "facebook": "None", "youtube": "None", "website": "None", "summary": "None", "logo": "None", "latitude": 46.347743718361805, "longitude": -72.5681941910385}, "103464939RR0001": {"name": "MAISON REALITE INC.", "designationCode": "C", "categoryCode": "01", "address": "10, RUE JEANNE D'ARC", "city": "HULL", "province": "QC", "country": "CA", "postalCode": "J8Y2H2", "twitter": "None", "instagram": "None", "facebook": "None", "youtube": "None", "website": "None", "summary": "None", "logo": "None", "latitude": 45.439514474897486, "longitude": -75.73348277699232}, "119029221RR0001": {"name": "MAISON RENAISSANCE DE LA REHABILITATION", "designationCode": "C", "categoryCode": "19", "address": "924 RUE HALLE / CP 280", "city": "HEARST", "province": "ON", "country": "CA", "postalCode": "P0L1N0", "twitter": "None", "instagram": "None", "facebook": "None", "youtube": "None", "website": "None", "summary": "None", "logo": "None", "latitude": 49.6828642711926, "longitude": -83.66940622993259}, "891270142RR0001": {"name": "MAISON REPIT-VACANCES INC.", "designationCode": "C", "categoryCode": "09", "address": "482 DE GENTILLY O", "city": "LONGUEUIL", "province": "QC", "country": "CA", "postalCode": "J4H2A4", "twitter": "None", "instagram": "None", "facebook": "None", "youtube": "None", "website": "None", "summary": "None", "logo": "None", "latitude": 45.53013432416763, "longitude": -73.50113304674261}, "119029239RR0001": {"name": "MAISON REVIVRE", "designationCode": "C", "categoryCode": "57", "address": "261 RUE SAINT-VALLIER OUEST", "city": "QUEBEC", "province": "QC", "country": "CA", "postalCode": "G1K1K4", "twitter": "None", "instagram": "None", "facebook": "None", "youtube": "None", "website": "None", "summary": "None", "logo": "None", "latitude": 46.812030874805394, "longitude": -71.23649628310916}, "137991998RR0001": {"name": "MAISON RODOLPHE-DUGUAY DE NICOLET-SUD", "designationCode": "C", "categoryCode": "22", "address": "195 RANG SAINT-ALEXIS", "city": "NICOLET", "province": "QC", "country": "CA", "postalCode": "J3T1T5", "twitter": "None", "instagram": "None", "facebook": "None", "youtube": "None", "website": "None", "summary": "None", "logo": "None", "latitude": 46.22122933477918, "longitude": -72.62012633539092}, "878807437RR0001": {"name": "MAISON ROGER BEAULIEU", "designationCode": "C", "categoryCode": "01", "address": "902 BOUL SAINT-LAURENT", "city": "MONTREAL", "province": "QC", "country": "CA", "postalCode": "H2Z1J2", "twitter": "None", "instagram": "None", "facebook": "None", "youtube": "None", "website": "None", "summary": "None", "logo": "None", "latitude": 45.507019851780306, "longitude": -73.55763454108713}, "130370273RR0001": {"name": "MAISON SAINT-GABRIEL", "designationCode": "C", "categoryCode": "50", "address": "2146 PLACE DUBLIN", "city": "MONTREAL", "province": "QC", "country": "CA", "postalCode": "H3K2A2", "twitter": "None", "instagram": "None", "facebook": "None", "youtube": "None", "website": "None", "summary": "None", "logo": "None", "latitude": 45.47616725532358, "longitude": -73.55670159651498}, "107656944RR0001": {"name": "MAISON SECOURS AUX FEMMES DE MONTREAL INC.", "designationCode": "C", "categoryCode": "01", "address": "CP 22150 CP. ST MARC", "city": "MONTREAL", "province": "QC", "country": "CA", "postalCode": "H1Y3K8", "twitter": "None", "instagram": "None", "facebook": "None", "youtube": "None", "website": "None", "summary": "None", "logo": "None", "latitude": 45.56448000000006, "longitude": -73.57726999999994}, "119029270RR0001": {"name": "MAISON SHALOM HOUSE", "designationCode": "C", "categoryCode": "38", "address": "170 ST PAUL ST E", "city": "ALEXANDRIA", "province": "ON", "country": "CA", "postalCode": "K0C1A0", "twitter": "None", "instagram": "None", "facebook": "None", "youtube": "None", "website": "None", "summary": "None", "logo": "None", "latitude": 45.31174743675842, "longitude": -74.6299286819286}, "103465316RR0001": {"name": "MAISON SOUS LES ARBRES", "designationCode": "C", "categoryCode": "01", "address": "2, BOUL D'ANJOU", "city": "CHATEAUGUAY", "province": "QC", "country": "CA", "postalCode": "J6K3B7", "twitter": "None", "instagram": "None", "facebook": "None", "youtube": "None", "website": "None", "summary": "None", "logo": "None", "latitude": 45.36175465609688, "longitude": -73.7441334476888}, "103465373RR0001": {"name": "MAISON ST-DOMINIQUE", "designationCode": "C", "categoryCode": "09", "address": "20, RUE GUILBAULT EST", "city": "MONTREAL", "province": "QC", "country": "CA", "postalCode": "H2X1A1", "twitter": "None", "instagram": "None", "facebook": "None", "youtube": "None", "website": "None", "summary": "None", "logo": "None", "latitude": 45.51487633804608, "longitude": -73.57404873576097}, "119029320RR0001": {"name": "MAISON ST-JACQUES INC.", "designationCode": "C", "categoryCode": "01", "address": "1629 ST-HUBERT", "city": "MONTREAL", "province": "QC", "country": "CA", "postalCode": "H2L3Z1", "twitter": "None", "instagram": "None", "facebook": "None", "youtube": "None", "website": "None", "summary": "None", "logo": "None", "latitude": 45.51682023203873, "longitude": -73.561810794189}, "131966418RR0001": {"name": "MAISON ST-PATRICE", "designationCode": "C", "categoryCode": "09", "address": "172 RUE ST-PATRICE", "city": "ST-LIBOIRE", "province": "QC", "country": "CA", "postalCode": "J0H1R0", "twitter": "None", "instagram": "None", "facebook": "None", "youtube": "None", "website": "None", "summary": "None", "logo": "None", "latitude": 45.64899274548448, "longitude": -72.76441166798384}, "119028454RR0001": {"name": "MAISON-DECISION-HOUSE", "designationCode": "C", "categoryCode": "57", "address": "37 IRVING AVENUE", "city": "OTTAWA", "province": "ON", "country": "CA", "postalCode": "K1Y1Z2", "twitter": "None", "instagram": "None", "facebook": "None", "youtube": "None", "website": "None", "summary": "None", "logo": "None", "latitude": 45.40435612712787, "longitude": -75.7223106111146}, "137871992RR0001": {"name": "MAISON-RAYMONDE-CHOPIN-P\u00c9LADEAU", "designationCode": "C", "categoryCode": "57", "address": "511 CH DU LAC-DE-LA-GRISE", "city": "IVRY-SUR-LE-LAC", "province": "QC", "country": "CA", "postalCode": "J8C2Z8", "twitter": "None", "instagram": "None", "facebook": "None", "youtube": "None", "website": "None", "summary": "None", "logo": "None", "latitude": 46.075130442697166, "longitude": -74.34116647363648}, "140340209RR0001": {"name": "MAISON-REPIT OASIS INC.", "designationCode": "C", "categoryCode": "09", "address": "1960 RUE CARDINAL", "city": "MONTREAL", "province": "QC", "country": "CA", "postalCode": "H4E1N5", "twitter": "None", "instagram": "None", "facebook": "None", "youtube": "None", "website": "None", "summary": "None", "logo": "None", "latitude": 45.46009049956733, "longitude": -73.59097511518263}, "107656522RR0001": {"name": "MAISONNEUVE ST. CUTHBERT'S PRESBYTERIAN CHURCH", "designationCode": "C", "categoryCode": "37", "address": "1606 AV LETOURNEUX", "city": "MONTREAL", "province": "QC", "country": "CA", "postalCode": "H1V2M5", "twitter": "None", "instagram": "None", "facebook": "None", "youtube": "None", "website": "None", "summary": "None", "logo": "None", "latitude": 45.551382213976666, "longitude": -73.53624047253155}, "135099075RR0001": {"name": "MAISONS ADRIANNA", "designationCode": "C", "categoryCode": "01", "address": "2500 RUE SAINTE-CATHERINE E", "city": "MONTREAL", "province": "QC", "country": "CA", "postalCode": "H2K2K2", "twitter": "None", "instagram": "None", "facebook": "None", "youtube": "None", "website": "None", "summary": "None", "logo": "None", "latitude": 45.529564192048106, "longitude": -73.5459170632468}, "139300404RR0001": {"name": "MAISONS DE LA TOURELLE", "designationCode": "C", "categoryCode": "01", "address": "118 BOUL. LONGPR\u00c9", "city": "LAVAL", "province": "QC", "country": "CA", "postalCode": "H7L3C5", "twitter": "None", "instagram": "None", "facebook": "None", "youtube": "None", "website": "None", "summary": "None", "logo": "None", "latitude": 45.60751440605343, "longitude": -73.79499308961876}, "119029254RR0001": {"name": "MAISONS DE TRANSITIONS DE MONTREAL INC.- MONTREAL TRANSITION HOUSES INC.", "designationCode": "C", "categoryCode": "01", "address": "6060 RENOIR", "city": "MONTREAL-NORD", "province": "QC", "country": "CA", "postalCode": "H1G2N8", "twitter": "None", "instagram": "None", "facebook": "None", "youtube": "None", "website": "None", "summary": "None", "logo": "None", "latitude": 45.608927261151955, "longitude": -73.61647429043808}, "132471137RR0001": {"name": "MAISONS DES JEUNES DE TERREBONNE", "designationCode": "C", "categoryCode": "20", "address": "1154, RUE COTE BOISEE", "city": "TERREBONNE", "province": "QC", "country": "CA", "postalCode": "J6X4R8", "twitter": "None", "instagram": "None", "facebook": "None", "youtube": "None", "website": "None", "summary": "None", "logo": "None", "latitude": 45.71051618039136, "longitude": -73.66231554726127}, "895146165RR0001": {"name": "MAISONS DES JEUNES DU LAC AYLMER", "designationCode": "C", "categoryCode": "09", "address": "888-1 RUE ST-ANTOINE", "city": "DISRAELI", "province": "QC", "country": "CA", "postalCode": "G0N1E0", "twitter": "None", "instagram": "None", "facebook": "None", "youtube": "None", "website": "None", "summary": "None", "logo": "None", "latitude": 45.90744834277795, "longitude": -71.35883116010757}, "107656969RR0001": {"name": "MAISONS MON ROC", "designationCode": "C", "categoryCode": "20", "address": "4066 CH DE TILLY", "city": "ST-ANTOINE DE TILLY", "province": "QC", "country": "CA", "postalCode": "G0S2C0", "twitter": "None", "instagram": "None", "facebook": "None", "youtube": "None", "website": "None", "summary": "None", "logo": "None", "latitude": 46.66299102833386, "longitude": -71.58592433599726}, "119029353RR0001": {"name": "MAITLAND AND BEAVER RIVER CEMETERY COMPANY", "designationCode": "C", "categoryCode": "59", "address": "3185 HIGHWAY 1", "city": "PORT MAITLAND", "province": "NS", "country": "CA", "postalCode": "B5A5T4", "twitter": "None", "instagram": "None", "facebook": "None", "youtube": "None", "website": "None", "summary": "None", "logo": "None", "latitude": 43.981142684484425, "longitude": -66.14703325766872}, "875437626RR0001": {"name": "MAITLAND AND DISTRICT VOLUNTEER FIRE DEPARTMENT", "designationCode": "C", "categoryCode": "59", "address": "PO BOX 67", "city": "MAITLAND", "province": "NS", "country": "CA", "postalCode": "B0N1T0", "twitter": "None", "instagram": "None", "facebook": "None", "youtube": "None", "website": "None", "summary": "None", "logo": "None", "latitude": 45.31828000000007, "longitude": -63.498069999999984}, "119029361RR0001": {"name": "MAITLAND BANK CEMETERY", "designationCode": "C", "categoryCode": "59", "address": "22 CHALK ST. S.               BOX 536", "city": "SEAFORTH", "province": "ON", "country": "CA", "postalCode": "N0K1W0", "twitter": "None", "instagram": "None", "facebook": "None", "youtube": "None", "website": "None", "summary": "None", "logo": "None", "latitude": 43.55151624894694, "longitude": -81.39192765955931}, "119288918RR0705": {"name": "MAITLAND CONGREGATION OF JEHOVAH'S WITNESSES, OTTAWA, ONTARIO", "designationCode": "C", "categoryCode": "61", "address": "1004 PARKHURST BLVD", "city": "OTTAWA", "province": "ON", "country": "CA", "postalCode": "K2A3N1", "twitter": "None", "instagram": "None", "facebook": "None", "youtube": "None", "website": "None", "summary": "None", "logo": "None", "latitude": 45.36516932139767, "longitude": -75.76329394561132}, "119029403RR0001": {"name": "MAITLAND CONSERVATION FOUNDATION", "designationCode": "A", "categoryCode": "53", "address": "PO BOX 127", "city": "WROXETER", "province": "ON", "country": "CA", "postalCode": "N0G2X0", "twitter": "None", "instagram": "None", "facebook": "None", "youtube": "None", "website": "None", "summary": "None", "logo": "None", "latitude": 43.86411000000004, "longitude": -81.14910999999995}, "119029429RR0001": {"name": "MAITLAND PASTORAL CHARGE", "designationCode": "C", "categoryCode": "44", "address": "985 KEMPTOWN RD", "city": "KEMPTOWN", "province": "NS", "country": "CA", "postalCode": "B6L2J1", "twitter": "None", "instagram": "None", "facebook": "None", "youtube": "None", "website": "None", "summary": "None", "logo": "None", "latitude": 45.50861624562873, "longitude": -63.09841268518052}}