{"119288918RR0756": {"name": "KNOTTWOOD CONGREGATION OF JEHOVAH'S WITNESSES, EDMONTON, ALBERTA", "designationCode": "C", "categoryCode": "61", "address": "2810-48 STREET", "city": "EDMONTON", "province": "AB", "country": "CA", "postalCode": "T6L5T7", "twitter": "None", "instagram": "None", "facebook": "None", "youtube": "None", "website": "None", "summary": "None", "logo": "None", "latitude": 53.45974945628714, "longitude": -113.41695945951845}, "879711810RR0001": {"name": "KNOW THYSELF AS SOUL FOUNDATION (EASTERN CANADA) / LA FONDATION POUR LA CONNAISSANCE DE L'AME (EST DU CANADA)", "designationCode": "C", "categoryCode": "39", "address": "911, RUE JEAN-TALON EST       ROOM 305B", "city": "MONTR\u00c9AL", "province": "QC", "country": "CA", "postalCode": "H2R1V5", "twitter": "None", "instagram": "None", "facebook": "None", "youtube": "None", "website": "None", "summary": "None", "logo": "None", "latitude": 45.54149052013953, "longitude": -73.61280380287332}, "859161978RR0001": {"name": "KNOWLEDGE BUILDING CONCEPTS FOUNDATION", "designationCode": "B", "categoryCode": "03", "address": "512 MARKHAM ST", "city": "TORONTO", "province": "ON", "country": "CA", "postalCode": "M6G2L5", "twitter": "None", "instagram": "None", "facebook": "None", "youtube": "None", "website": "None", "summary": "None", "logo": "None", "latitude": 43.66302257063305, "longitude": -79.41172364184304}, "799121322RR0001": {"name": "KNOWLEJ IN MOTION", "designationCode": "B", "categoryCode": "09", "address": "729 - 15 INGRAM DR", "city": "NORTH YORK", "province": "ON", "country": "CA", "postalCode": "M6M2L7", "twitter": "None", "instagram": "None", "facebook": "None", "youtube": "None", "website": "None", "summary": "None", "logo": "None", "latitude": 43.69969784537502, "longitude": -79.47451800109651}, "118984624RR0001": {"name": "KNOWLES CENTRE INC.", "designationCode": "C", "categoryCode": "01", "address": "2065 HENDERSON HWY", "city": "WINNIPEG", "province": "MB", "country": "CA", "postalCode": "R2G1P7", "twitter": "None", "instagram": "None", "facebook": "None", "youtube": "None", "website": "None", "summary": "None", "logo": "None", "latitude": 49.9588779952395, "longitude": -97.06997267366893}, "107574824RR0001": {"name": "KNOWLESVILLE UNITED BAPTIST CHURCH", "designationCode": "C", "categoryCode": "31", "address": "471 KNOWLESVILLE RD", "city": "KNOWLESVILLE", "province": "NB", "country": "CA", "postalCode": "E7L1N8", "twitter": "None", "instagram": "None", "facebook": "None", "youtube": "None", "website": "None", "summary": "None", "logo": "None", "latitude": 46.45653258090485, "longitude": -67.37541010372836}, "118984640RR0001": {"name": "KNOWLTON CEMETERY COMPANY", "designationCode": "C", "categoryCode": "59", "address": "178 ST. PAUL RD", "city": "KNOWLTON", "province": "QC", "country": "CA", "postalCode": "J0E1V0", "twitter": "None", "instagram": "None", "facebook": "None", "youtube": "None", "website": "None", "summary": "None", "logo": "None", "latitude": 45.22127724545781, "longitude": -72.49675242252076}, "886391390RR0001": {"name": "KNOWLTON LIONS CLUB CHARITABLE TRUST FUND", "designationCode": "C", "categoryCode": "56", "address": "CP 3766", "city": "KNOWLTON", "province": "QC", "country": "CA", "postalCode": "J0E1V0", "twitter": "None", "instagram": "None", "facebook": "None", "youtube": "None", "website": "None", "summary": "None", "logo": "None", "latitude": 45.21682517491061, "longitude": -72.51614287101994}, "118984657RR0001": {"name": "KNOWLTON UNITED CHURCH", "designationCode": "C", "categoryCode": "44", "address": "234 KNOWLTON RD", "city": "KNOWLTON", "province": "QC", "country": "CA", "postalCode": "J0E1V0", "twitter": "None", "instagram": "None", "facebook": "None", "youtube": "None", "website": "None", "summary": "None", "logo": "None", "latitude": 45.2162964532574, "longitude": -72.50818760921003}, "118984772RR0001": {"name": "KNOX & NIXON MEMORIAL FUND OF THE MEDICAL BENEVOLENT SOCIETY", "designationCode": "C", "categoryCode": "09", "address": "201 - 2174 AIRPORT DR", "city": "SASKATOON", "province": "SK", "country": "CA", "postalCode": "S7L6M6", "twitter": "None", "instagram": "None", "facebook": "None", "youtube": "None", "website": "None", "summary": "None", "logo": "None", "latitude": 52.158131999999995, "longitude": -106.68712723832937}, "118986231RR0001": {"name": "KNOX - ST. PAUL'S UNITED CHURCH", "designationCode": "C", "categoryCode": "44", "address": "800 12TH ST EAST", "city": "CORNWALL", "province": "ON", "country": "CA", "postalCode": "K6H3B5", "twitter": "None", "instagram": "None", "facebook": "None", "youtube": "None", "website": "None", "summary": "None", "logo": "None", "latitude": 45.03857831311644, "longitude": -74.72278438222028}, "889427647RR0001": {"name": "KNOX CEMETERY LTD", "designationCode": "C", "categoryCode": "59", "address": "3135 CAPE CLIFF ROAD", "city": "PUGWASH", "province": "NS", "country": "CA", "postalCode": "B0K1L0", "twitter": "None", "instagram": "None", "facebook": "None", "youtube": "None", "website": "None", "summary": "None", "logo": "None", "latitude": 45.87418445946021, "longitude": -63.49078517014823}, "118984699RR0001": {"name": "KNOX CHURCH: KENORA, ONTARIO", "designationCode": "C", "categoryCode": "44", "address": "116 FIFTH ST. S", "city": "KENORA", "province": "ON", "country": "CA", "postalCode": "P9N2A2", "twitter": "None", "instagram": "None", "facebook": "None", "youtube": "None", "website": "None", "summary": "None", "logo": "None", "latitude": 49.760208207452706, "longitude": -94.48743266058835}, "107574923RR0001": {"name": "KNOX COLLEGE", "designationCode": "C", "categoryCode": "20", "address": "59 ST. GEORGE ST", "city": "TORONTO", "province": "ON", "country": "CA", "postalCode": "M5S2E6", "twitter": "None", "instagram": "None", "facebook": "None", "youtube": "None", "website": "None", "summary": "None", "logo": "None", "latitude": 43.661216272837386, "longitude": -79.39721773711729}, "118985647RR0001": {"name": "KNOX DAWN PRESBYTERIAN CHURCH", "designationCode": "C", "categoryCode": "37", "address": "3163 EDYS MILLS LINE          R.R.#2", "city": "TUPPERVILLE", "province": "ON", "country": "CA", "postalCode": "N0P2M0", "twitter": "None", "instagram": "None", "facebook": "None", "youtube": "None", "website": "None", "summary": "None", "logo": "None", "latitude": 42.590132474897466, "longitude": -82.26778333389115}, "118984723RR0001": {"name": "KNOX DAY NURSERY INCORPORATED", "designationCode": "C", "categoryCode": "01", "address": "406 EDMONTON", "city": "WINNIPEG", "province": "MB", "country": "CA", "postalCode": "R3B2M2", "twitter": "None", "instagram": "None", "facebook": "None", "youtube": "None", "website": "None", "summary": "None", "logo": "None", "latitude": 49.89608058145309, "longitude": -97.14924175745836}, "853507374RR0001": {"name": "KNOX EDWARDS PASTORAL CHARGE", "designationCode": "C", "categoryCode": "44", "address": "1450 YORKS CORNERS RD", "city": "EDWARDS", "province": "ON", "country": "CA", "postalCode": "K0A1V0", "twitter": "None", "instagram": "None", "facebook": "None", "youtube": "None", "website": "None", "summary": "None", "logo": "None", "latitude": 45.305851159587974, "longitude": -75.45687195143971}, "107574964RR0001": {"name": "KNOX EVANGELICAL FREE CHURCH OF EDMONTON", "designationCode": "C", "categoryCode": "39", "address": "8403 104 ST NW", "city": "EDMONTON", "province": "AB", "country": "CA", "postalCode": "T6E4G1", "twitter": "None", "instagram": "None", "facebook": "None", "youtube": "None", "website": "None", "summary": "None", "logo": "None", "latitude": 53.52027361809684, "longitude": -113.49746736894835}, "118984764RR0001": {"name": "KNOX METROPOLITAN UNITED CHURCH", "designationCode": "C", "categoryCode": "44", "address": "7909 82 AVE NW", "city": "EDMONTON", "province": "AB", "country": "CA", "postalCode": "T6C0Y1", "twitter": "None", "instagram": "None", "facebook": "None", "youtube": "None", "website": "None", "summary": "None", "logo": "None", "latitude": 53.517871499567306, "longitude": -113.44980149999999}, "891013344RR0001": {"name": "KNOX PRESBYTERIAN CEMETERY CRAIGHURST", "designationCode": "C", "categoryCode": "59", "address": "3362 PENETANGUISHENE RD. N.   RR #1", "city": "BARRIE", "province": "ON", "country": "CA", "postalCode": "L4M4Y8", "twitter": "None", "instagram": "None", "facebook": "None", "youtube": "None", "website": "None", "summary": "None", "logo": "None", "latitude": 44.52817683998674, "longitude": -79.72456513863143}, "107575037RR0001": {"name": "KNOX PRESBYTERIAN CHURCH", "designationCode": "C", "categoryCode": "37", "address": "39 GRANT ST, PO BOX 184", "city": "BADDECK", "province": "NS", "country": "CA", "postalCode": "B0E1B0", "twitter": "None", "instagram": "None", "facebook": "None", "youtube": "None", "website": "None", "summary": "None", "logo": "None", "latitude": 46.101165023053724, "longitude": -60.75157017958328}, "107575060RR0001": {"name": "KNOX PRESBYTERIAN CHURCH", "designationCode": "C", "categoryCode": "37", "address": "29 DUNCAN ST", "city": "CAMPBELLTON", "province": "NB", "country": "CA", "postalCode": "E3N2K5", "twitter": "None", "instagram": "None", "facebook": "None", "youtube": "None", "website": "None", "summary": "None", "logo": "None", "latitude": 48.00118930394119, "longitude": -66.68725747183903}, "107575078RR0001": {"name": "KNOX PRESBYTERIAN CHURCH", "designationCode": "C", "categoryCode": "37", "address": "BOX 148", "city": "NEW CARLISLE", "province": "QC", "country": "CA", "postalCode": "G0C1Z0", "twitter": "None", "instagram": "None", "facebook": "None", "youtube": "None", "website": "None", "summary": "None", "logo": "None", "latitude": 48.00876000000005, "longitude": -65.33776999999998}, "107575086RR0001": {"name": "KNOX PRESBYTERIAN CHURCH", "designationCode": "C", "categoryCode": "37", "address": "PO BOX 609", "city": "MANOTICK", "province": "ON", "country": "CA", "postalCode": "K4M1A6", "twitter": "None", "instagram": "None", "facebook": "None", "youtube": "None", "website": "None", "summary": "None", "logo": "None", "latitude": 45.226293000000055, "longitude": -75.68602099999994}, "107575110RR0001": {"name": "KNOX PRESBYTERIAN CHURCH", "designationCode": "C", "categoryCode": "37", "address": "531 PURDONS BAY ROAD", "city": "MCDONALDS CORNERS", "province": "ON", "country": "CA", "postalCode": "K0G1M0", "twitter": "None", "instagram": "None", "facebook": "None", "youtube": "None", "website": "None", "summary": "None", "logo": "None", "latitude": 44.97600596916866, "longitude": -76.55002856055431}, "107575193RR0001": {"name": "KNOX PRESBYTERIAN CHURCH", "designationCode": "C", "categoryCode": "37", "address": "BOX 24", "city": "BINBROOK", "province": "ON", "country": "CA", "postalCode": "L0R1C0", "twitter": "None", "instagram": "None", "facebook": "None", "youtube": "None", "website": "None", "summary": "None", "logo": "None", "latitude": 43.102827000000005, "longitude": -79.73206875}, "107575219RR0001": {"name": "KNOX PRESBYTERIAN CHURCH", "designationCode": "C", "categoryCode": "37", "address": "147 SIMCOE ST N", "city": "OSHAWA", "province": "ON", "country": "CA", "postalCode": "L1G4S6", "twitter": "None", "instagram": "None", "facebook": "None", "youtube": "None", "website": "None", "summary": "None", "logo": "None", "latitude": 43.9014821693115, "longitude": -78.8653372766752}, "107575235RR0001": {"name": "KNOX PRESBYTERIAN CHURCH", "designationCode": "C", "categoryCode": "37", "address": "335 FITCH ST", "city": "WELLAND", "province": "ON", "country": "CA", "postalCode": "L3C4W7", "twitter": "None", "instagram": "None", "facebook": "None", "youtube": "None", "website": "None", "summary": "None", "logo": "None", "latitude": 42.99441748788188, "longitude": -79.27226999999999}, "107575250RR0001": {"name": "KNOX PRESBYTERIAN CHURCH", "designationCode": "C", "categoryCode": "37", "address": "116 MAIN ST S", "city": "GEORGETOWN", "province": "ON", "country": "CA", "postalCode": "L7G3E6", "twitter": "None", "instagram": "None", "facebook": "None", "youtube": "None", "website": "None", "summary": "None", "logo": "None", "latitude": 43.6486787612962, "longitude": -79.92515193784972}, "107575284RR0001": {"name": "KNOX PRESBYTERIAN CHURCH", "designationCode": "C", "categoryCode": "37", "address": "170 MAIN ST E.", "city": "MILTON", "province": "ON", "country": "CA", "postalCode": "L9T1N8", "twitter": "None", "instagram": "None", "facebook": "None", "youtube": "None", "website": "None", "summary": "None", "logo": "None", "latitude": 43.51218214236265, "longitude": -79.88415191309389}, "107575300RR0001": {"name": "KNOX PRESBYTERIAN CHURCH", "designationCode": "C", "categoryCode": "37", "address": "630 SPADINA AVE", "city": "TORONTO", "province": "ON", "country": "CA", "postalCode": "M5S2H4", "twitter": "None", "instagram": "None", "facebook": "None", "youtube": "None", "website": "None", "summary": "None", "logo": "None", "latitude": 43.662583687200694, "longitude": -79.40206475509243}, "107575318RR0001": {"name": "KNOX PRESBYTERIAN CHURCH", "designationCode": "C", "categoryCode": "37", "address": "101 CHAPMAN ST W PO BOX 1258", "city": "PORT DOVER", "province": "ON", "country": "CA", "postalCode": "N0A1N0", "twitter": "None", "instagram": "None", "facebook": "None", "youtube": "None", "website": "None", "summary": "None", "logo": "None", "latitude": 42.78608915098964, "longitude": -80.20633844116793}, "107575359RR0001": {"name": "KNOX PRESBYTERIAN CHURCH", "designationCode": "C", "categoryCode": "37", "address": "PO BOX 652", "city": "PALMERSTON", "province": "ON", "country": "CA", "postalCode": "N0G2P0", "twitter": "None", "instagram": "None", "facebook": "None", "youtube": "None", "website": "None", "summary": "None", "logo": "None", "latitude": 43.95818406650932, "longitude": -81.52001207957518}, "107575367RR0001": {"name": "KNOX PRESBYTERIAN CHURCH", "designationCode": "C", "categoryCode": "37", "address": "P.O. BOX 208", "city": "RIPLEY", "province": "ON", "country": "CA", "postalCode": "N0G2R0", "twitter": "None", "instagram": "None", "facebook": "None", "youtube": "None", "website": "None", "summary": "None", "logo": "None", "latitude": 44.068873499999995, "longitude": -81.57846375}, "107575409RR0001": {"name": "KNOX PRESBYTERIAN CHURCH", "designationCode": "C", "categoryCode": "37", "address": "PO BOX 159                    115 ST. ANDREWS ST.", "city": "EMBRO", "province": "ON", "country": "CA", "postalCode": "N0J1J0", "twitter": "None", "instagram": "None", "facebook": "None", "youtube": "None", "website": "None", "summary": "None", "logo": "None", "latitude": 43.15606124672525, "longitude": -80.89973491381504}, "107575417RR0001": {"name": "KNOX PRESBYTERIAN CHURCH", "designationCode": "C", "categoryCode": "37", "address": "PO BOX 235", "city": "MITCHELL", "province": "ON", "country": "CA", "postalCode": "N0K1N0", "twitter": "None", "instagram": "None", "facebook": "None", "youtube": "None", "website": "None", "summary": "None", "logo": "None", "latitude": 43.461771000000056, "longitude": -81.20430349999994}, "107575474RR0001": {"name": "KNOX PRESBYTERIAN CHURCH", "designationCode": "C", "categoryCode": "37", "address": "P.O. BOX 84", "city": "DUNNVILLE", "province": "ON", "country": "CA", "postalCode": "N1A2X1", "twitter": "None", "instagram": "None", "facebook": "None", "youtube": "None", "website": "None", "summary": "None", "logo": "None", "latitude": 42.90442800000005, "longitude": -79.62015049999994}, "107575482RR0001": {"name": "KNOX PRESBYTERIAN CHURCH", "designationCode": "C", "categoryCode": "37", "address": "20 QUEBEC STREET", "city": "GUELPH", "province": "ON", "country": "CA", "postalCode": "N1H2T4", "twitter": "None", "instagram": "None", "facebook": "None", "youtube": "None", "website": "None", "summary": "None", "logo": "None", "latitude": 43.54558526729745, "longitude": -80.25113759132086}, "107575490RR0001": {"name": "KNOX PRESBYTERIAN CHURCH", "designationCode": "C", "categoryCode": "37", "address": "50 ERB ST W", "city": "WATERLOO", "province": "ON", "country": "CA", "postalCode": "N2L1T1", "twitter": "None", "instagram": "None", "facebook": "None", "youtube": "None", "website": "None", "summary": "None", "logo": "None", "latitude": 43.46466835250148, "longitude": -80.5246126855559}, "107575524RR0001": {"name": "KNOX PRESBYTERIAN CHURCH", "designationCode": "C", "categoryCode": "37", "address": "P.O. BOX 9", "city": "JARVIS", "province": "ON", "country": "CA", "postalCode": "N0A1J0", "twitter": "None", "instagram": "None", "facebook": "None", "youtube": "None", "website": "None", "summary": "None", "logo": "None", "latitude": 42.885110000000054, "longitude": -80.11368999999996}, "107575557RR0001": {"name": "KNOX PRESBYTERIAN CHURCH", "designationCode": "C", "categoryCode": "37", "address": "142 ONTARIO ST", "city": "STRATFORD", "province": "ON", "country": "CA", "postalCode": "N5A3H2", "twitter": "None", "instagram": "None", "facebook": "None", "youtube": "None", "website": "None", "summary": "None", "logo": "None", "latitude": 43.371440515436326, "longitude": -80.98104268114209}, "107575565RR0001": {"name": "KNOX PRESBYTERIAN CHURCH", "designationCode": "C", "categoryCode": "37", "address": "55 HINCKS STREET", "city": "ST THOMAS", "province": "ON", "country": "CA", "postalCode": "N5R3N9", "twitter": "None", "instagram": "None", "facebook": "None", "youtube": "None", "website": "None", "summary": "None", "logo": "None", "latitude": 42.77613915971522, "longitude": -81.1971801988971}, "107575573RR0001": {"name": "KNOX PRESBYTERIAN CHURCH", "designationCode": "C", "categoryCode": "37", "address": "9 VICTORIA ST NORTH", "city": "GODERICH", "province": "ON", "country": "CA", "postalCode": "N7A2R4", "twitter": "None", "instagram": "None", "facebook": "None", "youtube": "None", "website": "None", "summary": "None", "logo": "None", "latitude": 43.74352857700969, "longitude": -81.70779954114444}, "107575664RR0001": {"name": "KNOX PRESBYTERIAN CHURCH", "designationCode": "C", "categoryCode": "37", "address": "341 EVELINE ST. @ MCLEAN AVE.", "city": "SELKIRK", "province": "MB", "country": "CA", "postalCode": "R1A1N1", "twitter": "None", "instagram": "None", "facebook": "None", "youtube": "None", "website": "None", "summary": "None", "logo": "None", "latitude": 50.14141350775339, "longitude": -96.87201971583968}, "107575672RR0001": {"name": "KNOX PRESBYTERIAN CHURCH", "designationCode": "C", "categoryCode": "37", "address": "P.O. BOX 665", "city": "WHITEWOOD", "province": "SK", "country": "CA", "postalCode": "S0G5C0", "twitter": "None", "instagram": "None", "facebook": "None", "youtube": "None", "website": "None", "summary": "None", "logo": "None", "latitude": 50.332580000000064, "longitude": -102.25940999999995}, "107575680RR0001": {"name": "KNOX PRESBYTERIAN CHURCH", "designationCode": "C", "categoryCode": "37", "address": "PO BOX 10", "city": "SHIPMAN", "province": "SK", "country": "CA", "postalCode": "S0J2H0", "twitter": "None", "instagram": "None", "facebook": "None", "youtube": "None", "website": "None", "summary": "None", "logo": "None", "latitude": 53.474770000000035, "longitude": -104.97848999999997}, "107575706RR0001": {"name": "KNOX PRESBYTERIAN CHURCH", "designationCode": "C", "categoryCode": "37", "address": "136 2ND STREET N E", "city": "WEYBURN", "province": "SK", "country": "CA", "postalCode": "S4H0T8", "twitter": "None", "instagram": "None", "facebook": "None", "youtube": "None", "website": "None", "summary": "None", "logo": "None", "latitude": 49.657294763859475, "longitude": -103.85518807229263}, "107575730RR0001": {"name": "KNOX PRESBYTERIAN CHURCH", "designationCode": "C", "categoryCode": "37", "address": "3704-37 ST S W", "city": "CALGARY", "province": "AB", "country": "CA", "postalCode": "T3E3C3", "twitter": "None", "instagram": "None", "facebook": "None", "youtube": "None", "website": "None", "summary": "None", "logo": "None", "latitude": 51.02123399999999, "longitude": -114.1410297897456}, "107575748RR0001": {"name": "KNOX PRESBYTERIAN CHURCH", "designationCode": "C", "categoryCode": "39", "address": "4718 ROSS STREET", "city": "RED DEER", "province": "AB", "country": "CA", "postalCode": "T4N1X2", "twitter": "None", "instagram": "None", "facebook": "None", "youtube": "None", "website": "None", "summary": "None", "logo": "None", "latitude": 52.269027504327845, "longitude": -113.806431}, "107575763RR0001": {"name": "KNOX PRESBYTERIAN CHURCH", "designationCode": "C", "categoryCode": "37", "address": "2100 3RD ST S", "city": "CRANBROOK", "province": "BC", "country": "CA", "postalCode": "V1C1G2", "twitter": "None", "instagram": "None", "facebook": "None", "youtube": "None", "website": "None", "summary": "None", "logo": "None", "latitude": 49.50667645715254, "longitude": -115.75190152553522}, "107575771RR0001": {"name": "KNOX PRESBYTERIAN CHURCH", "designationCode": "C", "categoryCode": "37", "address": "3701 32 AVENUE", "city": "VERNON", "province": "BC", "country": "CA", "postalCode": "V1T2N2", "twitter": "None", "instagram": "None", "facebook": "None", "youtube": "None", "website": "None", "summary": "None", "logo": "None", "latitude": 50.265133519331485, "longitude": -119.28484197584976}, "107575789RR0001": {"name": "KNOX PRESBYTERIAN CHURCH", "designationCode": "C", "categoryCode": "37", "address": "403 EAST COLUMBIA STREET", "city": "NEW WESTMINSTER", "province": "BC", "country": "CA", "postalCode": "V3L3X2", "twitter": "None", "instagram": "None", "facebook": "None", "youtube": "None", "website": "None", "summary": "None", "logo": "None", "latitude": 49.228173, "longitude": -122.89287460773814}, "107575797RR0001": {"name": "KNOX PRESBYTERIAN CHURCH", "designationCode": "C", "categoryCode": "37", "address": "2964 RICHMOND ROAD", "city": "VICTORIA", "province": "BC", "country": "CA", "postalCode": "V8R4V1", "twitter": "None", "instagram": "None", "facebook": "None", "youtube": "None", "website": "None", "summary": "None", "logo": "None", "latitude": 48.44362073550118, "longitude": -123.32712028674449}, "107575854RR0001": {"name": "KNOX PRESBYTERIAN CHURCH", "designationCode": "C", "categoryCode": "37", "address": "539 HUGEL AVENUE", "city": "MIDLAND", "province": "ON", "country": "CA", "postalCode": "L4R1W1", "twitter": "None", "instagram": "None", "facebook": "None", "youtube": "None", "website": "None", "summary": "None", "logo": "None", "latitude": 44.74933268780919, "longitude": -79.88683576055676}, "107575870RR0001": {"name": "KNOX PRESBYTERIAN CHURCH", "designationCode": "C", "categoryCode": "37", "address": "7374 DAWN TARA DR", "city": "GREELY", "province": "ON", "country": "CA", "postalCode": "K4P1P4", "twitter": "None", "instagram": "None", "facebook": "None", "youtube": "None", "website": "None", "summary": "None", "logo": "None", "latitude": 45.2841087046285, "longitude": -75.55403068659508}, "107575912RR0001": {"name": "KNOX PRESBYTERIAN CHURCH", "designationCode": "C", "categoryCode": "37", "address": "PO BOX 2373", "city": "ORILLIA", "province": "ON", "country": "CA", "postalCode": "L3V6V7", "twitter": "None", "instagram": "None", "facebook": "None", "youtube": "None", "website": "None", "summary": "None", "logo": "None", "latitude": 44.60657100000006, "longitude": -79.41824449999993}, "108092867RR0001": {"name": "KNOX PRESBYTERIAN CHURCH", "designationCode": "C", "categoryCode": "37", "address": "5115-49 ST", "city": "LLOYDMINSTER", "province": "AB", "country": "CA", "postalCode": "T9V0K3", "twitter": "None", "instagram": "None", "facebook": "None", "youtube": "None", "website": "None", "summary": "None", "logo": "None", "latitude": 53.28248251399404, "longitude": -110.00973213918864}, "118984822RR0001": {"name": "KNOX PRESBYTERIAN CHURCH", "designationCode": "C", "categoryCode": "37", "address": "969 FRENCH LINE ROAD          RR #3", "city": "MERIGOMISH", "province": "NS", "country": "CA", "postalCode": "B0K1G0", "twitter": "None", "instagram": "None", "facebook": "None", "youtube": "None", "website": "None", "summary": "None", "logo": "None", "latitude": 45.50475974707195, "longitude": -62.376892459950206}, "118984855RR0001": {"name": "KNOX PRESBYTERIAN CHURCH", "designationCode": "C", "categoryCode": "37", "address": "11307                         ROUTE 134", "city": "KOUCHIBOUGUAC", "province": "NB", "country": "CA", "postalCode": "E4X1N5", "twitter": "None", "instagram": "None", "facebook": "None", "youtube": "None", "website": "None", "summary": "None", "logo": "None", "latitude": 46.782626707179865, "longitude": -65.04342293222112}, "118984863RR0001": {"name": "KNOX PRESBYTERIAN CHURCH", "designationCode": "C", "categoryCode": "37", "address": "45 MCCULLOUGH RD", "city": "HARVEY YORK COUNTY", "province": "NB", "country": "CA", "postalCode": "E6K1P3", "twitter": "None", "instagram": "None", "facebook": "None", "youtube": "None", "website": "None", "summary": "None", "logo": "None", "latitude": 45.69388042146014, "longitude": -67.03537134698351}, "118984954RR0001": {"name": "KNOX PRESBYTERIAN CHURCH", "designationCode": "C", "categoryCode": "37", "address": "PO BOX 35", "city": "SOUTH MOUNTAIN", "province": "ON", "country": "CA", "postalCode": "K0E1W0", "twitter": "None", "instagram": "None", "facebook": "None", "youtube": "None", "website": "None", "summary": "None", "logo": "None", "latitude": 44.8427488126301, "longitude": -75.54693386273418}, "118984996RR0001": {"name": "KNOX PRESBYTERIAN CHURCH", "designationCode": "C", "categoryCode": "37", "address": "RR#3 9280                     COUNTY RD 30", "city": "HAVELOCK", "province": "ON", "country": "CA", "postalCode": "K0L1Z0", "twitter": "None", "instagram": "None", "facebook": "None", "youtube": "None", "website": "None", "summary": "None", "logo": "None", "latitude": 44.40991674812213, "longitude": -77.8816251827954}, "118985001RR0001": {"name": "KNOX PRESBYTERIAN CHURCH", "designationCode": "C", "categoryCode": "37", "address": "BOX 646", "city": "BOBCAYGEON", "province": "ON", "country": "CA", "postalCode": "K0M1A0", "twitter": "None", "instagram": "None", "facebook": "None", "youtube": "None", "website": "None", "summary": "None", "logo": "None", "latitude": 44.77947037273382, "longitude": -78.64831406506559}, "118985050RR0001": {"name": "KNOX PRESBYTERIAN CHURCH", "designationCode": "C", "categoryCode": "37", "address": "3249 USHERS ROAD", "city": "ELMSVALE", "province": "ON", "country": "CA", "postalCode": "L0L1P0", "twitter": "None", "instagram": "None", "facebook": "None", "youtube": "None", "website": "None", "summary": "None", "logo": "None", "latitude": 44.56989154928145, "longitude": -79.9004079355707}, "118985068RR0001": {"name": "KNOX PRESBYTERIAN CHURCH", "designationCode": "C", "categoryCode": "37", "address": "160 KING STREET SOUTH", "city": "ALLISTON", "province": "ON", "country": "CA", "postalCode": "L9R1B9", "twitter": "None", "instagram": "None", "facebook": "None", "youtube": "None", "website": "None", "summary": "None", "logo": "None", "latitude": 44.14394887483403, "longitude": -79.87676605055086}, "118985134RR0001": {"name": "KNOX PRESBYTERIAN CHURCH", "designationCode": "C", "categoryCode": "37", "address": "53 CHURCH ST", "city": "ST CATHARINES", "province": "ON", "country": "CA", "postalCode": "L2R3C3", "twitter": "None", "instagram": "None", "facebook": "None", "youtube": "None", "website": "None", "summary": "None", "logo": "None", "latitude": 43.15947658203003, "longitude": -79.24744544105236}, "118985183RR0001": {"name": "KNOX PRESBYTERIAN CHURCH", "designationCode": "C", "categoryCode": "37", "address": "89 DUNN STREET", "city": "OAKVILLE", "province": "ON", "country": "CA", "postalCode": "L6J3C8", "twitter": "None", "instagram": "None", "facebook": "None", "youtube": "None", "website": "None", "summary": "None", "logo": "None", "latitude": 43.44632155427311, "longitude": -79.66698598721807}, "118985209RR0001": {"name": "KNOX PRESBYTERIAN CHURCH", "designationCode": "C", "categoryCode": "37", "address": "461 ELIZABETH ST", "city": "BURLINGTON", "province": "ON", "country": "CA", "postalCode": "L7R4B1", "twitter": "None", "instagram": "None", "facebook": "None", "youtube": "None", "website": "None", "summary": "None", "logo": "None", "latitude": 43.32702228977427, "longitude": -79.7974642370017}, "118985233RR0001": {"name": "KNOX PRESBYTERIAN CHURCH", "designationCode": "C", "categoryCode": "37", "address": "4156 SHEPPARD AVE E", "city": "AGINCOURT", "province": "ON", "country": "CA", "postalCode": "M1S1T3", "twitter": "None", "instagram": "None", "facebook": "None", "youtube": "None", "website": "None", "summary": "None", "logo": "None", "latitude": 43.7848221440934, "longitude": -79.28110984237391}, "118985274RR0001": {"name": "KNOX PRESBYTERIAN CHURCH", "designationCode": "C", "categoryCode": "37", "address": "51 CHURCH ST", "city": "ELORA", "province": "ON", "country": "CA", "postalCode": "N0B1S0", "twitter": "None", "instagram": "None", "facebook": "None", "youtube": "None", "website": "None", "summary": "None", "logo": "None", "latitude": 43.68324328476575, "longitude": -80.42838877630226}, "118985290RR0001": {"name": "KNOX PRESBYTERIAN CHURCH", "designationCode": "C", "categoryCode": "37", "address": "BOX 696", "city": "ERIN", "province": "ON", "country": "CA", "postalCode": "N0B1T0", "twitter": "None", "instagram": "None", "facebook": "None", "youtube": "None", "website": "None", "summary": "None", "logo": "None", "latitude": 43.758004500000006, "longitude": -80.07697350000001}, "118985340RR0001": {"name": "KNOX PRESBYTERIAN CHURCH", "designationCode": "C", "categoryCode": "37", "address": "R R #2", "city": "BRUSSELS", "province": "ON", "country": "CA", "postalCode": "N0G1H0", "twitter": "None", "instagram": "None", "facebook": "None", "youtube": "None", "website": "None", "summary": "None", "logo": "None", "latitude": 43.714084384656786, "longitude": -81.27334948961246}, "118985357RR0001": {"name": "KNOX PRESBYTERIAN CHURCH", "designationCode": "C", "categoryCode": "37", "address": "42637 HURON BRUCE RD          R#1", "city": "WROXETER", "province": "ON", "country": "CA", "postalCode": "N0G2X0", "twitter": "None", "instagram": "None", "facebook": "None", "youtube": "None", "website": "None", "summary": "None", "logo": "None", "latitude": 43.958440306793015, "longitude": -81.18734529551524}, "118985381RR0001": {"name": "KNOX PRESBYTERIAN CHURCH", "designationCode": "C", "categoryCode": "37", "address": "RR#2", "city": "KENILWORTH", "province": "ON", "country": "CA", "postalCode": "N0G2E0", "twitter": "None", "instagram": "None", "facebook": "None", "youtube": "None", "website": "None", "summary": "None", "logo": "None", "latitude": 43.89812000000006, "longitude": -80.63023999999996}, "118985415RR0001": {"name": "KNOX PRESBYTERIAN CHURCH", "designationCode": "C", "categoryCode": "37", "address": "PO BOX 399", "city": "TEESWATER", "province": "ON", "country": "CA", "postalCode": "N0G2S0", "twitter": "None", "instagram": "None", "facebook": "None", "youtube": "None", "website": "None", "summary": "None", "logo": "None", "latitude": 43.99993000000006, "longitude": -81.28715999999997}, "118985423RR0001": {"name": "KNOX PRESBYTERIAN CHURCH", "designationCode": "C", "categoryCode": "37", "address": "75 MAIN ST., BOX 35", "city": "TIVERTON", "province": "ON", "country": "CA", "postalCode": "N0G2T0", "twitter": "None", "instagram": "None", "facebook": "None", "youtube": "None", "website": "None", "summary": "None", "logo": "None", "latitude": 44.26692794943568, "longitude": -81.54156278897031}, "118985431RR0001": {"name": "KNOX PRESBYTERIAN CHURCH", "designationCode": "C", "categoryCode": "37", "address": "208 CAYLEY ST                 BOX 1632", "city": "WALKERTON", "province": "ON", "country": "CA", "postalCode": "N0G2V0", "twitter": "None", "instagram": "None", "facebook": "None", "youtube": "None", "website": "None", "summary": "None", "logo": "None", "latitude": 44.13110231115456, "longitude": -81.14963930223908}, "118985449RR0001": {"name": "KNOX PRESBYTERIAN CHURCH", "designationCode": "C", "categoryCode": "37", "address": "197797 GREY ROAD 7 R.R. #4", "city": "MEAFORD", "province": "ON", "country": "CA", "postalCode": "N4L1W7", "twitter": "None", "instagram": "None", "facebook": "None", "youtube": "None", "website": "None", "summary": "None", "logo": "None", "latitude": 44.59316100000005, "longitude": -80.57758399999993}, "118985456RR0001": {"name": "KNOX PRESBYTERIAN CHURCH", "designationCode": "C", "categoryCode": "37", "address": "BRUCE GREY BOOKKEEPING        P.O. BOX 320", "city": "TARA", "province": "ON", "country": "CA", "postalCode": "N0H2N0", "twitter": "None", "instagram": "None", "facebook": "None", "youtube": "None", "website": "None", "summary": "None", "logo": "None", "latitude": 44.51553394537348, "longitude": -81.1202558154999}, "118985480RR0001": {"name": "KNOX PRESBYTERIAN CHURCH", "designationCode": "C", "categoryCode": "37", "address": "PO BOX 758", "city": "NORWICH", "province": "ON", "country": "CA", "postalCode": "N0J1P0", "twitter": "None", "instagram": "None", "facebook": "None", "youtube": "None", "website": "None", "summary": "None", "logo": "None", "latitude": 42.98256600000006, "longitude": -80.60335999999994}, "118985530RR0001": {"name": "KNOX PRESBYTERIAN CHURCH", "designationCode": "C", "categoryCode": "37", "address": "162 NANCY ST", "city": "DUTTON", "province": "ON", "country": "CA", "postalCode": "N0L1J0", "twitter": "None", "instagram": "None", "facebook": "None", "youtube": "None", "website": "None", "summary": "None", "logo": "None", "latitude": 42.664395334212564, "longitude": -81.50081464963408}, "118985548RR0001": {"name": "KNOX PRESBYTERIAN CHURCH", "designationCode": "C", "categoryCode": "37", "address": "35596 FINGAL LINE", "city": "FINGAL", "province": "ON", "country": "CA", "postalCode": "N0L1K0", "twitter": "None", "instagram": "None", "facebook": "None", "youtube": "None", "website": "None", "summary": "None", "logo": "None", "latitude": 42.71016640717859, "longitude": -81.31306602876653}, "118985555RR0001": {"name": "KNOX PRESBYTERIAN CHURCH", "designationCode": "C", "categoryCode": "37", "address": "108 ST CLAIR AVE", "city": "KOMOKA", "province": "ON", "country": "CA", "postalCode": "N0L1R0", "twitter": "None", "instagram": "None", "facebook": "None", "youtube": "None", "website": "None", "summary": "None", "logo": "None", "latitude": 42.95125602536655, "longitude": -81.43932799547588}, "118985597RR0001": {"name": "KNOX PRESBYTERIAN CHURCH", "designationCode": "C", "categoryCode": "37", "address": "27840 NAIRN ROAD", "city": "PARKHILL", "province": "ON", "country": "CA", "postalCode": "N0M2K0", "twitter": "None", "instagram": "None", "facebook": "None", "youtube": "None", "website": "None", "summary": "None", "logo": "None", "latitude": 43.12935632543423, "longitude": -81.65683692645368}, "118985613RR0001": {"name": "KNOX PRESBYTERIAN CHURCH", "designationCode": "C", "categoryCode": "37", "address": "1342 ROKEBY LINE              RR#1", "city": "MOORETOWN", "province": "ON", "country": "CA", "postalCode": "N0N1M0", "twitter": "None", "instagram": "None", "facebook": "None", "youtube": "None", "website": "None", "summary": "None", "logo": "None", "latitude": 42.862200487589696, "longitude": -82.36037241268986}, "118985696RR0001": {"name": "KNOX PRESBYTERIAN CHURCH", "designationCode": "C", "categoryCode": "37", "address": "345 DURHAM STREET", "city": "KINCARDINE", "province": "ON", "country": "CA", "postalCode": "N2Z1Y6", "twitter": "None", "instagram": "None", "facebook": "None", "youtube": "None", "website": "None", "summary": "None", "logo": "None", "latitude": 44.17840033028448, "longitude": -81.63259055966878}, "118985712RR0001": {"name": "KNOX PRESBYTERIAN CHURCH", "designationCode": "C", "categoryCode": "37", "address": "59 RIDDELL STREET", "city": "WOODSTOCK", "province": "ON", "country": "CA", "postalCode": "N4S6M2", "twitter": "None", "instagram": "None", "facebook": "None", "youtube": "None", "website": "None", "summary": "None", "logo": "None", "latitude": 43.131935147931216, "longitude": -80.75737766362735}, "118985720RR0001": {"name": "KNOX PRESBYTERIAN CHURCH", "designationCode": "C", "categoryCode": "37", "address": "220 LIVINGSTONE AVE N", "city": "LISTOWEL", "province": "ON", "country": "CA", "postalCode": "N4W1P9", "twitter": "None", "instagram": "None", "facebook": "None", "youtube": "None", "website": "None", "summary": "None", "logo": "None", "latitude": 43.73364918331856, "longitude": -80.95462583435094}, "118985761RR0001": {"name": "KNOX PRESBYTERIAN CHURCH", "designationCode": "C", "categoryCode": "37", "address": "251 DUNCAN AT WELLINGTON ST", "city": "WALLACEBURG", "province": "ON", "country": "CA", "postalCode": "N8A5G5", "twitter": "None", "instagram": "None", "facebook": "None", "youtube": "None", "website": "None", "summary": "None", "logo": "None", "latitude": 42.59513700000001, "longitude": -82.38422249999999}, "118985795RR0001": {"name": "KNOX PRESBYTERIAN CHURCH", "designationCode": "C", "categoryCode": "37", "address": "3337 AHMIC LAKE RD            RR 1", "city": "MAGNETAWAN", "province": "ON", "country": "CA", "postalCode": "P0A1P0", "twitter": "None", "instagram": "None", "facebook": "None", "youtube": "None", "website": "None", "summary": "None", "logo": "None", "latitude": 45.6022207571133, "longitude": -79.632135025526}, "118985811RR0001": {"name": "KNOX PRESBYTERIAN CHURCH", "designationCode": "C", "categoryCode": "37", "address": "120 TAYLOR ROAD", "city": "BRACEBRIDGE", "province": "ON", "country": "CA", "postalCode": "P1L1J2", "twitter": "None", "instagram": "None", "facebook": "None", "youtube": "None", "website": "None", "summary": "None", "logo": "None", "latitude": 45.04346296194265, "longitude": -79.30340469995396}, "118985852RR0001": {"name": "KNOX PRESBYTERIAN CHURCH", "designationCode": "C", "categoryCode": "37", "address": "73 LARCH STREET", "city": "SUDBURY", "province": "ON", "country": "CA", "postalCode": "P3E1B8", "twitter": "None", "instagram": "None", "facebook": "None", "youtube": "None", "website": "None", "summary": "None", "logo": "None", "latitude": 46.49123968413713, "longitude": -80.99400175449806}, "118985878RR0001": {"name": "KNOX PRESBYTERIAN CHURCH", "designationCode": "C", "categoryCode": "37", "address": "BOX 445", "city": "NEEPAWA", "province": "MB", "country": "CA", "postalCode": "R0J1H0", "twitter": "None", "instagram": "None", "facebook": "None", "youtube": "None", "website": "None", "summary": "None", "logo": "None", "latitude": 50.22581100000005, "longitude": -99.48963949999994}, "118985886RR0001": {"name": "KNOX PRESBYTERIAN CHURCH", "designationCode": "C", "categoryCode": "37", "address": "BOX 111", "city": "WINNIPEGOSIS", "province": "MB", "country": "CA", "postalCode": "R0L2G0", "twitter": "None", "instagram": "None", "facebook": "None", "youtube": "None", "website": "None", "summary": "None", "logo": "None", "latitude": 51.65289899999999, "longitude": -99.9405918859683}, "118985928RR0001": {"name": "KNOX PRESBYTERIAN CHURCH", "designationCode": "C", "categoryCode": "37", "address": "BOX 94", "city": "BRIERCREST", "province": "SK", "country": "CA", "postalCode": "S0H0K0", "twitter": "None", "instagram": "None", "facebook": "None", "youtube": "None", "website": "None", "summary": "None", "logo": "None", "latitude": 50.41317000000004, "longitude": -107.03868999999997}, "118985944RR0001": {"name": "KNOX PRESBYTERIAN CHURCH", "designationCode": "C", "categoryCode": "37", "address": "66 PARK STREET", "city": "YORKTON", "province": "SK", "country": "CA", "postalCode": "S3N0T3", "twitter": "None", "instagram": "None", "facebook": "None", "youtube": "None", "website": "None", "summary": "None", "logo": "None", "latitude": 51.20627450346244, "longitude": -102.4671915}, "125821959RR0001": {"name": "KNOX PRESBYTERIAN CHURCH", "designationCode": "C", "categoryCode": "37", "address": "2171 NATURE TRAIL CRES.", "city": "ORLEANS", "province": "ON", "country": "CA", "postalCode": "K1W1E5", "twitter": "None", "instagram": "None", "facebook": "None", "youtube": "None", "website": "None", "summary": "None", "logo": "None", "latitude": 45.43945348600596, "longitude": -75.5219895822898}, "128869294RR0001": {"name": "KNOX PRESBYTERIAN CHURCH", "designationCode": "C", "categoryCode": "37", "address": "44 MAIN ST N", "city": "ACTON", "province": "ON", "country": "CA", "postalCode": "L7J1W2", "twitter": "None", "instagram": "None", "facebook": "None", "youtube": "None", "website": "None", "summary": "None", "logo": "None", "latitude": 43.63078875350592, "longitude": -80.0429813657161}, "129880233RR0001": {"name": "KNOX PRESBYTERIAN CHURCH", "designationCode": "C", "categoryCode": "37", "address": "PO BOX 70032 RPO PLACE BELL", "city": "OTTAWA", "province": "ON", "country": "CA", "postalCode": "K2P2M3", "twitter": "None", "instagram": "None", "facebook": "None", "youtube": "None", "website": "None", "summary": "None", "logo": "None", "latitude": 45.42177300000006, "longitude": -75.69115999999994}, "130297369RR0001": {"name": "KNOX PRESBYTERIAN CHURCH", "designationCode": "C", "categoryCode": "37", "address": "315 MUSKOKA RD N", "city": "GRAVENHURST", "province": "ON", "country": "CA", "postalCode": "P1P1G4", "twitter": "None", "instagram": "None", "facebook": "None", "youtube": "None", "website": "None", "summary": "None", "logo": "None", "latitude": 44.9217279328294, "longitude": -79.37494686444668}}