{"107951618RR0454": {"name": "THE SALVATION ARMY, QUEBEC DIVISION", "designationCode": "C", "categoryCode": "40", "address": "625 AV DU PRESIDENT-KENNEDY   BUREAU 1700", "city": "MONTREAL", "province": "QC", "country": "CA", "postalCode": "H3A1K2", "twitter": "None", "instagram": "None", "facebook": "None", "youtube": "None", "website": "None", "summary": "None", "logo": "None", "latitude": 45.50488925979565, "longitude": -73.57209408745436}, "891414997RR0001": {"name": "THE SAM AND IDA ROSS FOUNDATION", "designationCode": "B", "categoryCode": "03", "address": "1 - 3520 PHARMACY AVE", "city": "SCARBOROUGH", "province": "ON", "country": "CA", "postalCode": "M1W2T8", "twitter": "None", "instagram": "None", "facebook": "None", "youtube": "None", "website": "None", "summary": "None", "logo": "None", "latitude": 43.810902293640744, "longitude": -79.33384504359728}, "890141773RR0001": {"name": "THE SAM AND LOLA FAIVISH CHARITABLE FOUNDATION", "designationCode": "B", "categoryCode": "03", "address": "2797 JOHN STREET", "city": "MARKHAM", "province": "ON", "country": "CA", "postalCode": "L3R2Y8", "twitter": "None", "instagram": "None", "facebook": "None", "youtube": "None", "website": "None", "summary": "None", "logo": "None", "latitude": 43.82534731539781, "longitude": -79.35544710308041}, "119253292RR0001": {"name": "THE SAM DALEY BURSARY FUND", "designationCode": "B", "categoryCode": "21", "address": "BOX 145", "city": "CORNING", "province": "SK", "country": "CA", "postalCode": "S0G0T0", "twitter": "None", "instagram": "None", "facebook": "None", "youtube": "None", "website": "None", "summary": "None", "logo": "None", "latitude": 49.959910000000036, "longitude": -102.97032999999999}, "119253300RR0001": {"name": "THE SAM SORBARA CHARITABLE FOUNDATION", "designationCode": "B", "categoryCode": "03", "address": "800-3700 STEELES AVE W", "city": "WOODBRIDGE", "province": "ON", "country": "CA", "postalCode": "L4L8M9", "twitter": "None", "instagram": "None", "facebook": "None", "youtube": "None", "website": "None", "summary": "None", "logo": "None", "latitude": 43.772176238500116, "longitude": -79.5373924542911}, "119253342RR0001": {"name": "THE SAM WALLER MUSEUM BOARD", "designationCode": "C", "categoryCode": "50", "address": "PO BOX 185", "city": "THE PAS", "province": "MB", "country": "CA", "postalCode": "R9A1K4", "twitter": "None", "instagram": "None", "facebook": "None", "youtube": "None", "website": "None", "summary": "None", "logo": "None", "latitude": 53.81342700000006, "longitude": -101.25038149999993}, "119305407RR0001": {"name": "THE SAM YAKUBOWICZ FAMILY FOUNDATION", "designationCode": "B", "categoryCode": "23", "address": "25 SABLE STREET", "city": "TORONTO", "province": "ON", "country": "CA", "postalCode": "M6M3K8", "twitter": "None", "instagram": "None", "facebook": "None", "youtube": "None", "website": "None", "summary": "None", "logo": "None", "latitude": 43.70619217459164, "longitude": -79.47207961001808}, "890061773RR0001": {"name": "THE SAMAC FOUNDATION", "designationCode": "A", "categoryCode": "03", "address": "1125 MOHAWK STREET", "city": "OSHAWA", "province": "ON", "country": "CA", "postalCode": "L1G4G8", "twitter": "None", "instagram": "None", "facebook": "None", "youtube": "None", "website": "None", "summary": "None", "logo": "None", "latitude": 43.925369028593636, "longitude": -78.88368689852294}, "119138527RR0001": {"name": "THE SAMARITAN'S PURSE - CANADA", "designationCode": "C", "categoryCode": "47", "address": "20 HOPEWELL WAY N.E.", "city": "CALGARY", "province": "AB", "country": "CA", "postalCode": "T3J5H5", "twitter": "None", "instagram": "None", "facebook": "None", "youtube": "None", "website": "None", "summary": "None", "logo": "None", "latitude": 51.095259754371284, "longitude": -113.99848973867516}, "119138592RR0001": {"name": "THE SAMUEL AND BESSIE ORFUS FAMILY FOUNDATION", "designationCode": "B", "categoryCode": "13", "address": "108 VESTA DRIVE", "city": "TORONTO", "province": "ON", "country": "CA", "postalCode": "M5P2Z7", "twitter": "None", "instagram": "None", "facebook": "None", "youtube": "None", "website": "None", "summary": "None", "logo": "None", "latitude": 43.693904577846425, "longitude": -79.41747522234385}, "108098229RR0001": {"name": "THE SAMUEL AND SAIDYE BRONFMAN FAMILY FOUNDATION - FONDATION DE LA FAMILLE SAMUEL ET SAIDYE BRONFMAN", "designationCode": "B", "categoryCode": "03", "address": "1170 PEEL STREET 8TH FLOOR", "city": "MONTREAL", "province": "QC", "country": "CA", "postalCode": "H3B4P2", "twitter": "None", "instagram": "None", "facebook": "None", "youtube": "None", "website": "None", "summary": "None", "logo": "None", "latitude": 45.49919599330624, "longitude": -73.57126662118391}, "892892142RR0001": {"name": "THE SAMUEL FAMILY FOUNDATION", "designationCode": "B", "categoryCode": "03", "address": "2360 DIXIE ROAD", "city": "MISSISSAUGA", "province": "ON", "country": "CA", "postalCode": "L4Y1Z7", "twitter": "None", "instagram": "None", "facebook": "None", "youtube": "None", "website": "None", "summary": "None", "logo": "None", "latitude": 43.60423660999628, "longitude": -79.57691751891079}, "119138626RR0001": {"name": "THE SAMUEL MCGEE AND MARY STINSON MCGEE MEMORIAL TRUST FUND", "designationCode": "B", "categoryCode": "25", "address": "1402 - 1 KING ST W", "city": "HAMILTON", "province": "ON", "country": "CA", "postalCode": "L8P1A4", "twitter": "None", "instagram": "None", "facebook": "None", "youtube": "None", "website": "None", "summary": "None", "logo": "None", "latitude": 43.26019321073324, "longitude": -79.88135629363086}, "891620064RR0001": {"name": "THE SAMUEL ROGERS MEMORIAL TRUST", "designationCode": "B", "categoryCode": "25", "address": "77 SKYLARK DR", "city": "HAMILTON", "province": "ON", "country": "CA", "postalCode": "L9A5A9", "twitter": "None", "instagram": "None", "facebook": "None", "youtube": "None", "website": "None", "summary": "None", "logo": "None", "latitude": 43.21881220901364, "longitude": -79.87117496404876}, "107952798RR0001": {"name": "THE SANATORIUM BOARD OF MANITOBA", "designationCode": "C", "categoryCode": "10", "address": "301 - 1 WESLEY AVE", "city": "WINNIPEG", "province": "MB", "country": "CA", "postalCode": "R3C4C6", "twitter": "None", "instagram": "None", "facebook": "None", "youtube": "None", "website": "None", "summary": "None", "logo": "None", "latitude": 49.89270373510321, "longitude": -97.13672106771274}, "861795060RR0001": {"name": "THE SANCTUARY CHURCH OF OAKVILLE", "designationCode": "C", "categoryCode": "39", "address": "125-NORTH SERVICE RD E", "city": "OAKVILLE", "province": "ON", "country": "CA", "postalCode": "L6H1A3", "twitter": "None", "instagram": "None", "facebook": "None", "youtube": "None", "website": "None", "summary": "None", "logo": "None", "latitude": 43.456682995845064, "longitude": -79.68929232765873}, "888518305RR0001": {"name": "THE SANCTUARY FAMILY CENTRE", "designationCode": "C", "categoryCode": "31", "address": "16 JEANETTE AVE", "city": "GRIMSBY", "province": "ON", "country": "CA", "postalCode": "L3M5P2", "twitter": "None", "instagram": "None", "facebook": "None", "youtube": "None", "website": "None", "summary": "None", "logo": "None", "latitude": 43.19679416515656, "longitude": -79.5476442053783}, "819867490RR0001": {"name": "THE SANDBOX PROJECT CHARITY", "designationCode": "C", "categoryCode": "11", "address": "1LG - 36 TORONTO ST", "city": "TORONTO", "province": "ON", "country": "CA", "postalCode": "M5C2C5", "twitter": "None", "instagram": "None", "facebook": "None", "youtube": "None", "website": "None", "summary": "None", "logo": "None", "latitude": 43.650531712735905, "longitude": -79.37637427673252}, "892280249RR0001": {"name": "THE SANDFORD FLEMING FOUNDATION", "designationCode": "C", "categoryCode": "21", "address": "UNIVERSITY OF WATERLOO        ROOM E2-3336", "city": "WATERLOO", "province": "ON", "country": "CA", "postalCode": "N2L3G1", "twitter": "None", "instagram": "None", "facebook": "None", "youtube": "None", "website": "None", "summary": "None", "logo": "None", "latitude": 43.468900000000076, "longitude": -80.53947999999997}, "119138923RR0001": {"name": "THE SANDRA AND LEO KOLBER FOUNDATION", "designationCode": "B", "categoryCode": "03", "address": "1170 PEEL STREET 8TH FLOOR", "city": "MONTREAL", "province": "QC", "country": "CA", "postalCode": "H3B4P2", "twitter": "None", "instagram": "None", "facebook": "None", "youtube": "None", "website": "None", "summary": "None", "logo": "None", "latitude": 45.49919599330624, "longitude": -73.57126662118391}, "892066440RR0001": {"name": "THE SANDWICH TEEN ACTION GROUP", "designationCode": "C", "categoryCode": "09", "address": "3735 KING STREET", "city": "WINDSOR", "province": "ON", "country": "CA", "postalCode": "N9C1P7", "twitter": "None", "instagram": "None", "facebook": "None", "youtube": "None", "website": "None", "summary": "None", "logo": "None", "latitude": 42.28944837578635, "longitude": -83.07877140934298}, "873913628RR0001": {"name": "THE SANFILIPPO CHILDREN'S RESEARCH FOUNDATION", "designationCode": "B", "categoryCode": "21", "address": "41 GWENDOLEN AVENUE", "city": "TORONTO", "province": "ON", "country": "CA", "postalCode": "M2N1A1", "twitter": "None", "instagram": "None", "facebook": "None", "youtube": "None", "website": "None", "summary": "None", "logo": "None", "latitude": 43.75249984927018, "longitude": -79.41875762585845}, "119139178RR0001": {"name": "THE SANT NIRANKARI MISSION CANADA INCORPORATED", "designationCode": "C", "categoryCode": "47", "address": "15 FALLOWFIELD RD", "city": "BRAMPTON", "province": "ON", "country": "CA", "postalCode": "L6X0W3", "twitter": "None", "instagram": "None", "facebook": "None", "youtube": "None", "website": "None", "summary": "None", "logo": "None", "latitude": 43.6550417926598, "longitude": -79.79963152925747}, "866045602RR0001": {"name": "THE SANTA CROCE FOUNDATION", "designationCode": "C", "categoryCode": "21", "address": "630 SHERBROOKE STREET WEST    SUITE 400", "city": "MONTREAL", "province": "QC", "country": "CA", "postalCode": "H3A1E4", "twitter": "None", "instagram": "None", "facebook": "None", "youtube": "None", "website": "None", "summary": "None", "logo": "None", "latitude": 45.505404, "longitude": -73.5724035}, "867450066RR0001": {"name": "THE SANTA-BARBARA FAMILY FOUNDATION", "designationCode": "B", "categoryCode": "03", "address": "2224 POWERLINE ROAD WEST      R.R. #2", "city": "LYNDEN", "province": "ON", "country": "CA", "postalCode": "L0R1T0", "twitter": "None", "instagram": "None", "facebook": "None", "youtube": "None", "website": "None", "summary": "None", "logo": "None", "latitude": 43.220350688845464, "longitude": -80.09668799541237}, "119253359RR0001": {"name": "THE SARA SPENCER FOUNDATION", "designationCode": "B", "categoryCode": "23", "address": "511 CONSTANCE AVE", "city": "VICTORIA", "province": "BC", "country": "CA", "postalCode": "V9A6N5", "twitter": "None", "instagram": "None", "facebook": "None", "youtube": "None", "website": "None", "summary": "None", "logo": "None", "latitude": 48.42878475437129, "longitude": -123.41817110724813}, "867883142RR0001": {"name": "THE SARAH MCLACHLAN FOUNDATION", "designationCode": "B", "categoryCode": "23", "address": "200-138 EAST 7TH AVE", "city": "VANCOUVER", "province": "BC", "country": "CA", "postalCode": "V5T1M6", "twitter": "None", "instagram": "None", "facebook": "None", "youtube": "None", "website": "None", "summary": "None", "logo": "None", "latitude": 49.264587503462465, "longitude": -123.1013705029142}, "119288918RR0474": {"name": "THE SARDIS CHILLIWACK CONGREGATION OF JEHOVAH'S WITNESSES", "designationCode": "C", "categoryCode": "61", "address": "46400 BEDFORD PKY", "city": "CHILLIWACK", "province": "BC", "country": "CA", "postalCode": "V2R5N4", "twitter": "None", "instagram": "None", "facebook": "None", "youtube": "None", "website": "None", "summary": "None", "logo": "None", "latitude": 49.109998718289425, "longitude": -121.94066132042764}, "866925340RR0001": {"name": "THE SARNIA NORTHERN COLLEGIATE INSTITUTE & VOCATIONAL SCHOOL", "designationCode": "C", "categoryCode": "21", "address": "940 MICHIGAN AVENUE", "city": "SARNIA", "province": "ON", "country": "CA", "postalCode": "N7S2B1", "twitter": "None", "instagram": "None", "facebook": "None", "youtube": "None", "website": "None", "summary": "None", "logo": "None"}, "891406258RR0001": {"name": "THE SARNIA ORGAN DONOR'S AWARENESS GROUP", "designationCode": "C", "categoryCode": "11", "address": "104-180 COLLEGE AVE N", "city": "SARNIA", "province": "ON", "country": "CA", "postalCode": "N7T7X2", "twitter": "None", "instagram": "None", "facebook": "None", "youtube": "None", "website": "None", "summary": "None", "logo": "None", "latitude": 42.97467315339136, "longitude": -82.40162869744348}, "892309568RR0001": {"name": "THE SASKATCHEWAN ALEXANDER GRAHAM BELL ASSOCIATION FOR THE DEAF", "designationCode": "C", "categoryCode": "09", "address": "145 CLEARWATER RD", "city": "SASKATOON", "province": "SK", "country": "CA", "postalCode": "S7K3Y8", "twitter": "None", "instagram": "None", "facebook": "None", "youtube": "None", "website": "None", "summary": "None", "logo": "None", "latitude": 52.16454848845882, "longitude": -106.62778911073923}, "119140135RR0001": {"name": "THE SASKATCHEWAN BRAIN INJURY ASSOCIATION INC.", "designationCode": "C", "categoryCode": "11", "address": "POST OFFICE BOX 3843", "city": "REGINA", "province": "SK", "country": "CA", "postalCode": "S4P3R8", "twitter": "None", "instagram": "None", "facebook": "None", "youtube": "None", "website": "None", "summary": "None", "logo": "None", "latitude": 50.448246000000054, "longitude": -104.59517299999993}, "119139939RR0001": {"name": "THE SASKATCHEWAN CANADIAN GIRLS IN TRAINING COMMITTEE (THE SASKATCHEWAN CGIT COMMITTEE)", "designationCode": "C", "categoryCode": "49", "address": "312-2600 ARENS ROAD", "city": "REGINA", "province": "SK", "country": "CA", "postalCode": "S4V3A7", "twitter": "None", "instagram": "None", "facebook": "None", "youtube": "None", "website": "None", "summary": "None", "logo": "None", "latitude": 50.44052748990112, "longitude": -104.54586908228981}, "118841188RR0001": {"name": "THE SASKATCHEWAN CATHOLIC HEALTH CORPORATION", "designationCode": "C", "categoryCode": "11", "address": "104-3502 TAYLOR ST EAST", "city": "SASKATOON", "province": "SK", "country": "CA", "postalCode": "S7H5H9", "twitter": "None", "instagram": "None", "facebook": "None", "youtube": "None", "website": "None", "summary": "None", "logo": "None", "latitude": 52.104210408915634, "longitude": -106.5973279833734}, "107955650RR0001": {"name": "THE SASKATCHEWAN CRAFT COUNCIL", "designationCode": "C", "categoryCode": "22", "address": "813 BROADWAY AVENUE", "city": "SASKATOON", "province": "SK", "country": "CA", "postalCode": "S7N1B5", "twitter": "None", "instagram": "None", "facebook": "None", "youtube": "None", "website": "None", "summary": "None", "logo": "None", "latitude": 52.11739800000001, "longitude": -106.65664879776702}, "138512827RR0001": {"name": "THE SASKATCHEWAN FILMPOOL CO-OPERATIVE", "designationCode": "C", "categoryCode": "22", "address": "301-1822 SCARTH ST", "city": "REGINA", "province": "SK", "country": "CA", "postalCode": "S4P2G3", "twitter": "None", "instagram": "None", "facebook": "None", "youtube": "None", "website": "None", "summary": "None", "logo": "None", "latitude": 50.44986900000001, "longitude": -104.61085314963331}, "119140119RR0001": {"name": "THE SASKATCHEWAN GENEALOGICAL SOCIETY", "designationCode": "C", "categoryCode": "50", "address": "1514-11TH AVE, SUITE 110", "city": "REGINA", "province": "SK", "country": "CA", "postalCode": "S4P3E1", "twitter": "None", "instagram": "None", "facebook": "None", "youtube": "None", "website": "None", "summary": "None", "logo": "None", "latitude": 50.45039250764605, "longitude": -104.60242252553522}, "130678345RR0001": {"name": "THE SASKATCHEWAN LITERACY NETWORK INC", "designationCode": "C", "categoryCode": "21", "address": "11 - 2155 AIRPORT DR", "city": "SASKATOON", "province": "SK", "country": "CA", "postalCode": "S7L6M5", "twitter": "None", "instagram": "None", "facebook": "None", "youtube": "None", "website": "None", "summary": "None", "logo": "None", "latitude": 52.15745319677998, "longitude": -106.68733829964201}, "890234040RR0001": {"name": "THE SASKATCHEWAN MASONIC FOUNDATION", "designationCode": "C", "categoryCode": "09", "address": "1930 LORNE STREET", "city": "REGINA", "province": "SK", "country": "CA", "postalCode": "S4P2M1", "twitter": "None", "instagram": "None", "facebook": "None", "youtube": "None", "website": "None", "summary": "None", "logo": "None", "latitude": 50.44803249708582, "longitude": -104.61372317516854}, "890208937RR0001": {"name": "THE SASKATOON ARCHAEOLOGICAL SOCIETY", "designationCode": "C", "categoryCode": "50", "address": "BOX 328 RPO UNIVERSITY", "city": "SASKATOON", "province": "SK", "country": "CA", "postalCode": "S7N4J8", "twitter": "None", "instagram": "None", "facebook": "None", "youtube": "None", "website": "None", "summary": "None", "logo": "None", "latitude": 52.12925550000001, "longitude": -106.64727524999999}, "892377565RR0001": {"name": "THE SASKATOON BUSINESS AND PROFESSIONAL WOMEN'S SCHOLARSHIP TRUST", "designationCode": "C", "categoryCode": "21", "address": "BOX 22", "city": "SASKATOON", "province": "SK", "country": "CA", "postalCode": "S7K3K1", "twitter": "None", "instagram": "None", "facebook": "None", "youtube": "None", "website": "None", "summary": "None", "logo": "None", "latitude": 52.13049000000005, "longitude": -106.65926449999994}, "131909632RR0001": {"name": "THE SASKATOON CONCERT BAND", "designationCode": "C", "categoryCode": "22", "address": "BOX 27014", "city": "SASKATOON", "province": "SK", "country": "CA", "postalCode": "S7H5N9", "twitter": "None", "instagram": "None", "facebook": "None", "youtube": "None", "website": "None", "summary": "None", "logo": "None", "latitude": 52.13049000000005, "longitude": -106.65926449999994}, "119140945RR0001": {"name": "THE SASKATOON GALLERY AND CONSERVATORY CORPORATION", "designationCode": "C", "categoryCode": "50", "address": "950 SPADINA CRES EAST         PO BOX 569", "city": "SASKATOON", "province": "SK", "country": "CA", "postalCode": "S7K3L6", "twitter": "None", "instagram": "None", "facebook": "None", "youtube": "None", "website": "None", "summary": "None", "logo": "None", "latitude": 52.135133671071856, "longitude": -106.64937349451833}, "893372565RR0001": {"name": "THE SASKATOON HORTICULTURAL SOCIETY", "designationCode": "C", "categoryCode": "56", "address": "PO BOX 161 STN MAIN", "city": "SASKATOON", "province": "SK", "country": "CA", "postalCode": "S7K3K4", "twitter": "None", "instagram": "None", "facebook": "None", "youtube": "None", "website": "None", "summary": "None", "logo": "None", "latitude": 52.13049000000005, "longitude": -106.65926449999994}, "131376329RR0001": {"name": "THE SASKATOON LAKE AGRICULTURAL SOCIETY", "designationCode": "C", "categoryCode": "56", "address": "BOX 488", "city": "WEMBLEY", "province": "AB", "country": "CA", "postalCode": "T0H3S0", "twitter": "None", "instagram": "None", "facebook": "None", "youtube": "None", "website": "None", "summary": "None", "logo": "None", "latitude": 55.15416000000005, "longitude": -119.14110999999997}, "821855343RR0001": {"name": "THE SASKATOON LIGHTHOUSE FOUNDATION CORP.", "designationCode": "C", "categoryCode": "09", "address": "1303 - 2384 SAGEWOOD GATE SW", "city": "AIRDRIE", "province": "AB", "country": "CA", "postalCode": "T4B0K7", "twitter": "None", "instagram": "None", "facebook": "None", "youtube": "None", "website": "None", "summary": "None", "logo": "None", "latitude": 51.29118766897828, "longitude": -114.04752765944464}, "890860398RR0001": {"name": "THE SASKATOON NATIVE MINISTRY", "designationCode": "C", "categoryCode": "32", "address": "812 PRESTON AVE", "city": "SASKATOON", "province": "SK", "country": "CA", "postalCode": "S7H2V2", "twitter": "None", "instagram": "None", "facebook": "None", "youtube": "None", "website": "None", "summary": "None", "logo": "None", "latitude": 52.117164, "longitude": -106.62282520944635}, "864109905RR0001": {"name": "THE SASKATOON PHILIPPINE SENIOR CITIZENS FOUNDATION INC.", "designationCode": "C", "categoryCode": "56", "address": "438 CHARLEBOIS TERRACE", "city": "SASKATOON", "province": "SK", "country": "CA", "postalCode": "S7K5K1", "twitter": "None", "instagram": "None", "facebook": "None", "youtube": "None", "website": "None", "summary": "None", "logo": "None", "latitude": 52.17506040354325, "longitude": -106.62534822693148}, "897198214RR0001": {"name": "THE SASKATOON REGIONAL SCIENCE FAIR INC.", "designationCode": "C", "categoryCode": "21", "address": "P.O.BOX 7636", "city": "SASKATOON", "province": "SK", "country": "CA", "postalCode": "S7K4R4", "twitter": "None", "instagram": "None", "facebook": "None", "youtube": "None", "website": "None", "summary": "None", "logo": "None", "latitude": 52.13049000000005, "longitude": -106.65926449999994}, "119141497RR0001": {"name": "THE SATELLITE VIDEO EXCHANGE SOCIETY", "designationCode": "C", "categoryCode": "59", "address": "2625 KASLO ST", "city": "VANCOUVER", "province": "BC", "country": "CA", "postalCode": "V5M3G9", "twitter": "None", "instagram": "None", "facebook": "None", "youtube": "None", "website": "None", "summary": "None", "logo": "None", "latitude": 49.26085580963458, "longitude": -123.04708978554815}, "858851082RR0001": {"name": "THE SATIR INSTITUTE OF THE PACIFIC", "designationCode": "C", "categoryCode": "25", "address": "13686-94A AVENUE", "city": "SURREY", "province": "BC", "country": "CA", "postalCode": "V3V1N1", "twitter": "None", "instagram": "None", "facebook": "None", "youtube": "None", "website": "None", "summary": "None", "logo": "None", "latitude": 49.174696499567304, "longitude": -122.84330302553522}, "890740947RR0001": {"name": "THE SATURNA ISLAND VOLUNTEER FIRE DEPARTMENT ASSOCIATION", "designationCode": "C", "categoryCode": "59", "address": "101 HARRIS RD                 BOX #118", "city": "SATURNA ISLAND", "province": "BC", "country": "CA", "postalCode": "V0N2Y0", "twitter": "None", "instagram": "None", "facebook": "None", "youtube": "None", "website": "None", "summary": "None", "logo": "None", "latitude": 48.79287448397981, "longitude": -123.18019530482829}, "890676398RR0001": {"name": "THE SAUGEEN RAILTRAIL ASSOCIATION", "designationCode": "C", "categoryCode": "56", "address": "BOX 2313", "city": "PORT ELGIN", "province": "ON", "country": "CA", "postalCode": "N0H2C0", "twitter": "None", "instagram": "None", "facebook": "None", "youtube": "None", "website": "None", "summary": "None", "logo": "None", "latitude": 44.43698400000005, "longitude": -81.38664349999993}, "891943649RR0001": {"name": "THE SAULT STE MARIE COMMUNITY THEATRE CENTRE", "designationCode": "C", "categoryCode": "22", "address": "293 BAY STREET", "city": "SAULT STE MARIE", "province": "ON", "country": "CA", "postalCode": "P6A1X3", "twitter": "None", "instagram": "None", "facebook": "None", "youtube": "None", "website": "None", "summary": "None", "logo": "None", "latitude": 46.51311852319335, "longitude": -84.33766982392697}, "898586425RR0001": {"name": "THE SAVARY ISLAND LAND TRUST SOCIETY", "designationCode": "C", "categoryCode": "52", "address": "BOX 141", "city": "LUND", "province": "BC", "country": "CA", "postalCode": "V0N2G0", "twitter": "None", "instagram": "None", "facebook": "None", "youtube": "None", "website": "None", "summary": "None", "logo": "None", "latitude": 50.71867357534012, "longitude": -127.49108197766614}, "868491093RR0001": {"name": "THE SAWATZKY SPECIALTIES FOUNDATION", "designationCode": "B", "categoryCode": "05", "address": "803-53016 HWY 60              ACHESON INDUSTRIAL AREA", "city": "SPRUCE GROVE", "province": "AB", "country": "CA", "postalCode": "T7X3G7", "twitter": "None", "instagram": "None", "facebook": "None", "youtube": "None", "website": "None", "summary": "None", "logo": "None", "latitude": 53.548308614835356, "longitude": -113.76273401161674}, "890877590RR0001": {"name": "THE SCHAD FOUNDATION", "designationCode": "B", "categoryCode": "53", "address": "9520 PINE VALLEY DRIVE", "city": "VAUGHAN", "province": "ON", "country": "CA", "postalCode": "L4L1A6", "twitter": "None", "instagram": "None", "facebook": "None", "youtube": "None", "website": "None", "summary": "None", "logo": "None", "latitude": 43.82890038689483, "longitude": -79.58395812675248}, "890720741RR0001": {"name": "THE SCHMEELK CANADA FOUNDATION LA FONDATION SCHMEELK DU CANADA", "designationCode": "C", "categoryCode": "21", "address": "PO BOX 942 POST STN B", "city": "MONTREAL", "province": "QC", "country": "CA", "postalCode": "H3B3K5", "twitter": "None", "instagram": "None", "facebook": "None", "youtube": "None", "website": "None", "summary": "None", "logo": "None", "latitude": 45.49987500000006, "longitude": -73.56867649999994}, "119253375RR0001": {"name": "THE SCHMERZ FAMILY FOUNDATION", "designationCode": "B", "categoryCode": "03", "address": "3845 BATHURST ST              UNIT 102", "city": "NORTH YORK", "province": "ON", "country": "CA", "postalCode": "M3H3N2", "twitter": "None", "instagram": "None", "facebook": "None", "youtube": "None", "website": "None", "summary": "None", "logo": "None", "latitude": 43.74047087039064, "longitude": -79.43473796055765}, "890190242RR0001": {"name": "THE SCHNEIDER FAMILY FOUNDATION", "designationCode": "B", "categoryCode": "03", "address": "7101 SYNTEX DRIVE", "city": "MISSISSAUGA", "province": "ON", "country": "CA", "postalCode": "L5N6H5", "twitter": "None", "instagram": "None", "facebook": "None", "youtube": "None", "website": "None", "summary": "None", "logo": "None", "latitude": 43.60579027924269, "longitude": -79.75731459432195}, "119253383RR0001": {"name": "THE SCHOLARSHIP FUND OF THE CANADIAN FEDERATION OF UNIVERSITY WOMEN OSHAWA AND DISTRICT", "designationCode": "C", "categoryCode": "25", "address": "6 GLENELGE CRT", "city": "BOWMANVILLE", "province": "ON", "country": "CA", "postalCode": "L1C4J1", "twitter": "None", "instagram": "None", "facebook": "None", "youtube": "None", "website": "None", "summary": "None", "logo": "None", "latitude": 43.942272220982, "longitude": -78.7189577803581}, "895447373RR0001": {"name": "THE SCHOOL OF CONTEMPORARY DANCERS INC.", "designationCode": "C", "categoryCode": "22", "address": "104-211 BANNATYNE AVE", "city": "WINNIPEG", "province": "MB", "country": "CA", "postalCode": "R3B3P2", "twitter": "None", "instagram": "None", "facebook": "None", "youtube": "None", "website": "None", "summary": "None", "logo": "None", "latitude": 49.89792147157924, "longitude": -97.13992811212421}, "119253391RR0001": {"name": "THE SCHOOL OF DANCE (OTTAWA) PRE-PROFESSIONAL PROGRAMME INC.", "designationCode": "C", "categoryCode": "22", "address": "200 CRICHTON STREET", "city": "OTTAWA", "province": "ON", "country": "CA", "postalCode": "K1M1W2", "twitter": "None", "instagram": "None", "facebook": "None", "youtube": "None", "website": "None", "summary": "None", "logo": "None", "latitude": 45.43988384098893, "longitude": -75.68378421244743}, "891476400RR0001": {"name": "THE SCHOOL OF RESTORATION ARTS AT WILLOWBANK", "designationCode": "C", "categoryCode": "20", "address": "PO BOX 212", "city": "QUEENSTON", "province": "ON", "country": "CA", "postalCode": "L0S1L0", "twitter": "None", "instagram": "None", "facebook": "None", "youtube": "None", "website": "None", "summary": "None", "logo": "None", "latitude": 43.16473931428416, "longitude": -79.14752240703967}, "107962771RR0001": {"name": "THE SCHOOL OF TORONTO DANCE THEATRE", "designationCode": "C", "categoryCode": "22", "address": "80 WINCHESTER ST", "city": "TORONTO", "province": "ON", "country": "CA", "postalCode": "M4X1B2", "twitter": "None", "instagram": "None", "facebook": "None", "youtube": "None", "website": "None", "summary": "None", "logo": "None", "latitude": 43.66625313962134, "longitude": -79.3668887647873}, "869744607RR0001": {"name": "THE SCHUBERT FOUNDATION", "designationCode": "A", "categoryCode": "03", "address": "401 - 3003 GATEBY PL", "city": "VERNON", "province": "BC", "country": "CA", "postalCode": "V1T9H5", "twitter": "None", "instagram": "None", "facebook": "None", "youtube": "None", "website": "None", "summary": "None", "logo": "None", "latitude": 50.26473371720796, "longitude": -119.28227109475465}, "119257285RR0001": {"name": "THE SCHULICH FOUNDATION", "designationCode": "B", "categoryCode": "03", "address": "20 EGLINTON AVENUE WEST       SUITE 1900", "city": "TORONTO", "province": "ON", "country": "CA", "postalCode": "M4R1K8", "twitter": "None", "instagram": "None", "facebook": "None", "youtube": "None", "website": "None", "summary": "None", "logo": "None", "latitude": 43.70660119790514, "longitude": -79.39910587844072}, "816048276RR0001": {"name": "THE SCHUMACHER FAMILY FOUNDATION", "designationCode": "B", "categoryCode": "03", "address": "1 SAINT EDMUND'S DRIVE", "city": "TORONTO", "province": "ON", "country": "CA", "postalCode": "M4N2P6", "twitter": "None", "instagram": "None", "facebook": "None", "youtube": "None", "website": "None", "summary": "None", "logo": "None", "latitude": 43.72222500000001, "longitude": -79.40076343779238}, "893369926RR0001": {"name": "THE SCHUSTER AND OSTEN FAMILY FOUNDATION/LA FONDATION FAMILIALE SCHUSTER ET OSTEN", "designationCode": "B", "categoryCode": "03", "address": "5703 RUE FERRIER", "city": "VILLE MONT-ROYAL", "province": "QC", "country": "CA", "postalCode": "H4P1N3", "twitter": "None", "instagram": "None", "facebook": "None", "youtube": "None", "website": "None", "summary": "None", "logo": "None", "latitude": 45.49040522995289, "longitude": -73.66691613803802}, "897197943RR0001": {"name": "THE SCIENCE EAST ASSOCIATION INC.", "designationCode": "C", "categoryCode": "29", "address": "668 BRUNSWICK ST", "city": "FREDERICTON", "province": "NB", "country": "CA", "postalCode": "E3B1H6", "twitter": "None", "instagram": "None", "facebook": "None", "youtube": "None", "website": "None", "summary": "None", "logo": "None", "latitude": 45.95862865139369, "longitude": -66.6389812939292}, "816225270RR0001": {"name": "THE SCOLIOSIS ASSOCIATION OF BRITISH COLUMBIA", "designationCode": "C", "categoryCode": "11", "address": "1934 HOVEY RD", "city": "SAANICHTON", "province": "BC", "country": "CA", "postalCode": "V8M1V8", "twitter": "None", "instagram": "None", "facebook": "None", "youtube": "None", "website": "None", "summary": "None", "logo": "None", "latitude": 48.58705336760195, "longitude": -123.41868040942403}, "887174514RR0001": {"name": "THE SCOTIA CREEK FOUNDATION", "designationCode": "B", "categoryCode": "52", "address": "7121 NANCY GREENE DRIVE", "city": "WHISTLER", "province": "BC", "country": "CA", "postalCode": "V0N1B7", "twitter": "None", "instagram": "None", "facebook": "None", "youtube": "None", "website": "None", "summary": "None", "logo": "None", "latitude": 50.125841991372994, "longitude": -122.95510280737496}, "890622798RR0001": {"name": "THE SCOTIA HIGHLAND DANCERS", "designationCode": "C", "categoryCode": "22", "address": "38 NORTHVIEW DR", "city": "ANTIGONISH", "province": "NS", "country": "CA", "postalCode": "B2G1H9", "twitter": "None", "instagram": "None", "facebook": "None", "youtube": "None", "website": "None", "summary": "None", "logo": "None", "latitude": 45.62728342437528, "longitude": -62.0072936787179}, "856500038RR0001": {"name": "THE SCOTT GRIFFIN FOUNDATION", "designationCode": "B", "categoryCode": "03", "address": "32 SAINT ANDREWS GDNS", "city": "TORONTO", "province": "ON", "country": "CA", "postalCode": "M4W2E1", "twitter": "None", "instagram": "None", "facebook": "None", "youtube": "None", "website": "None", "summary": "None", "logo": "None", "latitude": 43.68553315072984, "longitude": -79.3757279222978}, "868030131RR0001": {"name": "THE SCOTT ISLAND FOUNDATION", "designationCode": "B", "categoryCode": "03", "address": "FACULTY OF LAW, UNIVERSITY OF OTTAWA, 57 LOUIS PASTEUR ST.", "city": "OTTAWA", "province": "ON", "country": "CA", "postalCode": "K1N6N5", "twitter": "None", "instagram": "None", "facebook": "None", "youtube": "None", "website": "None", "summary": "None", "logo": "None", "latitude": 45.42306000000005, "longitude": -75.68094499999994}, "107963613RR0001": {"name": "THE SCOTT MISSION", "designationCode": "C", "categoryCode": "39", "address": "502 SPADINA AVE", "city": "TORONTO", "province": "ON", "country": "CA", "postalCode": "M5S2H1", "twitter": "None", "instagram": "None", "facebook": "None", "youtube": "None", "website": "None", "summary": "None", "logo": "None", "latitude": 43.65871198972821, "longitude": -79.40050545547909}, "860402536RR0001": {"name": "THE SCOTT REID FOUNDATION / SCHOLARSHIP FUND", "designationCode": "B", "categoryCode": "25", "address": "44 WILLOW POINT RD", "city": "BRIGHTON", "province": "ON", "country": "CA", "postalCode": "K0K1H0", "twitter": "None", "instagram": "None", "facebook": "None", "youtube": "None", "website": "None", "summary": "None", "logo": "None", "latitude": 44.033080971255146, "longitude": -77.68017132901504}, "857023634RR0001": {"name": "THE SCOTT YOUNG FOUNDATION", "designationCode": "B", "categoryCode": "03", "address": "2116 BELLWOOD AVENUE", "city": "BURLINGTON", "province": "ON", "country": "CA", "postalCode": "L7R1R1", "twitter": "None", "instagram": "None", "facebook": "None", "youtube": "None", "website": "None", "summary": "None", "logo": "None", "latitude": 43.33223202386178, "longitude": -79.79942245377698}, "869329672RR0001": {"name": "THE SCOTTISH BORDERERS FOUNDATION", "designationCode": "C", "categoryCode": "50", "address": "585 BRUNELLE CRESCENT", "city": "TECUMSEH", "province": "ON", "country": "CA", "postalCode": "N8N4H8", "twitter": "None", "instagram": "None", "facebook": "None", "youtube": "None", "website": "None", "summary": "None", "logo": "None", "latitude": 42.31659346807212, "longitude": -82.86979810540541}, "119253466RR0001": {"name": "THE SCOTTISH RITE CHARITABLE FOUNDATION OF CANADA", "designationCode": "A", "categoryCode": "03", "address": "4 QUEEN ST. S.", "city": "HAMILTON", "province": "ON", "country": "CA", "postalCode": "L8P3R3", "twitter": "None", "instagram": "None", "facebook": "None", "youtube": "None", "website": "None", "summary": "None", "logo": "None", "latitude": 43.258968994460076, "longitude": -79.87895550129808}, "119253474RR0001": {"name": "THE SCOTTISH RITE CLUB OF VICTORIA DISTRICT ENDOWMENT FUND", "designationCode": "A", "categoryCode": "65", "address": "P.O. BOX 444", "city": "FENELON FALLS", "province": "ON", "country": "CA", "postalCode": "K0M1N0", "twitter": "None", "instagram": "None", "facebook": "None", "youtube": "None", "website": "None", "summary": "None", "logo": "None", "latitude": 44.53758000000005, "longitude": -78.73584999999997}, "119253490RR0001": {"name": "THE SCOTTISH STUDIES FOUNDATION INC.", "designationCode": "C", "categoryCode": "21", "address": "6 GOOD LANE", "city": "AJAX", "province": "ON", "country": "CA", "postalCode": "L1Z0E8", "twitter": "None", "instagram": "None", "facebook": "None", "youtube": "None", "website": "None", "summary": "None", "logo": "None", "latitude": 43.89725632945801, "longitude": -79.0158923369494}, "890817745RR0001": {"name": "THE SCOWEN FOUNDATION", "designationCode": "B", "categoryCode": "03", "address": "5 THORNTON AVE.", "city": "LONDON", "province": "ON", "country": "CA", "postalCode": "N5Y2Y1", "twitter": "None", "instagram": "None", "facebook": "None", "youtube": "None", "website": "None", "summary": "None", "logo": "None", "latitude": 42.99876112155927, "longitude": -81.24445163838058}, "119253532RR0001": {"name": "THE SEA HAWKS TORONTO (YOUTH SAILING CLUB)", "designationCode": "C", "categoryCode": "29", "address": "1095 STRATHY AVE              UNIT 23", "city": "MISSISSAUGA", "province": "ON", "country": "CA", "postalCode": "L5E2K1", "twitter": "None", "instagram": "None", "facebook": "None", "youtube": "None", "website": "None", "summary": "None", "logo": "None", "latitude": 43.57979075607337, "longitude": -79.56089742763618}, "890876766RR0001": {"name": "THE SEAFORTH HIGHLANDER CADETS OF CANADA", "designationCode": "C", "categoryCode": "29", "address": "904 - 1485 DUCHESS AVE", "city": "WEST VANCOUVER", "province": "BC", "country": "CA", "postalCode": "V7T1H7", "twitter": "None", "instagram": "None", "facebook": "None", "youtube": "None", "website": "None", "summary": "None", "logo": "None", "latitude": 49.32969546047074, "longitude": -123.15603213918865}, "871987012RR0001": {"name": "THE SEAFORTH HIGHLANDERS OF CANADA FOUNDATION", "designationCode": "A", "categoryCode": "03", "address": "904 - 1485 DUCHESS AVE", "city": "WEST VANCOUVER", "province": "BC", "country": "CA", "postalCode": "V7T1H7", "twitter": "None", "instagram": "None", "facebook": "None", "youtube": "None", "website": "None", "summary": "None", "logo": "None", "latitude": 49.32969546047074, "longitude": -123.15603213918865}, "886169994RR0001": {"name": "THE SEAGULL FOUNDATION", "designationCode": "B", "categoryCode": "59", "address": "P.O. BOX 108", "city": "PUGWASH", "province": "NS", "country": "CA", "postalCode": "B0K1L0", "twitter": "None", "instagram": "None", "facebook": "None", "youtube": "None", "website": "None", "summary": "None", "logo": "None", "latitude": 45.80128373751312, "longitude": -63.63643739508734}, "898145412RR0001": {"name": "THE SEASIDE CEMETERY CLUB", "designationCode": "C", "categoryCode": "59", "address": "1468 HIGHWAY 330              RR 1", "city": "CLARKS HARBOUR", "province": "NS", "country": "CA", "postalCode": "B0W1P0", "twitter": "None", "instagram": "None", "facebook": "None", "youtube": "None", "website": "None", "summary": "None", "logo": "None", "latitude": 43.47358020191097, "longitude": -65.61668143997689}, "119253557RR0001": {"name": "THE SEASIDE CEMETERY COMMITTEE", "designationCode": "C", "categoryCode": "59", "address": "15 MOSHER RD", "city": "KINGSBURG", "province": "NS", "country": "CA", "postalCode": "B0J2X0", "twitter": "None", "instagram": "None", "facebook": "None", "youtube": "None", "website": "None", "summary": "None", "logo": "None", "latitude": 44.27713687953726, "longitude": -64.26105861936622}, "886994391RR0001": {"name": "THE SEASTED FOUNDATION", "designationCode": "B", "categoryCode": "01", "address": "200-1137 YATES STREET", "city": "VICTORIA", "province": "BC", "country": "CA", "postalCode": "V8V3N1", "twitter": "None", "instagram": "None", "facebook": "None", "youtube": "None", "website": "None", "summary": "None", "logo": "None", "latitude": 48.42493758670456, "longitude": -123.35235319331751}, "861274132RR0001": {"name": "THE SEAWAY WINDS", "designationCode": "C", "categoryCode": "22", "address": "56 SANTA CRUZ DR.             PO BOX 396", "city": "INGLESIDE", "province": "ON", "country": "CA", "postalCode": "K0C1M0", "twitter": "None", "instagram": "None", "facebook": "None", "youtube": "None", "website": "None", "summary": "None", "logo": "None", "latitude": 44.997881385509864, "longitude": -74.98224228420567}, "863677761RR0001": {"name": "THE SEBASTOPOL HERITAGE AND HISTORIC SOCIETY", "designationCode": "C", "categoryCode": "50", "address": "6723 OPEONGORD.               RR#2", "city": "EGANVILLE", "province": "ON", "country": "CA", "postalCode": "K0J1T0", "twitter": "None", "instagram": "None", "facebook": "None", "youtube": "None", "website": "None", "summary": "None", "logo": "None", "latitude": 45.43115520520332, "longitude": -77.28984932238143}, "894211150RR0001": {"name": "THE SECOND ADAMS CHARITABLE FOUNDATION INC.", "designationCode": "B", "categoryCode": "43", "address": "2641 ALBERT ST NORTH          P.O.BOX 26028", "city": "REGINA", "province": "SK", "country": "CA", "postalCode": "S4R8R7", "twitter": "None", "instagram": "None", "facebook": "None", "youtube": "None", "website": "None", "summary": "None", "logo": "None", "latitude": 50.49274029510659, "longitude": -104.61816}, "119253573RR0001": {"name": "THE SECOND MILE CLUB OF TORONTO", "designationCode": "C", "categoryCode": "09", "address": "45 BRUNSWICK AVE", "city": "TORONTO", "province": "ON", "country": "CA", "postalCode": "M5S3M3", "twitter": "None", "instagram": "None", "facebook": "None", "youtube": "None", "website": "None", "summary": "None", "logo": "None", "latitude": 43.65872663641868, "longitude": -79.40454859697635}, "894464148RR0001": {"name": "THE SECOND STORY ART SOCIETY", "designationCode": "C", "categoryCode": "22", "address": "2009 10 AVE SW", "city": "CALGARY", "province": "AB", "country": "CA", "postalCode": "T3C0K4", "twitter": "None", "instagram": "None", "facebook": "None", "youtube": "None", "website": "None", "summary": "None", "logo": "None", "latitude": 51.04448154674262, "longitude": -114.10718263780367}, "837475961RR0001": {"name": "THE SECRET HANDSHAKE SCHIZOPHRENIA PEER SUPPORT GROUP / NETWORK", "designationCode": "C", "categoryCode": "11", "address": "60 HOMEWOOD AVENUE            APT. 219", "city": "TORONTO", "province": "ON", "country": "CA", "postalCode": "M4Y2X4", "twitter": "None", "instagram": "None", "facebook": "None", "youtube": "None", "website": "None", "summary": "None", "logo": "None", "latitude": 43.664452260892155, "longitude": -79.37501593756124}, "866583313RR0001": {"name": "THE SECRETS OF RADAR MUSEUM", "designationCode": "C", "categoryCode": "50", "address": "PO BOX 24033", "city": "LONDON", "province": "ON", "country": "CA", "postalCode": "N6H5C4", "twitter": "None", "instagram": "None", "facebook": "None", "youtube": "None", "website": "None", "summary": "None", "logo": "None", "latitude": 42.98689500000006, "longitude": -81.24624349999993}, "119253607RR0001": {"name": "THE SECULAR FRANCISCANS OF EASTERN CANADA / LES FRANCISCAINS SECULIERS DE L'EST DU CANADA", "designationCode": "C", "categoryCode": "49", "address": "6 LEEMAN ST.", "city": "FOREST CITY", "province": "NB", "country": "CA", "postalCode": "E6H1M8", "twitter": "None", "instagram": "None", "facebook": "None", "youtube": "None", "website": "None", "summary": "None", "logo": "None", "latitude": 45.663951451093, "longitude": -67.7293312939292}, "130570732RR0001": {"name": "THE SEDGEWICK AND DISTRICT AGRICULTURAL SOCIETY", "designationCode": "C", "categoryCode": "56", "address": "BOX 8", "city": "SEDGEWICK", "province": "AB", "country": "CA", "postalCode": "T0B4C0", "twitter": "None", "instagram": "None", "facebook": "None", "youtube": "None", "website": "None", "summary": "None", "logo": "None", "latitude": 52.766850000000034, "longitude": -111.68503999999996}, "892523366RR0001": {"name": "THE SEED FOUNDATION", "designationCode": "B", "categoryCode": "23", "address": "130 KING ST. W. 20TH FL,      PO BOX 430 STN 1ST CANADIAN PL", "city": "TORONTO", "province": "ON", "country": "CA", "postalCode": "M5X1K1", "twitter": "None", "instagram": "None", "facebook": "None", "youtube": "None", "website": "None", "summary": "None", "logo": "None", "latitude": 43.64826932503962, "longitude": -79.38190945606182}}