{"867228975RR0001": {"name": "THE ROSEGLEN CEMETERY COMPANY", "designationCode": "C", "categoryCode": "59", "address": "RR #2", "city": "BARRHEAD", "province": "AB", "country": "CA", "postalCode": "T7N1N3", "twitter": "None", "instagram": "None", "facebook": "None", "youtube": "None", "website": "None", "summary": "None", "logo": "None", "latitude": 54.12098400000005, "longitude": -114.40600999999992}, "860244441RR0001": {"name": "THE ROSEMARY KOREN MEMORIAL FUND", "designationCode": "B", "categoryCode": "03", "address": "1587 THOMPSON ST", "city": "MISSISSAUGA", "province": "ON", "country": "CA", "postalCode": "L5C1B4", "twitter": "None", "instagram": "None", "facebook": "None", "youtube": "None", "website": "None", "summary": "None", "logo": "None", "latitude": 43.543739754111485, "longitude": -79.65107969903032}, "132552480RR0001": {"name": "THE ROSEMONT DISTRICT FIRE DEPARTMENT ASSOCIATION", "designationCode": "C", "categoryCode": "59", "address": "9044 HIGHWAY 89", "city": "ALLISTON", "province": "ON", "country": "CA", "postalCode": "L9R1V1", "twitter": "None", "instagram": "None", "facebook": "None", "youtube": "None", "website": "None", "summary": "None", "logo": "None", "latitude": 44.127139806000685, "longitude": -79.9778371095011}, "118856921RR0001": {"name": "THE ROSETOWN ALLIANCE CHURCH OF THE CHRISTIAN AND MISSIONARY ALLIANCE", "designationCode": "C", "categoryCode": "39", "address": "BOX 964", "city": "ROSETOWN", "province": "SK", "country": "CA", "postalCode": "S0L2V0", "twitter": "None", "instagram": "None", "facebook": "None", "youtube": "None", "website": "None", "summary": "None", "logo": "None", "latitude": 51.16386860615565, "longitude": -106.82425899521579}, "888310265RR0001": {"name": "THE ROSS AND DORIS DIXON CHARITABLE FOUNDATION", "designationCode": "B", "categoryCode": "03", "address": "PO BOX 127,145 MAIN ST. EAST", "city": "LISTOWEL", "province": "ON", "country": "CA", "postalCode": "N4W3H2", "twitter": "None", "instagram": "None", "facebook": "None", "youtube": "None", "website": "None", "summary": "None", "logo": "None", "latitude": 43.731308011977305, "longitude": -80.95238315673994}, "119124121RR0001": {"name": "THE ROSS MEMORIAL HOSPITAL FOUNDATION", "designationCode": "A", "categoryCode": "13", "address": "10 ANGELINE STREET NORTH", "city": "LINDSAY", "province": "ON", "country": "CA", "postalCode": "K9V4M8", "twitter": "None", "instagram": "None", "facebook": "None", "youtube": "None", "website": "None", "summary": "None", "logo": "None", "latitude": 44.35229352034866, "longitude": -78.7515457949539}, "862410529RR0001": {"name": "THE ROSS MITCHELL FAMILY FOUNDATION", "designationCode": "B", "categoryCode": "03", "address": "68 COMPASS WAY", "city": "MISSISSAUGA", "province": "ON", "country": "CA", "postalCode": "L5G4T8", "twitter": "None", "instagram": "None", "facebook": "None", "youtube": "None", "website": "None", "summary": "None", "logo": "None", "latitude": 43.55496886427382, "longitude": -79.57960797224307}, "866738958RR0001": {"name": "THE ROSS W MCNEIL FOUNDATION", "designationCode": "B", "categoryCode": "03", "address": "226 MAIN STREET", "city": "KINGSTON", "province": "ON", "country": "CA", "postalCode": "K7K5S6", "twitter": "None", "instagram": "None", "facebook": "None", "youtube": "None", "website": "None", "summary": "None", "logo": "None", "latitude": 44.240719620318536, "longitude": -76.46326711515398}, "890826043RR0001": {"name": "THE ROSSBURN FOUNDATION INC", "designationCode": "C", "categoryCode": "55", "address": "PO BOX 94", "city": "ROSSBURN", "province": "MB", "country": "CA", "postalCode": "R0J1V0", "twitter": "None", "instagram": "None", "facebook": "None", "youtube": "None", "website": "None", "summary": "None", "logo": "None", "latitude": 50.66896200000005, "longitude": -100.81081249999994}, "130748437RR0001": {"name": "THE ROSSLAND LIGHT OPERA PLAYERS", "designationCode": "C", "categoryCode": "22", "address": "2054 WASHINGTON ST.-BOX 97", "city": "ROSSLAND", "province": "BC", "country": "CA", "postalCode": "V0G1Y0", "twitter": "None", "instagram": "None", "facebook": "None", "youtube": "None", "website": "None", "summary": "None", "logo": "None", "latitude": 49.07730197629971, "longitude": -117.80013560988986}, "888845591RR0001": {"name": "THE ROTARY CLUB OF ARNPRIOR, CHARITABLE TRUST", "designationCode": "C", "categoryCode": "65", "address": "BOX 481", "city": "ARNPRIOR", "province": "ON", "country": "CA", "postalCode": "K7S3L9", "twitter": "None", "instagram": "None", "facebook": "None", "youtube": "None", "website": "None", "summary": "None", "logo": "None", "latitude": 45.43563300000005, "longitude": -76.35842449999993}, "860197466RR0001": {"name": "THE ROTARY CLUB OF BARRIE CHARITABLE FOUNDATION", "designationCode": "A", "categoryCode": "63", "address": "121 ANNE ST S", "city": "BARRIE", "province": "ON", "country": "CA", "postalCode": "L4N7B6", "twitter": "None", "instagram": "None", "facebook": "None", "youtube": "None", "website": "None", "summary": "None", "logo": "None", "latitude": 44.37466429392919, "longitude": -79.69850869190387}, "119124394RR0001": {"name": "THE ROTARY CLUB OF BARRIE CHARITABLE TRUST", "designationCode": "A", "categoryCode": "65", "address": "P.O. BOX 272", "city": "BARRIE", "province": "ON", "country": "CA", "postalCode": "L4M2T2", "twitter": "None", "instagram": "None", "facebook": "None", "youtube": "None", "website": "None", "summary": "None", "logo": "None", "latitude": 44.40120900000005, "longitude": -79.69375249999993}, "869262634RR0001": {"name": "THE ROTARY CLUB OF BRAMPTON-HEART LAKE CHARITABLE FOUNDATION", "designationCode": "A", "categoryCode": "63", "address": "24 OLDHAM CRESCENT", "city": "BRAMPTON", "province": "ON", "country": "CA", "postalCode": "L6Z1W3", "twitter": "None", "instagram": "None", "facebook": "None", "youtube": "None", "website": "None", "summary": "None", "logo": "None", "latitude": 43.73356302943037, "longitude": -79.80995001056024}, "886548999RR0001": {"name": "THE ROTARY CLUB OF BURLINGTON CENTRAL TRUST FUND", "designationCode": "C", "categoryCode": "65", "address": "4380 SOUTH SERVICE RD. UNIT 15", "city": "BURLINGTON", "province": "ON", "country": "CA", "postalCode": "L7L5Y6", "twitter": "None", "instagram": "None", "facebook": "None", "youtube": "None", "website": "None", "summary": "None", "logo": "None", "latitude": 43.37524002911324, "longitude": -79.77758312401212}, "886551795RR0001": {"name": "THE ROTARY CLUB OF BURLINGTON-LAKESHORE CHARITABLE FOUNDATION", "designationCode": "C", "categoryCode": "21", "address": "BOX 85103                     RPO BRANT PLAZA", "city": "BURLINGTON", "province": "ON", "country": "CA", "postalCode": "L7R4K3", "twitter": "None", "instagram": "None", "facebook": "None", "youtube": "None", "website": "None", "summary": "None", "logo": "None", "latitude": 43.33391234479427, "longitude": -79.80987351719138}, "888546595RR0001": {"name": "THE ROTARY CLUB OF BURLINGTON-LAKESHORE TRUST FUND", "designationCode": "C", "categoryCode": "65", "address": "PO BOX 85103 BRANT PLAZA", "city": "BURLINGTON", "province": "ON", "country": "CA", "postalCode": "L7R4K3", "twitter": "None", "instagram": "None", "facebook": "None", "youtube": "None", "website": "None", "summary": "None", "logo": "None", "latitude": 43.33391234479427, "longitude": -79.80987351719138}, "119124501RR0001": {"name": "THE ROTARY CLUB OF CALGARY - COMMUNITY SERVICE FUND", "designationCode": "A", "categoryCode": "65", "address": "305 - 105 12 AVE SE", "city": "CALGARY", "province": "AB", "country": "CA", "postalCode": "T2G1A1", "twitter": "None", "instagram": "None", "facebook": "None", "youtube": "None", "website": "None", "summary": "None", "logo": "None", "latitude": 51.04136053621104, "longitude": -114.06274186372553}, "898168729RR0001": {"name": "THE ROTARY CLUB OF CAMBRIDGE-SUNRISE CHARITABLE FUND", "designationCode": "A", "categoryCode": "03", "address": "18 THOMAS STREET", "city": "CAMBRIDGE", "province": "ON", "country": "CA", "postalCode": "N3C1L3", "twitter": "None", "instagram": "None", "facebook": "None", "youtube": "None", "website": "None", "summary": "None", "logo": "None", "latitude": 43.42536071438067, "longitude": -80.30789885330952}, "897985362RR0001": {"name": "THE ROTARY CLUB OF CHARLOTTETOWN FOUNDATION LTD.", "designationCode": "A", "categoryCode": "63", "address": "BOX 608", "city": "CHARLOTTETOWN", "province": "PE", "country": "CA", "postalCode": "C1A7L3", "twitter": "None", "instagram": "None", "facebook": "None", "youtube": "None", "website": "None", "summary": "None", "logo": "None", "latitude": 46.23659700000006, "longitude": -63.12815449999994}, "119124675RR0001": {"name": "THE ROTARY CLUB OF EAST YORK CHARITABLE TRUST", "designationCode": "C", "categoryCode": "65", "address": "18 EGLINTON SQUARE, BOX 51019", "city": "SCARBOROUGH", "province": "ON", "country": "CA", "postalCode": "M1L4T2", "twitter": "None", "instagram": "None", "facebook": "None", "youtube": "None", "website": "None", "summary": "None", "logo": "None", "latitude": 43.72388703302387, "longitude": -79.30108809366261}, "880835251RR0001": {"name": "THE ROTARY CLUB OF EDMONTON RIVERVIEW", "designationCode": "A", "categoryCode": "65", "address": "#1300, 10020 101A AVENUE", "city": "EDMONTON", "province": "AB", "country": "CA", "postalCode": "T5J3G2", "twitter": "None", "instagram": "None", "facebook": "None", "youtube": "None", "website": "None", "summary": "None", "logo": "None", "latitude": 53.542202467684106, "longitude": -113.49189605551385}, "874441926RR0001": {"name": "THE ROTARY CLUB OF FESTIVAL CITY STRATFORD FOUNDATION", "designationCode": "C", "categoryCode": "03", "address": "234 HUNTINGDON AVENUE", "city": "STRATFORD", "province": "ON", "country": "CA", "postalCode": "N5A7Y9", "twitter": "None", "instagram": "None", "facebook": "None", "youtube": "None", "website": "None", "summary": "None", "logo": "None", "latitude": 43.37894472551784, "longitude": -80.99414834765403}, "890974942RR0001": {"name": "THE ROTARY CLUB OF FONTHILL, ONTARIO, CANADA", "designationCode": "A", "categoryCode": "63", "address": "27 FERN GATE", "city": "FONTHILL", "province": "ON", "country": "CA", "postalCode": "L0S1E4", "twitter": "None", "instagram": "None", "facebook": "None", "youtube": "None", "website": "None", "summary": "None", "logo": "None", "latitude": 43.02556258673323, "longitude": -79.29338545902844}, "119124808RR0001": {"name": "THE ROTARY CLUB OF GRAND MANAN MEMORIAL TRUST FOUNDATION", "designationCode": "C", "categoryCode": "65", "address": "2199 ROUTE 776", "city": "GRAND MANAN", "province": "NB", "country": "CA", "postalCode": "E5G3H7", "twitter": "None", "instagram": "None", "facebook": "None", "youtube": "None", "website": "None", "summary": "None", "logo": "None", "latitude": 44.62771824712673, "longitude": -66.85752629933478}, "119124915RR0001": {"name": "THE ROTARY CLUB OF HUNTSVILLE CHARITABLE TRUST", "designationCode": "A", "categoryCode": "65", "address": "P.O. BOX 5174", "city": "HUNTSVILLE", "province": "ON", "country": "CA", "postalCode": "P1H2K6", "twitter": "None", "instagram": "None", "facebook": "None", "youtube": "None", "website": "None", "summary": "None", "logo": "None", "latitude": 45.326544000000055, "longitude": -79.21800349999994}, "869438903RR0001": {"name": "THE ROTARY CLUB OF IQALUIT CHARITABLE SOCIETY", "designationCode": "C", "categoryCode": "63", "address": "PO BOX 535", "city": "IQALUIT", "province": "NU", "country": "CA", "postalCode": "X0A0H0", "twitter": "None", "instagram": "None", "facebook": "None", "youtube": "None", "website": "None", "summary": "None", "logo": "None", "latitude": 62.81090700000006, "longitude": -92.08155949999994}, "119124980RR0001": {"name": "THE ROTARY CLUB OF LONDON FOUNDATION", "designationCode": "A", "categoryCode": "63", "address": "PO BOX 29056                  RPO WESTMOUNT MALL", "city": "LONDON", "province": "ON", "country": "CA", "postalCode": "N6K4L9", "twitter": "None", "instagram": "None", "facebook": "None", "youtube": "None", "website": "None", "summary": "None", "logo": "None", "latitude": 42.93808062395493, "longitude": -81.3027692045424}, "887743706RR0001": {"name": "THE ROTARY CLUB OF LUNENBURG CHARITABLE TRUST", "designationCode": "A", "categoryCode": "65", "address": "BOX 1598", "city": "LUNENBURG", "province": "NS", "country": "CA", "postalCode": "B0J2C0", "twitter": "None", "instagram": "None", "facebook": "None", "youtube": "None", "website": "None", "summary": "None", "logo": "None", "latitude": 44.37886006217898, "longitude": -64.31792993782098}, "868922691RR0001": {"name": "THE ROTARY CLUB OF NORFOLK SUNRISE FUND", "designationCode": "A", "categoryCode": "53", "address": "PO BOX 31", "city": "SIMCOE", "province": "ON", "country": "CA", "postalCode": "N3Y4K8", "twitter": "None", "instagram": "None", "facebook": "None", "youtube": "None", "website": "None", "summary": "None", "logo": "None", "latitude": 42.83590200000006, "longitude": -80.30531149999993}, "804966422RR0001": {"name": "THE ROTARY CLUB OF OAK BAY FOUNDATION", "designationCode": "A", "categoryCode": "03", "address": "210 - 2187 OAK BAY AVE", "city": "VICTORIA", "province": "BC", "country": "CA", "postalCode": "V8R1G1", "twitter": "None", "instagram": "None", "facebook": "None", "youtube": "None", "website": "None", "summary": "None", "logo": "None", "latitude": 48.42648550288554, "longitude": -123.316371}, "897450805RR0001": {"name": "THE ROTARY CLUB OF PARKSVILLE COMMUNITY FOUNDATION", "designationCode": "C", "categoryCode": "63", "address": "P.O. BOX 598", "city": "PARKSVILLE", "province": "BC", "country": "CA", "postalCode": "V9P2G6", "twitter": "None", "instagram": "None", "facebook": "None", "youtube": "None", "website": "None", "summary": "None", "logo": "None", "latitude": 49.31968200000006, "longitude": -124.31365099999994}, "852828169RR0001": {"name": "THE ROTARY CLUB OF PEMBROKE FOUNDATION", "designationCode": "A", "categoryCode": "03", "address": "300 DICKSON STREET", "city": "PEMBROKE", "province": "ON", "country": "CA", "postalCode": "K8A2X5", "twitter": "None", "instagram": "None", "facebook": "None", "youtube": "None", "website": "None", "summary": "None", "logo": "None", "latitude": 45.82216952120741, "longitude": -77.10556299861503}, "886285196RR0001": {"name": "THE ROTARY CLUB OF PORT PERRY, ONTARIO CHARITABLE TRUST", "designationCode": "A", "categoryCode": "09", "address": "BOX 711", "city": "PORT PERRY", "province": "ON", "country": "CA", "postalCode": "L9L1A6", "twitter": "None", "instagram": "None", "facebook": "None", "youtube": "None", "website": "None", "summary": "None", "logo": "None", "latitude": 44.10681900000006, "longitude": -78.94273399999993}, "119252914RR0001": {"name": "THE ROTARY CLUB OF SAANICH FOUNDATION", "designationCode": "C", "categoryCode": "63", "address": "101-4090 SHELBOURNE ST", "city": "VICTORIA", "province": "BC", "country": "CA", "postalCode": "V8N4P6", "twitter": "None", "instagram": "None", "facebook": "None", "youtube": "None", "website": "None", "summary": "None", "logo": "None", "latitude": 48.476767416319895, "longitude": -123.33327406305288}, "892821364RR0001": {"name": "THE ROTARY CLUB OF SARNIA - BLUEWATERLAND CHARITABLE TRUST FUND", "designationCode": "A", "categoryCode": "65", "address": "P.O.BOX 401", "city": "SARNIA", "province": "ON", "country": "CA", "postalCode": "N7T7J2", "twitter": "None", "instagram": "None", "facebook": "None", "youtube": "None", "website": "None", "summary": "None", "logo": "None", "latitude": 42.97877700000005, "longitude": -82.40368399999993}, "119125334RR0001": {"name": "THE ROTARY CLUB OF SCARBOROUGH CHARITABLE FOUNDATION", "designationCode": "A", "categoryCode": "63", "address": "P.O. BOX 386                  STATION A", "city": "SCARBOROUGH", "province": "ON", "country": "CA", "postalCode": "M1K5C3", "twitter": "None", "instagram": "None", "facebook": "None", "youtube": "None", "website": "None", "summary": "None", "logo": "None", "latitude": 43.72579500000006, "longitude": -79.26285049999993}, "119125342RR0001": {"name": "THE ROTARY CLUB OF SELKIRK CHARITABLE TRUST", "designationCode": "C", "categoryCode": "99", "address": "PO BOX 182 STN MAIN", "city": "SELKIRK", "province": "MB", "country": "CA", "postalCode": "R1A2B2", "twitter": "None", "instagram": "None", "facebook": "None", "youtube": "None", "website": "None", "summary": "None", "logo": "None", "latitude": 50.126263301544775, "longitude": -96.89946750364722}, "119125391RR0001": {"name": "THE ROTARY CLUB OF SOUTH OTTAWA (SERVICE FUND) INC.", "designationCode": "C", "categoryCode": "63", "address": "1029 DAZE ST", "city": "OTTAWA", "province": "ON", "country": "CA", "postalCode": "K1V2G3", "twitter": "None", "instagram": "None", "facebook": "None", "youtube": "None", "website": "None", "summary": "None", "logo": "None", "latitude": 45.35304004469382, "longitude": -75.6522597811186}, "861546323RR0001": {"name": "THE ROTARY CLUB OF ST.ALBERT MUSIC FESTIVAL ASSOCIATION", "designationCode": "C", "categoryCode": "22", "address": "43 PATTERSON CRES", "city": "ST ALBERT", "province": "AB", "country": "CA", "postalCode": "T8N4T9", "twitter": "None", "instagram": "None", "facebook": "None", "youtube": "None", "website": "None", "summary": "None", "logo": "None", "latitude": 53.63664822814357, "longitude": -113.57912713243664}, "885196022RR0001": {"name": "THE ROTARY CLUB OF STONEY CREEK FUND", "designationCode": "A", "categoryCode": "63", "address": "P.O. BOX 66655", "city": "STONEY CREEK", "province": "ON", "country": "CA", "postalCode": "L8G5E6", "twitter": "None", "instagram": "None", "facebook": "None", "youtube": "None", "website": "None", "summary": "None", "logo": "None", "latitude": 43.20879000000005, "longitude": -79.65669049999994}, "119125433RR0001": {"name": "THE ROTARY CLUB OF STRATFORD CHARITABLE FOUNDATION", "designationCode": "A", "categoryCode": "63", "address": "BOX 21135", "city": "STRATORD", "province": "ON", "country": "CA", "postalCode": "N5A7V4", "twitter": "None", "instagram": "None", "facebook": "None", "youtube": "None", "website": "None", "summary": "None", "logo": "None", "latitude": 43.37013300000005, "longitude": -80.98191349999993}, "887053791RR0001": {"name": "THE ROTARY CLUB OF SUDBURY CHARITABLE TRUST", "designationCode": "C", "categoryCode": "65", "address": "487 BOUCHARD STREET", "city": "SUDBURY", "province": "ON", "country": "CA", "postalCode": "P3E2K8", "twitter": "None", "instagram": "None", "facebook": "None", "youtube": "None", "website": "None", "summary": "None", "logo": "None", "latitude": 46.46095951399403, "longitude": -81.01274305689883}, "837635879RR0001": {"name": "THE ROTARY CLUB OF SUSSEX CHARITABLE TRUSTS, INC.", "designationCode": "C", "categoryCode": "21", "address": "P.O. BOX 7004", "city": "SUSSEX CORNER", "province": "NB", "country": "CA", "postalCode": "E4E5M3", "twitter": "None", "instagram": "None", "facebook": "None", "youtube": "None", "website": "None", "summary": "None", "logo": "None", "latitude": 45.71285000000006, "longitude": -65.47155999999995}, "119125466RR0001": {"name": "THE ROTARY CLUB OF SYDNEY CHARITABLE TRUST", "designationCode": "C", "categoryCode": "65", "address": "P.O.BOX 693", "city": "SYDNEY", "province": "NS", "country": "CA", "postalCode": "B1P6H7", "twitter": "None", "instagram": "None", "facebook": "None", "youtube": "None", "website": "None", "summary": "None", "logo": "None", "latitude": 46.137372000000056, "longitude": -60.19552249999994}, "132003336RR0001": {"name": "THE ROTARY CLUB OF TORONTO PHILANTHROPIC FUND", "designationCode": "C", "categoryCode": "65", "address": "100 FRONT ST W                ROYAL YORK HOTEL, H-LEVEL", "city": "TORONTO", "province": "ON", "country": "CA", "postalCode": "M5J1E4", "twitter": "None", "instagram": "None", "facebook": "None", "youtube": "None", "website": "None", "summary": "None", "logo": "None", "latitude": 43.64561003000731, "longitude": -79.38129002221697}, "867776569RR0001": {"name": "THE ROTARY CLUB OF TORONTO WEST CHARITY TRUST", "designationCode": "A", "categoryCode": "63", "address": "12 REIGATE RD", "city": "ETOBICOKE", "province": "ON", "country": "CA", "postalCode": "M9A2Y2", "twitter": "None", "instagram": "None", "facebook": "None", "youtube": "None", "website": "None", "summary": "None", "logo": "None", "latitude": 43.66009906691082, "longitude": -79.52145986692818}, "123917809RR0001": {"name": "THE ROTARY CLUB OF WEST OTTAWA (SERVICE FUND) INC.", "designationCode": "C", "categoryCode": "63", "address": "99 - 1568 MERIVALE ROAD       SUITE 250", "city": "NEPEAN", "province": "ON", "country": "CA", "postalCode": "K2G3J9", "twitter": "None", "instagram": "None", "facebook": "None", "youtube": "None", "website": "None", "summary": "None", "logo": "None", "latitude": 45.351826408534926, "longitude": -75.73418209608137}, "891695041RR0001": {"name": "THE ROTARY CLUB OF WOODSTOCK CHARITABLE FOUNDATION", "designationCode": "C", "categoryCode": "63", "address": "P.O. BOX 1615 STATION MAIN", "city": "WOODSTOCK", "province": "ON", "country": "CA", "postalCode": "N4S0A9", "twitter": "None", "instagram": "None", "facebook": "None", "youtube": "None", "website": "None", "summary": "None", "logo": "None", "latitude": 43.12759596637262, "longitude": -80.75020788318157}, "857634398RR0001": {"name": "THE ROTARY CLUBS OF KINGS COUNTY CHARITABLE FOUNDATION", "designationCode": "A", "categoryCode": "03", "address": "14 DUNCAN AVE", "city": "KENTVILLE", "province": "NS", "country": "CA", "postalCode": "B4N1N4", "twitter": "None", "instagram": "None", "facebook": "None", "youtube": "None", "website": "None", "summary": "None", "logo": "None", "latitude": 45.075712684690515, "longitude": -64.52257487619036}, "888284668RR0001": {"name": "THE ROTHFAM FOUNDATION", "designationCode": "B", "categoryCode": "03", "address": "201 BRIDGLAND AVENUE", "city": "TORONTO", "province": "ON", "country": "CA", "postalCode": "M6A1Y7", "twitter": "None", "instagram": "None", "facebook": "None", "youtube": "None", "website": "None", "summary": "None", "logo": "None", "latitude": 43.724679896445465, "longitude": -79.46720435899367}, "872463567RR0001": {"name": "THE ROTHSCHILD CHARITABLE FOUNDATION", "designationCode": "B", "categoryCode": "03", "address": "208 CARMICHAEL AVE", "city": "TORONTO", "province": "ON", "country": "CA", "postalCode": "M2M2X3", "twitter": "None", "instagram": "None", "facebook": "None", "youtube": "None", "website": "None", "summary": "None", "logo": "None", "latitude": 43.73544213240798, "longitude": -79.43015762268445}, "889867370RR0001": {"name": "THE ROTMAN FAMILY FOUNDATION", "designationCode": "B", "categoryCode": "03", "address": "22 ST CLAIR AVE EAST STE 1701", "city": "TORONTO", "province": "ON", "country": "CA", "postalCode": "M4T2S3", "twitter": "None", "instagram": "None", "facebook": "None", "youtube": "None", "website": "None", "summary": "None", "logo": "None", "latitude": 43.68832509965939, "longitude": -79.39305889967677}, "119126068RR0001": {"name": "THE ROUND HILL & DISTRICT AGRICULTURAL SOCIETY", "designationCode": "C", "categoryCode": "56", "address": "9 TOWNSHIP ROAD 484 E         SS 2", "city": "ROUND HILL", "province": "AB", "country": "CA", "postalCode": "T0B3Z0", "twitter": "None", "instagram": "None", "facebook": "None", "youtube": "None", "website": "None", "summary": "None", "logo": "None", "latitude": 53.16324549841347, "longitude": -112.6287416826417}, "879489714RR0001": {"name": "THE ROUND LAKE AND AREA FIRE DEPARTMENT", "designationCode": "C", "categoryCode": "59", "address": "5140 HWY 112", "city": "SWASTIKA", "province": "ON", "country": "CA", "postalCode": "P0K1T0", "twitter": "None", "instagram": "None", "facebook": "None", "youtube": "None", "website": "None", "summary": "None", "logo": "None", "latitude": 48.03742995963466, "longitude": -80.01639493117572}, "896118452RR0001": {"name": "THE ROUNTHWAITE CEMETERY SOCIETY INC.", "designationCode": "C", "categoryCode": "59", "address": "BOX 11  RR #1", "city": "NESBITT", "province": "MB", "country": "CA", "postalCode": "R0K1P0", "twitter": "None", "instagram": "None", "facebook": "None", "youtube": "None", "website": "None", "summary": "None", "logo": "None", "latitude": 49.60104900000006, "longitude": -99.86279299999994}, "119129351RR0001": {"name": "THE ROY DURMAN EVANGELISTIC WORLD OUTREACH INC.", "designationCode": "C", "categoryCode": "39", "address": "PO BOX 57311 STN BLUE MOUNTAIN", "city": "COQUITLAM", "province": "BC", "country": "CA", "postalCode": "V3K0C9", "twitter": "None", "instagram": "None", "facebook": "None", "youtube": "None", "website": "None", "summary": "None", "logo": "None", "latitude": 49.24188149476382, "longitude": -122.87296179692954}, "119253029RR0002": {"name": "THE ROY THOMSON HALL AND MASSEY HALL FOUNDATION", "designationCode": "A", "categoryCode": "23", "address": "60 SIMCOE STREET", "city": "TORONTO", "province": "ON", "country": "CA", "postalCode": "M5J2H5", "twitter": "None", "instagram": "None", "facebook": "None", "youtube": "None", "website": "None", "summary": "None", "logo": "None", "latitude": 43.64680345017032, "longitude": -79.38589550421226}, "897698510RR0001": {"name": "THE ROY WILSON PARKS ENDOWMENT", "designationCode": "B", "categoryCode": "05", "address": "1402 - 1 KING ST W", "city": "HAMILTON", "province": "ON", "country": "CA", "postalCode": "L8P1A4", "twitter": "None", "instagram": "None", "facebook": "None", "youtube": "None", "website": "None", "summary": "None", "logo": "None", "latitude": 43.26019321073324, "longitude": -79.88135629363086}, "119126217RR0001": {"name": "THE ROYAL ALEXANDRA HOSPITAL FOUNDATION", "designationCode": "A", "categoryCode": "13", "address": "10240 KINGSWAY", "city": "EDMONTON", "province": "AB", "country": "CA", "postalCode": "T5H3V9", "twitter": "None", "instagram": "None", "facebook": "None", "youtube": "None", "website": "None", "summary": "None", "logo": "None", "latitude": 53.55590349756441, "longitude": -113.49647609903225}, "119036044RR0001": {"name": "THE ROYAL AND MCPHERSON THEATRES SOCIETY", "designationCode": "C", "categoryCode": "22", "address": "PO BOX 1000", "city": "VICTORIA", "province": "BC", "country": "CA", "postalCode": "V8W2S6", "twitter": "None", "instagram": "None", "facebook": "None", "youtube": "None", "website": "None", "summary": "None", "logo": "None", "latitude": 48.42854700000005, "longitude": -123.36445249999994}, "119126225RR0001": {"name": "THE ROYAL ARCHITECTURAL INSTITUTE OF CANADA FOUNDATION", "designationCode": "C", "categoryCode": "23", "address": "SUITE 330, 55 MURRAY STREET", "city": "OTTAWA", "province": "ON", "country": "CA", "postalCode": "K1N5M3", "twitter": "None", "instagram": "None", "facebook": "None", "youtube": "None", "website": "None", "summary": "None", "logo": "None", "latitude": 45.42937233417961, "longitude": -75.69445119568344}, "119126258RR0001": {"name": "THE ROYAL ASTRONOMICAL SOCIETY OF CANADA - OTTAWA CENTRE/LA SOCIETE ROYALE D'ASTRONOMIE DU CANADA - CENTRE D' OTTAWA", "designationCode": "C", "categoryCode": "21", "address": "1363 WOODROFFE AVE            P.O BOX 33012", "city": "OTTAWA", "province": "ON", "country": "CA", "postalCode": "K2C3Y9", "twitter": "None", "instagram": "None", "facebook": "None", "youtube": "None", "website": "None", "summary": "None", "logo": "None", "latitude": 45.35195277408725, "longitude": -75.76305081435832}, "119126282RR0001": {"name": "THE ROYAL ASTRONOMICAL SOCIETY OF CANADA / LA SOCI\u00c9T\u00c9 ROYALED'ASTRONOMIE DU CANADA", "designationCode": "C", "categoryCode": "21", "address": "4920 DUNDAS STREET WEST       SUITE 203", "city": "TORONTO", "province": "ON", "country": "CA", "postalCode": "M9A1B7", "twitter": "None", "instagram": "None", "facebook": "None", "youtube": "None", "website": "None", "summary": "None", "logo": "None", "latitude": 43.648684287311916, "longitude": -79.52890517795628}, "119126266RR0001": {"name": "THE ROYAL ASTRONOMICAL SOCIETY OF CANADA 1968, HAMILTON CENTRE", "designationCode": "C", "categoryCode": "21", "address": "PO BOX 969", "city": "WATERDOWN", "province": "ON", "country": "CA", "postalCode": "L0R2H0", "twitter": "None", "instagram": "None", "facebook": "None", "youtube": "None", "website": "None", "summary": "None", "logo": "None", "latitude": 43.329109500000015, "longitude": -79.8842655}, "827905720RR0001": {"name": "THE ROYAL ASTRONOMICAL SOCIETY OF CANADA-KINGSTON CENTRE", "designationCode": "C", "categoryCode": "21", "address": "76 COLEBROOK ROAD             RR 1", "city": "YARKER", "province": "ON", "country": "CA", "postalCode": "K0K3N0", "twitter": "None", "instagram": "None", "facebook": "None", "youtube": "None", "website": "None", "summary": "None", "logo": "None", "latitude": 44.37738084901038, "longitude": -76.76413603098916}, "889013595RR0001": {"name": "THE ROYAL ASTRONOMICAL SOCIETY OF CANADA-REGINA CENTRE, INC.", "designationCode": "C", "categoryCode": "21", "address": "RASC REGINA CENTRE INC.       2610 CAMERON STREET", "city": "REGINA", "province": "SK", "country": "CA", "postalCode": "S4T2W4", "twitter": "None", "instagram": "None", "facebook": "None", "youtube": "None", "website": "None", "summary": "None", "logo": "None", "latitude": 50.437764000000016, "longitude": -104.62540517516855}, "119126324RR0001": {"name": "THE ROYAL ASTRONOMICAL SOCIETY OF CANADA, EDMONTON CENTRE", "designationCode": "C", "categoryCode": "21", "address": "788 - 10301 104 ST NW", "city": "EDMONTON", "province": "AB", "country": "CA", "postalCode": "T5J1B9", "twitter": "None", "instagram": "None", "facebook": "None", "youtube": "None", "website": "None", "summary": "None", "logo": "None", "latitude": 53.544825, "longitude": -113.49918528902445}, "119126274RR0001": {"name": "THE ROYAL ASTRONOMICAL SOCIETY OF CANADA, NIAGARA CENTRE", "designationCode": "C", "categoryCode": "21", "address": "4245 PORTAGE RD.", "city": "NIAGARA FALLS", "province": "ON", "country": "CA", "postalCode": "L2E6A2", "twitter": "None", "instagram": "None", "facebook": "None", "youtube": "None", "website": "None", "summary": "None", "logo": "None", "latitude": 43.11195564057363, "longitude": -79.09762831920462}, "852276948RR0001": {"name": "THE ROYAL ASTRONOMICAL SOCIETY OF CANADA, OKANAGAN CENTRE", "designationCode": "C", "categoryCode": "21", "address": "285 TERAI CRT", "city": "KELOWNA", "province": "BC", "country": "CA", "postalCode": "V1X5X6", "twitter": "None", "instagram": "None", "facebook": "None", "youtube": "None", "website": "None", "summary": "None", "logo": "None", "latitude": 49.88647800000001, "longitude": -119.41624787160274}, "889410577RR0001": {"name": "THE ROYAL ASTRONOMICAL SOCIETY OF CANADA, TORONTO CENTRE", "designationCode": "C", "categoryCode": "21", "address": "770 DON MILLS RD", "city": "NORTH YORK", "province": "ON", "country": "CA", "postalCode": "M3C1T3", "twitter": "None", "instagram": "None", "facebook": "None", "youtube": "None", "website": "None", "summary": "None", "logo": "None", "latitude": 43.71659365194194, "longitude": -79.33745643969604}, "856085485RR0001": {"name": "THE ROYAL ASTRONOMICAL SOCIETY OF CANADA, VANCOUVER CENTRE", "designationCode": "C", "categoryCode": "21", "address": "P.O BOX 89608                 9000 UNIVERISTY HIGH STREET", "city": "BURNABY", "province": "BC", "country": "CA", "postalCode": "V5A4X6", "twitter": "None", "instagram": "None", "facebook": "None", "youtube": "None", "website": "None", "summary": "None", "logo": "None", "latitude": 49.27794348929121, "longitude": -122.91068723428002}, "888470648RR0001": {"name": "THE ROYAL CANADIAN COLLEGE OF ORGANISTS EDMONTON CENTRE", "designationCode": "C", "categoryCode": "22", "address": "SOUTHGATE PO BOX 76112", "city": "EDMONTON", "province": "AB", "country": "CA", "postalCode": "T6H5Y7", "twitter": "None", "instagram": "None", "facebook": "None", "youtube": "None", "website": "None", "summary": "None", "logo": "None", "latitude": 53.494935000000055, "longitude": -113.54074099999994}, "119126498RR0001": {"name": "THE ROYAL CANADIAN COLLEGE OF ORGANISTS-OTTAWA CENTRE", "designationCode": "C", "categoryCode": "22", "address": "319 IROQUOIS RD", "city": "OTTAWA", "province": "ON", "country": "CA", "postalCode": "K2A3M3", "twitter": "None", "instagram": "None", "facebook": "None", "youtube": "None", "website": "None", "summary": "None", "logo": "None", "latitude": 45.373872049945284, "longitude": -75.76655894238002}, "136969730RR0001": {"name": "THE ROYAL CANADIAN COLLEGE OF ORGANISTS/LE COLLEGE ROYAL CANADIEN DES ORGANISTES", "designationCode": "C", "categoryCode": "22", "address": "204 ST.GEORGE ST.,SUITE 202", "city": "TORONTO", "province": "ON", "country": "CA", "postalCode": "M5R2N5", "twitter": "None", "instagram": "None", "facebook": "None", "youtube": "None", "website": "None", "summary": "None", "logo": "None", "latitude": 43.67057634802942, "longitude": -79.40111400478918}, "119126514RR0001": {"name": "THE ROYAL CANADIAN DENTAL CORPS ASSOCIATION", "designationCode": "C", "categoryCode": "11", "address": "315 SMYTH RD", "city": "OTTAWA", "province": "ON", "country": "CA", "postalCode": "K1H2J1", "twitter": "None", "instagram": "None", "facebook": "None", "youtube": "None", "website": "None", "summary": "None", "logo": "None", "latitude": 45.39876342772217, "longitude": -75.65697227852152}, "108096371RR0001": {"name": "THE ROYAL CANADIAN GEOGRAPHICAL SOCIETY", "designationCode": "C", "categoryCode": "21", "address": "1155 LOLA ST                  SUITE 200", "city": "OTTAWA", "province": "ON", "country": "CA", "postalCode": "K1K4C1", "twitter": "None", "instagram": "None", "facebook": "None", "youtube": "None", "website": "None", "summary": "None", "logo": "None", "latitude": 45.42229005389772, "longitude": -75.65090964703718}, "119127025RR0001": {"name": "THE ROYAL CANADIAN LEGION (COBOURG ONT.) NO. 133 BRANCH POPPY FUND", "designationCode": "C", "categoryCode": "09", "address": "136 ORR ST", "city": "COBOURG", "province": "ON", "country": "CA", "postalCode": "K9A2S1", "twitter": "None", "instagram": "None", "facebook": "None", "youtube": "None", "website": "None", "summary": "None", "logo": "None", "latitude": 43.95762447157925, "longitude": -78.17080286234055}, "119127116RR0001": {"name": "THE ROYAL CANADIAN LEGION - DALHOUSIE BR. (NB) # 17 BRANCH POPPY FUND", "designationCode": "C", "categoryCode": "09", "address": "P O BOX 5188                  123 RAMSAY STREET", "city": "DALHOUSIE", "province": "NB", "country": "CA", "postalCode": "E8C2G8", "twitter": "None", "instagram": "None", "facebook": "None", "youtube": "None", "website": "None", "summary": "None", "logo": "None", "latitude": 48.064926876767295, "longitude": -66.37649473547249}, "891302143RR0001": {"name": "THE ROYAL CANADIAN LEGION - MONCTON (NB # 6) BRANCH POPPY FUND", "designationCode": "C", "categoryCode": "09", "address": "100 WAR VETERANS AVE", "city": "MONCTON", "province": "NB", "country": "CA", "postalCode": "E1C0B3", "twitter": "None", "instagram": "None", "facebook": "None", "youtube": "None", "website": "None", "summary": "None", "logo": "None", "latitude": 46.09494594033122, "longitude": -64.79970638193183}, "869030742RR0001": {"name": "THE ROYAL CANADIAN LEGION #008 POPPY FUND", "designationCode": "C", "categoryCode": "05", "address": "2290-152 STREET", "city": "SURREY", "province": "BC", "country": "CA", "postalCode": "V4A4N9", "twitter": "None", "instagram": "None", "facebook": "None", "youtube": "None", "website": "None", "summary": "None", "logo": "None", "latitude": 49.043465999999995, "longitude": -122.80120807879871}, "888961992RR0001": {"name": "THE ROYAL CANADIAN LEGION ARTHURETTE (NB BR NO 85) BRANCH POPPY FUND", "designationCode": "C", "categoryCode": "09", "address": "23 LEONARD CROSS RD", "city": "RED RAPIDS", "province": "NB", "country": "CA", "postalCode": "E7H2T2", "twitter": "None", "instagram": "None", "facebook": "None", "youtube": "None", "website": "None", "summary": "None", "logo": "None", "latitude": 46.77926743712855, "longitude": -67.51554401335886}, "889010591RR0001": {"name": "THE ROYAL CANADIAN LEGION BARRHEAD # 75 BRANCH POPPY FUND,", "designationCode": "C", "categoryCode": "09", "address": "BOX 4469 5108-49A STREET", "city": "BARRHEAD", "province": "AB", "country": "CA", "postalCode": "T7N1A3", "twitter": "None", "instagram": "None", "facebook": "None", "youtube": "None", "website": "None", "summary": "None", "logo": "None", "latitude": 54.12009793756125, "longitude": -114.40247642287473}, "119252922RR0001": {"name": "THE ROYAL CANADIAN LEGION BIRCH HILLS BRANCH # 122 POPPY FUND", "designationCode": "C", "categoryCode": "09", "address": "BOX 203", "city": "BIRCH HILLS", "province": "SK", "country": "CA", "postalCode": "S0J0G0", "twitter": "None", "instagram": "None", "facebook": "None", "youtube": "None", "website": "None", "summary": "None", "logo": "None", "latitude": 56.325968466910076, "longitude": -103.2432009425047}, "119126696RR0001": {"name": "THE ROYAL CANADIAN LEGION BLENHEIM (ONT. NO. 185) BRANCH POPPPY FUND", "designationCode": "C", "categoryCode": "09", "address": "11 JOHN STREET WEST", "city": "BLENHEIM", "province": "ON", "country": "CA", "postalCode": "N0P1A0", "twitter": "None", "instagram": "None", "facebook": "None", "youtube": "None", "website": "None", "summary": "None", "logo": "None", "latitude": 42.33443377935826, "longitude": -81.99596012519461}, "892483777RR0001": {"name": "THE ROYAL CANADIAN LEGION BOW ISLAND # 197 BRANCH POPPY FUND", "designationCode": "C", "categoryCode": "05", "address": "BOX 749", "city": "BOW ISLAND", "province": "AB", "country": "CA", "postalCode": "T0K0G0", "twitter": "None", "instagram": "None", "facebook": "None", "youtube": "None", "website": "None", "summary": "None", "logo": "None", "latitude": 49.502780370958696, "longitude": -111.79166408625858}, "119126712RR0001": {"name": "THE ROYAL CANADIAN LEGION BOWMANVILLE (ONT. NO. 178) BRANCH POPPY FUND", "designationCode": "C", "categoryCode": "09", "address": "109 KING ST E PO BOX 116", "city": "BOWMANVILLE", "province": "ON", "country": "CA", "postalCode": "L1C3K8", "twitter": "None", "instagram": "None", "facebook": "None", "youtube": "None", "website": "None", "summary": "None", "logo": "None", "latitude": 43.91113490755396, "longitude": -78.6851401737549}, "887222990RR0001": {"name": "THE ROYAL CANADIAN LEGION BRANCH NO 70 POPPY FUND", "designationCode": "C", "categoryCode": "09", "address": "P.O. BOX 55", "city": "IROQUOIS FALLS", "province": "ON", "country": "CA", "postalCode": "P0K1E0", "twitter": "None", "instagram": "None", "facebook": "None", "youtube": "None", "website": "None", "summary": "None", "logo": "None", "latitude": 48.75883001500371, "longitude": -80.69020006996918}, "119126738RR0001": {"name": "THE ROYAL CANADIAN LEGION BRANCH NO. 296 POPPY FUND", "designationCode": "C", "categoryCode": "09", "address": "P.O. BOX 118, 53 ELORA STREET", "city": "HARRISTON", "province": "ON", "country": "CA", "postalCode": "N0G1Z0", "twitter": "None", "instagram": "None", "facebook": "None", "youtube": "None", "website": "None", "summary": "None", "logo": "None", "latitude": 43.91225468584437, "longitude": -80.86951033302576}, "894045269RR0001": {"name": "THE ROYAL CANADIAN LEGION BRANCH NO. 54 POPPY FUND", "designationCode": "C", "categoryCode": "05", "address": "9912-101 AVE", "city": "GRANDE PRAIRIE", "province": "AB", "country": "CA", "postalCode": "T8V0X8", "twitter": "None", "instagram": "None", "facebook": "None", "youtube": "None", "website": "None", "summary": "None", "logo": "None", "latitude": 55.17161045325739, "longitude": -118.79287233527612}, "891605461RR0001": {"name": "THE ROYAL CANADIAN LEGION BRANCH 176 POPPY FUND", "designationCode": "A", "categoryCode": "05", "address": "58 ALBERT STREET", "city": "FOREST", "province": "ON", "country": "CA", "postalCode": "N0N1J0", "twitter": "None", "instagram": "None", "facebook": "None", "youtube": "None", "website": "None", "summary": "None", "logo": "None", "latitude": 43.10396133384915, "longitude": -81.99748960676082}, "892352576RR0001": {"name": "THE ROYAL CANADIAN LEGION CENTRAL GREENWICH BR (NO 87 NB) BRANCHPOPPY FUND", "designationCode": "C", "categoryCode": "09", "address": "7228 ROUTE 102", "city": "GLENWOOD  KINGS COUNTY", "province": "NB", "country": "CA", "postalCode": "E5M2M6", "twitter": "None", "instagram": "None", "facebook": "None", "youtube": "None", "website": "None", "summary": "None", "logo": "None", "latitude": 45.49591111996875, "longitude": -66.11793702208894}, "119126977RR0001": {"name": "THE ROYAL CANADIAN LEGION CHATHAM POPPY FUND", "designationCode": "C", "categoryCode": "09", "address": "39 WILLIAM ST N", "city": "CHATHAM", "province": "ON", "country": "CA", "postalCode": "N7M4L3", "twitter": "None", "instagram": "None", "facebook": "None", "youtube": "None", "website": "None", "summary": "None", "logo": "None", "latitude": 42.40622024147377, "longitude": -82.18186970436871}, "866823867RR0001": {"name": "THE ROYAL CANADIAN LEGION COLONEL TALBOT (ONT NO 81) BRANCH POPPY FUND", "designationCode": "C", "categoryCode": "09", "address": "211 JOHN STREET NORTH", "city": "AYLMER", "province": "ON", "country": "CA", "postalCode": "N5H2B2", "twitter": "None", "instagram": "None", "facebook": "None", "youtube": "None", "website": "None", "summary": "None", "logo": "None", "latitude": 42.77600330930165, "longitude": -80.98282147401939}, "892349572RR0001": {"name": "THE ROYAL CANADIAN LEGION DOAKTOWN BRANCH (NB NO 23) BRANCH POPPY FUND", "designationCode": "C", "categoryCode": "09", "address": "8 DR HAMILTON DRIVE", "city": "DOAKTON", "province": "NB", "country": "CA", "postalCode": "E9C1B8", "twitter": "None", "instagram": "None", "facebook": "None", "youtube": "None", "website": "None", "summary": "None", "logo": "None", "latitude": 46.55205794281272, "longitude": -66.13901057686547}, "894087469RR0001": {"name": "THE ROYAL CANADIAN LEGION FERGUS (ONT NO. 275) BRANCH POPPY FUND", "designationCode": "C", "categoryCode": "09", "address": "500 BLAIR ST", "city": "FERGUS", "province": "ON", "country": "CA", "postalCode": "N1M1S4", "twitter": "None", "instagram": "None", "facebook": "None", "youtube": "None", "website": "None", "summary": "None", "logo": "None", "latitude": 43.701201003129384, "longitude": -80.38091458631925}, "892779570RR0001": {"name": "THE ROYAL CANADIAN LEGION HAGERSVILLE (ONT NO 164) BRANCH POPPY FUND", "designationCode": "C", "categoryCode": "09", "address": "PO BOX 117", "city": "HAGERSVILLE", "province": "ON", "country": "CA", "postalCode": "N0A1H0", "twitter": "None", "instagram": "None", "facebook": "None", "youtube": "None", "website": "None", "summary": "None", "logo": "None", "latitude": 42.96624567435869, "longitude": -80.04526476987148}, "119127454RR0001": {"name": "THE ROYAL CANADIAN LEGION HALIBURTON (ONT. NO. 129) BRANCH POPPY FUND", "designationCode": "C", "categoryCode": "05", "address": "BOX 129", "city": "HALIBURTON", "province": "ON", "country": "CA", "postalCode": "K0M1S0", "twitter": "None", "instagram": "None", "facebook": "None", "youtube": "None", "website": "None", "summary": "None", "logo": "None", "latitude": 45.24560095765924, "longitude": -78.57868961447684}, "119127462RR0001": {"name": "THE ROYAL CANADIAN LEGION HAMPTON BRANCH NB NO. 28 BRANCH POPPY FUND", "designationCode": "C", "categoryCode": "09", "address": "1 - 808 MAIN ST", "city": "HAMPTON", "province": "NB", "country": "CA", "postalCode": "E5N6E1", "twitter": "None", "instagram": "None", "facebook": "None", "youtube": "None", "website": "None", "summary": "None", "logo": "None", "latitude": 45.53178284373024, "longitude": -65.83194349102722}, "119127496RR0001": {"name": "THE ROYAL CANADIAN LEGION HERMAN J. GOOD VC (NB NO. 18) BRANCH POPPY FUND", "designationCode": "C", "categoryCode": "09", "address": "575 ST. PETER AVENUE", "city": "BATHURST", "province": "NB", "country": "CA", "postalCode": "E2A2Y5", "twitter": "None", "instagram": "None", "facebook": "None", "youtube": "None", "website": "None", "summary": "None", "logo": "None", "latitude": 47.63004109599541, "longitude": -65.6665722132259}}