{"129983169RR0001": {"name": "VANCOUVER KOREAN FULL GOSPEL CHURCH", "designationCode": "C", "categoryCode": "36", "address": "3905 NORLAND AVENUE", "city": "BURNABY", "province": "BC", "country": "CA", "postalCode": "V5E3S6", "twitter": "None", "instagram": "None", "facebook": "None", "youtube": "None", "website": "None", "summary": "None", "logo": "None", "latitude": 49.24932328282071, "longitude": -122.97474403892275}, "108167339RR0001": {"name": "VANCOUVER KOREAN PRESBYTERIAN CHURCH", "designationCode": "C", "categoryCode": "37", "address": "205 10TH AVE W", "city": "VANCOUVER", "province": "BC", "country": "CA", "postalCode": "V5Y1R9", "twitter": "None", "instagram": "None", "facebook": "None", "youtube": "None", "website": "None", "summary": "None", "logo": "None", "latitude": 49.2621935115412, "longitude": -123.1097307485429}, "118818491RR0059": {"name": "VANCOUVER KOREAN SEVENTH-DAY ADVENTIST CHURCH", "designationCode": "C", "categoryCode": "41", "address": "PO 1000", "city": "ABBOTSFORD", "province": "BC", "country": "CA", "postalCode": "V2S4P5", "twitter": "None", "instagram": "None", "facebook": "None", "youtube": "None", "website": "None", "summary": "None", "logo": "None", "latitude": 49.03851300000005, "longitude": -122.29441549999993}, "867057242RR0001": {"name": "VANCOUVER KOREAN-CANADIAN SCHOLARSHIP FOUNDATION", "designationCode": "C", "categoryCode": "21", "address": "UNIT 100                      504 COTTONWOOD AVE", "city": "COQUITLAM", "province": "BC", "country": "CA", "postalCode": "V3J2R5", "twitter": "None", "instagram": "None", "facebook": "None", "youtube": "None", "website": "None", "summary": "None", "logo": "None", "latitude": 49.25887155063777, "longitude": -122.89243397307979}, "888699576RR0001": {"name": "VANCOUVER LEGACY FOUNDATION", "designationCode": "A", "categoryCode": "13", "address": "1250-1500 WEST GEORGIA ST,    BOX 62", "city": "VANCOUVER", "province": "BC", "country": "CA", "postalCode": "V6G2Z6", "twitter": "None", "instagram": "None", "facebook": "None", "youtube": "None", "website": "None", "summary": "None", "logo": "None", "latitude": 49.290187500000016, "longitude": -123.130035}, "865624753RR0001": {"name": "VANCOUVER LIFE CHURCH", "designationCode": "C", "categoryCode": "39", "address": "11565 142 ST", "city": "SURREY", "province": "BC", "country": "CA", "postalCode": "V3R3L2", "twitter": "None", "instagram": "None", "facebook": "None", "youtube": "None", "website": "None", "summary": "None", "logo": "None", "latitude": 49.213161041635395, "longitude": -122.82759022872048}, "893872846RR0001": {"name": "VANCOUVER LIGHT CHURCH", "designationCode": "C", "categoryCode": "39", "address": "217 - 998 HARBOURSIDE DR", "city": "NORTH VANCOUVER", "province": "BC", "country": "CA", "postalCode": "V7P3T2", "twitter": "None", "instagram": "None", "facebook": "None", "youtube": "None", "website": "None", "summary": "None", "logo": "None", "latitude": 49.314624188029335, "longitude": -123.09999944872285}, "108167420RR0001": {"name": "VANCOUVER MANDARIN CHURCH", "designationCode": "C", "categoryCode": "39", "address": "1656 SEMLIN DR", "city": "VANCOUVER", "province": "BC", "country": "CA", "postalCode": "V5L4K6", "twitter": "None", "instagram": "None", "facebook": "None", "youtube": "None", "website": "None", "summary": "None", "logo": "None", "latitude": 49.269813542908416, "longitude": -123.06375571454208}, "119288918RR1327": {"name": "VANCOUVER MANDARIN EAST CONGREGATION OF JEHOVAH'S WITNESSES", "designationCode": "C", "categoryCode": "61", "address": "5977 SUNSET", "city": "BURNABY", "province": "BC", "country": "CA", "postalCode": "V5G4N2", "twitter": "None", "instagram": "None", "facebook": "None", "youtube": "None", "website": "None", "summary": "None", "logo": "None", "latitude": 49.249253044206334, "longitude": -122.97663671983052}, "899303812RR0001": {"name": "VANCOUVER MANMIN CHURCH", "designationCode": "C", "categoryCode": "39", "address": "3263 - 20800 WESTMINSTER HWY", "city": "RICHMOND", "province": "BC", "country": "CA", "postalCode": "V6V2W3", "twitter": "None", "instagram": "None", "facebook": "None", "youtube": "None", "website": "None", "summary": "None", "logo": "None", "latitude": 49.169204259546014, "longitude": -122.99309816403576}, "108167438RR0001": {"name": "VANCOUVER MASONIC SERVICE BUREAU", "designationCode": "C", "categoryCode": "09", "address": "8555 GOVERNMENT ST", "city": "BURNABY", "province": "BC", "country": "CA", "postalCode": "V3N4S9", "twitter": "None", "instagram": "None", "facebook": "None", "youtube": "None", "website": "None", "summary": "None", "logo": "None", "latitude": 49.2508105226497, "longitude": -122.91464177699231}, "892004979RR0001": {"name": "VANCOUVER MENTAL HEALTH SUPPORT SOCIETY", "designationCode": "C", "categoryCode": "09", "address": "4450 GRANVILLE ST", "city": "VANCOUVER", "province": "BC", "country": "CA", "postalCode": "V6H3L8", "twitter": "None", "instagram": "None", "facebook": "None", "youtube": "None", "website": "None", "summary": "None", "logo": "None", "latitude": 49.24595582653356, "longitude": -123.1391784433323}, "874917206RR0001": {"name": "VANCOUVER METROPOLITAN ORCHESTRA", "designationCode": "C", "categoryCode": "22", "address": "239-2416 MAIN STREET", "city": "VANCOUVER", "province": "BC", "country": "CA", "postalCode": "V5T3E2", "twitter": "None", "instagram": "None", "facebook": "None", "youtube": "None", "website": "None", "summary": "None", "logo": "None", "latitude": 49.26360968476619, "longitude": -123.10089177547198}, "893846980RR0001": {"name": "VANCOUVER MILAL METHODIST CHURCH", "designationCode": "C", "categoryCode": "39", "address": "2029 WARE ST", "city": "ABBOTSFORD", "province": "BC", "country": "CA", "postalCode": "V2Y3C3", "twitter": "None", "instagram": "None", "facebook": "None", "youtube": "None", "website": "None", "summary": "None", "logo": "None", "latitude": 49.038768000000005, "longitude": -122.30463245063166}, "108167495RR0001": {"name": "VANCOUVER MONTESSORI SCHOOL SOCIETY", "designationCode": "C", "categoryCode": "20", "address": "8650 BARNARD STREET", "city": "VANCOUVER", "province": "BC", "country": "CA", "postalCode": "V6P5G5", "twitter": "None", "instagram": "None", "facebook": "None", "youtube": "None", "website": "None", "summary": "None", "logo": "None", "latitude": 49.20779671717929, "longitude": -123.1450909871894}, "119281921RR0001": {"name": "VANCOUVER MONTHLY MEETING OF THE RELIGIOUS SOCIETY OF FRIENDS' (QUAKERS),", "designationCode": "C", "categoryCode": "39", "address": "1090 70TH AVE W", "city": "VANCOUVER", "province": "BC", "country": "CA", "postalCode": "V6P2X9", "twitter": "None", "instagram": "None", "facebook": "None", "youtube": "None", "website": "None", "summary": "None", "logo": "None", "latitude": 49.20843150678069, "longitude": -123.1313114701656}, "119159291RR0001": {"name": "VANCOUVER MOVING THEATRE SOCIETY", "designationCode": "C", "categoryCode": "22", "address": "418 MAIN STREET               CHINATOWN PO BOX 88270", "city": "VANCOUVER", "province": "BC", "country": "CA", "postalCode": "V6A4A5", "twitter": "None", "instagram": "None", "facebook": "None", "youtube": "None", "website": "None", "summary": "None", "logo": "None", "latitude": 49.28101031972039, "longitude": -123.09962585412866}, "130446933RR0001": {"name": "VANCOUVER NATIVE HEALTH SOCIETY", "designationCode": "C", "categoryCode": "11", "address": "449 EAST HASTINGS STREET,", "city": "VANCOUVER", "province": "BC", "country": "CA", "postalCode": "V6A1P5", "twitter": "None", "instagram": "None", "facebook": "None", "youtube": "None", "website": "None", "summary": "None", "logo": "None", "latitude": 49.281252504327846, "longitude": -123.09417055536962}, "138841762RR0001": {"name": "VANCOUVER NATIVE HOUSING SOCIETY", "designationCode": "C", "categoryCode": "09", "address": "1726 EAST HASTINGS ST", "city": "VANCOUVER", "province": "BC", "country": "CA", "postalCode": "V5L1S9", "twitter": "None", "instagram": "None", "facebook": "None", "youtube": "None", "website": "None", "summary": "None", "logo": "None", "latitude": 49.281205528420756, "longitude": -123.06978255107046}, "871325346RR0001": {"name": "VANCOUVER NATIVE PENTECOSTAL CHURCH", "designationCode": "C", "categoryCode": "36", "address": "304-E 26TH AVENUE", "city": "VANCOUVER", "province": "BC", "country": "CA", "postalCode": "V5V2H5", "twitter": "None", "instagram": "None", "facebook": "None", "youtube": "None", "website": "None", "summary": "None", "logo": "None", "latitude": 49.247520539529255, "longitude": -123.0989209730798}, "141017491RR0001": {"name": "VANCOUVER NATURAL HISTORY SOCIETY", "designationCode": "C", "categoryCode": "59", "address": "PO BOX 3021 MPO", "city": "VANCOUVER", "province": "BC", "country": "CA", "postalCode": "V6B3X5", "twitter": "None", "instagram": "None", "facebook": "None", "youtube": "None", "website": "None", "summary": "None", "logo": "None", "latitude": 49.28024400000005, "longitude": -123.11294749999993}, "855846564RR0001": {"name": "VANCOUVER NAVAL DRUM & BUGLE CORPS.", "designationCode": "C", "categoryCode": "52", "address": "ROBERT JUULSEN                5579 ANCHOR BAY", "city": "DELTA", "province": "BC", "country": "CA", "postalCode": "V4K4R9", "twitter": "None", "instagram": "None", "facebook": "None", "youtube": "None", "website": "None", "summary": "None", "logo": "None", "latitude": 49.10432106688215, "longitude": -123.07380827840595}, "874388564RR0001": {"name": "VANCOUVER NAVAL MUSEUM AND HERITAGE FOUNDATION", "designationCode": "C", "categoryCode": "50", "address": "P.O. BOX 47050, DENMAN PLACE", "city": "VANCOUVER", "province": "BC", "country": "CA", "postalCode": "V6G3E1", "twitter": "None", "instagram": "None", "facebook": "None", "youtube": "None", "website": "None", "summary": "None", "logo": "None", "latitude": 49.29015437259758, "longitude": -123.13743544110365}, "140766809RR0001": {"name": "VANCOUVER NEW LIFE CHURCH", "designationCode": "C", "categoryCode": "36", "address": "10381 144 STREET", "city": "SURREY", "province": "BC", "country": "CA", "postalCode": "V5T4V2", "twitter": "None", "instagram": "None", "facebook": "None", "youtube": "None", "website": "None", "summary": "None", "logo": "None", "latitude": 49.19101434693289, "longitude": -122.82318188455757}, "119281988RR0001": {"name": "VANCOUVER NEW MUSIC SOCIETY", "designationCode": "C", "categoryCode": "22", "address": "837 DAVIE STREET", "city": "VANCOUVER", "province": "BC", "country": "CA", "postalCode": "V6Z1B7", "twitter": "None", "instagram": "None", "facebook": "None", "youtube": "None", "website": "None", "summary": "None", "logo": "None", "latitude": 49.278069385487946, "longitude": -123.12748620039613}, "851193573RR0001": {"name": "VANCOUVER NEW STAGE THEATRE SOCIETY", "designationCode": "C", "categoryCode": "22", "address": "301-1255 WEST 14TH AVENUE", "city": "VANCOUVER", "province": "BC", "country": "CA", "postalCode": "V6H1P8", "twitter": "None", "instagram": "None", "facebook": "None", "youtube": "None", "website": "None", "summary": "None", "logo": "None", "latitude": 49.25886645657562, "longitude": -123.13357149708581}, "119282002RR0001": {"name": "VANCOUVER OPERA ASSOCIATION", "designationCode": "C", "categoryCode": "22", "address": "1945 MCLEAN DR", "city": "VANCOUVER", "province": "BC", "country": "CA", "postalCode": "V5N3J7", "twitter": "None", "instagram": "None", "facebook": "None", "youtube": "None", "website": "None", "summary": "None", "logo": "None", "latitude": 49.267584, "longitude": -123.07551357282516}, "891175077RR0001": {"name": "VANCOUVER OPERA ENDOWMENT TRUST FUND,", "designationCode": "B", "categoryCode": "25", "address": "1945 MCLEAN DR", "city": "VANCOUVER", "province": "BC", "country": "CA", "postalCode": "V5N3J7", "twitter": "None", "instagram": "None", "facebook": "None", "youtube": "None", "website": "None", "summary": "None", "logo": "None", "latitude": 49.267584, "longitude": -123.07551357282516}, "132522855RR0001": {"name": "VANCOUVER OPERA GUILD", "designationCode": "C", "categoryCode": "22", "address": "1945 MCLEAN DRIVE", "city": "VANCOUVER", "province": "BC", "country": "CA", "postalCode": "V5N3J7", "twitter": "None", "instagram": "None", "facebook": "None", "youtube": "None", "website": "None", "summary": "None", "logo": "None", "latitude": 49.267584, "longitude": -123.07551357282516}, "892499765RR0001": {"name": "VANCOUVER ORATORIO SOCIETY", "designationCode": "C", "categoryCode": "22", "address": "PO BOX 43112                  RPO RICHMOND CENTRE", "city": "RICHMOND", "province": "BC", "country": "CA", "postalCode": "V6Y3Y3", "twitter": "None", "instagram": "None", "facebook": "None", "youtube": "None", "website": "None", "summary": "None", "logo": "None", "latitude": 49.16691000000003, "longitude": -123.13750999999996}, "860234467RR0001": {"name": "VANCOUVER ORPHAN KITTEN RESCUE ASSOCIATION", "designationCode": "C", "categoryCode": "54", "address": "2028 WALL STREET", "city": "VANCOUVER", "province": "BC", "country": "CA", "postalCode": "V5L1B1", "twitter": "None", "instagram": "None", "facebook": "None", "youtube": "None", "website": "None", "summary": "None", "logo": "None", "latitude": 49.28538160562153, "longitude": -123.06280232452269}, "890111792RR0001": {"name": "VANCOUVER ORPHEUS MALE VOICE CHOIR", "designationCode": "C", "categoryCode": "22", "address": "4 - 3500 144 ST", "city": "SURREY", "province": "BC", "country": "CA", "postalCode": "V4P3J6", "twitter": "None", "instagram": "None", "facebook": "None", "youtube": "None", "website": "None", "summary": "None", "logo": "None", "latitude": 49.065414338882825, "longitude": -122.82292798568885}, "140681313RR0001": {"name": "VANCOUVER PARENTS AND CHILDREN TOGETHER SOCIETY", "designationCode": "C", "categoryCode": "21", "address": "BOX 15", "city": "CYMRIC", "province": "SK", "country": "CA", "postalCode": "S0G0Z0", "twitter": "None", "instagram": "None", "facebook": "None", "youtube": "None", "website": "None", "summary": "None", "logo": "None", "latitude": 51.24126000000007, "longitude": -104.98683999999997}, "119282093RR0001": {"name": "VANCOUVER PHILHARMONIC SOCIETY", "designationCode": "C", "categoryCode": "22", "address": "PO BOX 27503 RPO OAKRIDGE", "city": "VANCOUVER", "province": "BC", "country": "CA", "postalCode": "V5Z4M4", "twitter": "None", "instagram": "None", "facebook": "None", "youtube": "None", "website": "None", "summary": "None", "logo": "None", "latitude": 49.23004000000003, "longitude": -123.12116999999995}, "856260344RR0001": {"name": "VANCOUVER POETRY HOUSE SOCIETY", "designationCode": "C", "categoryCode": "22", "address": "103 - 5980 PRINCE EDWARD ST", "city": "VANCOUVER", "province": "BC", "country": "CA", "postalCode": "V5W4A8", "twitter": "None", "instagram": "None", "facebook": "None", "youtube": "None", "website": "None", "summary": "None", "logo": "None", "latitude": 49.23045615015292, "longitude": -123.0972711665129}, "845989342RR0001": {"name": "VANCOUVER POLICE COMMUNITY FUND (VPCF)", "designationCode": "A", "categoryCode": "05", "address": "2120 CAMBIE STREET", "city": "VANCOUVER", "province": "BC", "country": "CA", "postalCode": "V5Z4N6", "twitter": "None", "instagram": "None", "facebook": "None", "youtube": "None", "website": "None", "summary": "None", "logo": "None", "latitude": 49.266369, "longitude": -123.11461093496511}, "890226178RR0001": {"name": "VANCOUVER POLICE FOUNDATION", "designationCode": "A", "categoryCode": "59", "address": "2120 CAMBIE ST", "city": "VANCOUVER", "province": "BC", "country": "CA", "postalCode": "V5Z4N6", "twitter": "None", "instagram": "None", "facebook": "None", "youtube": "None", "website": "None", "summary": "None", "logo": "None", "latitude": 49.266369, "longitude": -123.11461093496511}, "138008891RR0001": {"name": "VANCOUVER POLICE UNION CHARITABLE FOUNDATION", "designationCode": "C", "categoryCode": "09", "address": "1819 VICTORIA DIVERSION", "city": "VANCOUVER", "province": "BC", "country": "CA", "postalCode": "V5N2K2", "twitter": "None", "instagram": "None", "facebook": "None", "youtube": "None", "website": "None", "summary": "None", "logo": "None", "latitude": 49.25413348294755, "longitude": -123.06776245749923}, "108167651RR0001": {"name": "VANCOUVER POPPY FUND COMMITTEE", "designationCode": "C", "categoryCode": "09", "address": "201-2520 ONTARIO ST", "city": "VANCOUVER", "province": "BC", "country": "CA", "postalCode": "V5T2X6", "twitter": "None", "instagram": "None", "facebook": "None", "youtube": "None", "website": "None", "summary": "None", "logo": "None", "latitude": 49.26272220843674, "longitude": -123.10485858211692}, "119282127RR0001": {"name": "VANCOUVER PUBLIC LIBRARY BOARD", "designationCode": "C", "categoryCode": "50", "address": "350 WEST GEORGIA STREET", "city": "VANCOUVER", "province": "BC", "country": "CA", "postalCode": "V6B6B1", "twitter": "None", "instagram": "None", "facebook": "None", "youtube": "None", "website": "None", "summary": "None", "logo": "None", "latitude": 49.28022479810131, "longitude": -123.11473364666867}, "880755285RR0001": {"name": "VANCOUVER PUBLIC LIBRARY FOUNDATION", "designationCode": "A", "categoryCode": "53", "address": "350 WEST GEORGIA ST", "city": "VANCOUVER", "province": "BC", "country": "CA", "postalCode": "V6B6B1", "twitter": "None", "instagram": "None", "facebook": "None", "youtube": "None", "website": "None", "summary": "None", "logo": "None", "latitude": 49.28022479810131, "longitude": -123.11473364666867}, "119282135RR0001": {"name": "VANCOUVER PUBLIC LIBRARY TRUST", "designationCode": "A", "categoryCode": "50", "address": "350 WEST GEORGIA ST", "city": "VANCOUVER", "province": "BC", "country": "CA", "postalCode": "V6B6B1", "twitter": "None", "instagram": "None", "facebook": "None", "youtube": "None", "website": "None", "summary": "None", "logo": "None", "latitude": 49.28022479810131, "longitude": -123.11473364666867}, "882481609RR0001": {"name": "VANCOUVER RABBIT RESCUE AND ADVOCACY", "designationCode": "C", "categoryCode": "54", "address": "2975 WEST 28TH AVENUE", "city": "VANCOUVER", "province": "BC", "country": "CA", "postalCode": "V6L1X3", "twitter": "None", "instagram": "None", "facebook": "None", "youtube": "None", "website": "None", "summary": "None", "logo": "None", "latitude": 49.2471425259679, "longitude": -123.17221252553523}, "119282143RR0001": {"name": "VANCOUVER RAPE RELIEF SOCIETY", "designationCode": "C", "categoryCode": "09", "address": "BOX 21562                     1424 COMMERCIAL DR", "city": "VANCOUVER", "province": "BC", "country": "CA", "postalCode": "V5L5G2", "twitter": "None", "instagram": "None", "facebook": "None", "youtube": "None", "website": "None", "summary": "None", "logo": "None", "latitude": 49.271858533335184, "longitude": -123.06953653292588}, "119282150RR0001": {"name": "VANCOUVER RECITAL SOCIETY", "designationCode": "C", "categoryCode": "22", "address": "301-601 CAMBIE ST", "city": "VANCOUVER", "province": "BC", "country": "CA", "postalCode": "V6B2P1", "twitter": "None", "instagram": "None", "facebook": "None", "youtube": "None", "website": "None", "summary": "None", "logo": "None", "latitude": 49.280433763596044, "longitude": -123.11162507010242}, "108167693RR0001": {"name": "VANCOUVER RESOURCE SOCIETY FOR THE PHYSICALLY DISABLED", "designationCode": "C", "categoryCode": "09", "address": "310-2006 WEST 10TH AVENUE", "city": "VANCOUVER", "province": "BC", "country": "CA", "postalCode": "V6J2B3", "twitter": "None", "instagram": "None", "facebook": "None", "youtube": "None", "website": "None", "summary": "None", "logo": "None", "latitude": 49.26280554674261, "longitude": -123.15105305398464}, "119282176RR0001": {"name": "VANCOUVER RIGHT TO LIFE SOCIETY", "designationCode": "C", "categoryCode": "09", "address": "4705 6TH AVE W", "city": "VANCOUVER", "province": "BC", "country": "CA", "postalCode": "V6T1C4", "twitter": "None", "instagram": "None", "facebook": "None", "youtube": "None", "website": "None", "summary": "None", "logo": "None", "latitude": 49.267415501009616, "longitude": -123.21548046572221}, "852730126RR0001": {"name": "VANCOUVER ROSEMARY CHURCH", "designationCode": "C", "categoryCode": "39", "address": "9 - 1145 INLET ST", "city": "COQUITLAM", "province": "BC", "country": "CA", "postalCode": "V3B6E8", "twitter": "None", "instagram": "None", "facebook": "None", "youtube": "None", "website": "None", "summary": "None", "logo": "None", "latitude": 49.28194103067464, "longitude": -122.78324733733241}, "880436621RR0001": {"name": "VANCOUVER ROTARY CLUB FOUNDATION", "designationCode": "A", "categoryCode": "03", "address": "P O BOX 75589                 3050 EDGEMONT BOULEVARD", "city": "NORTH VANCOUVER", "province": "BC", "country": "CA", "postalCode": "V7R4X1", "twitter": "None", "instagram": "None", "facebook": "None", "youtube": "None", "website": "None", "summary": "None", "logo": "None", "latitude": 49.33712347948241, "longitude": -123.10129783275764}, "864575683RR0001": {"name": "VANCOUVER SAE-RO-NA CHURCH", "designationCode": "C", "categoryCode": "39", "address": "1010 5 AVENUE", "city": "NEW WESTMINSTER", "province": "BC", "country": "CA", "postalCode": "V3M1Y5", "twitter": "None", "instagram": "None", "facebook": "None", "youtube": "None", "website": "None", "summary": "None", "logo": "None", "latitude": 49.2078630083099, "longitude": -122.92560983360268}, "108167743RR0001": {"name": "VANCOUVER SCHOOL OF THEOLOGY", "designationCode": "C", "categoryCode": "20", "address": "6015 WALTER GAGE RD", "city": "VANCOUVER", "province": "BC", "country": "CA", "postalCode": "V6T0B3", "twitter": "None", "instagram": "None", "facebook": "None", "youtube": "None", "website": "None", "summary": "None", "logo": "None", "latitude": 49.270206714498464, "longitude": -123.24994945314965}, "854924966RR0001": {"name": "VANCOUVER SHEPHERD CHURCH", "designationCode": "C", "categoryCode": "36", "address": "724 COMO LAKE AVE", "city": "COQUITLAM", "province": "BC", "country": "CA", "postalCode": "V3J3N6", "twitter": "None", "instagram": "None", "facebook": "None", "youtube": "None", "website": "None", "summary": "None", "logo": "None", "latitude": 49.26354649177702, "longitude": -122.8811103337469}, "119288918RR1228": {"name": "VANCOUVER SIGN LANGUAGE CONGREGATION OF JEHOVAH'S WITNESSES", "designationCode": "C", "categoryCode": "61", "address": "5535 SHORT ST.", "city": "BURNABY", "province": "BC", "country": "CA", "postalCode": "V5J1M1", "twitter": "None", "instagram": "None", "facebook": "None", "youtube": "None", "website": "None", "summary": "None", "logo": "None", "latitude": 49.219964453257376, "longitude": -122.98442399999999}, "108167776RR0001": {"name": "VANCOUVER SOCIETY FOR EARLY MUSIC", "designationCode": "C", "categoryCode": "22", "address": "1254 WEST 7TH AVE", "city": "VANCOUVER", "province": "BC", "country": "CA", "postalCode": "V6H1B6", "twitter": "None", "instagram": "None", "facebook": "None", "youtube": "None", "website": "None", "summary": "None", "logo": "None", "latitude": 49.26522451399404, "longitude": -123.13264444463039}, "896684362RR0001": {"name": "VANCOUVER SOCIETY OF CHILDREN'S CENTRES", "designationCode": "C", "categoryCode": "01", "address": "200-1362 SEYMOUR ST", "city": "VANCOUVER", "province": "BC", "country": "CA", "postalCode": "V6B3P3", "twitter": "None", "instagram": "None", "facebook": "None", "youtube": "None", "website": "None", "summary": "None", "logo": "None", "latitude": 49.27467864808892, "longitude": -123.12778478242198}, "130737851RR0001": {"name": "VANCOUVER SOUTH EAST CHINESE SCHOOL SOCIETY", "designationCode": "C", "categoryCode": "20", "address": "3165 EAST 54TH AVE", "city": "VANCOUVER", "province": "BC", "country": "CA", "postalCode": "V5S1Y9", "twitter": "None", "instagram": "None", "facebook": "None", "youtube": "None", "website": "None", "summary": "None", "logo": "None", "latitude": 49.22019951154118, "longitude": -123.0399135}, "859956286RR0001": {"name": "VANCOUVER SOWERS SOCIETY OF EDUCATION", "designationCode": "C", "categoryCode": "29", "address": "262-185 - 9040 BLUNDELL RD", "city": "RICHMOND", "province": "BC", "country": "CA", "postalCode": "V6Y1K3", "twitter": "None", "instagram": "None", "facebook": "None", "youtube": "None", "website": "None", "summary": "None", "logo": "None", "latitude": 49.15541065871117, "longitude": -123.12476270458764}, "857802508RR0001": {"name": "VANCOUVER SQUARE METHODIST CHURCH", "designationCode": "B", "categoryCode": "39", "address": "1504 SPRICE AVE", "city": "COQUITLAM", "province": "BC", "country": "CA", "postalCode": "V3J2P6", "twitter": "None", "instagram": "None", "facebook": "None", "youtube": "None", "website": "None", "summary": "None", "logo": "None", "latitude": 49.25712053231591, "longitude": -122.85094427699232}, "108167818RR0001": {"name": "VANCOUVER STATUS OF WOMEN", "designationCode": "C", "categoryCode": "59", "address": "2652 HASTINGS ST E", "city": "VANCOUVER", "province": "BC", "country": "CA", "postalCode": "V5K1Z6", "twitter": "None", "instagram": "None", "facebook": "None", "youtube": "None", "website": "None", "summary": "None", "logo": "None", "latitude": 49.281050437039696, "longitude": -123.05051241201798}, "119258374RR0001": {"name": "VANCOUVER SUN CHILDREN'S FUND SOCIETY", "designationCode": "A", "categoryCode": "03", "address": "400 - 2985 VIRTUAL WAY", "city": "VANCOUVER", "province": "BC", "country": "CA", "postalCode": "V5M4X7", "twitter": "None", "instagram": "None", "facebook": "None", "youtube": "None", "website": "None", "summary": "None", "logo": "None", "latitude": 49.26113752741423, "longitude": -123.04248525997764}, "863835971RR0001": {"name": "VANCOUVER SUNG-RAK CHURCH", "designationCode": "C", "categoryCode": "39", "address": "14822 96 AVENUE", "city": "SURREY", "province": "BC", "country": "CA", "postalCode": "V3R1E7", "twitter": "None", "instagram": "None", "facebook": "None", "youtube": "None", "website": "None", "summary": "None", "logo": "None", "latitude": 49.176796485140585, "longitude": -122.81151052553523}, "854107554RR0001": {"name": "VANCOUVER SYMPHONY FOUNDATION", "designationCode": "A", "categoryCode": "23", "address": "500-833 SEYMOUR ST.", "city": "VANCOUVER", "province": "BC", "country": "CA", "postalCode": "V6B0G4", "twitter": "None", "instagram": "None", "facebook": "None", "youtube": "None", "website": "None", "summary": "None", "logo": "None", "latitude": 49.280327244532195, "longitude": -123.11949928270514}, "119282283RR0001": {"name": "VANCOUVER SYMPHONY SOCIETY", "designationCode": "C", "categoryCode": "22", "address": "500-833 SEYMOUR ST", "city": "VANCOUVER", "province": "BC", "country": "CA", "postalCode": "V6B0G4", "twitter": "None", "instagram": "None", "facebook": "None", "youtube": "None", "website": "None", "summary": "None", "logo": "None", "latitude": 49.280327244532195, "longitude": -123.11949928270514}, "108167867RR0001": {"name": "VANCOUVER TAIWANESE PRESBYTERIAN CHURCH", "designationCode": "C", "categoryCode": "37", "address": "2733 WEST 41ST AVENUE", "city": "VANCOUVER", "province": "BC", "country": "CA", "postalCode": "V6N3C5", "twitter": "None", "instagram": "None", "facebook": "None", "youtube": "None", "website": "None", "summary": "None", "logo": "None", "latitude": 49.23477251990839, "longitude": -123.16667094601536}, "108167875RR0001": {"name": "VANCOUVER TALMUD TORAH ASSOCIATION", "designationCode": "C", "categoryCode": "20", "address": "998 W 26TH AVE", "city": "VANCOUVER", "province": "BC", "country": "CA", "postalCode": "V5Z2G1", "twitter": "None", "instagram": "None", "facebook": "None", "youtube": "None", "website": "None", "summary": "None", "logo": "None", "latitude": 49.24813950952198, "longitude": -123.12680238634658}, "119282309RR0001": {"name": "VANCOUVER TALMUD TORAH FOUNDATION", "designationCode": "A", "categoryCode": "03", "address": "998 WEST 26TH AVENUE", "city": "VANCOUVER", "province": "BC", "country": "CA", "postalCode": "V5Z2G1", "twitter": "None", "instagram": "None", "facebook": "None", "youtube": "None", "website": "None", "summary": "None", "logo": "None", "latitude": 49.24813950952198, "longitude": -123.12680238634658}, "890862238RR0001": {"name": "VANCOUVER TAP DANCE SOCIETY", "designationCode": "C", "categoryCode": "22", "address": "2775 HASTINGS ST E", "city": "VANCOUVER", "province": "BC", "country": "CA", "postalCode": "V5K1Z8", "twitter": "None", "instagram": "None", "facebook": "None", "youtube": "None", "website": "None", "summary": "None", "logo": "None", "latitude": 49.28116551154119, "longitude": -123.04741402553523}, "126177112RR0001": {"name": "VANCOUVER THEATRESPORTS LEAGUE", "designationCode": "C", "categoryCode": "22", "address": "1515 ANDERSON ST", "city": "VANCOUVER", "province": "BC", "country": "CA", "postalCode": "V6H3R5", "twitter": "None", "instagram": "None", "facebook": "None", "youtube": "None", "website": "None", "summary": "None", "logo": "None"}, "892322967RR0001": {"name": "VANCOUVER TRADITIONAL MASS SOCIETY", "designationCode": "C", "categoryCode": "49", "address": "3222 DOUGLAS RD", "city": "BURNABY", "province": "BC", "country": "CA", "postalCode": "V5G3N9", "twitter": "None", "instagram": "None", "facebook": "None", "youtube": "None", "website": "None", "summary": "None", "logo": "None", "latitude": 49.25493951318597, "longitude": -122.98205176028658}, "841687767RR0001": {"name": "VANCOUVER VENTURE FOR DIVERSITY SOCIETY", "designationCode": "C", "categoryCode": "29", "address": "4125 JERICHO DR", "city": "VANCOUVER", "province": "BC", "country": "CA", "postalCode": "V6N0A4", "twitter": "None", "instagram": "None", "facebook": "None", "youtube": "None", "website": "None", "summary": "None", "logo": "None", "latitude": 49.22581763161979, "longitude": -123.19910939355704}, "119282341RR0001": {"name": "VANCOUVER WELSH MEN'S CHOIR", "designationCode": "C", "categoryCode": "22", "address": "P.O. BOX 2978                 MAIN POST OFFICE", "city": "VANCOUVER", "province": "BC", "country": "CA", "postalCode": "V6B3X4", "twitter": "None", "instagram": "None", "facebook": "None", "youtube": "None", "website": "None", "summary": "None", "logo": "None", "latitude": 49.28043006217903, "longitude": -123.11485999610485}, "818497075RR0001": {"name": "VANCOUVER WEST SIDE THEATRE SOCIETY", "designationCode": "C", "categoryCode": "22", "address": "950 41ST AVE W", "city": "VANCOUVER", "province": "BC", "country": "CA", "postalCode": "V5Z2N7", "twitter": "None", "instagram": "None", "facebook": "None", "youtube": "None", "website": "None", "summary": "None", "logo": "None", "latitude": 49.23387050620376, "longitude": -123.12594479822836}, "890947245RR0001": {"name": "VANCOUVER WOMAN'S MUSICAL SOCIETY", "designationCode": "C", "categoryCode": "22", "address": "BOX 18097 KERRISDALE PO", "city": "VANCOUVER", "province": "BC", "country": "CA", "postalCode": "V6M4L3", "twitter": "None", "instagram": "None", "facebook": "None", "youtube": "None", "website": "None", "summary": "None", "logo": "None", "latitude": 49.22097000000008, "longitude": -123.15072999999995}, "119282382RR0001": {"name": "VANCOUVER WOMEN'S HEALTH COLLECTIVE SOCIETY", "designationCode": "C", "categoryCode": "19", "address": "29 WEST HASTINGS STREET", "city": "VANCOUVER", "province": "BC", "country": "CA", "postalCode": "V6B1G4", "twitter": "None", "instagram": "None", "facebook": "None", "youtube": "None", "website": "None", "summary": "None", "logo": "None", "latitude": 49.28176129283268, "longitude": -123.10570896987716}, "892542366RR0001": {"name": "VANCOUVER YAFFA HOUSING SOCIETY", "designationCode": "C", "categoryCode": "01", "address": "358 - 3381 CAMBIE ST", "city": "VANCOUVER", "province": "BC", "country": "CA", "postalCode": "V5Z4R3", "twitter": "None", "instagram": "None", "facebook": "None", "youtube": "None", "website": "None", "summary": "None", "logo": "None", "latitude": 49.25517378573488, "longitude": -123.1151819905936}, "869036517RR0001": {"name": "VANCOUVER YEDALM EVANGELICAL CHURCH", "designationCode": "C", "categoryCode": "39", "address": "411 - 9626 148 ST", "city": "SURREY", "province": "BC", "country": "CA", "postalCode": "V3R0W2", "twitter": "None", "instagram": "None", "facebook": "None", "youtube": "None", "website": "None", "summary": "None", "logo": "None", "latitude": 49.17748391035258, "longitude": -122.81222797665781}, "119282408RR0001": {"name": "VANCOUVER YOUTH SYMPHONY ORCHESTRA SOCIETY", "designationCode": "C", "categoryCode": "22", "address": "3214 WEST 10TH AVE.", "city": "VANCOUVER", "province": "BC", "country": "CA", "postalCode": "V6K2L2", "twitter": "None", "instagram": "None", "facebook": "None", "youtube": "None", "website": "None", "summary": "None", "logo": "None", "latitude": 49.263310521207394, "longitude": -123.17650063780367}, "119282416RR0001": {"name": "VANCOUVER YOUTH THEATRE SOCIETY", "designationCode": "C", "categoryCode": "22", "address": "476-6362 FRASER ST", "city": "VANCOUVER", "province": "BC", "country": "CA", "postalCode": "V5W0A1", "twitter": "None", "instagram": "None", "facebook": "None", "youtube": "None", "website": "None", "summary": "None", "logo": "None", "latitude": 49.226767239800324, "longitude": -123.09070052383312}, "138479530RR0001": {"name": "VANCOUVER YUAN YUNG BUDDHISM CENTRE SOCIETY", "designationCode": "C", "categoryCode": "35", "address": "3642 KINGSWAY", "city": "VANCOUVER", "province": "BC", "country": "CA", "postalCode": "V5R5M2", "twitter": "None", "instagram": "None", "facebook": "None", "youtube": "None", "website": "None", "summary": "None", "logo": "None", "latitude": 49.23218852120741, "longitude": -123.02548252400601}, "118818491RR0066": {"name": "VANCOUVER YUGOSLAVIAN SEVENTH-DAY ADVENTIST CHURCH", "designationCode": "C", "categoryCode": "41", "address": "PO 1000", "city": "ABBOTSFORD", "province": "BC", "country": "CA", "postalCode": "V2S4P5", "twitter": "None", "instagram": "None", "facebook": "None", "youtube": "None", "website": "None", "summary": "None", "logo": "None", "latitude": 49.03851300000005, "longitude": -122.29441549999993}, "733739692RR0001": {"name": "VANCOUVER ZION BAPTIST CHURCH", "designationCode": "C", "categoryCode": "31", "address": "469 46TH AVE W", "city": "VANCOUVER", "province": "BC", "country": "CA", "postalCode": "V5Y2X4", "twitter": "None", "instagram": "None", "facebook": "None", "youtube": "None", "website": "None", "summary": "None", "logo": "None", "latitude": 49.22884650043268, "longitude": -123.11529330391252}, "119282424RR0001": {"name": "VANDEBELT CHARITABLE TRUST", "designationCode": "B", "categoryCode": "15", "address": "230 TIFFANY ST", "city": "CAMBRIDGE", "province": "ON", "country": "CA", "postalCode": "N3H4G7", "twitter": "None", "instagram": "None", "facebook": "None", "youtube": "None", "website": "None", "summary": "None", "logo": "None", "latitude": 43.398039259766975, "longitude": -80.34733583501632}, "891039646RR0001": {"name": "VANDELEUR CHURCH OF CHRIST", "designationCode": "C", "categoryCode": "39", "address": "63 CAMBRIA RD BOX 172", "city": "MARKDALE", "province": "ON", "country": "CA", "postalCode": "N0C1H0", "twitter": "None", "instagram": "None", "facebook": "None", "youtube": "None", "website": "None", "summary": "None", "logo": "None", "latitude": 44.32168479542976, "longitude": -80.64292685778159}, "119282440RR0001": {"name": "VANDERHOOF CHRISTIAN FELLOWSHIP", "designationCode": "C", "categoryCode": "39", "address": "BOX 377", "city": "VANDERHOOF", "province": "BC", "country": "CA", "postalCode": "V0J3A0", "twitter": "None", "instagram": "None", "facebook": "None", "youtube": "None", "website": "None", "summary": "None", "logo": "None", "latitude": 54.01397400000006, "longitude": -124.01297449999993}, "119282457RR0001": {"name": "VANDERHOOF GLAD TIDINGS TABERNACLE,", "designationCode": "C", "categoryCode": "36", "address": "PO BOX 708", "city": "VANDERHOOF", "province": "BC", "country": "CA", "postalCode": "V0J3A0", "twitter": "None", "instagram": "None", "facebook": "None", "youtube": "None", "website": "None", "summary": "None", "logo": "None", "latitude": 54.01397400000006, "longitude": -124.01297449999993}, "886412089RR0001": {"name": "VANDERHOOF HOSPICE SOCIETY", "designationCode": "C", "categoryCode": "11", "address": "BOX 1704", "city": "VANDERHOOF", "province": "BC", "country": "CA", "postalCode": "V0J3A0", "twitter": "None", "instagram": "None", "facebook": "None", "youtube": "None", "website": "None", "summary": "None", "logo": "None", "latitude": 54.01397400000006, "longitude": -124.01297449999993}, "892698374RR0001": {"name": "VANDERHOOF LUTHERAN CHURCH", "designationCode": "C", "categoryCode": "32", "address": "BOX 6", "city": "VANDERHOOF", "province": "BC", "country": "CA", "postalCode": "V0J3A0", "twitter": "None", "instagram": "None", "facebook": "None", "youtube": "None", "website": "None", "summary": "None", "logo": "None", "latitude": 54.01397400000006, "longitude": -124.01297449999993}, "891873960RR0001": {"name": "VANDERHOOF MENNONITE CHURCH", "designationCode": "C", "categoryCode": "34", "address": "61205 HWY 16E", "city": "VANDERHOOF", "province": "BC", "country": "CA", "postalCode": "V0J3A3", "twitter": "None", "instagram": "None", "facebook": "None", "youtube": "None", "website": "None", "summary": "None", "logo": "None", "latitude": 54.01342171577893, "longitude": -124.02216286479344}, "891171399RR0001": {"name": "VANDERHOOF PUBLIC LIBRARY ASSOCIATION", "designationCode": "C", "categoryCode": "50", "address": "POSTAL BAG 6000", "city": "VANDERHOOF", "province": "BC", "country": "CA", "postalCode": "V0J3A0", "twitter": "None", "instagram": "None", "facebook": "None", "youtube": "None", "website": "None", "summary": "None", "logo": "None", "latitude": 54.01397400000006, "longitude": -124.01297449999993}, "118818491RR0056": {"name": "VANDERHOOF SEVENTH-DAY ADVENTIST CHURCH", "designationCode": "C", "categoryCode": "41", "address": "PO 1000", "city": "ABBOTSFORD", "province": "BC", "country": "CA", "postalCode": "V2S4P5", "twitter": "None", "instagram": "None", "facebook": "None", "youtube": "None", "website": "None", "summary": "None", "logo": "None", "latitude": 49.03851300000005, "longitude": -122.29441549999993}, "892742644RR0001": {"name": "VANDERHOOF UNITED PENECOSTAL CHURCH", "designationCode": "C", "categoryCode": "39", "address": "785 HWY 16 E", "city": "VANDERHOOF", "province": "BC", "country": "CA", "postalCode": "V0J3A1", "twitter": "None", "instagram": "None", "facebook": "None", "youtube": "None", "website": "None", "summary": "None", "logo": "None", "latitude": 54.059141186352136, "longitude": -124.53730803267914}, "898159017RR0001": {"name": "VANESSA CEMETERY", "designationCode": "C", "categoryCode": "59", "address": "1979 BRANT RD. 4", "city": "VANESSA", "province": "ON", "country": "CA", "postalCode": "N0E1V0", "twitter": "None", "instagram": "None", "facebook": "None", "youtube": "None", "website": "None", "summary": "None", "logo": "None", "latitude": 42.96914332584105, "longitude": -80.39537554108712}, "108168212RR0001": {"name": "VANG LUTHERAN CHURCH", "designationCode": "C", "categoryCode": "32", "address": "PO BOX 6543", "city": "WETASKIWIN", "province": "AB", "country": "CA", "postalCode": "T9A2G2", "twitter": "None", "instagram": "None", "facebook": "None", "youtube": "None", "website": "None", "summary": "None", "logo": "None", "latitude": 52.96987500000006, "longitude": -113.37725149999994}, "119282556RR0001": {"name": "VANGUARD & DISTRICT BRANCH OF SASKATCHEWAN ASSOCIATION OF MUSIC FESTIVALS", "designationCode": "C", "categoryCode": "22", "address": "PO BOX 21", "city": "PAMBRUN", "province": "SK", "country": "CA", "postalCode": "S0N1W0", "twitter": "None", "instagram": "None", "facebook": "None", "youtube": "None", "website": "None", "summary": "None", "logo": "None", "latitude": 49.93772000000007, "longitude": -107.45986999999997}, "872165568RR0001": {"name": "VANGUARD CHARITABLE TRUST", "designationCode": "B", "categoryCode": "03", "address": "50 1ST AVE NE", "city": "SWIFT CURRENT", "province": "SK", "country": "CA", "postalCode": "S9H4W4", "twitter": "None", "instagram": "None", "facebook": "None", "youtube": "None", "website": "None", "summary": "None", "logo": "None", "latitude": 50.282664378132, "longitude": -107.79863205289816}, "107785628RR0001": {"name": "VANGUARD COLLEGE", "designationCode": "C", "categoryCode": "20", "address": "12140 103RD ST", "city": "EDMONTON", "province": "AB", "country": "CA", "postalCode": "T5G2J9", "twitter": "None", "instagram": "None", "facebook": "None", "youtube": "None", "website": "None", "summary": "None", "logo": "None", "latitude": 53.575749, "longitude": -113.49743926319982}, "130930464RR0001": {"name": "VANGUARD SCHOOL OF QUEBEC LIMITED-ECOLE VANGUARD QUEBEC LIMITEE", "designationCode": "C", "categoryCode": "20", "address": "5935 COTE DE LIESSE CH.", "city": "ST-LAURENT", "province": "QC", "country": "CA", "postalCode": "H4T1C3", "twitter": "None", "instagram": "None", "facebook": "None", "youtube": "None", "website": "None", "summary": "None", "logo": "None", "latitude": 45.490810667291356, "longitude": -73.68321281617486}, "890092489RR0001": {"name": "VANIER COLLEGE ART TRUST", "designationCode": "C", "categoryCode": "22", "address": "821 STE-CROIX AVENUE", "city": "SAINT-LAURENT", "province": "QC", "country": "CA", "postalCode": "H4L3X9", "twitter": "None", "instagram": "None", "facebook": "None", "youtube": "None", "website": "None", "summary": "None", "logo": "None", "latitude": 45.513935321842816, "longitude": -73.67602868916406}, "119282598RR0001": {"name": "VANIER COLLEGE SCHOLARSHIP AND BURSARY FUND", "designationCode": "C", "categoryCode": "21", "address": "821 STE-CROIX AVENUE", "city": "SAINT-LAURENT", "province": "QC", "country": "CA", "postalCode": "H4L3X9", "twitter": "None", "instagram": "None", "facebook": "None", "youtube": "None", "website": "None", "summary": "None", "logo": "None", "latitude": 45.513935321842816, "longitude": -73.67602868916406}, "870814944RR0001": {"name": "VANKLEEK HILL & DISTRICT HISTORICAL SOCIETY/LA SOCIETE HISTORIQUE REGIONALE DE VANKLEEK HILL", "designationCode": "C", "categoryCode": "50", "address": "PO BOX 537", "city": "VANKLEEK HILL", "province": "ON", "country": "CA", "postalCode": "K0B1R0", "twitter": "None", "instagram": "None", "facebook": "None", "youtube": "None", "website": "None", "summary": "None", "logo": "None", "latitude": 45.526948915276186, "longitude": -74.68129408071073}}