{"107392912RR0001": {"name": "FORESTBURG PASTORAL CHARGE", "designationCode": "C", "categoryCode": "44", "address": "BOX 486", "city": "FORESTBURG", "province": "AB", "country": "CA", "postalCode": "T0B1N0", "twitter": "None", "instagram": "None", "facebook": "None", "youtube": "None", "website": "None", "summary": "None", "logo": "None", "latitude": 52.58134386913628, "longitude": -112.05738493950088}, "889602264RR0001": {"name": "FORESTBURG PUBLIC CEMETERY SOCIETY", "designationCode": "C", "categoryCode": "59", "address": "P.O. BOX 210", "city": "FORESTBURG", "province": "AB", "country": "CA", "postalCode": "T0B1N0", "twitter": "None", "instagram": "None", "facebook": "None", "youtube": "None", "website": "None", "summary": "None", "logo": "None", "latitude": 52.58134386913628, "longitude": -112.05738493950088}, "878217710RR0001": {"name": "FORESTHILL CEMETERY ASSOCIATION", "designationCode": "C", "categoryCode": "59", "address": "1142 UPPER RIVER JOHN RD", "city": "TATAMAGOUCHE", "province": "NS", "country": "CA", "postalCode": "B0K1V0", "twitter": "None", "instagram": "None", "facebook": "None", "youtube": "None", "website": "None", "summary": "None", "logo": "None", "latitude": 45.71237004850297, "longitude": -63.18919294791995}, "898572862RR0001": {"name": "FORESTS ONTARIO FORETS DE L'ONTARIO", "designationCode": "A", "categoryCode": "59", "address": "700-144 FRONT ST W", "city": "TORONTO", "province": "ON", "country": "CA", "postalCode": "M5J2L7", "twitter": "None", "instagram": "None", "facebook": "None", "youtube": "None", "website": "None", "summary": "None", "logo": "None", "latitude": 43.64492114741162, "longitude": -79.38426589892697}, "817698269RR0001": {"name": "FORESTS WITHOUT BORDERS FOR\u00caTS SANS FRONTI\u00c8RES", "designationCode": "C", "categoryCode": "59", "address": "P.O. BOX 99                   6905 HWY 17", "city": "MATTAWA", "province": "ON", "country": "CA", "postalCode": "P0H1V0", "twitter": "None", "instagram": "None", "facebook": "None", "youtube": "None", "website": "None", "summary": "None", "logo": "None", "latitude": 46.30628910890779, "longitude": -78.73914663841774}, "897869640RR0001": {"name": "FORESTVIEW BIBLE CHURCH (BURLINGTON ONTARIO)", "designationCode": "C", "categoryCode": "39", "address": "1450 HEADON ROAD              P.O.BOX 93130", "city": "BURLINGTON", "province": "ON", "country": "CA", "postalCode": "L7M4A3", "twitter": "None", "instagram": "None", "facebook": "None", "youtube": "None", "website": "None", "summary": "None", "logo": "None", "latitude": 43.373694794593035, "longitude": -79.8093847315191}, "890766447RR0001": {"name": "FORESTVIEW COMMUNITY CHURCH GRIMSBY ONTARIO", "designationCode": "C", "categoryCode": "49", "address": "132 LAKE ST", "city": "GRIMSBY", "province": "ON", "country": "CA", "postalCode": "L3M4M7", "twitter": "None", "instagram": "None", "facebook": "None", "youtube": "None", "website": "None", "summary": "None", "logo": "None", "latitude": 43.19660035939771, "longitude": -79.54043353762466}, "861098895RR0001": {"name": "FOREVER FRIENDS OF HOPE FOUNDATION INCORPORATED", "designationCode": "C", "categoryCode": "11", "address": "BOX 422", "city": "QU'APPELLE", "province": "SK", "country": "CA", "postalCode": "S0G4A0", "twitter": "None", "instagram": "None", "facebook": "None", "youtube": "None", "website": "None", "summary": "None", "logo": "None", "latitude": 50.33098795842485, "longitude": -102.28109602986969}, "889084869RR0001": {"name": "FORGET ME NOT FAMILY SOCIETY", "designationCode": "C", "categoryCode": "09", "address": "102-1860 SOUTHMERE CRESCENT", "city": "SOUTH SURREY", "province": "BC", "country": "CA", "postalCode": "V4A6Y7", "twitter": "None", "instagram": "None", "facebook": "None", "youtube": "None", "website": "None", "summary": "None", "logo": "None", "latitude": 49.03583458338266, "longitude": -122.80837562148959}, "132451659RR0001": {"name": "FORKS ROAD EAST UNITED CHURCH,", "designationCode": "C", "categoryCode": "44", "address": "8 LAKESIDE PLACE", "city": "PORT COLBORNE", "province": "ON", "country": "CA", "postalCode": "L3K6B1", "twitter": "None", "instagram": "None", "facebook": "None", "youtube": "None", "website": "None", "summary": "None", "logo": "None", "latitude": 42.87971247157925, "longitude": -79.26905295614291}, "143507473RR0001": {"name": "FORMACA", "designationCode": "C", "categoryCode": "59", "address": "157 4E RUE", "city": "MONTMAGNY", "province": "QC", "country": "CA", "postalCode": "G5V3L6", "twitter": "None", "instagram": "None", "facebook": "None", "youtube": "None", "website": "None", "summary": "None", "logo": "None", "latitude": 46.970575217612, "longitude": -70.57204511047942}, "891421018RR0001": {"name": "FORMADOS", "designationCode": "C", "categoryCode": "23", "address": "300-8225, BOUL. ST-LAURENT", "city": "MONTR\u00c9AL", "province": "QC", "country": "CA", "postalCode": "H2P2M1", "twitter": "None", "instagram": "None", "facebook": "None", "youtube": "None", "website": "None", "summary": "None", "logo": "None", "latitude": 45.539583913699474, "longitude": -73.63339606604544}, "831971924RR0001": {"name": "FORMATION CEGEP SAINT-JEAN-SUR-RICHELIEU", "designationCode": "C", "categoryCode": "20", "address": "30 BOUL DU SEMINAIRE N", "city": "SAINT-JEAN-SUR-RICHELIEU", "province": "QC", "country": "CA", "postalCode": "J3B5J4", "twitter": "None", "instagram": "None", "facebook": "None", "youtube": "None", "website": "None", "summary": "None", "logo": "None", "latitude": 45.297200086074675, "longitude": -73.26675905139663}, "118868793RR0001": {"name": "FORMATION CLEF MITIS/NEIGETTE", "designationCode": "C", "categoryCode": "29", "address": "111, RUE SAINT-JEAN-BAPTISTE O", "city": "RIMOUSKI", "province": "QC", "country": "CA", "postalCode": "G5L4J2", "twitter": "None", "instagram": "None", "facebook": "None", "youtube": "None", "website": "None", "summary": "None", "logo": "None"}, "889404570RR0001": {"name": "FORMATION FOR HEALING MINISTRY INC", "designationCode": "B", "categoryCode": "43", "address": "590 FAIRMONT ROAD", "city": "WINNIPEG", "province": "MB", "country": "CA", "postalCode": "R3R1B1", "twitter": "None", "instagram": "None", "facebook": "None", "youtube": "None", "website": "None", "summary": "None", "logo": "None", "latitude": 49.855968429366946, "longitude": -97.27446425431303}, "132035247RR0001": {"name": "FORMATION PLUS CENTRE DE FORMATION FRANCOPHONE POUR ADULTES", "designationCode": "C", "categoryCode": "21", "address": "P.O. BOX714", "city": "CHAPLEAU", "province": "ON", "country": "CA", "postalCode": "P0M1K0", "twitter": "None", "instagram": "None", "facebook": "None", "youtube": "None", "website": "None", "summary": "None", "logo": "None", "latitude": 47.842467000000056, "longitude": -83.40490249999993}, "118927789RR0001": {"name": "FORMATION PRH INC.", "designationCode": "C", "categoryCode": "21", "address": "227 RUE SAINT-GEORGES         SUITE 100", "city": "SAINT-J\u00c9R\u00d4ME", "province": "QC", "country": "CA", "postalCode": "J7Z5A1", "twitter": "None", "instagram": "None", "facebook": "None", "youtube": "None", "website": "None", "summary": "None", "logo": "None", "latitude": 45.77441913350451, "longitude": -74.00280596055765}, "855268777RR0001": {"name": "FORMOSA EVERGREEN SENIOR CITIZENS CENTRE", "designationCode": "C", "categoryCode": "09", "address": "6-3680 VICTORIA PARK AVE", "city": "TORONTO", "province": "ON", "country": "CA", "postalCode": "M2H3K1", "twitter": "None", "instagram": "None", "facebook": "None", "youtube": "None", "website": "None", "summary": "None", "logo": "None", "latitude": 43.80885845545041, "longitude": -79.33850585472317}, "837983675RR0001": {"name": "FORMOSAN GRACE CHRISTIAN CHURCH IN TORONTO", "designationCode": "C", "categoryCode": "39", "address": "841 PROGRESS AVE", "city": "SCARBOROUGH", "province": "ON", "country": "CA", "postalCode": "M1H2X4", "twitter": "None", "instagram": "None", "facebook": "None", "youtube": "None", "website": "None", "summary": "None", "logo": "None", "latitude": 43.78059455006085, "longitude": -79.23987197002138}, "891096141RR0001": {"name": "FORMULE 27 INC.", "designationCode": "C", "categoryCode": "50", "address": "960 AV GILLES-VILLENEUVE", "city": "BERTHIERVILLE", "province": "QC", "country": "CA", "postalCode": "J0K1A0", "twitter": "None", "instagram": "None", "facebook": "None", "youtube": "None", "website": "None", "summary": "None", "logo": "None", "latitude": 46.087651330284466, "longitude": -73.19386261503841}, "889071494RR0001": {"name": "FORREST SPECIAL PROJECTS GROUP", "designationCode": "C", "categoryCode": "21", "address": "PO BOX 7", "city": "JUSTICE", "province": "MB", "country": "CA", "postalCode": "R0K1C0", "twitter": "None", "instagram": "None", "facebook": "None", "youtube": "None", "website": "None", "summary": "None", "logo": "None", "latitude": 49.975092000000004, "longitude": -99.91228719888666}, "891089849RR0001": {"name": "FORREST UNITED CHURCH", "designationCode": "C", "categoryCode": "44", "address": "PO BOX 48", "city": "FORREST", "province": "MB", "country": "CA", "postalCode": "R0K0W0", "twitter": "None", "instagram": "None", "facebook": "None", "youtube": "None", "website": "None", "summary": "None", "logo": "None", "latitude": 50.13693525317751, "longitude": -100.43306920539497}, "890071590RR0001": {"name": "FORSHANG SECT INTERNATIONAL DA-YUAN ASSOCIATION (CANADA) INC", "designationCode": "C", "categoryCode": "35", "address": "206 - 3410 SHEPPARD AVE E", "city": "SCARBOROUGH", "province": "ON", "country": "CA", "postalCode": "M1T3K4", "twitter": "None", "instagram": "None", "facebook": "None", "youtube": "None", "website": "None", "summary": "None", "logo": "None", "latitude": 43.779166046902695, "longitude": -79.30616111130412}, "132076175RR0001": {"name": "FORSHEE COMMUNITY HALL SOCIETY", "designationCode": "C", "categoryCode": "56", "address": "R.R.#1, SITE5, BOX 2", "city": "BENTLEY", "province": "AB", "country": "CA", "postalCode": "T0C0J0", "twitter": "None", "instagram": "None", "facebook": "None", "youtube": "None", "website": "None", "summary": "None", "logo": "None", "latitude": 52.45525643466467, "longitude": -113.96627143884359}, "861377141RR0001": {"name": "FORT ALBANY PENTECOSTAL CHURCH", "designationCode": "C", "categoryCode": "39", "address": "BOX 29", "city": "FORT ALBANY", "province": "ON", "country": "CA", "postalCode": "P0L1H0", "twitter": "None", "instagram": "None", "facebook": "None", "youtube": "None", "website": "None", "summary": "None", "logo": "None", "latitude": 52.1973813741601, "longitude": -81.59269489333647}, "118927862RR0001": {"name": "FORT ASSINIBOINE PASTORAL CHARGE", "designationCode": "C", "categoryCode": "44", "address": "BOX 141", "city": "FORT ASSINIBOINE", "province": "AB", "country": "CA", "postalCode": "T0G1A0", "twitter": "None", "instagram": "None", "facebook": "None", "youtube": "None", "website": "None", "summary": "None", "logo": "None", "latitude": 54.33400000000006, "longitude": -114.77396999999996}, "118927870RR0001": {"name": "FORT CALGARY PRESERVATION SOCIETY", "designationCode": "C", "categoryCode": "53", "address": "P.O.BOX 2100 STN M (#106)", "city": "CALGARY", "province": "AB", "country": "CA", "postalCode": "T2P2M5", "twitter": "None", "instagram": "None", "facebook": "None", "youtube": "None", "website": "None", "summary": "None", "logo": "None", "latitude": 51.04531500000006, "longitude": -114.06301099999993}, "890150840RR0001": {"name": "FORT CHIPEWYAN HISTORICAL SOCIETY", "designationCode": "C", "categoryCode": "50", "address": "P.O. BOX 203", "city": "FORT CHIPEWYAN", "province": "AB", "country": "CA", "postalCode": "T0P1B0", "twitter": "None", "instagram": "None", "facebook": "None", "youtube": "None", "website": "None", "summary": "None", "logo": "None", "latitude": 58.71329000000003, "longitude": -111.15282999999994}, "118927896RR0001": {"name": "FORT DAUPHIN MUSEUM INC.", "designationCode": "C", "categoryCode": "50", "address": "PO BOX 181 STN MAIN", "city": "DAUPHIN", "province": "MB", "country": "CA", "postalCode": "R7N2V1", "twitter": "None", "instagram": "None", "facebook": "None", "youtube": "None", "website": "None", "summary": "None", "logo": "None", "latitude": 51.15237227291329, "longitude": -100.04667768863382}, "118927904RR0001": {"name": "FORT DUNVEGAN HISTORICAL SOCIETY", "designationCode": "C", "categoryCode": "53", "address": "BOX 1216", "city": "FAIRVIEW", "province": "AB", "country": "CA", "postalCode": "T0H1L0", "twitter": "None", "instagram": "None", "facebook": "None", "youtube": "None", "website": "None", "summary": "None", "logo": "None"}, "107394058RR0001": {"name": "FORT EDMONTON FOUNDATION", "designationCode": "A", "categoryCode": "53", "address": "PO BOX 67112 MEADOWLARK RPO", "city": "EDMONTON", "province": "AB", "country": "CA", "postalCode": "T5R5Y3", "twitter": "None", "instagram": "None", "facebook": "None", "youtube": "None", "website": "None", "summary": "None", "logo": "None", "latitude": 53.52145406559799, "longitude": -113.5958369896544}, "101851202RR0001": {"name": "FORT ERIE CO-OPERATIVE NURSERY SCHOOL INC.", "designationCode": "C", "categoryCode": "20", "address": "32 IDYLEWYLDE ST", "city": "FORT ERIE", "province": "ON", "country": "CA", "postalCode": "L2A2L1", "twitter": "None", "instagram": "None", "facebook": "None", "youtube": "None", "website": "None", "summary": "None", "logo": "None", "latitude": 42.91983970246413, "longitude": -78.91326051408095}, "899514996RR0001": {"name": "FORT ERIE CONSERVATION CLUB INC", "designationCode": "C", "categoryCode": "52", "address": "P.O. BOX 332", "city": "FORT ERIE", "province": "ON", "country": "CA", "postalCode": "L2A5N1", "twitter": "None", "instagram": "None", "facebook": "None", "youtube": "None", "website": "None", "summary": "None", "logo": "None", "latitude": 42.901962000000054, "longitude": -78.97422049999993}, "127539120RR0001": {"name": "FORT ERIE LA FRANCE ASSOCIATION", "designationCode": "C", "categoryCode": "50", "address": "1118 CONCESSION RD", "city": "FORT ERIE", "province": "ON", "country": "CA", "postalCode": "L2A4G8", "twitter": "None", "instagram": "None", "facebook": "None", "youtube": "None", "website": "None", "summary": "None", "logo": "None", "latitude": 42.90716647599398, "longitude": -78.92796501341712}, "118927979RR0001": {"name": "FORT ERIE LIONS SENIOR CITIZENS COMPLEX INC.", "designationCode": "C", "categoryCode": "09", "address": "265 HIGH ST", "city": "FORT ERIE", "province": "ON", "country": "CA", "postalCode": "L2A3R4", "twitter": "None", "instagram": "None", "facebook": "None", "youtube": "None", "website": "None", "summary": "None", "logo": "None", "latitude": 42.91073094754458, "longitude": -78.91580445845153}, "137009528RR0001": {"name": "FORT ERIE MEALS ON WHEELS", "designationCode": "C", "categoryCode": "09", "address": "32 IDYLEWYLDE STREET", "city": "FORT ERIE", "province": "ON", "country": "CA", "postalCode": "L2A2L1", "twitter": "None", "instagram": "None", "facebook": "None", "youtube": "None", "website": "None", "summary": "None", "logo": "None", "latitude": 42.91983970246413, "longitude": -78.91326051408095}, "135967768RR0001": {"name": "FORT ERIE MULTICULTURAL CENTRE", "designationCode": "C", "categoryCode": "20", "address": "PO BOX 104 STN MAIN", "city": "FORT ERIE", "province": "ON", "country": "CA", "postalCode": "L2A5M6", "twitter": "None", "instagram": "None", "facebook": "None", "youtube": "None", "website": "None", "summary": "None", "logo": "None", "latitude": 42.901962000000054, "longitude": -78.97422049999993}, "124657495RR0001": {"name": "FORT ERIE NATIVE CULTURAL CENTRE INC.", "designationCode": "C", "categoryCode": "22", "address": "796 BUFFALO ROAD", "city": "FORT ERIE", "province": "ON", "country": "CA", "postalCode": "L2A5H2", "twitter": "None", "instagram": "None", "facebook": "None", "youtube": "None", "website": "None", "summary": "None", "logo": "None", "latitude": 42.89680786372554, "longitude": -78.97025653448027}, "118927995RR0001": {"name": "FORT ERIE PUBLIC LIBRARY BOARD", "designationCode": "C", "categoryCode": "50", "address": "136 GILMORE ROAD", "city": "FORT ERIE", "province": "ON", "country": "CA", "postalCode": "L2A2M1", "twitter": "None", "instagram": "None", "facebook": "None", "youtube": "None", "website": "None", "summary": "None", "logo": "None", "latitude": 42.920504453257394, "longitude": -78.91840302844942}, "890976046RR0001": {"name": "FORT ERIE PUBLIC LIBRARY TRUST FUND", "designationCode": "A", "categoryCode": "55", "address": "136 GILMORE RD", "city": "FORT ERIE", "province": "ON", "country": "CA", "postalCode": "L2A2M1", "twitter": "None", "instagram": "None", "facebook": "None", "youtube": "None", "website": "None", "summary": "None", "logo": "None", "latitude": 42.920504453257394, "longitude": -78.91840302844942}, "118928001RR0001": {"name": "FORT ERIE SECONDARY SCHOOL SCHOLARSHIP TRUST FUND", "designationCode": "C", "categoryCode": "21", "address": "7 TAIT AVE", "city": "FORT ERIE", "province": "ON", "country": "CA", "postalCode": "L2A3P1", "twitter": "None", "instagram": "None", "facebook": "None", "youtube": "None", "website": "None", "summary": "None", "logo": "None", "latitude": 42.92428182843813, "longitude": -78.91471931582814}, "119288918RR0126": {"name": "FORT ERIE, ONTARIO, CONGREGATION OF JEHOVAH'S WITNESSES,", "designationCode": "C", "categoryCode": "61", "address": "530 WALDEN BLVD", "city": "FORT ERIE", "province": "ON", "country": "CA", "postalCode": "L2A1S3", "twitter": "None", "instagram": "None", "facebook": "None", "youtube": "None", "website": "None", "summary": "None", "logo": "None", "latitude": 42.906414856771995, "longitude": -78.93414080901975}, "107394215RR0001": {"name": "FORT FRANCES AND DISTRICT ASSOCIATION FOR COMMUNITY LIVING", "designationCode": "C", "categoryCode": "11", "address": "P O BOX 147", "city": "FT FRANCES", "province": "ON", "country": "CA", "postalCode": "P9A3M5", "twitter": "None", "instagram": "None", "facebook": "None", "youtube": "None", "website": "None", "summary": "None", "logo": "None", "latitude": 48.61003000000005, "longitude": -93.39110999999997}, "893553511RR0001": {"name": "FORT FRANCES CHURCH OF THE HOLY SPIRIT", "designationCode": "C", "categoryCode": "39", "address": "661 SECOND STREET EAST", "city": "FORT FRANCES", "province": "ON", "country": "CA", "postalCode": "P9A1N6", "twitter": "None", "instagram": "None", "facebook": "None", "youtube": "None", "website": "None", "summary": "None", "logo": "None", "latitude": 48.61187648124544, "longitude": -93.383154}, "119288918RR0227": {"name": "FORT FRANCES CONGREGATION OF JEHOVAH'S WITNESSES,", "designationCode": "C", "categoryCode": "61", "address": "2 EVERGREEN DR                RR 2", "city": "FORT FRANCES", "province": "ON", "country": "CA", "postalCode": "P9A3M3", "twitter": "None", "instagram": "None", "facebook": "None", "youtube": "None", "website": "None", "summary": "None", "logo": "None", "latitude": 48.62144950375093, "longitude": -93.3664905}, "890169840RR0001": {"name": "FORT FRANCES HIGH SCHOOL ENDOWMENT FUND", "designationCode": "C", "categoryCode": "21", "address": "440 MCIRVINE ROAD", "city": "FORT FRANCES", "province": "ON", "country": "CA", "postalCode": "P9A3T8", "twitter": "None", "instagram": "None", "facebook": "None", "youtube": "None", "website": "None", "summary": "None", "logo": "None", "latitude": 48.61008570795439, "longitude": -93.4274352079524}, "107394231RR0001": {"name": "FORT FRANCES MEALS ON WHEELS", "designationCode": "C", "categoryCode": "09", "address": "517 FIRST ST.E.", "city": "FORT FRANCES", "province": "ON", "country": "CA", "postalCode": "P9A1L2", "twitter": "None", "instagram": "None", "facebook": "None", "youtube": "None", "website": "None", "summary": "None", "logo": "None", "latitude": 48.61099748845882, "longitude": -93.38837391618097}, "118928043RR0001": {"name": "FORT FRANCES VOLUNTEER BUREAU", "designationCode": "C", "categoryCode": "09", "address": "140 FOURTH STREET W", "city": "FORT FRANCES", "province": "ON", "country": "CA", "postalCode": "P9A3B8", "twitter": "None", "instagram": "None", "facebook": "None", "youtube": "None", "website": "None", "summary": "None", "logo": "None", "latitude": 48.61350540237208, "longitude": -93.4049375976279}, "894113372RR0011": {"name": "FORT FRASER COMMUNITY CHURCH OF THE NAZARENE", "designationCode": "C", "categoryCode": "39", "address": "BOX 256", "city": "FORT FRASER", "province": "BC", "country": "CA", "postalCode": "V0J1N0", "twitter": "None", "instagram": "None", "facebook": "None", "youtube": "None", "website": "None", "summary": "None", "logo": "None", "latitude": 54.06102000000004, "longitude": -124.55226999999996}, "118928050RR0001": {"name": "FORT FRASER COMMUNITY HALL SOCIETY", "designationCode": "C", "categoryCode": "56", "address": "BOX 220", "city": "FORT FRASER", "province": "BC", "country": "CA", "postalCode": "V0J1N0", "twitter": "None", "instagram": "None", "facebook": "None", "youtube": "None", "website": "None", "summary": "None", "logo": "None", "latitude": 54.06102000000004, "longitude": -124.55226999999996}, "134630516RR0001": {"name": "FORT GARRY CHILD CARE CENTRE CO-OP INC", "designationCode": "C", "categoryCode": "01", "address": "1555 PEMBINA HIGHWAY", "city": "WINNIPEG", "province": "MB", "country": "CA", "postalCode": "R3T2E5", "twitter": "None", "instagram": "None", "facebook": "None", "youtube": "None", "website": "None", "summary": "None", "logo": "None", "latitude": 49.83251986623571, "longitude": -97.15096198303353}, "119288918RR0289": {"name": "FORT GARRY CONGREGATION OF JEHOVAH'S WITNESSES, WINNIPEG, MANITOBA", "designationCode": "C", "categoryCode": "61", "address": "60 CADBORO ROAD", "city": "WINNIPEG", "province": "MB", "country": "CA", "postalCode": "R3Y1R7", "twitter": "None", "instagram": "None", "facebook": "None", "youtube": "None", "website": "None", "summary": "None", "logo": "None", "latitude": 49.80138013289891, "longitude": -97.17627377153931}, "107394371RR0001": {"name": "FORT GARRY EVANGELICAL MENNONITE CHURCH", "designationCode": "C", "categoryCode": "34", "address": "602 PASADENA AVENUE", "city": "WINNIPEG", "province": "MB", "country": "CA", "postalCode": "R3T2S9", "twitter": "None", "instagram": "None", "facebook": "None", "youtube": "None", "website": "None", "summary": "None", "logo": "None", "latitude": 49.803115140689194, "longitude": -97.13325381207817}, "107394454RR0001": {"name": "FORT GARRY MENNONITE BRETHREN CHURCH", "designationCode": "C", "categoryCode": "34", "address": "1771 PEMBINA HWY", "city": "WINNIPEG", "province": "MB", "country": "CA", "postalCode": "R3T2G6", "twitter": "None", "instagram": "None", "facebook": "None", "youtube": "None", "website": "None", "summary": "None", "logo": "None", "latitude": 49.82544114155458, "longitude": -97.1527712161401}, "118928126RR0001": {"name": "FORT GARRY MENNONITE FELLOWSHIP", "designationCode": "C", "categoryCode": "34", "address": "150 BAYRIDGE AVE", "city": "WINNIPEG", "province": "MB", "country": "CA", "postalCode": "R3T5B5", "twitter": "None", "instagram": "None", "facebook": "None", "youtube": "None", "website": "None", "summary": "None", "logo": "None", "latitude": 49.798306614749954, "longitude": -97.1511713711987}, "107394504RR0001": {"name": "FORT GARRY UNITED CHURCH", "designationCode": "C", "categoryCode": "44", "address": "800 POINT RD", "city": "WINNIPEG", "province": "MB", "country": "CA", "postalCode": "R3T3L8", "twitter": "None", "instagram": "None", "facebook": "None", "youtube": "None", "website": "None", "summary": "None", "logo": "None", "latitude": 49.8466287254892, "longitude": -97.14348500750182}, "108082389RR0001": {"name": "FORT GARRY WOMEN'S RESOURCE CENTRE INC.", "designationCode": "C", "categoryCode": "59", "address": "1150 A WAVERLEY ST", "city": "WINNIPEG", "province": "MB", "country": "CA", "postalCode": "R3T0P4", "twitter": "None", "instagram": "None", "facebook": "None", "youtube": "None", "website": "None", "summary": "None", "logo": "None", "latitude": 49.835025167638065, "longitude": -97.1792193926659}, "107394512RR0001": {"name": "FORT GEORGE BAPTIST CHURCH", "designationCode": "C", "categoryCode": "31", "address": "210 - 556 NORTH NECHAKO RD", "city": "PRINCE GEORGE", "province": "BC", "country": "CA", "postalCode": "V2K1A1", "twitter": "None", "instagram": "None", "facebook": "None", "youtube": "None", "website": "None", "summary": "None", "logo": "None", "latitude": 53.93118924938793, "longitude": -122.78078176069265}, "107394660RR0001": {"name": "FORT LA REINE MUSEUM, PIONEER VILLAGE AND TOURIST BUREAU INC.", "designationCode": "C", "categoryCode": "53", "address": "2652 SASKATCHEWAN AVE E", "city": "PORTAGE LA PRAIRIE RM", "province": "MB", "country": "CA", "postalCode": "R1N3Z9", "twitter": "None", "instagram": "None", "facebook": "None", "youtube": "None", "website": "None", "summary": "None", "logo": "None", "latitude": 49.97421968501107, "longitude": -98.333704617864}, "894009257RR0001": {"name": "FORT LANGLEY CHILD CARE SOCIETY", "designationCode": "C", "categoryCode": "01", "address": "8877 BARTLETT ST.", "city": "FORT LANGLEY", "province": "BC", "country": "CA", "postalCode": "V1M2S6", "twitter": "None", "instagram": "None", "facebook": "None", "youtube": "None", "website": "None", "summary": "None", "logo": "None", "latitude": 49.163611113566525, "longitude": -122.58136374727256}, "121694038RR0001": {"name": "FORT LANGLEY COMMUNITY IMPROVEMENT SOCIETY", "designationCode": "C", "categoryCode": "59", "address": "PO BOX 627 STN FORT LANGLEY", "city": "LANGLEY", "province": "BC", "country": "CA", "postalCode": "V1M2R9", "twitter": "None", "instagram": "None", "facebook": "None", "youtube": "None", "website": "None", "summary": "None", "logo": "None", "latitude": 49.16854007718262, "longitude": -122.57416995556595}, "107373094RR0001": {"name": "FORT LANGLEY EVANGELICAL FREE CHURCH", "designationCode": "C", "categoryCode": "39", "address": "8870 GLOVER RDBOX 621", "city": "FORT LANGLEY", "province": "BC", "country": "CA", "postalCode": "V1M2R9", "twitter": "None", "instagram": "None", "facebook": "None", "youtube": "None", "website": "None", "summary": "None", "logo": "None", "latitude": 49.163239500663835, "longitude": -122.58535871974772}, "888913860RR0001": {"name": "FORT LANGLEY LEGACY FOUNDATION", "designationCode": "A", "categoryCode": "53", "address": "PO BOX 393 FORT LANGLEY", "city": "LANGLEY", "province": "BC", "country": "CA", "postalCode": "V1M2R7", "twitter": "None", "instagram": "None", "facebook": "None", "youtube": "None", "website": "None", "summary": "None", "logo": "None", "latitude": 49.16854007718262, "longitude": -122.57416995556595}, "107394694RR0001": {"name": "FORT MACLEOD ALLIANCE CHURCH", "designationCode": "C", "categoryCode": "39", "address": "BOX 608", "city": "FORT MACLEOD", "province": "AB", "country": "CA", "postalCode": "T0L0Z0", "twitter": "None", "instagram": "None", "facebook": "None", "youtube": "None", "website": "None", "summary": "None", "logo": "None", "latitude": 49.72081000000003, "longitude": -113.42989999999998}, "873396477RR0001": {"name": "FORT MACLEOD AND DISTRICT ALLIED ARTS COUNCIL ASSOCIATION", "designationCode": "C", "categoryCode": "22", "address": "PO BOX 244", "city": "FORT MACLEOD", "province": "AB", "country": "CA", "postalCode": "T0L0Z0", "twitter": "None", "instagram": "None", "facebook": "None", "youtube": "None", "website": "None", "summary": "None", "logo": "None", "latitude": 49.72608000000008, "longitude": -113.39563999999996}, "867323081RR0001": {"name": "FORT MACLEOD AND DISTRICT HEALTH FOUNDATION", "designationCode": "A", "categoryCode": "19", "address": "BOX 520", "city": "FORT MACLEOD", "province": "AB", "country": "CA", "postalCode": "T0L0Z0", "twitter": "None", "instagram": "None", "facebook": "None", "youtube": "None", "website": "None", "summary": "None", "logo": "None", "latitude": 49.72081000000003, "longitude": -113.42989999999998}, "107394702RR0001": {"name": "FORT MACLEOD CHRISTIAN FELLOWSHIP", "designationCode": "C", "categoryCode": "36", "address": "12140-103 ST. NW", "city": "EDMONTON", "province": "AB", "country": "CA", "postalCode": "T5G2J9", "twitter": "None", "instagram": "None", "facebook": "None", "youtube": "None", "website": "None", "summary": "None", "logo": "None", "latitude": 53.575749, "longitude": -113.49743926319982}, "118928225RR0001": {"name": "FORT MACLEOD CONGREGATION OF JEHOVAHS WITNESSES", "designationCode": "C", "categoryCode": "61", "address": "BOX 1781", "city": "FORT MACLEOD", "province": "AB", "country": "CA", "postalCode": "T0L0Z0", "twitter": "None", "instagram": "None", "facebook": "None", "youtube": "None", "website": "None", "summary": "None", "logo": "None", "latitude": 49.72081000000003, "longitude": -113.42989999999998}, "122483522RR0001": {"name": "FORT MACLEOD HANDIBUS SOCIETY", "designationCode": "C", "categoryCode": "59", "address": "BOX 881", "city": "FORT MACLEOD", "province": "AB", "country": "CA", "postalCode": "T0L0Z0", "twitter": "None", "instagram": "None", "facebook": "None", "youtube": "None", "website": "None", "summary": "None", "logo": "None", "latitude": 49.72081000000003, "longitude": -113.42989999999998}, "107394777RR0001": {"name": "FORT MACLEOD HISTORICAL ASSOCIATION", "designationCode": "C", "categoryCode": "52", "address": "219 25TH ST PO BOX 776", "city": "FORT MACLEOD", "province": "AB", "country": "CA", "postalCode": "T0L0Z0", "twitter": "None", "instagram": "None", "facebook": "None", "youtube": "None", "website": "None", "summary": "None", "logo": "None", "latitude": 49.726366360948596, "longitude": -113.40741095447773}, "887351799RR0001": {"name": "FORT MACLEOD HOSPITAL AUXILIARY", "designationCode": "C", "categoryCode": "19", "address": "PO BOX 1780", "city": "FORT MACLEOD", "province": "AB", "country": "CA", "postalCode": "T0L0Z0", "twitter": "None", "instagram": "None", "facebook": "None", "youtube": "None", "website": "None", "summary": "None", "logo": "None", "latitude": 49.72608000000008, "longitude": -113.39563999999996}, "891248346RR0001": {"name": "FORT MACLEOD LIFECARE SOCIETY", "designationCode": "C", "categoryCode": "09", "address": "PO BOX 2523", "city": "FORT MACLEOD", "province": "AB", "country": "CA", "postalCode": "T0L0Z0", "twitter": "None", "instagram": "None", "facebook": "None", "youtube": "None", "website": "None", "summary": "None", "logo": "None", "latitude": 49.72608000000008, "longitude": -113.39563999999996}, "107394736RR0001": {"name": "FORT MACLEOD-GRANUM PASTORAL CHARGE", "designationCode": "C", "categoryCode": "44", "address": "BOX 100", "city": "FORT MACLEOD", "province": "AB", "country": "CA", "postalCode": "T0L0Z0", "twitter": "None", "instagram": "None", "facebook": "None", "youtube": "None", "website": "None", "summary": "None", "logo": "None", "latitude": 49.72081000000003, "longitude": -113.42989999999998}, "118928266RR0001": {"name": "FORT MALDEN GOLDEN AGE CENTRE", "designationCode": "C", "categoryCode": "56", "address": "3295 MELOCHE ROAD", "city": "AMHERSTBURG", "province": "ON", "country": "CA", "postalCode": "N9V2Y8", "twitter": "None", "instagram": "None", "facebook": "None", "youtube": "None", "website": "None", "summary": "None", "logo": "None", "latitude": 42.09600423980035, "longitude": -83.08267452080335}, "891032583RR0001": {"name": "FORT MALDEN GUILD OF ARTS AND CRAFTS", "designationCode": "C", "categoryCode": "22", "address": "140 RICHMOND ST", "city": "AMHERSTBURG", "province": "ON", "country": "CA", "postalCode": "N9V1G4", "twitter": "None", "instagram": "None", "facebook": "None", "youtube": "None", "website": "None", "summary": "None", "logo": "None", "latitude": 42.103489063378014, "longitude": -83.10835792116065}, "118928282RR0001": {"name": "FORT MASSEY UNITED CHURCH", "designationCode": "C", "categoryCode": "44", "address": "5303 TOBIN ST", "city": "HALIFAX", "province": "NS", "country": "CA", "postalCode": "B3H1S3", "twitter": "None", "instagram": "None", "facebook": "None", "youtube": "None", "website": "None", "summary": "None", "logo": "None", "latitude": 44.638740837093785, "longitude": -63.57310938579831}, "107395014RR0001": {"name": "FORT MCMURRAY CATHOLIC BOARD OF EDUCATION", "designationCode": "C", "categoryCode": "20", "address": "9809 MAIN STREET", "city": "FORT MCMURRAY", "province": "AB", "country": "CA", "postalCode": "T9H1T7", "twitter": "None", "instagram": "None", "facebook": "None", "youtube": "None", "website": "None", "summary": "None", "logo": "None", "latitude": 56.72653250401073, "longitude": -111.38308354853163}, "118928324RR0001": {"name": "FORT MCMURRAY CHINESE-CANADIAN CULTURAL SOCIETY", "designationCode": "C", "categoryCode": "22", "address": "PO BOX 5815", "city": "FORT MCMURRAY", "province": "AB", "country": "CA", "postalCode": "T9H4V9", "twitter": "None", "instagram": "None", "facebook": "None", "youtube": "None", "website": "None", "summary": "None", "logo": "None", "latitude": 56.72719500000005, "longitude": -111.38028199999994}, "132813155RR0001": {"name": "FORT MCMURRAY CHRISTIAN BRETHREN ASSEMBLY", "designationCode": "C", "categoryCode": "39", "address": "104 BRETT DRIVE", "city": "FORT MCMURRAY", "province": "AB", "country": "CA", "postalCode": "T9K2G9", "twitter": "None", "instagram": "None", "facebook": "None", "youtube": "None", "website": "None", "summary": "None", "logo": "None", "latitude": 56.74481681926289, "longitude": -111.4633356954819}, "141132696RR0001": {"name": "FORT MCMURRAY CHRISTIAN SCHOOL SOCIETY", "designationCode": "C", "categoryCode": "21", "address": "107 BRETT DR", "city": "FORT MCMURRAY", "province": "AB", "country": "CA", "postalCode": "T9K1V1", "twitter": "None", "instagram": "None", "facebook": "None", "youtube": "None", "website": "None", "summary": "None", "logo": "None", "latitude": 56.74514421680392, "longitude": -111.46237080783632}, "118928340RR0001": {"name": "FORT MCMURRAY CONGREGATION OF JEHOVAHS WITNESSES", "designationCode": "C", "categoryCode": "61", "address": "#305-8026 FRANKLIN AVE", "city": "FORT MCMURRAY", "province": "AB", "country": "CA", "postalCode": "T9H5K3", "twitter": "None", "instagram": "None", "facebook": "None", "youtube": "None", "website": "None", "summary": "None", "logo": "None", "latitude": 56.713984844884074, "longitude": -111.34625080275869}, "118928373RR0001": {"name": "FORT MCMURRAY GOLDEN YEARS SOCIETY", "designationCode": "C", "categoryCode": "56", "address": "10111 MAIN STREET", "city": "FORT MCMURRAY", "province": "AB", "country": "CA", "postalCode": "T9H2G6", "twitter": "None", "instagram": "None", "facebook": "None", "youtube": "None", "website": "None", "summary": "None", "logo": "None"}, "893649368RR0001": {"name": "FORT MCMURRAY HISTORICAL SOCIETY", "designationCode": "C", "categoryCode": "50", "address": "1 TOLEN DRIVE", "city": "FORT MCMURRAY", "province": "AB", "country": "CA", "postalCode": "T9H1G7", "twitter": "None", "instagram": "None", "facebook": "None", "youtube": "None", "website": "None", "summary": "None", "logo": "None", "latitude": 56.708396530422334, "longitude": -111.35481115981322}, "107408890RR0001": {"name": "FORT MCMURRAY SCHOOL DISTRICT NO. 2833", "designationCode": "C", "categoryCode": "20", "address": "231 HARDIN ST", "city": "FORT MCMURRAY", "province": "AB", "country": "CA", "postalCode": "T9H2G2", "twitter": "None", "instagram": "None", "facebook": "None", "youtube": "None", "website": "None", "summary": "None", "logo": "None", "latitude": 56.730263357435824, "longitude": -111.37433527174178}, "889707667RR0001": {"name": "FORT MCMURRAY SEARCH & RESCUE SOCIETY", "designationCode": "C", "categoryCode": "59", "address": "P.O. BOX 5053", "city": "FORT MCMURRAY", "province": "AB", "country": "CA", "postalCode": "T9H3G2", "twitter": "None", "instagram": "None", "facebook": "None", "youtube": "None", "website": "None", "summary": "None", "logo": "None", "latitude": 56.72719500000005, "longitude": -111.38028199999994}, "106693047RR0015": {"name": "FORT MCMURRAY SEVENTH-DAY ADVENTIST CHURCH", "designationCode": "C", "categoryCode": "41", "address": "5816 HIGHWAY, 2A", "city": "LACOMBE", "province": "AB", "country": "CA", "postalCode": "T4L2G5", "twitter": "None", "instagram": "None", "facebook": "None", "youtube": "None", "website": "None", "summary": "None", "logo": "None", "latitude": 52.474063600197404, "longitude": -113.71692568401835}, "893333575RR0001": {"name": "FORT MCMURRAY SOCIETY FOR THE PREVENTION OF CRUELTY TO ANIMALS", "designationCode": "C", "categoryCode": "54", "address": "155 MACALPINE CRES", "city": "FORT MCMURRAY", "province": "AB", "country": "CA", "postalCode": "T9H4A5", "twitter": "None", "instagram": "None", "facebook": "None", "youtube": "None", "website": "None", "summary": "None", "logo": "None", "latitude": 56.660927589445876, "longitude": -111.33012844376499}, "107395097RR0001": {"name": "FORT MCMURRAY UNITED CHURCH", "designationCode": "C", "categoryCode": "44", "address": "10003 GORDON AVE", "city": "FORT MCMURRAY", "province": "AB", "country": "CA", "postalCode": "T9H2E4", "twitter": "None", "instagram": "None", "facebook": "None", "youtube": "None", "website": "None", "summary": "None", "logo": "None", "latitude": 56.730245177332925, "longitude": -111.37887260133283}, "129707808RR0001": {"name": "FORT MCMURRAY VICTIM SERVICES SOCIETY", "designationCode": "C", "categoryCode": "02", "address": "PO BOX 5712 STN MAIN", "city": "FORT MCMURRAY", "province": "AB", "country": "CA", "postalCode": "T9H4V9", "twitter": "None", "instagram": "None", "facebook": "None", "youtube": "None", "website": "None", "summary": "None", "logo": "None", "latitude": 56.72886017135369, "longitude": -111.38020385943572}, "107395154RR0001": {"name": "FORT NELSON ALLIANCE CHURCH", "designationCode": "C", "categoryCode": "39", "address": "BOX 35", "city": "FORT NELSON", "province": "BC", "country": "CA", "postalCode": "V0C1R0", "twitter": "None", "instagram": "None", "facebook": "None", "youtube": "None", "website": "None", "summary": "None", "logo": "None", "latitude": 58.80501000000004, "longitude": -122.70459999999997}, "870126679RR0001": {"name": "FORT NELSON FAMILY DEVELOPMENT SOCIETY", "designationCode": "C", "categoryCode": "09", "address": "BOX 1210                      5012 AIRPORT DRIVE", "city": "FORT NELSON", "province": "BC", "country": "CA", "postalCode": "V0C1R0", "twitter": "None", "instagram": "None", "facebook": "None", "youtube": "None", "website": "None", "summary": "None", "logo": "None", "latitude": 58.805700905250866, "longitude": -122.69710296160736}, "869781500RR0001": {"name": "FORT NELSON HOSPITAL & HEALTHCARE FOUNDATION", "designationCode": "C", "categoryCode": "11", "address": "BAG 1000", "city": "FORT NELSON", "province": "BC", "country": "CA", "postalCode": "V0C1R0", "twitter": "None", "instagram": "None", "facebook": "None", "youtube": "None", "website": "None", "summary": "None", "logo": "None", "latitude": 58.80464700000006, "longitude": -122.70047299999993}, "118928506RR0001": {"name": "FORT NELSON PUBLIC LIBRARY ASSOCIATION", "designationCode": "C", "categoryCode": "50", "address": "P O BOX 330", "city": "FORT NELSON", "province": "BC", "country": "CA", "postalCode": "V0C1R0", "twitter": "None", "instagram": "None", "facebook": "None", "youtube": "None", "website": "None", "summary": "None", "logo": "None", "latitude": 58.80465000000004, "longitude": -122.70046999999994}, "107395329RR0001": {"name": "FORT OSTELL MUSEUM SOCIETY", "designationCode": "C", "categoryCode": "50", "address": "5320 54 ST", "city": "PONOKA", "province": "AB", "country": "CA", "postalCode": "T4J1L9", "twitter": "None", "instagram": "None", "facebook": "None", "youtube": "None", "website": "None", "summary": "None", "logo": "None", "latitude": 52.68140976963475, "longitude": -113.58353665191234}, "890192594RR0001": {"name": "FORT PITT PARISH,", "designationCode": "C", "categoryCode": "30", "address": "BOX 157", "city": "PARADISE HILL", "province": "SK", "country": "CA", "postalCode": "S0M2G0", "twitter": "None", "instagram": "None", "facebook": "None", "youtube": "None", "website": "None", "summary": "None", "logo": "None", "latitude": 53.53915000000006, "longitude": -109.45828999999998}, "890413974RR0001": {"name": "FORT QU'APPELLE SENIOR CITIZENS CLUB", "designationCode": "C", "categoryCode": "09", "address": "P.O. BOX 477", "city": "FORT QU'APPELLE", "province": "SK", "country": "CA", "postalCode": "S0G1S0", "twitter": "None", "instagram": "None", "facebook": "None", "youtube": "None", "website": "None", "summary": "None", "logo": "None", "latitude": 50.76964000000004, "longitude": -103.79339999999996}, "107395451RR0001": {"name": "FORT RICHMOND BAPTIST CHURCH INCORPORATED", "designationCode": "C", "categoryCode": "31", "address": "10 RADCLIFFE RD", "city": "WINNIPEG", "province": "MB", "country": "CA", "postalCode": "R3T3Y9", "twitter": "None", "instagram": "None", "facebook": "None", "youtube": "None", "website": "None", "summary": "None", "logo": "None", "latitude": 49.79150163056164, "longitude": -97.14303717652486}, "890436447RR0001": {"name": "FORT RICHMOND-ACADIA BAND BOOSTERS ASSOCIATION INC", "designationCode": "C", "categoryCode": "22", "address": "99 KILLARNEY AVE.", "city": "WINNIPEG", "province": "MB", "country": "CA", "postalCode": "R3T3B3", "twitter": "None", "instagram": "None", "facebook": "None", "youtube": "None", "website": "None", "summary": "None", "logo": "None", "latitude": 49.7909798343525, "longitude": -97.15250906082262}, "896784394RR0001": {"name": "FORT ROAD VICTORY CHURCH", "designationCode": "C", "categoryCode": "39", "address": "13470 FORT RD", "city": "EDMONTON", "province": "AB", "country": "CA", "postalCode": "T5A1C5", "twitter": "None", "instagram": "None", "facebook": "None", "youtube": "None", "website": "None", "summary": "None", "logo": "None", "latitude": 53.5964417167846, "longitude": -113.42537937643382}, "130486020RR0001": {"name": "FORT ROUGE CHILD CARE PROGRAMS BOARD, INC", "designationCode": "C", "categoryCode": "01", "address": "525 WARDLAW AVE", "city": "WINNIPEG", "province": "MB", "country": "CA", "postalCode": "R3L0L9", "twitter": "None", "instagram": "None", "facebook": "None", "youtube": "None", "website": "None", "summary": "None", "logo": "None", "latitude": 49.87597988095088, "longitude": -97.1470626483639}}