{"886502764RR0001": {"name": "NORTH OKANAGAN FOUNDATION FOR THE MENTALLY HANDICAPPED", "designationCode": "A", "categoryCode": "13", "address": "4240 ALEXIS PARK DRIVE", "city": "VERNON", "province": "BC", "country": "CA", "postalCode": "V1T6H3", "twitter": "None", "instagram": "None", "facebook": "None", "youtube": "None", "website": "None", "summary": "None", "logo": "None", "latitude": 50.27465445242067, "longitude": -119.28180983937281}, "108170648RR0001": {"name": "NORTH OKANAGAN HOSPICE SOCIETY", "designationCode": "C", "categoryCode": "11", "address": "3506 - 27 AVENUE", "city": "VERNON", "province": "BC", "country": "CA", "postalCode": "V1T1S4", "twitter": "None", "instagram": "None", "facebook": "None", "youtube": "None", "website": "None", "summary": "None", "logo": "None", "latitude": 50.2615170426267, "longitude": -119.27956728105214}, "886146786RR0002": {"name": "NORTH OKANAGAN NATURALISTS' SOCIETY", "designationCode": "C", "categoryCode": "52", "address": "P. O. BOX 473", "city": "VERNON", "province": "BC", "country": "CA", "postalCode": "V1T6M4", "twitter": "None", "instagram": "None", "facebook": "None", "youtube": "None", "website": "None", "summary": "None", "logo": "None", "latitude": 50.26567200000005, "longitude": -119.27378149999993}, "107783482RR0001": {"name": "NORTH OKANAGAN NEUROLOGICAL ASSOCIATION", "designationCode": "C", "categoryCode": "20", "address": "2802-34 ST", "city": "VERNON", "province": "BC", "country": "CA", "postalCode": "V1T5X1", "twitter": "None", "instagram": "None", "facebook": "None", "youtube": "None", "website": "None", "summary": "None", "logo": "None", "latitude": 50.262462, "longitude": -119.27710701416692}, "891393019RR0001": {"name": "NORTH OKANAGAN PARKS & NATURAL AREA TRUST", "designationCode": "C", "categoryCode": "52", "address": "PO BOX 265", "city": "VERNON", "province": "BC", "country": "CA", "postalCode": "V1T6M2", "twitter": "None", "instagram": "None", "facebook": "None", "youtube": "None", "website": "None", "summary": "None", "logo": "None", "latitude": 50.26567200000005, "longitude": -119.27378149999993}, "119060895RR0001": {"name": "NORTH OKANAGAN SIKH CULTURAL SOCIETY OF VERNON, B.C.", "designationCode": "C", "categoryCode": "62", "address": "3800 COMMONAGE CRES", "city": "VERNON", "province": "BC", "country": "CA", "postalCode": "V1T8H3", "twitter": "None", "instagram": "None", "facebook": "None", "youtube": "None", "website": "None", "summary": "None", "logo": "None", "latitude": 50.25176300680037, "longitude": -119.28485952375239}, "129899563RR0001": {"name": "NORTH OKANAGAN SOCIAL PLANNING SOCIETY", "designationCode": "C", "categoryCode": "09", "address": "3105 33 STREET", "city": "VERNON", "province": "BC", "country": "CA", "postalCode": "V1T9P7", "twitter": "None", "instagram": "None", "facebook": "None", "youtube": "None", "website": "None", "summary": "None", "logo": "None", "latitude": 50.265108, "longitude": -119.2750784924695}, "892043449RR0001": {"name": "NORTH OKANAGAN THERAPEUTIC RIDING ASSOCIATION", "designationCode": "C", "categoryCode": "56", "address": "PO BOX 58", "city": "ARMSTRONG", "province": "BC", "country": "CA", "postalCode": "V0E1B0", "twitter": "None", "instagram": "None", "facebook": "None", "youtube": "None", "website": "None", "summary": "None", "logo": "None", "latitude": 50.44798500000006, "longitude": -119.19492799999993}, "842151813RR0001": {"name": "NORTH OKANAGAN VALLEY GLEANERS SOCIETY", "designationCode": "C", "categoryCode": "09", "address": "4405 29 ST", "city": "VERNON", "province": "BC", "country": "CA", "postalCode": "V1T5B7", "twitter": "None", "instagram": "None", "facebook": "None", "youtube": "None", "website": "None", "summary": "None", "logo": "None", "latitude": 50.2767002514571, "longitude": -119.26995952521811}, "107783532RR0001": {"name": "NORTH OKANAGAN YOUTH AND FAMILY SERVICES SOCIETY", "designationCode": "C", "categoryCode": "01", "address": "3100-32 AVE", "city": "VERNON", "province": "BC", "country": "CA", "postalCode": "V1T2L9", "twitter": "None", "instagram": "None", "facebook": "None", "youtube": "None", "website": "None", "summary": "None", "logo": "None", "latitude": 50.265290474032085, "longitude": -119.27266216763806}, "891491045RR0001": {"name": "NORTH OKANAGAN/SHUSWAP BRAIN INJURY SOCIETY", "designationCode": "C", "categoryCode": "11", "address": "364 B ROSS ST. N.E.           P.O. BOX 760", "city": "SALMON ARM", "province": "BC", "country": "CA", "postalCode": "V1E4N8", "twitter": "None", "instagram": "None", "facebook": "None", "youtube": "None", "website": "None", "summary": "None", "logo": "None", "latitude": 50.70262100695356, "longitude": -119.28193627806017}, "137535456RR0001": {"name": "NORTH OYSTER AND AREA HISTORICAL SOCIETY", "designationCode": "C", "categoryCode": "52", "address": "13467 CEDAR RD", "city": "LADYSMITH", "province": "BC", "country": "CA", "postalCode": "V9G1H6", "twitter": "None", "instagram": "None", "facebook": "None", "youtube": "None", "website": "None", "summary": "None", "logo": "None", "latitude": 49.04436885334358, "longitude": -123.84557231609637}, "119288918RR0486": {"name": "NORTH PARK CONGREGATION OF JEHOVAH'S WITNESSES BRAMPTON ONTARIO", "designationCode": "C", "categoryCode": "61", "address": "11 LONE OAK AVE", "city": "BRAMPTON", "province": "ON", "country": "CA", "postalCode": "L6S5V4", "twitter": "None", "instagram": "None", "facebook": "None", "youtube": "None", "website": "None", "summary": "None", "logo": "None", "latitude": 43.711952761873114, "longitude": -79.743602930175}, "119288918RR0750": {"name": "NORTH PARK CONGREGATION OF JEHOVAH'S WITNESSES, BRANTFORD, ONTARIO", "designationCode": "C", "categoryCode": "61", "address": "101 LYNDEN HILL CRESCENT", "city": "BRANTFORD", "province": "ON", "country": "CA", "postalCode": "N3P1R8", "twitter": "None", "instagram": "None", "facebook": "None", "youtube": "None", "website": "None", "summary": "None", "logo": "None", "latitude": 43.18340049096898, "longitude": -80.22785252885345}, "119247674RR0001": {"name": "NORTH PARK MANOR SOCIETY", "designationCode": "C", "categoryCode": "59", "address": "875 NORTH PARK ST", "city": "VICTORIA", "province": "BC", "country": "CA", "postalCode": "V8W3B8", "twitter": "None", "instagram": "None", "facebook": "None", "youtube": "None", "website": "None", "summary": "None", "logo": "None", "latitude": 48.42987750678068, "longitude": -123.35948369761668}, "891942179RR0001": {"name": "NORTH PARK PIONEER CEMETERY ORGANIZATION", "designationCode": "C", "categoryCode": "59", "address": "3909-65 AVE", "city": "LLOYDMINSTER", "province": "AB", "country": "CA", "postalCode": "T9V2W6", "twitter": "None", "instagram": "None", "facebook": "None", "youtube": "None", "website": "None", "summary": "None", "logo": "None", "latitude": 53.27282109965939, "longitude": -110.0387539711179}, "107783607RR0001": {"name": "NORTH PARK PRESBYTERIAN CHURCH", "designationCode": "C", "categoryCode": "37", "address": "1579 ROYAL YORK ROAD", "city": "TORONTO", "province": "ON", "country": "CA", "postalCode": "M9P3C5", "twitter": "None", "instagram": "None", "facebook": "None", "youtube": "None", "website": "None", "summary": "None", "logo": "None", "latitude": 43.69937663947713, "longitude": -79.53400822851894}, "122662778RR0001": {"name": "NORTH PEACE COMMUNITY RESOURCES SOCIETY", "designationCode": "C", "categoryCode": "59", "address": "10142-101ST AVE", "city": "FORT ST JOHN", "province": "BC", "country": "CA", "postalCode": "V1J2B3", "twitter": "None", "instagram": "None", "facebook": "None", "youtube": "None", "website": "None", "summary": "None", "logo": "None", "latitude": 56.24746551875456, "longitude": -120.85034310935426}, "131202871RR0001": {"name": "NORTH PEACE CULTURAL SOCIETY", "designationCode": "C", "categoryCode": "22", "address": "10015 100TH AVE", "city": "FORT ST JOHN", "province": "BC", "country": "CA", "postalCode": "V1J1Y7", "twitter": "None", "instagram": "None", "facebook": "None", "youtube": "None", "website": "None", "summary": "None", "logo": "None", "latitude": 56.24636923382872, "longitude": -120.84782968812686}, "119060986RR0001": {"name": "NORTH PEACE HISTORICAL SOCIETY", "designationCode": "C", "categoryCode": "50", "address": "9323 - 100TH ST", "city": "FORT ST JOHN", "province": "BC", "country": "CA", "postalCode": "V1J4N4", "twitter": "None", "instagram": "None", "facebook": "None", "youtube": "None", "website": "None", "summary": "None", "logo": "None", "latitude": 56.240213731057764, "longitude": -120.84751096413568}, "866318686RR0001": {"name": "NORTH PEACE JUSTICE SOCIETY", "designationCode": "C", "categoryCode": "59", "address": "110-10142 101 AVE", "city": "FORT ST JOHN", "province": "BC", "country": "CA", "postalCode": "V1J2B3", "twitter": "None", "instagram": "None", "facebook": "None", "youtube": "None", "website": "None", "summary": "None", "logo": "None", "latitude": 56.24746551875456, "longitude": -120.85034310935426}, "894835818RR0001": {"name": "NORTH PEACE MENNONITE BRETHREN CHURCH", "designationCode": "C", "categoryCode": "34", "address": "10816-106 ST", "city": "FORT ST JOHN", "province": "BC", "country": "CA", "postalCode": "V1J5V2", "twitter": "None", "instagram": "None", "facebook": "None", "youtube": "None", "website": "None", "summary": "None", "logo": "None", "latitude": 56.25400500000001, "longitude": -120.85764097991778}, "880422423RR0001": {"name": "NORTH PEACE MENTAL HEALTH SOCIETY", "designationCode": "C", "categoryCode": "11", "address": "9410 104 AVE", "city": "FORT ST. JOHN", "province": "BC", "country": "CA", "postalCode": "V1J2J9", "twitter": "None", "instagram": "None", "facebook": "None", "youtube": "None", "website": "None", "summary": "None", "logo": "None", "latitude": 56.25025145325739, "longitude": -120.8372524417162}, "131730640RR0001": {"name": "NORTH PEACE OUT-OF-SCHOOL CHILD CARE SOCIETY", "designationCode": "C", "categoryCode": "01", "address": "10316 99 AVENUE", "city": "FORT ST JOHN", "province": "BC", "country": "CA", "postalCode": "V1J1V4", "twitter": "None", "instagram": "None", "facebook": "None", "youtube": "None", "website": "None", "summary": "None", "logo": "None", "latitude": 56.24542349321934, "longitude": -120.85352002553523}, "891583445RR0001": {"name": "NORTH PEACE PERFORMING ARTS FESTIVAL ASSOCIATION", "designationCode": "C", "categoryCode": "22", "address": "POST OFFICE BOX 7254", "city": "PEACE RIVER", "province": "AB", "country": "CA", "postalCode": "T8S1S9", "twitter": "None", "instagram": "None", "facebook": "None", "youtube": "None", "website": "None", "summary": "None", "logo": "None", "latitude": 56.232969000000054, "longitude": -117.29043349999993}, "869389940RR0001": {"name": "NORTH PEACE PREGNANCY CARE CENTRE SOCIETY", "designationCode": "C", "categoryCode": "11", "address": "SUITE 335 9900-100 AVE.", "city": "FORT ST JOHN", "province": "BC", "country": "CA", "postalCode": "V1J5S7", "twitter": "None", "instagram": "None", "facebook": "None", "youtube": "None", "website": "None", "summary": "None", "logo": "None", "latitude": 56.24650650043269, "longitude": -120.84604102553521}, "119060960RR0001": {"name": "NORTH PEACE SENIORS HOUSING SOCIETY", "designationCode": "C", "categoryCode": "01", "address": "101 9816-108TH AVE", "city": "FORT ST JOHN", "province": "BC", "country": "CA", "postalCode": "V1J5S4", "twitter": "None", "instagram": "None", "facebook": "None", "youtube": "None", "website": "None", "summary": "None", "logo": "None", "latitude": 56.25381252986306, "longitude": -120.8454514417162}, "897986063RR0001": {"name": "NORTH PEACE YOUTH SUPPORT ASSOCIATION", "designationCode": "C", "categoryCode": "09", "address": "BOX 27", "city": "FAIRVIEW", "province": "AB", "country": "CA", "postalCode": "T0H1L0", "twitter": "None", "instagram": "None", "facebook": "None", "youtube": "None", "website": "None", "summary": "None", "logo": "None", "latitude": 56.06862000000007, "longitude": -118.39200999999997}, "119061018RR0001": {"name": "NORTH PELHAM YOUTH ASSOCIATION INC.", "designationCode": "C", "categoryCode": "56", "address": "1178 MAPLE STREET             PO BOX 91", "city": "FENWICK", "province": "ON", "country": "CA", "postalCode": "L0S1C0", "twitter": "None", "instagram": "None", "facebook": "None", "youtube": "None", "website": "None", "summary": "None", "logo": "None", "latitude": 43.02848610935425, "longitude": -79.36105959593714}, "140574781RR0001": {"name": "NORTH PERTH COMMUNITY HOSPICE INC", "designationCode": "C", "categoryCode": "11", "address": "135 MAIN ST W", "city": "LISTOWEL", "province": "ON", "country": "CA", "postalCode": "N4W1A2", "twitter": "None", "instagram": "None", "facebook": "None", "youtube": "None", "website": "None", "summary": "None", "logo": "None", "latitude": 43.73180349500523, "longitude": -80.95359008446607}, "890845548RR0001": {"name": "NORTH PINE COMMUNITY CHURCH", "designationCode": "C", "categoryCode": "39", "address": "PO BOX 6539", "city": "FORT ST JOHN", "province": "BC", "country": "CA", "postalCode": "V1J4H9", "twitter": "None", "instagram": "None", "facebook": "None", "youtube": "None", "website": "None", "summary": "None", "logo": "None", "latitude": 56.25253500000005, "longitude": -120.84748099999993}, "119293025RR0007": {"name": "NORTH POINT COMMUNITY CHURCH", "designationCode": "C", "categoryCode": "39", "address": "PO BOX 47039                  20-12192 SYMONS VALLEY RD R W", "city": "CALGARY", "province": "AB", "country": "CA", "postalCode": "T3P0B9", "twitter": "None", "instagram": "None", "facebook": "None", "youtube": "None", "website": "None", "summary": "None", "logo": "None", "latitude": 51.16218617359484, "longitude": -114.12634163469873}, "859758856RR0001": {"name": "NORTH POINT DOUGLAS WOMEN'S CENTRE INC.", "designationCode": "C", "categoryCode": "09", "address": "221 AUSTIN ST N", "city": "WINNIPEG", "province": "MB", "country": "CA", "postalCode": "R2W3M8", "twitter": "None", "instagram": "None", "facebook": "None", "youtube": "None", "website": "None", "summary": "None", "logo": "None", "latitude": 49.909222362196324, "longitude": -97.13139213722674}, "133112755RR0001": {"name": "NORTH QUEENS FIRE ASSOCIATION", "designationCode": "C", "categoryCode": "59", "address": "P.O. BOX 166", "city": "CALEDONIA", "province": "NS", "country": "CA", "postalCode": "B0T1B0", "twitter": "None", "instagram": "None", "facebook": "None", "youtube": "None", "website": "None", "summary": "None", "logo": "None", "latitude": 44.3565241005682, "longitude": -65.135905969237}, "888862398RR0001": {"name": "NORTH QUEENS HERITAGE SOCIETY", "designationCode": "C", "categoryCode": "50", "address": "25 WEST CALEDONIA ROAD        POST OFFICE BOX 88", "city": "CALEDONIA", "province": "NS", "country": "CA", "postalCode": "B0T1B0", "twitter": "None", "instagram": "None", "facebook": "None", "youtube": "None", "website": "None", "summary": "None", "logo": "None", "latitude": 44.37247037050621, "longitude": -65.03212350623241}, "119061042RR0002": {"name": "NORTH QUEENS MEDICAL CENTER ASSOCIATION", "designationCode": "C", "categoryCode": "11", "address": "9698 RT 8 RR #1", "city": "CALEDONIA", "province": "NS", "country": "CA", "postalCode": "B0T1B0", "twitter": "None", "instagram": "None", "facebook": "None", "youtube": "None", "website": "None", "summary": "None", "logo": "None", "latitude": 44.377501526749114, "longitude": -65.02316399573618}, "889980793RR0001": {"name": "NORTH QUEENS MEDICAL CENTRE FOUNDATION", "designationCode": "A", "categoryCode": "15", "address": "P.O. BOX 914", "city": "SOUTH BROOKFIELD", "province": "NS", "country": "CA", "postalCode": "B0T1X0", "twitter": "None", "instagram": "None", "facebook": "None", "youtube": "None", "website": "None", "summary": "None", "logo": "None", "latitude": 44.37838000000005, "longitude": -64.96909999999997}, "107783839RR0001": {"name": "NORTH QUEENS NURSING HOME INC.", "designationCode": "C", "categoryCode": "11", "address": "9565 HWY #8", "city": "CALEDONIA", "province": "NS", "country": "CA", "postalCode": "B0T1B0", "twitter": "None", "instagram": "None", "facebook": "None", "youtube": "None", "website": "None", "summary": "None", "logo": "None", "latitude": 44.377504715937086, "longitude": -65.01468905235937}, "119061067RR0001": {"name": "NORTH RANGE UNITED BAPTIST CHURCH", "designationCode": "C", "categoryCode": "31", "address": "1081 RIDGE RD R.R.1", "city": "BARTON", "province": "NS", "country": "CA", "postalCode": "B0W1H0", "twitter": "None", "instagram": "None", "facebook": "None", "youtube": "None", "website": "None", "summary": "None", "logo": "None", "latitude": 44.50892849267108, "longitude": -65.83422691413215}, "119061075RR0001": {"name": "NORTH RENFREW FAMILY SERVICE INC.", "designationCode": "C", "categoryCode": "09", "address": "BOX 1334", "city": "DEEP RIVER", "province": "ON", "country": "CA", "postalCode": "K0J1P0", "twitter": "None", "instagram": "None", "facebook": "None", "youtube": "None", "website": "None", "summary": "None", "logo": "None", "latitude": 46.10094229916361, "longitude": -77.48685137671198}, "140672064RR0001": {"name": "NORTH RENFREW LONG-TERM CARE SERVICES INCORPORATED", "designationCode": "C", "categoryCode": "01", "address": "47 RIDGE ROAD", "city": "DEEP RIVER", "province": "ON", "country": "CA", "postalCode": "K0J1P0", "twitter": "None", "instagram": "None", "facebook": "None", "youtube": "None", "website": "None", "summary": "None", "logo": "None", "latitude": 46.102582923451656, "longitude": -77.48859084978976}, "138058029RR0001": {"name": "NORTH RICHMOND ALLIANCE CHURCH", "designationCode": "C", "categoryCode": "39", "address": "9140 GRANVILLE AVENUE", "city": "RICHMOND", "province": "BC", "country": "CA", "postalCode": "V6Y1P8", "twitter": "None", "instagram": "None", "facebook": "None", "youtube": "None", "website": "None", "summary": "None", "logo": "None", "latitude": 49.16281952842077, "longitude": -123.12314002553522}, "119061083RR0001": {"name": "NORTH RIVER AND DISTRICT FIRE BRIGADE", "designationCode": "C", "categoryCode": "59", "address": "74 TRURO RD.", "city": "NORTH RIVER", "province": "NS", "country": "CA", "postalCode": "B6L6V8", "twitter": "None", "instagram": "None", "facebook": "None", "youtube": "None", "website": "None", "summary": "None", "logo": "None", "latitude": 45.428707729384335, "longitude": -63.25298207643278}, "871904769RR0001": {"name": "NORTH RIVER BRIDGE RIVERSIDE CEMETERY SOCIETY", "designationCode": "C", "categoryCode": "59", "address": "RR 4", "city": "BADDECK", "province": "NS", "country": "CA", "postalCode": "B0E1B0", "twitter": "None", "instagram": "None", "facebook": "None", "youtube": "None", "website": "None", "summary": "None", "logo": "None", "latitude": 46.087500000000034, "longitude": -60.780119999999954}, "119288918RR1247": {"name": "NORTH RIVER CONGREGATION - MONTREAL (QUEBEC)", "designationCode": "C", "categoryCode": "61", "address": "11993 AVE. D\u00c9SY", "city": "MONTR\u00c9AL - NORTH", "province": "QC", "country": "CA", "postalCode": "H1G4C6", "twitter": "None", "instagram": "None", "facebook": "None", "youtube": "None", "website": "None", "summary": "None", "logo": "None", "latitude": 45.6135971379479, "longitude": -73.62371022771089}, "119061117RR0001": {"name": "NORTH ROAD BAPTIST CHURCH, INC.", "designationCode": "C", "categoryCode": "31", "address": "500 NORTH RD", "city": "WELSHPOOL", "province": "NB", "country": "CA", "postalCode": "E5E1E2", "twitter": "None", "instagram": "None", "facebook": "None", "youtube": "None", "website": "None", "summary": "None", "logo": "None", "latitude": 44.905551475705515, "longitude": -66.95517235010688}, "106690241RR0001": {"name": "NORTH ROCKY VIEW COMMUNITY LINKS SOCIETY", "designationCode": "C", "categoryCode": "20", "address": "211 125 MAIN ST N", "city": "AIRDRIE", "province": "AB", "country": "CA", "postalCode": "T4B0P7", "twitter": "None", "instagram": "None", "facebook": "None", "youtube": "None", "website": "None", "summary": "None", "logo": "None", "latitude": 51.29243941326678, "longitude": -114.0135143817876}, "119061125RR0001": {"name": "NORTH ROLLA LUTHERAN CHURCH", "designationCode": "C", "categoryCode": "32", "address": "35 - 11001 17 ST", "city": "DAWSON CREEK", "province": "BC", "country": "CA", "postalCode": "V1G0B7", "twitter": "None", "instagram": "None", "facebook": "None", "youtube": "None", "website": "None", "summary": "None", "logo": "None", "latitude": 55.74964596374819, "longitude": -120.25056022252775}, "119061133RR0001": {"name": "NORTH RUNNYMEDE UNITED CHURCH", "designationCode": "C", "categoryCode": "44", "address": "17 THE WISHBONE", "city": "NORTH YORK", "province": "ON", "country": "CA", "postalCode": "M6M2T4", "twitter": "None", "instagram": "None", "facebook": "None", "youtube": "None", "website": "None", "summary": "None", "logo": "None", "latitude": 43.69875555785113, "longitude": -79.49665243603204}, "119061141RR0001": {"name": "NORTH RUSSELL UNION CEMETERY", "designationCode": "C", "categoryCode": "59", "address": "BOX 373", "city": "RUSSELL", "province": "ON", "country": "CA", "postalCode": "K4R1E2", "twitter": "None", "instagram": "None", "facebook": "None", "youtube": "None", "website": "None", "summary": "None", "logo": "None", "latitude": 45.25810800000005, "longitude": -75.35879449999993}, "119061158RR0001": {"name": "NORTH RUSTICO COMMUNITY RECREATIONAL COMMISSION", "designationCode": "C", "categoryCode": "56", "address": "PO BOX 25", "city": "NORTH RUSTICO", "province": "PE", "country": "CA", "postalCode": "C0A1X0", "twitter": "None", "instagram": "None", "facebook": "None", "youtube": "None", "website": "None", "summary": "None", "logo": "None", "latitude": 46.438988438295645, "longitude": -63.31766459361739}, "897137675RR0001": {"name": "NORTH SASKATCHEWAN INDEPENDENT LIVING CENTRE INC.", "designationCode": "C", "categoryCode": "09", "address": "237 5TH AVE N", "city": "SASKATOON", "province": "SK", "country": "CA", "postalCode": "S7K2P2", "twitter": "None", "instagram": "None", "facebook": "None", "youtube": "None", "website": "None", "summary": "None", "logo": "None", "latitude": 52.13004786738007, "longitude": -106.65770679073768}, "103933909RR0001": {"name": "NORTH SASKATCHEWAN VALLEY FOUNDATION", "designationCode": "C", "categoryCode": "09", "address": "7011 103 AVE NW", "city": "EDMONTON", "province": "AB", "country": "CA", "postalCode": "T6A0V2", "twitter": "None", "instagram": "None", "facebook": "None", "youtube": "None", "website": "None", "summary": "None", "logo": "None", "latitude": 53.544686543424405, "longitude": -113.43645}, "852814615RR0001": {"name": "NORTH SHORE ALLIANCE CHURCH OF THE CHRISTIAN AND MISSIONARY ALLIANCE IN CANADA", "designationCode": "C", "categoryCode": "39", "address": "201 23RD ST E", "city": "NORTH VANCOUVER", "province": "BC", "country": "CA", "postalCode": "V7L3E4", "twitter": "None", "instagram": "None", "facebook": "None", "youtube": "None", "website": "None", "summary": "None", "logo": "None"}, "893586180RR0001": {"name": "NORTH SHORE AND DISTRICT VOLUNTEER FIRE DEPARTMENT", "designationCode": "C", "categoryCode": "59", "address": "RR#4", "city": "BADDECK", "province": "NS", "country": "CA", "postalCode": "B0C1B0", "twitter": "None", "instagram": "None", "facebook": "None", "youtube": "None", "website": "None", "summary": "None", "logo": "None", "latitude": 46.09987000000007, "longitude": -60.75259999999997}, "119061190RR0001": {"name": "NORTH SHORE ARCHIVES SOCIETY", "designationCode": "C", "categoryCode": "50", "address": "39 CREAMERY ROAD", "city": "TATAMAGOUCHE", "province": "NS", "country": "CA", "postalCode": "B0K1V0", "twitter": "None", "instagram": "None", "facebook": "None", "youtube": "None", "website": "None", "summary": "None", "logo": "None", "latitude": 45.71017561477152, "longitude": -63.28661396949813}, "119295996RR0001": {"name": "NORTH SHORE ARTISTS' GUILD", "designationCode": "C", "categoryCode": "22", "address": "PO BOX 91051", "city": "WEST VANCOUVER", "province": "BC", "country": "CA", "postalCode": "V7V3N3", "twitter": "None", "instagram": "None", "facebook": "None", "youtube": "None", "website": "None", "summary": "None", "logo": "None", "latitude": 49.331148000000056, "longitude": -123.16023349999993}, "892466012RR0001": {"name": "NORTH SHORE BETHEL CHRISTIAN MB CHURCH", "designationCode": "C", "categoryCode": "39", "address": "185 E KEITH ROAD", "city": "NORTH VANCOUVER", "province": "BC", "country": "CA", "postalCode": "V7L1V3", "twitter": "None", "instagram": "None", "facebook": "None", "youtube": "None", "website": "None", "summary": "None", "logo": "None", "latitude": 49.315622155692836, "longitude": -123.07100102360198}, "898328604RR0001": {"name": "NORTH SHORE CARDIAC REHAB", "designationCode": "C", "categoryCode": "11", "address": "4190 SKYLINE DRIVE", "city": "NORTH VANCOUVER", "province": "BC", "country": "CA", "postalCode": "V7R3G7", "twitter": "None", "instagram": "None", "facebook": "None", "youtube": "None", "website": "None", "summary": "None", "logo": "None", "latitude": 49.34811085622373, "longitude": -123.08815431066452}, "861209484RR0001": {"name": "NORTH SHORE CELTIC ENSEMBLE", "designationCode": "C", "categoryCode": "22", "address": "3999 WOODBURY AVE", "city": "NORTH VANCOUVER", "province": "BC", "country": "CA", "postalCode": "V7N3N4", "twitter": "None", "instagram": "None", "facebook": "None", "youtube": "None", "website": "None", "summary": "None", "logo": "None", "latitude": 49.34592873772288, "longitude": -123.07509337111179}, "885261768RR0001": {"name": "NORTH SHORE CENTRAL AMBULANCE CO-OPERATIVE LIMITED", "designationCode": "C", "categoryCode": "59", "address": "P.O.BOX 159", "city": "BROAD COVE C.B.", "province": "NL", "country": "CA", "postalCode": "A0A1L0", "twitter": "None", "instagram": "None", "facebook": "None", "youtube": "None", "website": "None", "summary": "None", "logo": "None", "latitude": 47.43261307307449, "longitude": -53.154600376826856}, "871400636RR0001": {"name": "NORTH SHORE COMMUNITY CENTRE SOCIETY", "designationCode": "C", "categoryCode": "56", "address": "730 COTTONWOOD AVENUE, BOX 452", "city": "KAMLOOPS", "province": "BC", "country": "CA", "postalCode": "V2B8M6", "twitter": "None", "instagram": "None", "facebook": "None", "youtube": "None", "website": "None", "summary": "None", "logo": "None", "latitude": 50.69656148211084, "longitude": -120.36538299708582}, "891642043RR0001": {"name": "NORTH SHORE COMMUNITY FOUNDATION", "designationCode": "A", "categoryCode": "03", "address": "PO BOX 37104 RPO LONSDALE", "city": "NORTH VANCOUVER", "province": "BC", "country": "CA", "postalCode": "V7N4M4", "twitter": "None", "instagram": "None", "facebook": "None", "youtube": "None", "website": "None", "summary": "None", "logo": "None", "latitude": 49.34036514394778, "longitude": -123.071936701038}, "119061273RR0001": {"name": "NORTH SHORE COMMUNITY RESOURCES SOCIETY", "designationCode": "C", "categoryCode": "59", "address": "STE 201 - 935 MARINE DR       CAPILANO MALL", "city": "NORTH VANCOUVER", "province": "BC", "country": "CA", "postalCode": "V7P1S3", "twitter": "None", "instagram": "None", "facebook": "None", "youtube": "None", "website": "None", "summary": "None", "logo": "None", "latitude": 49.32200002943043, "longitude": -123.0982500289967}, "140926411RR0001": {"name": "NORTH SHORE COMMUNITY SUPPORT SERVICES INC", "designationCode": "C", "categoryCode": "09", "address": "1 NEWFOUNDLAND WALK", "city": "ELLIOT LAKE", "province": "ON", "country": "CA", "postalCode": "P5A1Z5", "twitter": "None", "instagram": "None", "facebook": "None", "youtube": "None", "website": "None", "summary": "None", "logo": "None", "latitude": 46.38342169945002, "longitude": -82.6464573426959}, "107784076RR0001": {"name": "NORTH SHORE CONNEXIONS SOCIETY", "designationCode": "C", "categoryCode": "11", "address": "1070 ROOSEVELT CRESCENT", "city": "NORTH VANCOUVER", "province": "BC", "country": "CA", "postalCode": "V7P1M3", "twitter": "None", "instagram": "None", "facebook": "None", "youtube": "None", "website": "None", "summary": "None", "logo": "None", "latitude": 49.32208752799383, "longitude": -123.10408951597}, "107784316RR0001": {"name": "NORTH SHORE CRISIS SERVICES SOCIETY", "designationCode": "C", "categoryCode": "01", "address": "200 - 147 16TH ST W", "city": "NORTH VANCOUVER", "province": "BC", "country": "CA", "postalCode": "V7M1T3", "twitter": "None", "instagram": "None", "facebook": "None", "youtube": "None", "website": "None", "summary": "None", "logo": "None", "latitude": 49.323100499999995, "longitude": -123.07272300000001}, "119247716RR0001": {"name": "NORTH SHORE DISABILITY RESOURCE CENTRE ASSOCIATION", "designationCode": "C", "categoryCode": "11", "address": "3158 MOUNTAIN HWY", "city": "NORTH VANCOUVER", "province": "BC", "country": "CA", "postalCode": "V7K2H5", "twitter": "None", "instagram": "None", "facebook": "None", "youtube": "None", "website": "None", "summary": "None", "logo": "None", "latitude": 49.33757113776493, "longitude": -123.03816234317667}, "860133867RR0001": {"name": "NORTH SHORE HARVEST CUPBOARD", "designationCode": "C", "categoryCode": "09", "address": "501 WINNIPEG ST               BOX 203", "city": "SCHREIBER", "province": "ON", "country": "CA", "postalCode": "P0T2S0", "twitter": "None", "instagram": "None", "facebook": "None", "youtube": "None", "website": "None", "summary": "None", "logo": "None", "latitude": 48.80601020127097, "longitude": -87.26794325130234}, "897133708RR0001": {"name": "NORTH SHORE HEAD START SOCIETY", "designationCode": "C", "categoryCode": "09", "address": "1265 EVELYN ST", "city": "NORTH VANCOUVER", "province": "BC", "country": "CA", "postalCode": "V7K3A7", "twitter": "None", "instagram": "None", "facebook": "None", "youtube": "None", "website": "None", "summary": "None", "logo": "None", "latitude": 49.348916550637774, "longitude": -123.03904469608747}, "119020915RR0001": {"name": "NORTH SHORE HEALTH RESEARCH FOUNDATION", "designationCode": "C", "categoryCode": "11", "address": "P.O. BOX 86639", "city": "NORTH VANCOUVER", "province": "BC", "country": "CA", "postalCode": "V7L4L2", "twitter": "None", "instagram": "None", "facebook": "None", "youtube": "None", "website": "None", "summary": "None", "logo": "None", "latitude": 49.32107700000006, "longitude": -123.07521049999994}, "890553191RR0001": {"name": "NORTH SHORE HEALTH SERVICES FOUNDATION", "designationCode": "C", "categoryCode": "19", "address": "PO BOX 151", "city": "TATAMAGOUCHE", "province": "NS", "country": "CA", "postalCode": "B0K1V0", "twitter": "None", "instagram": "None", "facebook": "None", "youtube": "None", "website": "None", "summary": "None", "logo": "None", "latitude": 45.71288526208159, "longitude": -63.415849046616174}, "107784381RR0001": {"name": "NORTH SHORE HEBREW SCHOOL ASSOCIATION", "designationCode": "C", "categoryCode": "20", "address": "1305 TAYLOR WAY", "city": "WEST VANCOUVER", "province": "BC", "country": "CA", "postalCode": "V7T2Y7", "twitter": "None", "instagram": "None", "facebook": "None", "youtube": "None", "website": "None", "summary": "None", "logo": "None", "latitude": 49.337007192336564, "longitude": -123.13500138709638}, "830702478RR0001": {"name": "NORTH SHORE HERITAGE PRESERVATION SOCIETY", "designationCode": "C", "categoryCode": "52", "address": "2695 NELSON AVE", "city": "WEST VANCOUVER", "province": "BC", "country": "CA", "postalCode": "V7V2R8", "twitter": "None", "instagram": "None", "facebook": "None", "youtube": "None", "website": "None", "summary": "None", "logo": "None", "latitude": 49.33944552986306, "longitude": -123.18849047155058}, "127194504RR0001": {"name": "NORTH SHORE HOSPICE SOCIETY", "designationCode": "C", "categoryCode": "10", "address": "PO BOX 54019                  1562 LONSDALE AVENUE", "city": "NORTH VANCOUVER", "province": "BC", "country": "CA", "postalCode": "V7M3L5", "twitter": "None", "instagram": "None", "facebook": "None", "youtube": "None", "website": "None", "summary": "None", "logo": "None", "latitude": 49.32275853729773, "longitude": -123.07227387964618}, "119061299RR0001": {"name": "NORTH SHORE JEWISH CONGREGATION", "designationCode": "C", "categoryCode": "42", "address": "1305 TAYLOR WAY", "city": "WEST VANCOUVER", "province": "BC", "country": "CA", "postalCode": "V7T2Y7", "twitter": "None", "instagram": "None", "facebook": "None", "youtube": "None", "website": "None", "summary": "None", "logo": "None", "latitude": 49.337007192336564, "longitude": -123.13500138709638}, "897468351RR0001": {"name": "NORTH SHORE KEEP WELL SOCIETY", "designationCode": "C", "categoryCode": "09", "address": "600 WEST QUEENS RD", "city": "NORTH VANCOUVER", "province": "BC", "country": "CA", "postalCode": "V7N2L3", "twitter": "None", "instagram": "None", "facebook": "None", "youtube": "None", "website": "None", "summary": "None", "logo": "None", "latitude": 49.33664766123687, "longitude": -123.08545116123688}, "119061307RR0001": {"name": "NORTH SHORE LIFEBOAT SOCIETY", "designationCode": "C", "categoryCode": "59", "address": "PO BOX 37146 RPO LONSDALE", "city": "NORTH VANCOUVER", "province": "BC", "country": "CA", "postalCode": "V7N4M4", "twitter": "None", "instagram": "None", "facebook": "None", "youtube": "None", "website": "None", "summary": "None", "logo": "None", "latitude": 49.34036514394778, "longitude": -123.071936701038}, "119061315RR0001": {"name": "NORTH SHORE MEALS ON WHEELS SOCIETY", "designationCode": "C", "categoryCode": "09", "address": "1525 TAYLOR WAY", "city": "WEST VANCOUVER", "province": "BC", "country": "CA", "postalCode": "V7S1N5", "twitter": "None", "instagram": "None", "facebook": "None", "youtube": "None", "website": "None", "summary": "None", "logo": "None", "latitude": 49.33853030835592, "longitude": -123.13501512663692}, "870778461RR0001": {"name": "NORTH SHORE MOUNTAIN BIKE ASSOCIATION", "designationCode": "C", "categoryCode": "56", "address": "PO BOX 16127 RPO LYNN VALLEY", "city": "NORTH VANCOUVER", "province": "BC", "country": "CA", "postalCode": "V7J3S9", "twitter": "None", "instagram": "None", "facebook": "None", "youtube": "None", "website": "None", "summary": "None", "logo": "None", "latitude": 49.335991494945745, "longitude": -123.04008085417442}, "138484621RR0001": {"name": "NORTH SHORE MULTICULTURAL SOCIETY", "designationCode": "C", "categoryCode": "29", "address": "207-123 15 ST E", "city": "NORTH VANCOUVER", "province": "BC", "country": "CA", "postalCode": "V7L2P7", "twitter": "None", "instagram": "None", "facebook": "None", "youtube": "None", "website": "None", "summary": "None", "logo": "None", "latitude": 49.32207001922479, "longitude": -123.07076294170434}, "119061323RR0001": {"name": "NORTH SHORE NEIGHBOURHOOD HOUSE", "designationCode": "C", "categoryCode": "09", "address": "225 E 2ND ST", "city": "NORTH VANCOUVER", "province": "BC", "country": "CA", "postalCode": "V7L1C4", "twitter": "None", "instagram": "None", "facebook": "None", "youtube": "None", "website": "None", "summary": "None", "logo": "None", "latitude": 49.31093169985416, "longitude": -123.07401858590421}, "865492391RR0001": {"name": "NORTH SHORE PACIFIC GRACE MB CHURCH", "designationCode": "C", "categoryCode": "39", "address": "515 WINDSOR RD W", "city": "NORTH VANCOUVER", "province": "BC", "country": "CA", "postalCode": "V7N2N7", "twitter": "None", "instagram": "None", "facebook": "None", "youtube": "None", "website": "None", "summary": "None", "logo": "None", "latitude": 49.338321539529254, "longitude": -123.08296058381903}, "122692395RR0001": {"name": "NORTH SHORE RECREATIONAL CENTRE", "designationCode": "C", "categoryCode": "56", "address": "P.O. BOX 88", "city": "TATAMAGOUCHE", "province": "NS", "country": "CA", "postalCode": "B0K1V0", "twitter": "None", "instagram": "None", "facebook": "None", "youtube": "None", "website": "None", "summary": "None", "logo": "None", "latitude": 45.71288526208159, "longitude": -63.415849046616174}, "119061372RR0001": {"name": "NORTH SHORE RESCUE TEAM SOCIETY", "designationCode": "C", "categoryCode": "59", "address": "147 14TH ST E", "city": "NORTH VANCOUVER", "province": "BC", "country": "CA", "postalCode": "V7L2N4", "twitter": "None", "instagram": "None", "facebook": "None", "youtube": "None", "website": "None", "summary": "None", "logo": "None", "latitude": 49.32097847735032, "longitude": -123.0697701931733}, "119061380RR0001": {"name": "NORTH SHORE RURAL COMMUNITY FIRE COMPANY", "designationCode": "C", "categoryCode": "59", "address": "228 WEST COVEHEAD ROAD", "city": "LITTLE YORK", "province": "PE", "country": "CA", "postalCode": "C0A1P0", "twitter": "None", "instagram": "None", "facebook": "None", "youtube": "None", "website": "None", "summary": "None", "logo": "None", "latitude": 46.38615697085811, "longitude": -63.13317079043809}, "886621358RR0001": {"name": "NORTH SHORE SAFETY COUNCIL", "designationCode": "C", "categoryCode": "59", "address": "3770 HILLCREST AVE", "city": "NORTH VANCOUVER", "province": "BC", "country": "CA", "postalCode": "V7R4B6", "twitter": "None", "instagram": "None", "facebook": "None", "youtube": "None", "website": "None", "summary": "None", "logo": "None", "latitude": 49.34366601832186, "longitude": -123.10545420604214}, "894226935RR0001": {"name": "NORTH SHORE SCHIZOPHRENIA SOCIETY", "designationCode": "C", "categoryCode": "11", "address": "205-1865 MARINE DR", "city": "WEST VANCOUVER", "province": "BC", "country": "CA", "postalCode": "V7V1J7", "twitter": "None", "instagram": "None", "facebook": "None", "youtube": "None", "website": "None", "summary": "None", "logo": "None", "latitude": 49.328684474897464, "longitude": -123.1635419686364}, "892324799RR0001": {"name": "NORTH SHORE SEARCH AND RESCUE", "designationCode": "C", "categoryCode": "59", "address": "385 RICCI DRIVE", "city": "ESPANOLA", "province": "ON", "country": "CA", "postalCode": "P5E1G4", "twitter": "None", "instagram": "None", "facebook": "None", "youtube": "None", "website": "None", "summary": "None", "logo": "None", "latitude": 46.256414074728795, "longitude": -81.76175703024505}, "107797383RR0076": {"name": "NORTH SHORE SEVENTH-DAY ADVENTIST CHURCH", "designationCode": "C", "categoryCode": "41", "address": "18 MENARD CRES", "city": "WALFORD STATION", "province": "ON", "country": "CA", "postalCode": "P0P2E0", "twitter": "None", "instagram": "None", "facebook": "None", "youtube": "None", "website": "None", "summary": "None", "logo": "None", "latitude": 46.203655238143114, "longitude": -82.30649601701695}, "896288164RR0001": {"name": "NORTH SHORE STROKE RECOVERY CENTRE", "designationCode": "C", "categoryCode": "09", "address": "225 EAST SECOND STREET", "city": "NORTH VANCOUVER", "province": "BC", "country": "CA", "postalCode": "V7L1C4", "twitter": "None", "instagram": "None", "facebook": "None", "youtube": "None", "website": "None", "summary": "None", "logo": "None", "latitude": 49.31093169985416, "longitude": -123.07401858590421}, "119061414RR0001": {"name": "NORTH SHORE UNITARIAN CHURCH", "designationCode": "C", "categoryCode": "39", "address": "370 MATHERS AVE", "city": "WEST VANCOUVER", "province": "BC", "country": "CA", "postalCode": "V7S1H3", "twitter": "None", "instagram": "None", "facebook": "None", "youtube": "None", "website": "None", "summary": "None", "logo": "None", "latitude": 49.33789254674261, "longitude": -123.12532269317329}, "134518182RR0001": {"name": "NORTH SHORE VOLUNTEERS FOR SENIORS", "designationCode": "C", "categoryCode": "09", "address": "275 21ST STREET", "city": "WEST VANCOUVER", "province": "BC", "country": "CA", "postalCode": "V7V4A5", "twitter": "None", "instagram": "None", "facebook": "None", "youtube": "None", "website": "None", "summary": "None", "logo": "None", "latitude": 49.32916823107594, "longitude": -123.16818178479275}, "107784613RR0001": {"name": "NORTH SHORE WOMEN'S CENTRE SOCIETY", "designationCode": "C", "categoryCode": "09", "address": "131 EAST 2ND STREET", "city": "NORTH VANCOUVER", "province": "BC", "country": "CA", "postalCode": "V7L1C2", "twitter": "None", "instagram": "None", "facebook": "None", "youtube": "None", "website": "None", "summary": "None", "logo": "None", "latitude": 49.31218455726295, "longitude": -123.07688910954366}, "119247773RR0001": {"name": "NORTH SHUSWAP CHRISTIAN FELLOWSHIP (1998)", "designationCode": "C", "categoryCode": "39", "address": "4079 BUTTERS RD", "city": "SCOTCH CREEK", "province": "BC", "country": "CA", "postalCode": "V0E1M5", "twitter": "None", "instagram": "None", "facebook": "None", "youtube": "None", "website": "None", "summary": "None", "logo": "None", "latitude": 50.914243711167266, "longitude": -119.43534453653406}, "898877683RR0001": {"name": "NORTH SHUSWAP COMMUNITY ASSOCIATION", "designationCode": "C", "categoryCode": "56", "address": "5456 SQUILAX-ANGLEMONT RD", "city": "CELISTA", "province": "BC", "country": "CA", "postalCode": "V0E1M6", "twitter": "None", "instagram": "None", "facebook": "None", "youtube": "None", "website": "None", "summary": "None", "logo": "None", "latitude": 50.94519670455328, "longitude": -119.34351623629756}, "891318586RR0001": {"name": "NORTH SHUSWAP FIRST RESPONDER SOCIETY", "designationCode": "C", "categoryCode": "11", "address": "PO BOX 24015", "city": "SCOTCH CREEK", "province": "BC", "country": "CA", "postalCode": "V0E3L0", "twitter": "None", "instagram": "None", "facebook": "None", "youtube": "None", "website": "None", "summary": "None", "logo": "None", "latitude": 50.951513204562595, "longitude": -119.45772599796045}, "119061448RR0001": {"name": "NORTH SHUSWAP HISTORICAL SOCIETY", "designationCode": "C", "categoryCode": "50", "address": "5505 SQUILAX ANGLEMONT RD.", "city": "CELISTA", "province": "BC", "country": "CA", "postalCode": "V0E1M6", "twitter": "None", "instagram": "None", "facebook": "None", "youtube": "None", "website": "None", "summary": "None", "logo": "None", "latitude": 50.946348656715934, "longitude": -119.33730859924823}, "888407392RR0001": {"name": "NORTH SHUSWAP SCHOOL PARENT ADVISORY COUNCIL", "designationCode": "C", "categoryCode": "21", "address": "5295 SQUILAX-ANGLEMONT RD", "city": "CELISTA", "province": "BC", "country": "CA", "postalCode": "V0E1M6", "twitter": "None", "instagram": "None", "facebook": "None", "youtube": "None", "website": "None", "summary": "None", "logo": "None", "latitude": 50.942519257475986, "longitude": -119.3530795171049}, "106788235RR0001": {"name": "NORTH SIDE ASSEMBLY", "designationCode": "C", "categoryCode": "36", "address": "363 MILLIDGE AVENUE", "city": "SAINT JOHN", "province": "NB", "country": "CA", "postalCode": "E2K2N2", "twitter": "None", "instagram": "None", "facebook": "None", "youtube": "None", "website": "None", "summary": "None", "logo": "None", "latitude": 45.28734552539099, "longitude": -66.09127351125272}}