{"108031725RR0001": {"name": "ST. MATTHEW'S LUTHERAN CHURCH", "designationCode": "C", "categoryCode": "32", "address": "PO BOX 218", "city": "MILDMAY", "province": "ON", "country": "CA", "postalCode": "N0G2J0", "twitter": "None", "instagram": "None", "facebook": "None", "youtube": "None", "website": "None", "summary": "None", "logo": "None", "latitude": 44.04200000000003, "longitude": -81.11933999999997}, "108084658RR0078": {"name": "ST. MATTHEW'S PARISH", "designationCode": "C", "categoryCode": "30", "address": "217 FIRST AVE", "city": "OTTAWA", "province": "ON", "country": "CA", "postalCode": "K1S2G5", "twitter": "None", "instagram": "None", "facebook": "None", "youtube": "None", "website": "None", "summary": "None", "logo": "None", "latitude": 45.40411426868245, "longitude": -75.6899744654624}, "118849470RR0003": {"name": "ST. MATTHEW'S ROMAN CATHOLIC PARISH", "designationCode": "C", "categoryCode": "38", "address": "16079 88 AVE.", "city": "SURREY", "province": "BC", "country": "CA", "postalCode": "V4N1G3", "twitter": "None", "instagram": "None", "facebook": "None", "youtube": "None", "website": "None", "summary": "None", "logo": "None", "latitude": 49.1628045004327, "longitude": -122.77648286081134}, "108031808RR0001": {"name": "ST. MATTHEW'S UNITED CHURCH", "designationCode": "C", "categoryCode": "44", "address": "31 WELLER AVENUE", "city": "KINGSTON", "province": "ON", "country": "CA", "postalCode": "K7K2T1", "twitter": "None", "instagram": "None", "facebook": "None", "youtube": "None", "website": "None", "summary": "None", "logo": "None", "latitude": 44.26266043493553, "longitude": -76.48101286525474}, "108031881RR0001": {"name": "ST. MATTHEW'S UNITED CHURCH", "designationCode": "C", "categoryCode": "44", "address": "1479 BARRINGTON ST", "city": "HALIFAX", "province": "NS", "country": "CA", "postalCode": "B3J1Z2", "twitter": "None", "instagram": "None", "facebook": "None", "youtube": "None", "website": "None", "summary": "None", "logo": "None", "latitude": 44.64378601333019, "longitude": -63.57228157781776}, "108031345RR0001": {"name": "ST. MATTHEW'S-MARYLAND COMMUNITY MINISTRY", "designationCode": "C", "categoryCode": "09", "address": "365 MCGEE ST.", "city": "WINNIPEG", "province": "MB", "country": "CA", "postalCode": "R3G3M5", "twitter": "None", "instagram": "None", "facebook": "None", "youtube": "None", "website": "None", "summary": "None", "logo": "None", "latitude": 49.88998555227612, "longitude": -97.16102882525803}, "811619675RR0001": {"name": "ST. MATTHEWS (KITCHENER) LUTHERAN CHURCH", "designationCode": "C", "categoryCode": "32", "address": "54 BENTON ST", "city": "KITCHENER", "province": "ON", "country": "CA", "postalCode": "N2G3H2", "twitter": "None", "instagram": "None", "facebook": "None", "youtube": "None", "website": "None", "summary": "None", "logo": "None", "latitude": 43.44786592841465, "longitude": -80.48889344924666}, "107020323RR0002": {"name": "ST. MATTHEWS CATHEDRAL", "designationCode": "C", "categoryCode": "30", "address": "331 FIFTH AVE", "city": "TIMMINS", "province": "ON", "country": "CA", "postalCode": "P4N5L6", "twitter": "None", "instagram": "None", "facebook": "None", "youtube": "None", "website": "None", "summary": "None", "logo": "None", "latitude": 48.47717933499491, "longitude": -81.32585938421245}, "108099771RR0036": {"name": "ST. MATTHEWS CHURCH", "designationCode": "C", "categoryCode": "30", "address": "126 PLAINS RD EAST", "city": "BURLINGTON", "province": "ON", "country": "CA", "postalCode": "L7T2C3", "twitter": "None", "instagram": "None", "facebook": "None", "youtube": "None", "website": "None", "summary": "None", "logo": "None", "latitude": 43.3100589688962, "longitude": -79.84829266469521}, "812015428RR0001": {"name": "ST. MATTHEWS NON PROFIT HOUSING INC.", "designationCode": "C", "categoryCode": "09", "address": "641 ST. MATTHEWS AVENUE", "city": "WINNIPEG", "province": "MB", "country": "CA", "postalCode": "R3G0G6", "twitter": "None", "instagram": "None", "facebook": "None", "youtube": "None", "website": "None", "summary": "None", "logo": "None", "latitude": 49.88981151875456, "longitude": -97.16073322009349}, "108031923RR0001": {"name": "ST. MATTHIAS ANGLICAN CHURCH", "designationCode": "C", "categoryCode": "30", "address": "6210-188 ST", "city": "EDMONTON", "province": "AB", "country": "CA", "postalCode": "T5T5T4", "twitter": "None", "instagram": "None", "facebook": "None", "youtube": "None", "website": "None", "summary": "None", "logo": "None", "latitude": 53.49598537440135, "longitude": -113.64872734214276}, "118787142RR0023": {"name": "ST. MATTHIAS' CHURCH", "designationCode": "C", "categoryCode": "30", "address": "600 RICHMOND ROAD", "city": "VICTORIA", "province": "BC", "country": "CA", "postalCode": "V8S3Y7", "twitter": "None", "instagram": "None", "facebook": "None", "youtube": "None", "website": "None", "summary": "None", "logo": "None", "latitude": 48.41783033054427, "longitude": -123.33163494261022}, "108031972RR0001": {"name": "ST. MATTHIAS' CHURCH, ETOBICOKE", "designationCode": "C", "categoryCode": "30", "address": "1428 ROYAL YORK ROAD", "city": "ETOBICOKE", "province": "ON", "country": "CA", "postalCode": "M9P3A8", "twitter": "None", "instagram": "None", "facebook": "None", "youtube": "None", "website": "None", "summary": "None", "logo": "None", "latitude": 43.68498256090953, "longitude": -79.52778636640859}, "108084658RR0086": {"name": "ST. MATTHIAS' PARISH (OTTAWA)", "designationCode": "C", "categoryCode": "30", "address": "347 RICHMOND RD.", "city": "OTTAWA", "province": "ON", "country": "CA", "postalCode": "K2A0E7", "twitter": "None", "instagram": "None", "facebook": "None", "youtube": "None", "website": "None", "summary": "None", "logo": "None", "latitude": 45.391818937301444, "longitude": -75.75454697088675}, "894218155RR0001": {"name": "ST. MAXIMILIAN KOLBE APOSTOLATE OF THE PRINTED WORD", "designationCode": "C", "categoryCode": "49", "address": "P.O.BOX 21003                 314 HARWOOD AVE. SOUTH", "city": "AJAX", "province": "ON", "country": "CA", "postalCode": "L1S2J1", "twitter": "None", "instagram": "None", "facebook": "None", "youtube": "None", "website": "None", "summary": "None", "logo": "None", "latitude": 43.84502985375075, "longitude": -79.01896711809388}, "890355407RR0001": {"name": "ST. MENA COPTIC ORTHODOX CHURCH", "designationCode": "C", "categoryCode": "39", "address": "1281A MIDLAND AVE", "city": "KINGSTON", "province": "ON", "country": "CA", "postalCode": "K7P2Y1", "twitter": "None", "instagram": "None", "facebook": "None", "youtube": "None", "website": "None", "summary": "None", "logo": "None", "latitude": 44.27123029181035, "longitude": -76.57432604239396}, "118787142RR0033": {"name": "ST. MICHAEL & ALL ANGELS CHURCH", "designationCode": "C", "categoryCode": "30", "address": "4725 WEST SAANICH RD", "city": "VICTORIA", "province": "BC", "country": "CA", "postalCode": "V8Z3G9", "twitter": "None", "instagram": "None", "facebook": "None", "youtube": "None", "website": "None", "summary": "None", "logo": "None", "latitude": 48.50245929593007, "longitude": -123.40451023327773}, "108084658RR0101": {"name": "ST. MICHAEL AND ALL ANGELS ANGLICAN CHURCH, MAXVILLE", "designationCode": "C", "categoryCode": "30", "address": "P.O.BOX 249", "city": "MAXVILLE", "province": "ON", "country": "CA", "postalCode": "K0C1T0", "twitter": "None", "instagram": "None", "facebook": "None", "youtube": "None", "website": "None", "summary": "None", "logo": "None", "latitude": 45.28898000000004, "longitude": -74.85593999999998}, "106713753RR0017": {"name": "ST. MICHAEL AND ALL ANGELS CHURCH", "designationCode": "C", "categoryCode": "30", "address": "1505 FIFTH AVE", "city": "PRINCE GEORGE", "province": "BC", "country": "CA", "postalCode": "V2L3L9", "twitter": "None", "instagram": "None", "facebook": "None", "youtube": "None", "website": "None", "summary": "None", "logo": "None", "latitude": 53.91627989283615, "longitude": -122.75054533375058}, "108032061RR0002": {"name": "ST. MICHAEL AND ALL ANGELS CHURCH", "designationCode": "C", "categoryCode": "30", "address": "300 HUGO ST NORTH", "city": "WINNIPEG", "province": "MB", "country": "CA", "postalCode": "R3M2N7", "twitter": "None", "instagram": "None", "facebook": "None", "youtube": "None", "website": "None", "summary": "None", "logo": "None", "latitude": 49.86960142907849, "longitude": -97.14913890746705}, "869973842RR0001": {"name": "ST. MICHAEL AND ALL ANGELS CHURCH", "designationCode": "C", "categoryCode": "30", "address": "15556 CABOT STREET", "city": "PIERREFONDS", "province": "QC", "country": "CA", "postalCode": "H9H1R5", "twitter": "None", "instagram": "None", "facebook": "None", "youtube": "None", "website": "None", "summary": "None", "logo": "None", "latitude": 45.477626670523605, "longitude": -73.85992708214559}, "108032129RR0001": {"name": "ST. MICHAEL AND ALL ANGELS DAY CARE CENTRE INC.", "designationCode": "C", "categoryCode": "01", "address": "611 ST CLAIR AVE W", "city": "TORONTO", "province": "ON", "country": "CA", "postalCode": "M6C1A3", "twitter": "None", "instagram": "None", "facebook": "None", "youtube": "None", "website": "None", "summary": "None", "logo": "None", "latitude": 43.68196815805518, "longitude": -79.42349817281773}, "118787142RR0047": {"name": "ST. MICHAEL AND ALL ANGELS' CHURCH", "designationCode": "C", "categoryCode": "30", "address": "BOX 463", "city": "CHEMAINUS", "province": "BC", "country": "CA", "postalCode": "V0R1K0", "twitter": "None", "instagram": "None", "facebook": "None", "youtube": "None", "website": "None", "summary": "None", "logo": "None", "latitude": 48.90353545217932, "longitude": -123.70279429748639}, "893415364RR0001": {"name": "ST. MICHAEL ARCHANGEL CELEBRATION", "designationCode": "C", "categoryCode": "49", "address": "41 HENLEY DRIVE", "city": "STONEY CREEK", "province": "ON", "country": "CA", "postalCode": "L8E3T1", "twitter": "None", "instagram": "None", "facebook": "None", "youtube": "None", "website": "None", "summary": "None", "logo": "None", "latitude": 43.22328921452491, "longitude": -79.72969680532617}, "896449907RR0001": {"name": "ST. MICHAEL ERITREAN ORTHODOX TEWAHDO CHURCH", "designationCode": "C", "categoryCode": "39", "address": "702 JANE STREET", "city": "TORONTO", "province": "ON", "country": "CA", "postalCode": "M6N4A8", "twitter": "None", "instagram": "None", "facebook": "None", "youtube": "None", "website": "None", "summary": "None", "logo": "None", "latitude": 43.669081572018044, "longitude": -79.49266631476122}, "854539475RR0001": {"name": "ST. MICHAEL ERITREAN ORTHODOX TEWAHEDO CHURCH INC.", "designationCode": "C", "categoryCode": "39", "address": "PO BOX 56042 RPO PORTAGE PLACE", "city": "WINNIPEG", "province": "MB", "country": "CA", "postalCode": "R3B0G9", "twitter": "None", "instagram": "None", "facebook": "None", "youtube": "None", "website": "None", "summary": "None", "logo": "None", "latitude": 49.89219003332557, "longitude": -97.14776000779024}, "119109817RR0039": {"name": "ST. MICHAEL PARISH", "designationCode": "C", "categoryCode": "38", "address": "29 ELLIOTT ST", "city": "LEAMINGTON", "province": "ON", "country": "CA", "postalCode": "N8H3M4", "twitter": "None", "instagram": "None", "facebook": "None", "youtube": "None", "website": "None", "summary": "None", "logo": "None", "latitude": 42.05379707647595, "longitude": -82.60622734798946}, "119109817RR0130": {"name": "ST. MICHAEL PARISH", "designationCode": "C", "categoryCode": "38", "address": "P.O.BOX 369 1920 WILDWOOD DR", "city": "BRIGHTS GROVE", "province": "ON", "country": "CA", "postalCode": "N0N1C0", "twitter": "None", "instagram": "None", "facebook": "None", "youtube": "None", "website": "None", "summary": "None", "logo": "None", "latitude": 43.02743968905208, "longitude": -82.2629183932616}, "863722054RR0001": {"name": "ST. MICHAEL PARISH COUNCIL NO. 10102 CHARITABLE WELFARE TRUST", "designationCode": "A", "categoryCode": "65", "address": "1920 WILDWOOD AVENUE          P.O. BOX 369", "city": "BRIGHT'S GROVE", "province": "ON", "country": "CA", "postalCode": "N0N1C0", "twitter": "None", "instagram": "None", "facebook": "None", "youtube": "None", "website": "None", "summary": "None", "logo": "None", "latitude": 43.02743968905208, "longitude": -82.2629183932616}, "107585085RR0019": {"name": "ST. MICHAEL PARISH, PRINCE ALBERT, SK", "designationCode": "C", "categoryCode": "38", "address": "1505-13TH STREET WEST", "city": "PRINCE ALBERT", "province": "SK", "country": "CA", "postalCode": "S6V3J7", "twitter": "None", "instagram": "None", "facebook": "None", "youtube": "None", "website": "None", "summary": "None", "logo": "None", "latitude": 53.20099448124545, "longitude": -105.79098052553522}, "106713753RR0010": {"name": "ST. MICHAEL'S ANGLICAN CHURCH", "designationCode": "C", "categoryCode": "30", "address": "BOX 1509", "city": "MERRITT", "province": "BC", "country": "CA", "postalCode": "V1K1B8", "twitter": "None", "instagram": "None", "facebook": "None", "youtube": "None", "website": "None", "summary": "None", "logo": "None", "latitude": 50.111565000000056, "longitude": -120.78738349999993}, "889344370RR0001": {"name": "ST. MICHAEL'S CHAPEL", "designationCode": "C", "categoryCode": "39", "address": "FORMATION CHAPLAIN, BLDG S90  PO BOX 99000 STN FORCES", "city": "HALIFAX", "province": "NS", "country": "CA", "postalCode": "B3K5X5", "twitter": "None", "instagram": "None", "facebook": "None", "youtube": "None", "website": "None", "summary": "None", "logo": "None", "latitude": 44.645478000000054, "longitude": -63.576552499999934}, "108032236RR0001": {"name": "ST. MICHAEL'S CHOIR SCHOOL", "designationCode": "C", "categoryCode": "22", "address": "66 BOND STREET", "city": "TORONTO", "province": "ON", "country": "CA", "postalCode": "M5B1X2", "twitter": "None", "instagram": "None", "facebook": "None", "youtube": "None", "website": "None", "summary": "None", "logo": "None", "latitude": 43.655084905909185, "longitude": -79.37785591883535}, "107909939RR0003": {"name": "ST. MICHAEL'S CHURCH", "designationCode": "C", "categoryCode": "38", "address": "BOX 339", "city": "PINCHER CREEK", "province": "AB", "country": "CA", "postalCode": "T0K1W0", "twitter": "None", "instagram": "None", "facebook": "None", "youtube": "None", "website": "None", "summary": "None", "logo": "None", "latitude": 49.48739000000006, "longitude": -113.9366800732874}, "107909939RR0026": {"name": "ST. MICHAEL'S CHURCH", "designationCode": "C", "categoryCode": "38", "address": "800 85 ST SW", "city": "CALGARY", "province": "AB", "country": "CA", "postalCode": "T3H4C7", "twitter": "None", "instagram": "None", "facebook": "None", "youtube": "None", "website": "None", "summary": "None", "logo": "None", "latitude": 51.06334530391251, "longitude": -114.21084878253224}, "107909939RR0034": {"name": "ST. MICHAEL'S CHURCH", "designationCode": "C", "categoryCode": "38", "address": "PO BOX 56", "city": "BOW ISLAND", "province": "AB", "country": "CA", "postalCode": "T0K0G0", "twitter": "None", "instagram": "None", "facebook": "None", "youtube": "None", "website": "None", "summary": "None", "logo": "None", "latitude": 49.502780370958696, "longitude": -111.79166408625858}, "108032285RR0001": {"name": "ST. MICHAEL'S CHURCH", "designationCode": "C", "categoryCode": "30", "address": "1800 CHEMIN ST LOUIS", "city": "QUEBEC", "province": "QC", "country": "CA", "postalCode": "G1S1H7", "twitter": "None", "instagram": "None", "facebook": "None", "youtube": "None", "website": "None", "summary": "None", "logo": "None", "latitude": 46.78077381960866, "longitude": -71.24757001168541}, "108032889RR0001": {"name": "ST. MICHAEL'S CHURCH", "designationCode": "C", "categoryCode": "38", "address": "4424 ONTARIO ST", "city": "BEAMSVILLE", "province": "ON", "country": "CA", "postalCode": "L0R1B5", "twitter": "None", "instagram": "None", "facebook": "None", "youtube": "None", "website": "None", "summary": "None", "logo": "None", "latitude": 43.17236076963474, "longitude": -79.47675755987034}, "108032905RR0001": {"name": "ST. MICHAEL'S CHURCH", "designationCode": "C", "categoryCode": "38", "address": "48 WILLIAM AVE", "city": "CONISTON", "province": "ON", "country": "CA", "postalCode": "P0M1M0", "twitter": "None", "instagram": "None", "facebook": "None", "youtube": "None", "website": "None", "summary": "None", "logo": "None", "latitude": 46.48297558673323, "longitude": -80.85103191343967}, "108094392RR0034": {"name": "ST. MICHAEL'S CHURCH", "designationCode": "C", "categoryCode": "38", "address": "BOX 167", "city": "SPARWOOD", "province": "BC", "country": "CA", "postalCode": "V0B2G0", "twitter": "None", "instagram": "None", "facebook": "None", "youtube": "None", "website": "None", "summary": "None", "logo": "None", "latitude": 49.71825130304497, "longitude": -114.89137413399925}, "119109791RR0009": {"name": "ST. MICHAEL'S CHURCH", "designationCode": "C", "categoryCode": "38", "address": "310 CENTRAL AVE", "city": "FORT ERIE", "province": "ON", "country": "CA", "postalCode": "L2A3T3", "twitter": "None", "instagram": "None", "facebook": "None", "youtube": "None", "website": "None", "summary": "None", "logo": "None", "latitude": 42.918776709684785, "longitude": -78.91895067742755}, "119109791RR0025": {"name": "ST. MICHAEL'S CHURCH", "designationCode": "C", "categoryCode": "38", "address": "204 ALDER STREET WEST", "city": "DUNNVILLE", "province": "ON", "country": "CA", "postalCode": "N1A1R4", "twitter": "None", "instagram": "None", "facebook": "None", "youtube": "None", "website": "None", "summary": "None", "logo": "None", "latitude": 42.90556499580931, "longitude": -79.62034126137063}, "119109817RR0070": {"name": "ST. MICHAEL'S CHURCH", "designationCode": "C", "categoryCode": "38", "address": "2153 PARKWOOD AVE", "city": "WINDSOR", "province": "ON", "country": "CA", "postalCode": "N8W2J8", "twitter": "None", "instagram": "None", "facebook": "None", "youtube": "None", "website": "None", "summary": "None", "logo": "None", "latitude": 42.29884713154261, "longitude": -83.00632920820559}, "119109817RR0108": {"name": "ST. MICHAEL'S CHURCH", "designationCode": "C", "categoryCode": "38", "address": "FR MARIARAJ IRUDAYAM, OFM CAP P.O. BOX 478, 26 GEORGE ST", "city": "RIDGETOWN", "province": "ON", "country": "CA", "postalCode": "N0P2C0", "twitter": "None", "instagram": "None", "facebook": "None", "youtube": "None", "website": "None", "summary": "None", "logo": "None", "latitude": 42.434098440446796, "longitude": -81.89010660794061}, "119109833RR0013": {"name": "ST. MICHAEL'S CHURCH", "designationCode": "C", "categoryCode": "38", "address": "14 SAINT-MICHAEL'S AVE", "city": "HALIFAX", "province": "NS", "country": "CA", "postalCode": "B3P1M5", "twitter": "None", "instagram": "None", "facebook": "None", "youtube": "None", "website": "None", "summary": "None", "logo": "None", "latitude": 44.61510159813018, "longitude": -63.61436594336097}, "119110443RR0044": {"name": "ST. MICHAEL'S CHURCH", "designationCode": "C", "categoryCode": "38", "address": "296 CHURCH ST.", "city": "BELLEVILLE", "province": "ON", "country": "CA", "postalCode": "K8N3C6", "twitter": "None", "instagram": "None", "facebook": "None", "youtube": "None", "website": "None", "summary": "None", "logo": "None", "latitude": 44.16827081652158, "longitude": -77.382959903485}, "816758544RR0001": {"name": "ST. MICHAEL'S COLLEGE HIGH SCHOOL FOUNDATION", "designationCode": "A", "categoryCode": "03", "address": "1515 BATHURST ST", "city": "TORONTO", "province": "ON", "country": "CA", "postalCode": "M5P3H4", "twitter": "None", "instagram": "None", "facebook": "None", "youtube": "None", "website": "None", "summary": "None", "logo": "None", "latitude": 43.68450062311714, "longitude": -79.41881042466467}, "119191500RR0001": {"name": "ST. MICHAEL'S COLLEGE SCHOOL", "designationCode": "C", "categoryCode": "20", "address": "1515 BATHURST ST", "city": "TORONTO", "province": "ON", "country": "CA", "postalCode": "M5P3H4", "twitter": "None", "instagram": "None", "facebook": "None", "youtube": "None", "website": "None", "summary": "None", "logo": "None", "latitude": 43.68450062311714, "longitude": -79.41881042466467}, "108032483RR0001": {"name": "ST. MICHAEL'S EXTENDED CARE CENTRE SOCIETY", "designationCode": "C", "categoryCode": "01", "address": "7404 139 AVE NW", "city": "EDMONTON", "province": "AB", "country": "CA", "postalCode": "T5C3H7", "twitter": "None", "instagram": "None", "facebook": "None", "youtube": "None", "website": "None", "summary": "None", "logo": "None", "latitude": 53.6016474865829, "longitude": -113.45649202553523}, "119191831RR0001": {"name": "ST. MICHAEL'S FRIARY", "designationCode": "C", "categoryCode": "38", "address": "PO BOX 220", "city": "LUMSDEN", "province": "SK", "country": "CA", "postalCode": "S0G3C0", "twitter": "None", "instagram": "None", "facebook": "None", "youtube": "None", "website": "None", "summary": "None", "logo": "None", "latitude": 50.64512000000008, "longitude": -104.86806999999999}, "107949893RR0001": {"name": "ST. MICHAEL'S HOMES", "designationCode": "C", "categoryCode": "57", "address": "262 GERRARD ST E", "city": "TORONTO", "province": "ON", "country": "CA", "postalCode": "M5A2G2", "twitter": "None", "instagram": "None", "facebook": "None", "youtube": "None", "website": "None", "summary": "None", "logo": "None", "latitude": 43.661969055802324, "longitude": -79.3688105162444}, "108032533RR0001": {"name": "ST. MICHAEL'S HOSPITAL", "designationCode": "C", "categoryCode": "10", "address": "30 BOND ST", "city": "TORONTO", "province": "ON", "country": "CA", "postalCode": "M5B1W8", "twitter": "None", "instagram": "None", "facebook": "None", "youtube": "None", "website": "None", "summary": "None", "logo": "None", "latitude": 43.653711971406366, "longitude": -79.37730546658757}, "861897049RR0001": {"name": "ST. MICHAEL'S HOUSING ASSOCIATION", "designationCode": "C", "categoryCode": "01", "address": "1400 9 AVE S", "city": "LETHBRIDGE", "province": "AB", "country": "CA", "postalCode": "T1J4V5", "twitter": "None", "instagram": "None", "facebook": "None", "youtube": "None", "website": "None", "summary": "None", "logo": "None", "latitude": 49.68662154227055, "longitude": -112.822461}, "861451235RR0001": {"name": "ST. MICHAEL'S NEW COVENANT CHERUBIM AND SERAPHIM CHURCH", "designationCode": "C", "categoryCode": "39", "address": "425 EDDYSTONE                 UNIT 6", "city": "TORONTO", "province": "ON", "country": "CA", "postalCode": "M3N1H8", "twitter": "None", "instagram": "None", "facebook": "None", "youtube": "None", "website": "None", "summary": "None", "logo": "None", "latitude": 43.74699587422847, "longitude": -79.52498604105845}, "106880107RR0053": {"name": "ST. MICHAEL'S PARISH", "designationCode": "C", "categoryCode": "38", "address": "1181 EAST MARGAREE ROAD", "city": "MARGAREE", "province": "NS", "country": "CA", "postalCode": "B0E1Y0", "twitter": "None", "instagram": "None", "facebook": "None", "youtube": "None", "website": "None", "summary": "None", "logo": "None", "latitude": 46.39372174968878, "longitude": -61.07379262992411}, "107020331RR0026": {"name": "ST. MICHAEL'S PARISH", "designationCode": "C", "categoryCode": "38", "address": "10 HOWARD ST", "city": "MIRAMICHI", "province": "NB", "country": "CA", "postalCode": "E1N0C4", "twitter": "None", "instagram": "None", "facebook": "None", "youtube": "None", "website": "None", "summary": "None", "logo": "None", "latitude": 47.02621962894553, "longitude": -65.46676712663785}, "107307191RR0014": {"name": "ST. MICHAEL'S PARISH", "designationCode": "C", "categoryCode": "38", "address": "BOX 100", "city": "TRAMPING LAKE", "province": "SK", "country": "CA", "postalCode": "S0K4H0", "twitter": "None", "instagram": "None", "facebook": "None", "youtube": "None", "website": "None", "summary": "None", "logo": "None", "latitude": 52.137294000000054, "longitude": -108.95086249999993}, "107307191RR0046": {"name": "ST. MICHAEL'S PARISH", "designationCode": "C", "categoryCode": "38", "address": "18 33RD ST E", "city": "SASKATOON", "province": "SK", "country": "CA", "postalCode": "S7K0R7", "twitter": "None", "instagram": "None", "facebook": "None", "youtube": "None", "website": "None", "summary": "None", "logo": "None", "latitude": 52.14388947157924, "longitude": -106.66761227699232}, "107910176RR0032": {"name": "ST. MICHAEL'S PARISH", "designationCode": "C", "categoryCode": "38", "address": "PO BOX 1363 STN C", "city": "ST. JOHN'S", "province": "NL", "country": "CA", "postalCode": "A1C5N5", "twitter": "None", "instagram": "None", "facebook": "None", "youtube": "None", "website": "None", "summary": "None", "logo": "None", "latitude": 47.56082100000006, "longitude": -52.71219349999993}, "118849470RR0006": {"name": "ST. MICHAEL'S PARISH", "designationCode": "C", "categoryCode": "38", "address": "9387 HOLMES ST", "city": "BURNABY", "province": "BC", "country": "CA", "postalCode": "V3N4C3", "twitter": "None", "instagram": "None", "facebook": "None", "youtube": "None", "website": "None", "summary": "None", "logo": "None", "latitude": 49.23538344493115, "longitude": -122.89762755098886}, "119109817RR0121": {"name": "ST. MICHAEL'S PARISH", "designationCode": "C", "categoryCode": "38", "address": "511 CHEAPSIDE ST.", "city": "LONDON", "province": "ON", "country": "CA", "postalCode": "N5Y3X5", "twitter": "None", "instagram": "None", "facebook": "None", "youtube": "None", "website": "None", "summary": "None", "logo": "None", "latitude": 43.00488874245254, "longitude": -81.24451990323293}, "119110450RR0014": {"name": "ST. MICHAEL'S PARISH", "designationCode": "C", "categoryCode": "38", "address": "240 HEMLOCK STREET", "city": "WATERLOO", "province": "ON", "country": "CA", "postalCode": "N2L3R5", "twitter": "None", "instagram": "None", "facebook": "None", "youtube": "None", "website": "None", "summary": "None", "logo": "None", "latitude": 43.47486822398864, "longitude": -80.53112541476732}, "119110450RR0046": {"name": "ST. MICHAEL'S PARISH", "designationCode": "C", "categoryCode": "38", "address": "181 SEWELL DRIVE", "city": "OAKVILLE", "province": "ON", "country": "CA", "postalCode": "L6H1E3", "twitter": "None", "instagram": "None", "facebook": "None", "youtube": "None", "website": "None", "summary": "None", "logo": "None", "latitude": 43.46299236248479, "longitude": -79.69434017528411}, "887600864RR0001": {"name": "ST. MICHAEL'S PARISH", "designationCode": "C", "categoryCode": "38", "address": "BOX 4", "city": "BANGOR", "province": "SK", "country": "CA", "postalCode": "S0A0E0", "twitter": "None", "instagram": "None", "facebook": "None", "youtube": "None", "website": "None", "summary": "None", "logo": "None", "latitude": 50.85631799999999, "longitude": -102.35471849999999}, "861581551RR0001": {"name": "ST. MICHAEL'S PARISH COUNCIL NO. 9473 CHARITABLE WELFARE TRUST", "designationCode": "A", "categoryCode": "63", "address": "3924 KENT LINE  RR 2", "city": "DRESDEN", "province": "ON", "country": "CA", "postalCode": "N0P1M0", "twitter": "None", "instagram": "None", "facebook": "None", "youtube": "None", "website": "None", "summary": "None", "logo": "None", "latitude": 42.62923345268046, "longitude": -82.17588066180969}, "106880107RR0032": {"name": "ST. MICHAEL'S PARISH, BADDECK", "designationCode": "C", "categoryCode": "38", "address": "P.O. BOX 11", "city": "BADDECK", "province": "NS", "country": "CA", "postalCode": "B0E1B0", "twitter": "None", "instagram": "None", "facebook": "None", "youtube": "None", "website": "None", "summary": "None", "logo": "None", "latitude": 46.087500000000034, "longitude": -60.780119999999954}, "842945073RR0001": {"name": "ST. MICHAEL'S PRESENTS SOCIETY", "designationCode": "C", "categoryCode": "43", "address": "331 FESTUBERT ST", "city": "DUNCAN", "province": "BC", "country": "CA", "postalCode": "V9L3T1", "twitter": "None", "instagram": "None", "facebook": "None", "youtube": "None", "website": "None", "summary": "None", "logo": "None", "latitude": 48.77754316763807, "longitude": -123.70209415531748}, "817174915RR0001": {"name": "ST. MICHAEL'S ROMAN CATHOLIC PARISH (CORRAN BAN) INC.", "designationCode": "C", "categoryCode": "38", "address": "1257 ROUTE 6 CORRAN BAN       RR1", "city": "MT. STEWART", "province": "PE", "country": "CA", "postalCode": "C0A1T0", "twitter": "None", "instagram": "None", "facebook": "None", "youtube": "None", "website": "None", "summary": "None", "logo": "None", "latitude": 46.30447142760757, "longitude": -62.78748445061387}, "817106719RR0001": {"name": "ST. MICHAEL'S ROMAN CATHOLIC PARISH (IONA) INC.", "designationCode": "C", "categoryCode": "38", "address": "PO BOX 209", "city": "MONTAGUE", "province": "PE", "country": "CA", "postalCode": "C0A1R0", "twitter": "None", "instagram": "None", "facebook": "None", "youtube": "None", "website": "None", "summary": "None", "logo": "None", "latitude": 46.14343222329997, "longitude": -62.75594020244682}, "108032913RR0001": {"name": "ST. MICHAEL'S UKRAINIAN CATHOLIC PARISH", "designationCode": "C", "categoryCode": "38", "address": "100 YALE AVE E", "city": "WINNIPEG", "province": "MB", "country": "CA", "postalCode": "R2C0H8", "twitter": "None", "instagram": "None", "facebook": "None", "youtube": "None", "website": "None", "summary": "None", "logo": "None", "latitude": 49.896630484563666, "longitude": -97.0021215}, "108032947RR0002": {"name": "ST. MICHAEL'S UKRAINIAN ORTHODOX PARISH", "designationCode": "C", "categoryCode": "39", "address": "12104 129 AVE NW", "city": "EDMONTON", "province": "AB", "country": "CA", "postalCode": "T5L3J1", "twitter": "None", "instagram": "None", "facebook": "None", "youtube": "None", "website": "None", "summary": "None", "logo": "None", "latitude": 53.58761051543633, "longitude": -113.530833}, "107307191RR0065": {"name": "ST. MICHAELS ROMAN CATHOLIC CHURCH", "designationCode": "C", "categoryCode": "38", "address": "BOX 308", "city": "BURSTALL", "province": "SK", "country": "CA", "postalCode": "S0N0H0", "twitter": "None", "instagram": "None", "facebook": "None", "youtube": "None", "website": "None", "summary": "None", "logo": "None", "latitude": 50.65012000000007, "longitude": -109.90158999999994}, "119191922RR0001": {"name": "ST. MICHAELS UNIVERSITY SCHOOL ALUMNI ASSOCIATION BURSARY FUND", "designationCode": "C", "categoryCode": "21", "address": "3400 RICHMOND ROAD", "city": "VICTORIA", "province": "BC", "country": "CA", "postalCode": "V8P4P5", "twitter": "None", "instagram": "None", "facebook": "None", "youtube": "None", "website": "None", "summary": "None", "logo": "None", "latitude": 48.45079642853023, "longitude": -123.32583702833384}, "122877475RR0001": {"name": "ST. MICHAELS UNIVERSITY SCHOOL FOUNDATION", "designationCode": "A", "categoryCode": "23", "address": "3400 RICHMOND RD", "city": "VICTORIA", "province": "BC", "country": "CA", "postalCode": "V8P4P5", "twitter": "None", "instagram": "None", "facebook": "None", "youtube": "None", "website": "None", "summary": "None", "logo": "None", "latitude": 48.45079642853023, "longitude": -123.32583702833384}, "891145542RR0001": {"name": "ST. MICHAELS UNIVERSITY SCHOOL PARENTS' AUXILIARY SOCIETY", "designationCode": "A", "categoryCode": "21", "address": "3400 RICHMOND RD", "city": "VICTORIA", "province": "BC", "country": "CA", "postalCode": "V8P4P5", "twitter": "None", "instagram": "None", "facebook": "None", "youtube": "None", "website": "None", "summary": "None", "logo": "None", "latitude": 48.45079642853023, "longitude": -123.32583702833384}, "108032988RR0001": {"name": "ST. MICHAELS UNIVERSITY SCHOOL SOCIETY", "designationCode": "C", "categoryCode": "20", "address": "3400 RICHMOND RD", "city": "VICTORIA", "province": "BC", "country": "CA", "postalCode": "V8P4P5", "twitter": "None", "instagram": "None", "facebook": "None", "youtube": "None", "website": "None", "summary": "None", "logo": "None", "latitude": 48.45079642853023, "longitude": -123.32583702833384}, "119191963RR0001": {"name": "ST. MILDRED'S-LIGHTBOURN SCHOOL", "designationCode": "C", "categoryCode": "20", "address": "1080 LINBROOK RD", "city": "OAKVILLE", "province": "ON", "country": "CA", "postalCode": "L6J2L1", "twitter": "None", "instagram": "None", "facebook": "None", "youtube": "None", "website": "None", "summary": "None", "logo": "None", "latitude": 43.464390087973975, "longitude": -79.66771006298701}, "898053046RR0001": {"name": "ST. MINA COPTIC ORTHODOX CHURCH OF CALGARY", "designationCode": "C", "categoryCode": "39", "address": "292120 WAGON WHEEL BOULEVARD", "city": "CALGARY", "province": "AB", "country": "CA", "postalCode": "T4A0E2", "twitter": "None", "instagram": "None", "facebook": "None", "youtube": "None", "website": "None", "summary": "None", "logo": "None", "latitude": 51.210496502163465, "longitude": -113.9679}, "107876476RR0064": {"name": "ST. MONICA'S CHURCH", "designationCode": "C", "categoryCode": "38", "address": "30 CAVERHILL ST", "city": "WAWA", "province": "ON", "country": "CA", "postalCode": "P0S1K0", "twitter": "None", "instagram": "None", "facebook": "None", "youtube": "None", "website": "None", "summary": "None", "logo": "None", "latitude": 47.99388163682224, "longitude": -84.77093236317775}, "118849470RR0061": {"name": "ST. MONICA'S PARISH", "designationCode": "C", "categoryCode": "38", "address": "12011 WOODHEAD RD", "city": "RICHMOND", "province": "BC", "country": "CA", "postalCode": "V6V1G2", "twitter": "None", "instagram": "None", "facebook": "None", "youtube": "None", "website": "None", "summary": "None", "logo": "None", "latitude": 49.182380453257394, "longitude": -123.09030352553523}, "119192060RR0001": {"name": "ST. NAUM OF OHRID MACEDONIAN ORTHODOX CHURCH, HAMILTON", "designationCode": "C", "categoryCode": "39", "address": "1150 STONE CHURCH ROAD EAST", "city": "HAMILTON", "province": "ON", "country": "CA", "postalCode": "L8W2C7", "twitter": "None", "instagram": "None", "facebook": "None", "youtube": "None", "website": "None", "summary": "None", "logo": "None", "latitude": 43.198538946362085, "longitude": -79.83785003514316}, "108033176RR0001": {"name": "ST. NICHOLAS CHURCH", "designationCode": "C", "categoryCode": "38", "address": "260 MELVIN AVE", "city": "HAMILTON", "province": "ON", "country": "CA", "postalCode": "L8H2K2", "twitter": "None", "instagram": "None", "facebook": "None", "youtube": "None", "website": "None", "summary": "None", "logo": "None", "latitude": 43.24257484205682, "longitude": -79.78573959714923}, "108033200RR0001": {"name": "ST. NICHOLAS CHURCH INC.", "designationCode": "C", "categoryCode": "39", "address": "33 DORCHESTER STREET", "city": "SAINT JOHN", "province": "NB", "country": "CA", "postalCode": "E2L3H7", "twitter": "None", "instagram": "None", "facebook": "None", "youtube": "None", "website": "None", "summary": "None", "logo": "None", "latitude": 45.27581430391251, "longitude": -66.06057645504639}, "108033226RR0001": {"name": "ST. NICHOLAS GREEK COMMUNITY OF SUDBURY", "designationCode": "C", "categoryCode": "39", "address": "486 ESTER ROAD", "city": "SUDBURY", "province": "ON", "country": "CA", "postalCode": "P3E5C4", "twitter": "None", "instagram": "None", "facebook": "None", "youtube": "None", "website": "None", "summary": "None", "logo": "None", "latitude": 46.44394646883796, "longitude": -81.01248288242277}, "108033218RR0001": {"name": "ST. NICHOLAS GREEK ORTHODOX CHURCH OF SCARBOROUGH", "designationCode": "C", "categoryCode": "39", "address": "3840 FINCH AVENUE EAST", "city": "SCARBOROUGH", "province": "ON", "country": "CA", "postalCode": "M1T3T4", "twitter": "None", "instagram": "None", "facebook": "None", "youtube": "None", "website": "None", "summary": "None", "logo": "None", "latitude": 43.80019107470109, "longitude": -79.30114026438326}, "108033234RR0001": {"name": "ST. NICHOLAS MACEDONIAN EASTERN ORTHODOX CHURCH", "designationCode": "C", "categoryCode": "39", "address": "5225 HOWARD AVENUE", "city": "WINDSOR", "province": "ON", "country": "CA", "postalCode": "N9A6Z6", "twitter": "None", "instagram": "None", "facebook": "None", "youtube": "None", "website": "None", "summary": "None", "logo": "None", "latitude": 42.227592058232176, "longitude": -82.99756322040433}, "874146814RR0001": {"name": "ST. NICHOLAS ORTHODOX CHURCH OF NAROL INCORPORATED", "designationCode": "C", "categoryCode": "39", "address": "5635 HENDERSON HIGHWAY", "city": "NAROL", "province": "MB", "country": "CA", "postalCode": "R1C0B6", "twitter": "None", "instagram": "None", "facebook": "None", "youtube": "None", "website": "None", "summary": "None", "logo": "None", "latitude": 50.05353057395127, "longitude": -96.98082013748656}, "118849470RR0086": {"name": "ST. NICHOLAS PARISH", "designationCode": "C", "categoryCode": "38", "address": "20675 87 AVE", "city": "LANGLEY", "province": "BC", "country": "CA", "postalCode": "V1M3X4", "twitter": "None", "instagram": "None", "facebook": "None", "youtube": "None", "website": "None", "summary": "None", "logo": "None", "latitude": 49.161030350863605, "longitude": -122.6492846491364}, "108033309RR0001": {"name": "ST. NICHOLAS SERBIAN EASTERN ORTHODOX CHURCH", "designationCode": "C", "categoryCode": "39", "address": "1415 BARTON ST E", "city": "HAMILTON", "province": "ON", "country": "CA", "postalCode": "L8H2W6", "twitter": "None", "instagram": "None", "facebook": "None", "youtube": "None", "website": "None", "summary": "None", "logo": "None", "latitude": 43.248353132407985, "longitude": -79.80228731903173}, "108033325RR0001": {"name": "ST. NICHOLAS UKRAINIAN CATHOLIC CHURCH", "designationCode": "C", "categoryCode": "38", "address": "430 FOURTH ST N", "city": "KENORA", "province": "ON", "country": "CA", "postalCode": "P9N2M9", "twitter": "None", "instagram": "None", "facebook": "None", "youtube": "None", "website": "None", "summary": "None", "logo": "None", "latitude": 49.77072111019099, "longitude": -94.48053516388715}, "108033341RR0001": {"name": "ST. NICHOLAS UKRAINIAN CATHOLIC PARISH", "designationCode": "C", "categoryCode": "38", "address": "BOX 125", "city": "FISHER BRANCH", "province": "MB", "country": "CA", "postalCode": "R0C0Z0", "twitter": "None", "instagram": "None", "facebook": "None", "youtube": "None", "website": "None", "summary": "None", "logo": "None", "latitude": 51.08144020941467, "longitude": -97.61850910684359}, "106880107RR0030": {"name": "ST. NINIAN'S PARISH, ANTIGONISH", "designationCode": "C", "categoryCode": "38", "address": "PO BOX 1628 STN MAIN", "city": "ANTIGONISH", "province": "NS", "country": "CA", "postalCode": "B2G2L8", "twitter": "None", "instagram": "None", "facebook": "None", "youtube": "None", "website": "None", "summary": "None", "logo": "None", "latitude": 45.6227685541313, "longitude": -61.98878201843836}, "105030175RR0001": {"name": "ST. NORBERT CHILDREN'S CENTRE INC.", "designationCode": "C", "categoryCode": "20", "address": "3448 PEMBINA HWY", "city": "WINNIPEG", "province": "MB", "country": "CA", "postalCode": "R3V1A1", "twitter": "None", "instagram": "None", "facebook": "None", "youtube": "None", "website": "None", "summary": "None", "logo": "None", "latitude": 49.76836057288343, "longitude": -97.15621322124825}, "107585085RR0040": {"name": "ST. ODILON PARISH, ROSTHERN, SK", "designationCode": "C", "categoryCode": "38", "address": "BOX 211", "city": "ROSTHERN", "province": "SK", "country": "CA", "postalCode": "S0K3R0", "twitter": "None", "instagram": "None", "facebook": "None", "youtube": "None", "website": "None", "summary": "None", "logo": "None", "latitude": 52.663230000000055, "longitude": -106.32952999999998}, "887505790RR0001": {"name": "ST. OUENS PENTECOSTAL CHURCH", "designationCode": "C", "categoryCode": "36", "address": "BOX 12, GRP. 420, RR # 4", "city": "BEAUSEJOUR", "province": "MB", "country": "CA", "postalCode": "R0E0C0", "twitter": "None", "instagram": "None", "facebook": "None", "youtube": "None", "website": "None", "summary": "None", "logo": "None", "latitude": 50.061750000000075, "longitude": -96.50519999999995}, "107910259RR0227": {"name": "ST. PADRE PIO PARISH", "designationCode": "C", "categoryCode": "38", "address": "5500 MAJOR MACKENZIE DRIVE", "city": "KLEINBURG", "province": "ON", "country": "CA", "postalCode": "L0J1C0", "twitter": "None", "instagram": "None", "facebook": "None", "youtube": "None", "website": "None", "summary": "None", "logo": "None", "latitude": 43.83053891788307, "longitude": -79.6209035663912}, "106880107RR0048": {"name": "ST. PARTICK'S PARISH, LOCHABER", "designationCode": "C", "categoryCode": "38", "address": "RR #5 LOCHABER", "city": "ANTIGONISH", "province": "NS", "country": "CA", "postalCode": "B2G2L3", "twitter": "None", "instagram": "None", "facebook": "None", "youtube": "None", "website": "None", "summary": "None", "logo": "None", "latitude": 45.412720000000036, "longitude": -62.026189999999986}, "891443707RR0001": {"name": "ST. PASCHAL BAYLON CHAPEL ASSOCIATION", "designationCode": "C", "categoryCode": "39", "address": "3 BRENTWOOD ESTATE", "city": "AMHERST", "province": "NS", "country": "CA", "postalCode": "B4H4G5", "twitter": "None", "instagram": "None", "facebook": "None", "youtube": "None", "website": "None", "summary": "None", "logo": "None", "latitude": 45.82099492033591, "longitude": -64.1838720345376}, "107307191RR0022": {"name": "ST. PASCHAL'S PARISH", "designationCode": "C", "categoryCode": "38", "address": "BOX 726", "city": "WILKIE", "province": "SK", "country": "CA", "postalCode": "S0K4W0", "twitter": "None", "instagram": "None", "facebook": "None", "youtube": "None", "website": "None", "summary": "None", "logo": "None", "latitude": 52.410810000000026, "longitude": -108.70070999999996}, "132410671RR0352": {"name": "ST. PATRICK CONFERENCE, SOCIETY OF ST.VINCENT DE PAUL", "designationCode": "C", "categoryCode": "09", "address": "PO BOX 652", "city": "TOTTENHAM", "province": "ON", "country": "CA", "postalCode": "L0G1W0", "twitter": "None", "instagram": "None", "facebook": "None", "youtube": "None", "website": "None", "summary": "None", "logo": "None", "latitude": 44.101466326769575, "longitude": -79.82930921542986}}