{"868490186RR0001": {"name": "GURDWARA GURU AMARDAS DARBAR SIKH SOCIETY", "designationCode": "C", "categoryCode": "62", "address": "220 DAVIE ROAD                P.O. BOX 2207, STN RUTLAND", "city": "KELOWNA", "province": "BC", "country": "CA", "postalCode": "V1X4K6", "twitter": "None", "instagram": "None", "facebook": "None", "youtube": "None", "website": "None", "summary": "None", "logo": "None", "latitude": 49.888062652137016, "longitude": -119.40581385710243}, "864320411RR0001": {"name": "GURDWARA KALGIDHAR DARBAR INC.", "designationCode": "C", "categoryCode": "62", "address": "2762 KING EDWARD ST           BOX 9 GROUP 256 RR 2", "city": "WINNIPEG", "province": "MB", "country": "CA", "postalCode": "R3C2E6", "twitter": "None", "instagram": "None", "facebook": "None", "youtube": "None", "website": "None", "summary": "None", "logo": "None", "latitude": 49.899525000000054, "longitude": -97.14112999999993}, "882824303RR0001": {"name": "GURDWARA NANAKSAR SATSANG SABHA SOCIETY", "designationCode": "C", "categoryCode": "62", "address": "19740 71B AVE", "city": "LANGLEY", "province": "BC", "country": "CA", "postalCode": "V2Y3G8", "twitter": "None", "instagram": "None", "facebook": "None", "youtube": "None", "website": "None", "summary": "None", "logo": "None", "latitude": 49.13297648124546, "longitude": -122.67555105107044}, "895090520RR0002": {"name": "GURDWARA SAHIB MIRI PIRI DARBAR SIKH TEMPLE", "designationCode": "C", "categoryCode": "62", "address": "305 PRIDEAUX STREET", "city": "NANAIMO", "province": "BC", "country": "CA", "postalCode": "V9S2N4", "twitter": "None", "instagram": "None", "facebook": "None", "youtube": "None", "website": "None", "summary": "None", "logo": "None", "latitude": 49.164151098505556, "longitude": -123.94359575235113}, "866791221RR0001": {"name": "GURDWARA SINGH SABHA SOCIETY OF VICTORIA", "designationCode": "C", "categoryCode": "62", "address": "470 CECELIA ROAD", "city": "VICTORIA", "province": "BC", "country": "CA", "postalCode": "V8T4T5", "twitter": "None", "instagram": "None", "facebook": "None", "youtube": "None", "website": "None", "summary": "None", "logo": "None", "latitude": 48.444204130474745, "longitude": -123.37750753632662}, "132010216RR0001": {"name": "GURDWARA SIRI GURU SINGH SABHA, EDMONTON, ALBERTA", "designationCode": "C", "categoryCode": "62", "address": "4504 MILLWOODS ROAD SOUTH NW", "city": "EDMONTON", "province": "AB", "country": "CA", "postalCode": "T6L6Y8", "twitter": "None", "instagram": "None", "facebook": "None", "youtube": "None", "website": "None", "summary": "None", "logo": "None", "latitude": 53.44323483045735, "longitude": -113.40853988227855}, "889175550RR0001": {"name": "GURMAN FOUNDATION/FONDATION GURMAN", "designationCode": "B", "categoryCode": "43", "address": "5000 JEAN-TALON WEST          SUITE 200", "city": "MONTREAL", "province": "QC", "country": "CA", "postalCode": "H4P1W9", "twitter": "None", "instagram": "None", "facebook": "None", "youtube": "None", "website": "None", "summary": "None", "logo": "None", "latitude": 45.49675394610227, "longitude": -73.65010447798548}, "843403726RR0001": {"name": "GURNEY M. KRANZ CHARITABLE FOUNDATION", "designationCode": "A", "categoryCode": "03", "address": "8 MCGILLIVRAY AVE", "city": "NORTH YORK", "province": "ON", "country": "CA", "postalCode": "M5M2Y1", "twitter": "None", "instagram": "None", "facebook": "None", "youtube": "None", "website": "None", "summary": "None", "logo": "None", "latitude": 43.737771183478436, "longitude": -79.42343798058161}, "869699272RR0001": {"name": "GURPRASAD SIKH CHARITABLE FOUNDATION", "designationCode": "B", "categoryCode": "03", "address": "210-4515 EBENEZER ROAD", "city": "BRAMPTON", "province": "ON", "country": "CA", "postalCode": "L6P2K7", "twitter": "None", "instagram": "None", "facebook": "None", "youtube": "None", "website": "None", "summary": "None", "logo": "None", "latitude": 43.77261972269058, "longitude": -79.66266372849029}, "860686401RR0001": {"name": "GURSEWA CHARITABLE SOCIETY", "designationCode": "C", "categoryCode": "62", "address": "27 CLEARFIELD DRIVE", "city": "BRAMPTON", "province": "ON", "country": "CA", "postalCode": "L6P3L5", "twitter": "None", "instagram": "None", "facebook": "None", "youtube": "None", "website": "None", "summary": "None", "logo": "None", "latitude": 43.786989367187985, "longitude": -79.6673631130765}, "107458150RR0001": {"name": "GURSIKH MISSIONARY SOCIETY, GRANDE PRAIRIE, ALBERTA", "designationCode": "C", "categoryCode": "62", "address": "PO BOX 1403 STN MAIN", "city": "GRANDE PRAIRIE", "province": "AB", "country": "CA", "postalCode": "T8V4Z2", "twitter": "None", "instagram": "None", "facebook": "None", "youtube": "None", "website": "None", "summary": "None", "logo": "None", "latitude": 55.171122000000054, "longitude": -118.79491399999993}, "118949841RR0001": {"name": "GURSIKH SABHA CANADA", "designationCode": "C", "categoryCode": "62", "address": "905 MIDDLEFIELD RD", "city": "SCARBOROUGH", "province": "ON", "country": "CA", "postalCode": "M1V4X1", "twitter": "None", "instagram": "None", "facebook": "None", "youtube": "None", "website": "None", "summary": "None", "logo": "None", "latitude": 43.82844486401402, "longitude": -79.2658818581283}, "887241396RR0001": {"name": "GURSIKH SANGAT HAMILTON-WENTWORTH", "designationCode": "C", "categoryCode": "62", "address": "200 OLD GUELPH RD", "city": "DUNDAS", "province": "ON", "country": "CA", "postalCode": "L9H5X6", "twitter": "None", "instagram": "None", "facebook": "None", "youtube": "None", "website": "None", "summary": "None", "logo": "None", "latitude": 43.29597211405747, "longitude": -79.90730863067628}, "118949858RR0001": {"name": "GURU ARJAN DEV SIKH SOCIETY OF POWELL RIVER, B.C.", "designationCode": "C", "categoryCode": "62", "address": "3850 QUADRA ST", "city": "POWELL RIVER", "province": "BC", "country": "CA", "postalCode": "V8A5B7", "twitter": "None", "instagram": "None", "facebook": "None", "youtube": "None", "website": "None", "summary": "None", "logo": "None", "latitude": 49.81994688842406, "longitude": -124.51731900121209}, "866874100RR0001": {"name": "GURU ARJUN DEV SIKH SOCIETY BRIDGEVIEW", "designationCode": "C", "categoryCode": "62", "address": "201-11267-125A ST", "city": "SURREY", "province": "BC", "country": "CA", "postalCode": "V3V8C5", "twitter": "None", "instagram": "None", "facebook": "None", "youtube": "None", "website": "None", "summary": "None", "logo": "None", "latitude": 49.20737265889551, "longitude": -122.87449351944704}, "866864671RR0001": {"name": "GURU DARBAR SOCIETY", "designationCode": "C", "categoryCode": "62", "address": "400 LEWIS DRIVE", "city": "QUESNEL", "province": "BC", "country": "CA", "postalCode": "V2J1K3", "twitter": "None", "instagram": "None", "facebook": "None", "youtube": "None", "website": "None", "summary": "None", "logo": "None", "latitude": 52.978176397455066, "longitude": -122.51523939768622}, "893468017RR0001": {"name": "GURU GOBIND SINGH CHILDREN'S FOUNDATION", "designationCode": "C", "categoryCode": "03", "address": "129 GOLDEN AVENUE", "city": "MARKHAM", "province": "ON", "country": "CA", "postalCode": "L3S3W9", "twitter": "None", "instagram": "None", "facebook": "None", "youtube": "None", "website": "None", "summary": "None", "logo": "None", "latitude": 43.84519695723942, "longitude": -79.26131036398534}, "118949866RR0001": {"name": "GURU GOBIND SINGH TEMPLE ASSOCIATION", "designationCode": "C", "categoryCode": "62", "address": "443 SOUTH KELLY STREET", "city": "PRINCE GEORGE", "province": "BC", "country": "CA", "postalCode": "V2M3K4", "twitter": "None", "instagram": "None", "facebook": "None", "youtube": "None", "website": "None", "summary": "None", "logo": "None", "latitude": 53.92120009748305, "longitude": -122.78285342718033}, "899592539RR0001": {"name": "GURU NANAK DARBAR INC", "designationCode": "C", "categoryCode": "62", "address": "900 MCLEOD AVE", "city": "WINNIPEG", "province": "MB", "country": "CA", "postalCode": "R2G2T7", "twitter": "None", "instagram": "None", "facebook": "None", "youtube": "None", "website": "None", "summary": "None", "logo": "None", "latitude": 49.92728011515398, "longitude": -97.06469946199995}, "881910814RR0001": {"name": "GURU NANAK DARBAR SIKH SOCIETY (P.G.)", "designationCode": "C", "categoryCode": "62", "address": "4298 DAVIS RD", "city": "PRINCE GEORGE", "province": "BC", "country": "CA", "postalCode": "V2N5L2", "twitter": "None", "instagram": "None", "facebook": "None", "youtube": "None", "website": "None", "summary": "None", "logo": "None", "latitude": 53.874198082058605, "longitude": -122.7800524944098}, "858434566RR0001": {"name": "GURU NANAK MISSION CALGARY", "designationCode": "C", "categoryCode": "62", "address": "265 CORAL SHORES CAPE NE", "city": "CALGARY", "province": "AB", "country": "CA", "postalCode": "T3J3T8", "twitter": "None", "instagram": "None", "facebook": "None", "youtube": "None", "website": "None", "summary": "None", "logo": "None", "latitude": 51.10294253952926, "longitude": -113.92687166625309}, "107458192RR0001": {"name": "GURU NANAK SIKH GURDWARA SOCIETY", "designationCode": "C", "categoryCode": "62", "address": "7050-120TH ST", "city": "SURREY", "province": "BC", "country": "CA", "postalCode": "V3W3M8", "twitter": "None", "instagram": "None", "facebook": "None", "youtube": "None", "website": "None", "summary": "None", "logo": "None", "latitude": 49.13152199999999, "longitude": -122.89026803494163}, "806347670RR0001": {"name": "GURU NANAK SIKH SOCIETY PORT ALBERNI", "designationCode": "C", "categoryCode": "62", "address": "4715 GERTRUDE ST", "city": "PORT ALBERNI", "province": "BC", "country": "CA", "postalCode": "V9Y6K4", "twitter": "None", "instagram": "None", "facebook": "None", "youtube": "None", "website": "None", "summary": "None", "logo": "None", "latitude": 49.260194218496046, "longitude": -124.81243274526658}, "863210209RR0001": {"name": "GURU NANAK SIKH SOCIETY WATERLOO COUNTY", "designationCode": "C", "categoryCode": "62", "address": "726 SUNDEW DR", "city": "WATERLOO", "province": "ON", "country": "CA", "postalCode": "N2V0C3", "twitter": "None", "instagram": "None", "facebook": "None", "youtube": "None", "website": "None", "summary": "None", "logo": "None", "latitude": 43.46070224453219, "longitude": -80.60279537650747}, "118949874RR0001": {"name": "GURU NANAK SIKH TEMPLE AND CULTURAL SOCIETY OF FORT ST. JOHN, B.C.", "designationCode": "C", "categoryCode": "62", "address": "9915-90 STREET", "city": "FORT ST JOHN", "province": "BC", "country": "CA", "postalCode": "V1J3G7", "twitter": "None", "instagram": "None", "facebook": "None", "youtube": "None", "website": "None", "summary": "None", "logo": "None", "latitude": 56.246219580904835, "longitude": -120.82898456336238}, "889231171RR0001": {"name": "GURU NANAK SIKH TEMPLE ASSOCIATION, HOUSTON, B.C.", "designationCode": "C", "categoryCode": "62", "address": "PO BOX 1784", "city": "HOUSTON", "province": "BC", "country": "CA", "postalCode": "V0J1Z0", "twitter": "None", "instagram": "None", "facebook": "None", "youtube": "None", "website": "None", "summary": "None", "logo": "None", "latitude": 55.240365186846496, "longitude": -127.654727473102}, "118949908RR0001": {"name": "GURU NANAK SIKH TEMPLE SOCIETY", "designationCode": "C", "categoryCode": "62", "address": "3024 MACKENZIE AVE. N", "city": "WILLIAMS LAKE", "province": "BC", "country": "CA", "postalCode": "V2G1P4", "twitter": "None", "instagram": "None", "facebook": "None", "youtube": "None", "website": "None", "summary": "None", "logo": "None", "latitude": 52.14740176230277, "longitude": -122.16937525889324}, "884573510RR0001": {"name": "GURU NANAK SPIRITUAL RESOURCE CENTRE", "designationCode": "C", "categoryCode": "62", "address": "7110-151 STREET", "city": "SURREY", "province": "BC", "country": "CA", "postalCode": "V3S7Y8", "twitter": "None", "instagram": "None", "facebook": "None", "youtube": "None", "website": "None", "summary": "None", "logo": "None", "latitude": 49.13206767860234, "longitude": -122.8038003240234}, "118949916RR0001": {"name": "GURU RAVI DASS SABHA TORONTO CANADA", "designationCode": "C", "categoryCode": "62", "address": "2284 QUEENSWAY DR", "city": "BURLINGTON", "province": "ON", "country": "CA", "postalCode": "L7R3T1", "twitter": "None", "instagram": "None", "facebook": "None", "youtube": "None", "website": "None", "summary": "None", "logo": "None", "latitude": 43.34641882289822, "longitude": -79.80984255436}, "872450150RR0001": {"name": "GURU TEG BAHADUR MEDICAL AND EDUCATIONAL SOCIETY OF BC", "designationCode": "C", "categoryCode": "11", "address": "7670-144 A ST", "city": "SURREY", "province": "BC", "country": "CA", "postalCode": "V3S9K8", "twitter": "None", "instagram": "None", "facebook": "None", "youtube": "None", "website": "None", "summary": "None", "logo": "None", "latitude": 49.142645580904855, "longitude": -122.82193053551855}, "800815953RR0001": {"name": "GURU TEG BAHADUR WELFARE SOCIETY", "designationCode": "C", "categoryCode": "62", "address": "5971 184 ST", "city": "SURREY", "province": "BC", "country": "CA", "postalCode": "V3S4N2", "twitter": "None", "instagram": "None", "facebook": "None", "youtube": "None", "website": "None", "summary": "None", "logo": "None", "latitude": 49.11078599999999, "longitude": -122.71270246837659}, "118949924RR0001": {"name": "GURU TEGH BAHADUR SIKH TEMPLE SOCIETY", "designationCode": "C", "categoryCode": "33", "address": "664 SWANSON RD BOX 298", "city": "CLEARWATER", "province": "BC", "country": "CA", "postalCode": "V0E1N0", "twitter": "None", "instagram": "None", "facebook": "None", "youtube": "None", "website": "None", "summary": "None", "logo": "None", "latitude": 51.64301141440575, "longitude": -120.02054789939109}, "860244110RR0001": {"name": "GURUVAYURAPPAN TEMPLE OF BRAMPTON", "designationCode": "C", "categoryCode": "48", "address": "125 FATHER TOBIN ROAD         UNITS 5&6", "city": "BRAMPTON", "province": "ON", "country": "CA", "postalCode": "L6R0W9", "twitter": "None", "instagram": "None", "facebook": "None", "youtube": "None", "website": "None", "summary": "None", "logo": "None", "latitude": 43.77116266579173, "longitude": -79.75616624695637}, "118949932RR0001": {"name": "GUSSIE AND THOMAS DALE FOUNDATION", "designationCode": "B", "categoryCode": "23", "address": "300 - 20 CORPORATE PARK DR", "city": "ST CATHARINES", "province": "ON", "country": "CA", "postalCode": "L2S3W2", "twitter": "None", "instagram": "None", "facebook": "None", "youtube": "None", "website": "None", "summary": "None", "logo": "None", "latitude": 43.176616703272195, "longitude": -79.2739951090658}, "892031378RR0001": {"name": "GUSTIN/TROUNCE HERITAGE COMMITTEE INC.", "designationCode": "C", "categoryCode": "22", "address": "47 PONY TRAIL                 RIVERSIDE ESTATES", "city": "SASKATOON", "province": "SK", "country": "CA", "postalCode": "S7T1A4", "twitter": "None", "instagram": "None", "facebook": "None", "youtube": "None", "website": "None", "summary": "None", "logo": "None", "latitude": 52.04532796892486, "longitude": -106.69812252241856}, "107458325RR0001": {"name": "GUTHRIE PRESBYTERIAN CHURCH", "designationCode": "C", "categoryCode": "37", "address": "BOX 116", "city": "ALVINSTON", "province": "ON", "country": "CA", "postalCode": "N0N1A0", "twitter": "None", "instagram": "None", "facebook": "None", "youtube": "None", "website": "None", "summary": "None", "logo": "None", "latitude": 42.81904000000003, "longitude": -81.86882999999995}, "118949973RR0001": {"name": "GUTHRIE PRESBYTERIAN CHURCH", "designationCode": "C", "categoryCode": "37", "address": "606 BROOK STREET              P.O. BOX 172", "city": "MELBOURNE", "province": "ON", "country": "CA", "postalCode": "N0L1T0", "twitter": "None", "instagram": "None", "facebook": "None", "youtube": "None", "website": "None", "summary": "None", "logo": "None", "latitude": 42.81813837108313, "longitude": -81.5525917013676}, "875225401RR0001": {"name": "GUYANA BURN AND HEALTH CARE CHARITABLE FOUNDATION", "designationCode": "C", "categoryCode": "01", "address": "66 MAJOR MACKENZIE DRIVE W", "city": "RICHMOND HILL", "province": "ON", "country": "CA", "postalCode": "L4C3S2", "twitter": "None", "instagram": "None", "facebook": "None", "youtube": "None", "website": "None", "summary": "None", "logo": "None", "latitude": 43.87075115303752, "longitude": -79.43942618933546}, "890965643RR0001": {"name": "GUYANA CHRISTIAN CHARITIES (CANADA) INC", "designationCode": "C", "categoryCode": "09", "address": "805 MIDDLEFIELD ROAD          UNIT 5", "city": "SCARBOROUGH", "province": "ON", "country": "CA", "postalCode": "M1V4Z6", "twitter": "None", "instagram": "None", "facebook": "None", "youtube": "None", "website": "None", "summary": "None", "logo": "None", "latitude": 43.82218716071318, "longitude": -79.26266221642949}, "769015298RR0001": {"name": "GUYANA EDUCATIONAL SOCIETY", "designationCode": "C", "categoryCode": "20", "address": "2406 33 ST SW", "city": "CALGARY", "province": "AB", "country": "CA", "postalCode": "T3E2T2", "twitter": "None", "instagram": "None", "facebook": "None", "youtube": "None", "website": "None", "summary": "None", "logo": "None", "latitude": 51.032890592561614, "longitude": -114.13545640631322}, "852872761RR0001": {"name": "GUYANESE CANADIAN YOUTH ALLIANCE", "designationCode": "C", "categoryCode": "09", "address": "14 MALBOROUGH RD", "city": "MARKHAM", "province": "ON", "country": "CA", "postalCode": "L6B0E9", "twitter": "None", "instagram": "None", "facebook": "None", "youtube": "None", "website": "None", "summary": "None", "logo": "None", "latitude": 43.86729505580231, "longitude": -79.21818995796058}, "891455974RR0001": {"name": "GUYANESE PIONEER FUND-RAISING GROUP", "designationCode": "C", "categoryCode": "09", "address": "228 CROCUS DRIVE", "city": "SCARBOROUGH", "province": "ON", "country": "CA", "postalCode": "M1R4T7", "twitter": "None", "instagram": "None", "facebook": "None", "youtube": "None", "website": "None", "summary": "None", "logo": "None", "latitude": 43.76789664669049, "longitude": -79.30387880901975}, "864507041RR0001": {"name": "GUYSBOROUGH AND AREA FOOD BANK SOCIETY", "designationCode": "C", "categoryCode": "09", "address": "2198 TOMPKINSVILLE ROAD", "city": "GUYSBOROUGH", "province": "NS", "country": "CA", "postalCode": "B0H1N0", "twitter": "None", "instagram": "None", "facebook": "None", "youtube": "None", "website": "None", "summary": "None", "logo": "None", "latitude": 45.39401166192525, "longitude": -61.504161041750955}, "118950047RR0001": {"name": "GUYSBOROUGH BAPTIST CHURCH", "designationCode": "C", "categoryCode": "31", "address": "P.O. BOX 250", "city": "GUYSBOROUGH", "province": "NS", "country": "CA", "postalCode": "B0H1N0", "twitter": "None", "instagram": "None", "facebook": "None", "youtube": "None", "website": "None", "summary": "None", "logo": "None", "latitude": 45.37026600000006, "longitude": -61.50474349999993}, "890515042RR0001": {"name": "GUYSBOROUGH COUNTY ADULT LEARNING ASSOCIATION", "designationCode": "C", "categoryCode": "20", "address": "PO BOX 255", "city": "GUYSBOROUGH", "province": "NS", "country": "CA", "postalCode": "B0H1N0", "twitter": "None", "instagram": "None", "facebook": "None", "youtube": "None", "website": "None", "summary": "None", "logo": "None", "latitude": 45.37026600000006, "longitude": -61.50474349999993}, "891618068RR0001": {"name": "GUYSBOROUGH COUNTY HILLSIDE CEMETERY SOCIETY", "designationCode": "C", "categoryCode": "59", "address": "RR#5 STN MAIN", "city": "NEW GLASGOW", "province": "NS", "country": "CA", "postalCode": "B2H5C8", "twitter": "None", "instagram": "None", "facebook": "None", "youtube": "None", "website": "None", "summary": "None", "logo": "None", "latitude": 45.39144300000005, "longitude": -62.16826849999994}, "859166571RR0001": {"name": "GUYSBOROUGH COUNTY OPERATION CHRISTMAS SPIRIT", "designationCode": "C", "categoryCode": "09", "address": "9996 CHEDABUCTO CENTRE        UNIT H HIGHWAY 16", "city": "GUYSBOROUGH", "province": "NS", "country": "CA", "postalCode": "B0H1N0", "twitter": "None", "instagram": "None", "facebook": "None", "youtube": "None", "website": "None", "summary": "None", "logo": "None", "latitude": 45.39253770562438, "longitude": -61.498990450005486}, "889715199RR0001": {"name": "GUYSBOROUGH HISTORICAL SOCIETY", "designationCode": "C", "categoryCode": "50", "address": "PO BOX 232", "city": "GUYSBOROUGH", "province": "NS", "country": "CA", "postalCode": "B0H1N0", "twitter": "None", "instagram": "None", "facebook": "None", "youtube": "None", "website": "None", "summary": "None", "logo": "None", "latitude": 45.37026600000006, "longitude": -61.50474349999993}, "889724399RR0001": {"name": "GUYSBOROUGH MEMORIAL HOSPITAL FOUNDATION", "designationCode": "A", "categoryCode": "13", "address": "PO BOX 170", "city": "GUYSBOROUGH", "province": "NS", "country": "CA", "postalCode": "B0H1N0", "twitter": "None", "instagram": "None", "facebook": "None", "youtube": "None", "website": "None", "summary": "None", "logo": "None", "latitude": 45.37026600000006, "longitude": -61.50474349999993}, "897919254RR0001": {"name": "GUYSBOROUGH OPTIONS FOR ADAPTIVE LIVING SOCIETY", "designationCode": "C", "categoryCode": "99", "address": "60 GREEN STREET", "city": "GUYSBOROUGH", "province": "NS", "country": "CA", "postalCode": "B0H1N0", "twitter": "None", "instagram": "None", "facebook": "None", "youtube": "None", "website": "None", "summary": "None", "logo": "None", "latitude": 45.386491749062515, "longitude": -61.50253048678537}, "118818491RR0080": {"name": "GWA'SALA NAKWAXDA'XW SEVENTH-DAY ADVENTIST CHURCH", "designationCode": "C", "categoryCode": "41", "address": "PO 1000", "city": "ABBOTSFORD", "province": "BC", "country": "CA", "postalCode": "V2S4P5", "twitter": "None", "instagram": "None", "facebook": "None", "youtube": "None", "website": "None", "summary": "None", "logo": "None", "latitude": 49.03851300000005, "longitude": -122.29441549999993}, "107459398RR0001": {"name": "GWEN SECTER CREATIVE LIVING CENTRE INC.", "designationCode": "C", "categoryCode": "01", "address": "1588 MAIN ST", "city": "WINNIPEG", "province": "MB", "country": "CA", "postalCode": "R2V1Y3", "twitter": "None", "instagram": "None", "facebook": "None", "youtube": "None", "website": "None", "summary": "None", "logo": "None", "latitude": 49.93072161172018, "longitude": -97.12241443329074}, "898803085RR0001": {"name": "GWICH'IN SOCIAL AND CULTURAL INSTITUTE", "designationCode": "C", "categoryCode": "21", "address": "BOX 1509", "city": "INUVIK", "province": "NT", "country": "CA", "postalCode": "X0E0T0", "twitter": "None", "instagram": "None", "facebook": "None", "youtube": "None", "website": "None", "summary": "None", "logo": "None", "latitude": 68.36105000000003, "longitude": -133.73492999999996}, "107459638RR0001": {"name": "GWYNNE COMMUNITY CHURCH", "designationCode": "C", "categoryCode": "39", "address": "BOX 77", "city": "GWYNNE", "province": "AB", "country": "CA", "postalCode": "T0C1L0", "twitter": "None", "instagram": "None", "facebook": "None", "youtube": "None", "website": "None", "summary": "None", "logo": "None", "latitude": 52.98767000000004, "longitude": -113.20020999999997}, "863326252RR0001": {"name": "GWYNNE SCHOOL COUNCIL", "designationCode": "C", "categoryCode": "21", "address": "RR 2", "city": "GWYNNE", "province": "AB", "country": "CA", "postalCode": "T0C1L0", "twitter": "None", "instagram": "None", "facebook": "None", "youtube": "None", "website": "None", "summary": "None", "logo": "None", "latitude": 52.98767000000004, "longitude": -113.20020999999997}, "789434313RR0001": {"name": "G10 FOUNDATION", "designationCode": "B", "categoryCode": "03", "address": "25057 112 AVENUE", "city": "MAPLE RIDGE", "province": "BC", "country": "CA", "postalCode": "V2W1Z6", "twitter": "None", "instagram": "None", "facebook": "None", "youtube": "None", "website": "None", "summary": "None", "logo": "None", "latitude": 49.20583247210389, "longitude": -122.52758276625084}, "119071116RR0001": {"name": "G2 Foundation Inc.", "designationCode": "B", "categoryCode": "03", "address": "300-180 KENT STREET", "city": "OTTAWA", "province": "ON", "country": "CA", "postalCode": "K1P0B6", "twitter": "None", "instagram": "None", "facebook": "None", "youtube": "None", "website": "None", "summary": "None", "logo": "None", "latitude": 45.41805734800075, "longitude": -75.70153813887059}, "102150349RR0001": {"name": "G2G Foundation", "designationCode": "C", "categoryCode": "47", "address": "200 - 2121 CLEARBROOK RD", "city": "ABBOTSFORD", "province": "BC", "country": "CA", "postalCode": "V2T4H6", "twitter": "None", "instagram": "None", "facebook": "None", "youtube": "None", "website": "None", "summary": "None", "logo": "None", "latitude": 49.04064936663974, "longitude": -122.33725234574946}, "816213821RR0001": {"name": "H B Gordon Education Foundation", "designationCode": "A", "categoryCode": "03", "address": "SUITE 1165                    5328 CALGARY TRAIL NW", "city": "EDMONTON", "province": "AB", "country": "CA", "postalCode": "T6H4J8", "twitter": "None", "instagram": "None", "facebook": "None", "youtube": "None", "website": "None", "summary": "None", "logo": "None", "latitude": 53.49123769080735, "longitude": -113.49539595798925}, "881139125RR0001": {"name": "H P S FAMILY ASSOCIATION", "designationCode": "B", "categoryCode": "09", "address": "20 HUGHSON ST. S.             STE 405", "city": "HAMILTON", "province": "ON", "country": "CA", "postalCode": "L8N2A1", "twitter": "None", "instagram": "None", "facebook": "None", "youtube": "None", "website": "None", "summary": "None", "logo": "None", "latitude": 43.25532697085811, "longitude": -79.8683016947025}, "138113956RR0001": {"name": "H S I HANDICAPS SOLEIL INC", "designationCode": "C", "categoryCode": "09", "address": "726 4E RUE DE LA POINTE", "city": "SHAWINIGAN", "province": "QC", "country": "CA", "postalCode": "G9N1H2", "twitter": "None", "instagram": "None", "facebook": "None", "youtube": "None", "website": "None", "summary": "None", "logo": "None", "latitude": 46.53979660919821, "longitude": -72.7507129367728}, "890856172RR0001": {"name": "H W SIEBENS CHARITABLE FOUNDATION", "designationCode": "B", "categoryCode": "13", "address": "200-815 17 AVE SW", "city": "CALGARY", "province": "AB", "country": "CA", "postalCode": "T2T0A1", "twitter": "None", "instagram": "None", "facebook": "None", "youtube": "None", "website": "None", "summary": "None", "logo": "None", "latitude": 51.037796536211026, "longitude": -114.0799815}, "862393014RR0001": {"name": "H. J. STULTZ FAMILY FOUNDATION", "designationCode": "B", "categoryCode": "03", "address": "5 SILVERSTONE DR", "city": "MONCTON", "province": "NB", "country": "CA", "postalCode": "E1G1G8", "twitter": "None", "instagram": "None", "facebook": "None", "youtube": "None", "website": "None", "summary": "None", "logo": "None", "latitude": 46.12478492036457, "longitude": -64.86788665171079}, "893306761RR0001": {"name": "H.A. STEANE MEMORIAL AWARD", "designationCode": "C", "categoryCode": "21", "address": "620 LAURA ROAD                P.O. BOX 296", "city": "BOWEN ISLAND", "province": "BC", "country": "CA", "postalCode": "V0N1G0", "twitter": "None", "instagram": "None", "facebook": "None", "youtube": "None", "website": "None", "summary": "None", "logo": "None", "latitude": 49.36215193165549, "longitude": -123.39911961813122}, "892909912RR0001": {"name": "H.E. Palyul Lhatul Rinpoche Buddhist Society", "designationCode": "C", "categoryCode": "35", "address": "11811 BLUNDELL ROAD", "city": "RICHMOND", "province": "BC", "country": "CA", "postalCode": "V6Y1L4", "twitter": "None", "instagram": "None", "facebook": "None", "youtube": "None", "website": "None", "summary": "None", "logo": "None", "latitude": 49.15545046104766, "longitude": -123.09359383236193}, "864322771RR0001": {"name": "H.E.A.L. (HEALTH, EDUCATION AND LEADERSHIP) INTERNATIONAL", "designationCode": "C", "categoryCode": "21", "address": "2403-96 STREET NW", "city": "EDMONTON", "province": "AB", "country": "CA", "postalCode": "T6N0A7", "twitter": "None", "instagram": "None", "facebook": "None", "youtube": "None", "website": "None", "summary": "None", "logo": "None", "latitude": 53.453475, "longitude": -113.47549389332973}, "832632046RR0001": {"name": "H.E.A.R. Worldwide", "designationCode": "C", "categoryCode": "11", "address": "514 FRIES AVENUE", "city": "L'ORIGNAL", "province": "ON", "country": "CA", "postalCode": "K0B1K0", "twitter": "None", "instagram": "None", "facebook": "None", "youtube": "None", "website": "None", "summary": "None", "logo": "None", "latitude": 45.6293455226497, "longitude": -74.67684161616359}, "839440880RR0001": {"name": "H.E.L.P HONDURAS SOCIETY", "designationCode": "C", "categoryCode": "01", "address": "1234 MCPHEE RD", "city": "CASTLEGAR", "province": "BC", "country": "CA", "postalCode": "V1N4L8", "twitter": "None", "instagram": "None", "facebook": "None", "youtube": "None", "website": "None", "summary": "None", "logo": "None", "latitude": 49.28786201496712, "longitude": -117.62049717570937}, "842459109RR0001": {"name": "H.E.L.P. for Youth Canada Society", "designationCode": "C", "categoryCode": "09", "address": "THREE BENTALL CENTRE BOX 49131595 BURRARD STREET SUITE 1703", "city": "VANCOUVER", "province": "BC", "country": "CA", "postalCode": "V7X1J1", "twitter": "None", "instagram": "None", "facebook": "None", "youtube": "None", "website": "None", "summary": "None", "logo": "None", "latitude": 49.28653500000006, "longitude": -123.11989099999994}, "107476368RR0001": {"name": "H.E.L.P. HOMES OF REGINA", "designationCode": "C", "categoryCode": "01", "address": "1856 ANGUS ST", "city": "REGINA", "province": "SK", "country": "CA", "postalCode": "S4T1Z4", "twitter": "None", "instagram": "None", "facebook": "None", "youtube": "None", "website": "None", "summary": "None", "logo": "None", "latitude": 50.44965274854292, "longitude": -104.61967615684668}, "118956770RR0001": {"name": "H.I.A. HARMONY IN ACTION WINDSOR", "designationCode": "C", "categoryCode": "56", "address": "3335 WOODWARD BOULEVARD", "city": "WINDSOR", "province": "ON", "country": "CA", "postalCode": "N8W2Y7", "twitter": "None", "instagram": "None", "facebook": "None", "youtube": "None", "website": "None", "summary": "None", "logo": "None", "latitude": 42.276447326100865, "longitude": -82.98284083726669}, "827576612RR0001": {"name": "H.I.M. Health Initiative for Men Society", "designationCode": "C", "categoryCode": "11", "address": "SUITE 310 - 1033 DAVIE STREET", "city": "VANCOUVER", "province": "BC", "country": "CA", "postalCode": "V6E1M7", "twitter": "None", "instagram": "None", "facebook": "None", "youtube": "None", "website": "None", "summary": "None", "logo": "None", "latitude": 49.279768270067414, "longitude": -123.13020721729487}, "803165273RR0001": {"name": "H.I.S. PRESENCE MINISTRIES MILLET", "designationCode": "C", "categoryCode": "39", "address": "PO BOX 973 STN MAIN           126 PIPESTONE DRIVE", "city": "MILLET", "province": "AB", "country": "CA", "postalCode": "T0C1Z0", "twitter": "None", "instagram": "None", "facebook": "None", "youtube": "None", "website": "None", "summary": "None", "logo": "None", "latitude": 53.08631555759132, "longitude": -113.48325327168354}, "886218056RR0001": {"name": "H.O.M.E.S.: Healthy Opportunities for Meaningful Experience Society", "designationCode": "C", "categoryCode": "01", "address": "31581 SOUTH FRASER WAY", "city": "ABBOTSFORD", "province": "BC", "country": "CA", "postalCode": "V2T1T8", "twitter": "None", "instagram": "None", "facebook": "None", "youtube": "None", "website": "None", "summary": "None", "logo": "None", "latitude": 49.04601046104768, "longitude": -122.34888313486083}, "118962653RR0001": {"name": "H.O.P.E. (HELPING OTHER PEOPLE EVERYWHERE) OTTAWA-CARLETON INC.", "designationCode": "A", "categoryCode": "05", "address": "747B RIDGEWOOD AVENUE", "city": "OTTAWA", "province": "ON", "country": "CA", "postalCode": "K1V6M8", "twitter": "None", "instagram": "None", "facebook": "None", "youtube": "None", "website": "None", "summary": "None", "logo": "None", "latitude": 45.367780170081645, "longitude": -75.68729280516698}, "137759049RR0001": {"name": "H.O.P.E. (HELPING OTHER PEOPLE EVERYWHERE) TORONTO INC.", "designationCode": "A", "categoryCode": "05", "address": "33 LIBRARY LANE", "city": "UNIONVILLE", "province": "ON", "country": "CA", "postalCode": "L3R5C4", "twitter": "None", "instagram": "None", "facebook": "None", "youtube": "None", "website": "None", "summary": "None", "logo": "None", "latitude": 43.87083475102442, "longitude": -79.30825814960465}, "818007932RR0001": {"name": "H.O.P.E. in Christ House of Refuge Church International Incorporated", "designationCode": "C", "categoryCode": "39", "address": "18 SHARON CRT", "city": "BRAMPTON", "province": "ON", "country": "CA", "postalCode": "L6W3B7", "twitter": "None", "instagram": "None", "facebook": "None", "youtube": "None", "website": "None", "summary": "None", "logo": "None", "latitude": 43.688863873737525, "longitude": -79.7439209733396}, "106812183RR0001": {"name": "H.R. MACMILLAN SPACE CENTRE SOCIETY", "designationCode": "C", "categoryCode": "50", "address": "1100 CHESTNUT ST.", "city": "VANCOUVER", "province": "BC", "country": "CA", "postalCode": "V6J3J9", "twitter": "None", "instagram": "None", "facebook": "None", "youtube": "None", "website": "None", "summary": "None", "logo": "None", "latitude": 49.27593053014573, "longitude": -123.14613943532011}, "804170157RR0001": {"name": "H\u00e9bergement d'urgence Terrebonne", "designationCode": "C", "categoryCode": "01", "address": "4495, C\u00d4TE TERREBONNE", "city": "TERREBONNE", "province": "QC", "country": "CA", "postalCode": "J6Y1E2", "twitter": "None", "instagram": "None", "facebook": "None", "youtube": "None", "website": "None", "summary": "None", "logo": "None", "latitude": 45.69241047157924, "longitude": -73.66040430544173}, "843073909RR0001": {"name": "H\u00e9bergement Coleriane", "designationCode": "C", "categoryCode": "09", "address": "95 AVENUE SAINT-PATRICK", "city": "SAINT-JOSEPH-DE-COLERAINE", "province": "QC", "country": "CA", "postalCode": "G0N1B0", "twitter": "None", "instagram": "None", "facebook": "None", "youtube": "None", "website": "None", "summary": "None", "logo": "None", "latitude": 45.960605401898476, "longitude": -71.36696748915129}, "821016573RR0001": {"name": "H\u00e9bergement Fleur de Macadam", "designationCode": "C", "categoryCode": "01", "address": "531, RUE LABELLE", "city": "SAINT-JEROME", "province": "QC", "country": "CA", "postalCode": "J7Z5L8", "twitter": "None", "instagram": "None", "facebook": "None", "youtube": "None", "website": "None", "summary": "None", "logo": "None", "latitude": 45.781428845403674, "longitude": -74.00309685258838}, "832585129RR0001": {"name": "H\u00e9ritage Abbotsford / Heritage Abbotsford", "designationCode": "C", "categoryCode": "52", "address": "1240 RANG DE LA MONTAGNE      C.P. 1075", "city": "ST-PAUL-D'ABBOTSFORD", "province": "QC", "country": "CA", "postalCode": "J0E1A0", "twitter": "None", "instagram": "None", "facebook": "None", "youtube": "None", "website": "None", "summary": "None", "logo": "None", "latitude": 45.470263991052356, "longitude": -72.88440857772389}, "801315466RR0001": {"name": "H\u00e9ritage Anneplainois", "designationCode": "A", "categoryCode": "43", "address": "127 2E AVENUE", "city": "STE-ANNE-DES-PLAINES", "province": "QC", "country": "CA", "postalCode": "J0N1H0", "twitter": "None", "instagram": "None", "facebook": "None", "youtube": "None", "website": "None", "summary": "None", "logo": "None", "latitude": 45.76485830420098, "longitude": -73.82279494266848}, "804821387RR0001": {"name": "H\u00e9ritage Plein air du Nord", "designationCode": "C", "categoryCode": "59", "address": "8 CH DES TOURNESOLS", "city": "SAINTE-ANNE-DES-LACS", "province": "QC", "country": "CA", "postalCode": "J0R1B0", "twitter": "None", "instagram": "None", "facebook": "None", "youtube": "None", "website": "None", "summary": "None", "logo": "None", "latitude": 45.84475919126869, "longitude": -74.09260395723943}, "118876606RR0001": {"name": "H\u00c9RITAGE PAUL-AIM\u00c9 MARTIN", "designationCode": "C", "categoryCode": "49", "address": "4901 RUE DU PIEMONT", "city": "MONTREAL", "province": "QC", "country": "CA", "postalCode": "H3V1E3", "twitter": "None", "instagram": "None", "facebook": "None", "youtube": "None", "website": "None", "summary": "None", "logo": "None", "latitude": 45.49437641078528, "longitude": -73.61616300470321}, "871942371RR0001": {"name": "H'art Centre of Smiles Inc.", "designationCode": "C", "categoryCode": "20", "address": "237 WELLINGTON ST", "city": "KINGSTON", "province": "ON", "country": "CA", "postalCode": "K7K0B5", "twitter": "None", "instagram": "None", "facebook": "None", "youtube": "None", "website": "None", "summary": "None", "logo": "None", "latitude": 44.233055853453756, "longitude": -76.48193761919335}, "834484073RR0001": {"name": "H'ART OF OTTAWA", "designationCode": "C", "categoryCode": "20", "address": "211 BRONSON AVENUE            ROOM 304", "city": "OTTAWA", "province": "ON", "country": "CA", "postalCode": "K1R6H5", "twitter": "None", "instagram": "None", "facebook": "None", "youtube": "None", "website": "None", "summary": "None", "logo": "None", "latitude": 45.41349725618897, "longitude": -75.7068905103587}, "107460446RR0001": {"name": "Haahuupayak Society", "designationCode": "C", "categoryCode": "20", "address": "6000 SANTU DRIVE", "city": "PORT ALBERNI", "province": "BC", "country": "CA", "postalCode": "V9Y7M2", "twitter": "None", "instagram": "None", "facebook": "None", "youtube": "None", "website": "None", "summary": "None", "logo": "None", "latitude": 49.26450610523257, "longitude": -124.85024051360358}, "832371645RR0001": {"name": "Haan Charitable Foundation", "designationCode": "B", "categoryCode": "03", "address": "50995 WILBOURNE RD", "city": "ROSEDALE", "province": "BC", "country": "CA", "postalCode": "V0X1X2", "twitter": "None", "instagram": "None", "facebook": "None", "youtube": "None", "website": "None", "summary": "None", "logo": "None", "latitude": 49.19976796833215, "longitude": -121.81316585556475}, "826572752RR0001": {"name": "Habitat for Humanity Canada Foundation / Fondation Habitat pour l'Humanit\u00e9 Canada", "designationCode": "A", "categoryCode": "03", "address": "477 MOUNT PLEASANT RD.        SUITE 403", "city": "TORONTO", "province": "ON", "country": "CA", "postalCode": "M4S2L9", "twitter": "None", "instagram": "None", "facebook": "None", "youtube": "None", "website": "None", "summary": "None", "logo": "None", "latitude": 43.70084943326208, "longitude": -79.38711932425453}, "856999867RR0001": {"name": "Habitat for Humanity Chatham-Kent", "designationCode": "C", "categoryCode": "09", "address": "566 RIVERVIEW DRIVE", "city": "CHATHAM", "province": "ON", "country": "CA", "postalCode": "N7M0N2", "twitter": "None", "instagram": "None", "facebook": "None", "youtube": "None", "website": "None", "summary": "None", "logo": "None", "latitude": 42.39035753309529, "longitude": -82.22353001327289}, "891304743RR0001": {"name": "Habitat for Humanity Newfoundland and Labrador Inc.", "designationCode": "C", "categoryCode": "09", "address": "6 ROBIN HOOD BAY RD", "city": "ST JOHN'S", "province": "NL", "country": "CA", "postalCode": "A1A5V3", "twitter": "None", "instagram": "None", "facebook": "None", "youtube": "None", "website": "None", "summary": "None", "logo": "None", "latitude": 47.61006669995395, "longitude": -52.6878252917075}, "830803284RR0001": {"name": "Habitat for Humanity Northwest Territories", "designationCode": "C", "categoryCode": "09", "address": "P.O. BOX 243", "city": "YELLOWKNIFE", "province": "NT", "country": "CA", "postalCode": "X1A2N2", "twitter": "None", "instagram": "None", "facebook": "None", "youtube": "None", "website": "None", "summary": "None", "logo": "None", "latitude": 62.45446200000005, "longitude": -114.37092349999993}, "884886425RR0001": {"name": "Habitat for Humanity South East British Columbia Society", "designationCode": "C", "categoryCode": "09", "address": "PO BOX 1088", "city": "GRAND FORKS", "province": "BC", "country": "CA", "postalCode": "V0H1H0", "twitter": "None", "instagram": "None", "facebook": "None", "youtube": "None", "website": "None", "summary": "None", "logo": "None", "latitude": 49.03245000000004, "longitude": -118.44297999999998}, "135820496RR0001": {"name": "Habitat for Humanity Southern Alberta Society", "designationCode": "C", "categoryCode": "09", "address": "210-805 MANNING RD NE", "city": "CALGARY", "province": "AB", "country": "CA", "postalCode": "T2E7M8", "twitter": "None", "instagram": "None", "facebook": "None", "youtube": "None", "website": "None", "summary": "None", "logo": "None", "latitude": 51.05748059449484, "longitude": -114.01877436072444}, "870773868RR0001": {"name": "Habitat pour l'humanit\u00e9 province de Qu\u00e9bec/Habitat for Humanity Province of Qu\u00e9bec", "designationCode": "C", "categoryCode": "09", "address": "108 - 4377, RUE NOTRE-DAME O", "city": "MONTR\u00c9AL", "province": "QC", "country": "CA", "postalCode": "H4C1R9", "twitter": "None", "instagram": "None", "facebook": "None", "youtube": "None", "website": "None", "summary": "None", "logo": "None", "latitude": 45.475037576203995, "longitude": -73.58671247398124}, "851410589RR0001": {"name": "Habitat Conservation Trust Foundation", "designationCode": "A", "categoryCode": "52", "address": "107-19 DALLAS RD", "city": "VICTORIA", "province": "BC", "country": "CA", "postalCode": "V8V5A6", "twitter": "None", "instagram": "None", "facebook": "None", "youtube": "None", "website": "None", "summary": "None", "logo": "None", "latitude": 48.42218663116724, "longitude": -123.38428148384159}, "861892198RR0001": {"name": "Habitat For Humanity Wellington Dufferin Guelph", "designationCode": "C", "categoryCode": "09", "address": "SUITE 300, 104 DAWSON ROAD", "city": "GUELPH", "province": "ON", "country": "CA", "postalCode": "N1H1A7", "twitter": "None", "instagram": "None", "facebook": "None", "youtube": "None", "website": "None", "summary": "None", "logo": "None", "latitude": 43.550357494258535, "longitude": -80.28067911192173}, "817929912RR0001": {"name": "Habitations des Ain\u00e9s de Chandler", "designationCode": "C", "categoryCode": "09", "address": "189, RUE JACQUES CARTIER C.P.7", "city": "GASP\u00c9", "province": "QC", "country": "CA", "postalCode": "G4X2P8", "twitter": "None", "instagram": "None", "facebook": "None", "youtube": "None", "website": "None", "summary": "None", "logo": "None", "latitude": 48.82981524283011, "longitude": -64.48918363431255}, "880617204RR0001": {"name": "Habitations la travers\u00e9e", "designationCode": "C", "categoryCode": "09", "address": "1460 BOUL. CR\u00c9MAZIE E", "city": "MONTR\u00c9AL", "province": "QC", "country": "CA", "postalCode": "H2E1A2", "twitter": "None", "instagram": "None", "facebook": "None", "youtube": "None", "website": "None", "summary": "None", "logo": "None", "latitude": 45.553144342432184, "longitude": -73.62394741667191}}