{"800809634RR0001": {"name": "Entraide Pauvret\u00e9-Poverty Mutual Aid Inc.", "designationCode": "A", "categoryCode": "03", "address": "3 - 227 ARCHIBALD ST", "city": "MONCTON", "province": "NB", "country": "CA", "postalCode": "E1C5J8", "twitter": "None", "instagram": "None", "facebook": "None", "youtube": "None", "website": "None", "summary": "None", "logo": "None", "latitude": 46.09135879822696, "longitude": -64.78314181042158}, "854908415RR0001": {"name": "Entraide Saint-Pie inc.", "designationCode": "C", "categoryCode": "09", "address": "301 C RUE NOTRE-DAME", "city": "SAINT-PIE", "province": "QC", "country": "CA", "postalCode": "J0H1W0", "twitter": "None", "instagram": "None", "facebook": "None", "youtube": "None", "website": "None", "summary": "None", "logo": "None", "latitude": 45.50110802250546, "longitude": -72.90706674184915}, "134112945RR0001": {"name": "Entre-Maison Ahuntsic", "designationCode": "C", "categoryCode": "57", "address": "1-9455 OLIVIER MAURAULT", "city": "MONTREAL", "province": "QC", "country": "CA", "postalCode": "H2M1Z5", "twitter": "None", "instagram": "None", "facebook": "None", "youtube": "None", "website": "None", "summary": "None", "logo": "None", "latitude": 45.55564001915858, "longitude": -73.64574641243006}, "842179509RR0001": {"name": "Entrepreneurs Foundation", "designationCode": "A", "categoryCode": "03", "address": "1250-1500 GEORGIA ST W        PO BOX 62", "city": "VANCOUVER", "province": "BC", "country": "CA", "postalCode": "V6G2Z6", "twitter": "None", "instagram": "None", "facebook": "None", "youtube": "None", "website": "None", "summary": "None", "logo": "None", "latitude": 49.29013479542975, "longitude": -123.1300069287031}, "809197205RR0001": {"name": "Environmental Health Association of Alberta", "designationCode": "C", "categoryCode": "11", "address": "23 HURON DRIVE", "city": "LEDUC", "province": "AB", "country": "CA", "postalCode": "T9E4N6", "twitter": "None", "instagram": "None", "facebook": "None", "youtube": "None", "website": "None", "summary": "None", "logo": "None", "latitude": 53.252949479860476, "longitude": -113.55258378201265}, "831808696RR0001": {"name": "Environmental Health Association of B.C.", "designationCode": "C", "categoryCode": "11", "address": "2604 SUNNYSIDE CRESCENT", "city": "ABBOTSFORD", "province": "BC", "country": "CA", "postalCode": "V2T1Y2", "twitter": "None", "instagram": "None", "facebook": "None", "youtube": "None", "website": "None", "summary": "None", "logo": "None", "latitude": 49.049514639736906, "longitude": -122.3475387199206}, "838879609RR0001": {"name": "Eparchial Office of Youth Ministry", "designationCode": "C", "categoryCode": "38", "address": "940 THE EAST MALL             SUITE 201", "city": "TORONTO", "province": "ON", "country": "CA", "postalCode": "M9B6J7", "twitter": "None", "instagram": "None", "facebook": "None", "youtube": "None", "website": "None", "summary": "None", "logo": "None", "latitude": 43.67137088314393, "longitude": -79.57105180852881}, "888116068RR0001": {"name": "Eparchy of Mar Addai of Toronto of the Chaldeans in Canada Good Shepherd Chaldean Cathedral", "designationCode": "C", "categoryCode": "38", "address": "5800 - 40 KING ST W", "city": "TORONTO", "province": "ON", "country": "CA", "postalCode": "M5H3S1", "twitter": "None", "instagram": "None", "facebook": "None", "youtube": "None", "website": "None", "summary": "None", "logo": "None", "latitude": 43.64813467004466, "longitude": -79.38254906728791}, "817484892RR0001": {"name": "Ephraim's Place Community Centre", "designationCode": "C", "categoryCode": "09", "address": "1875 SHEPPARD AVENUE WEST", "city": "TORONTO", "province": "ON", "country": "CA", "postalCode": "M3L1Y6", "twitter": "None", "instagram": "None", "facebook": "None", "youtube": "None", "website": "None", "summary": "None", "logo": "None", "latitude": 43.74088984927016, "longitude": -79.50413654495361}, "823258009RR0001": {"name": "Epic Opportunities Foundation Inc.", "designationCode": "A", "categoryCode": "03", "address": "1644 DUBLIN AVE", "city": "WINNIPEG", "province": "MB", "country": "CA", "postalCode": "R3H0X5", "twitter": "None", "instagram": "None", "facebook": "None", "youtube": "None", "website": "None", "summary": "None", "logo": "None", "latitude": 49.91151155006086, "longitude": -97.20089196878062}, "108087826RR0001": {"name": "Epilepsy and Seizure Association of Manitoba Inc.", "designationCode": "C", "categoryCode": "09", "address": "4-1805 MAIN ST", "city": "WINNIPEG", "province": "MB", "country": "CA", "postalCode": "R2V2A2", "twitter": "None", "instagram": "None", "facebook": "None", "youtube": "None", "website": "None", "summary": "None", "logo": "None", "latitude": 49.937731764354616, "longitude": -97.11659489644546}, "119176907RR0001": {"name": "Equal Opportunities West Inc.", "designationCode": "C", "categoryCode": "59", "address": "851 CAVALIER DR", "city": "WINNIPEG", "province": "MB", "country": "CA", "postalCode": "R3J0P6", "twitter": "None", "instagram": "None", "facebook": "None", "youtube": "None", "website": "None", "summary": "None", "logo": "None", "latitude": 49.89230809215758, "longitude": -97.3007932029264}, "836893537RR0001": {"name": "Equilibrium Foundation", "designationCode": "B", "categoryCode": "03", "address": "1250-1500 WEST GEORGIA STREET BOX 62", "city": "VANCOUVER", "province": "BC", "country": "CA", "postalCode": "V6G2Z6", "twitter": "None", "instagram": "None", "facebook": "None", "youtube": "None", "website": "None", "summary": "None", "logo": "None", "latitude": 49.290187500000016, "longitude": -123.130035}, "854491511RR0001": {"name": "EquineAbility Therapeutic Riding Centre", "designationCode": "C", "categoryCode": "56", "address": "3908 NEFF ROAD", "city": "STEVENSVILLE", "province": "ON", "country": "CA", "postalCode": "L0S1S0", "twitter": "None", "instagram": "None", "facebook": "None", "youtube": "None", "website": "None", "summary": "None", "logo": "None", "latitude": 42.94484700000005, "longitude": -79.06825249999993}, "823830849RR0001": {"name": "Equip to Serve", "designationCode": "C", "categoryCode": "22", "address": "379 LAKESHORE ROAD WEST", "city": "OAKVILLE", "province": "ON", "country": "CA", "postalCode": "L6K1G4", "twitter": "None", "instagram": "None", "facebook": "None", "youtube": "None", "website": "None", "summary": "None", "logo": "None", "latitude": 43.4316347699232, "longitude": -79.68339473954053}, "890791569RR0001": {"name": "Equip International Recovery Group Inc.", "designationCode": "C", "categoryCode": "49", "address": "458 35 AVE NW", "city": "CALGARY", "province": "AB", "country": "CA", "postalCode": "T3K0C1", "twitter": "None", "instagram": "None", "facebook": "None", "youtube": "None", "website": "None", "summary": "None", "logo": "None", "latitude": 51.084181486005974, "longitude": -114.07122}, "858330640RR0001": {"name": "Equip Leadership Canada", "designationCode": "C", "categoryCode": "47", "address": "PO BOX 25 STN MAIN", "city": "STOUFFVILLE", "province": "ON", "country": "CA", "postalCode": "L4A7Z4", "twitter": "None", "instagram": "None", "facebook": "None", "youtube": "None", "website": "None", "summary": "None", "logo": "None", "latitude": 43.97028268018356, "longitude": -79.251601854151}, "839279957RR0001": {"name": "Erato Ensemble Society", "designationCode": "C", "categoryCode": "22", "address": "203 - 1500 OSTLER CRT", "city": "NORTH VANCOUVER", "province": "BC", "country": "CA", "postalCode": "V7G2S2", "twitter": "None", "instagram": "None", "facebook": "None", "youtube": "None", "website": "None", "summary": "None", "logo": "None", "latitude": 49.32162142425633, "longitude": -122.95781341629227}, "830714184RR0001": {"name": "Erbs Cove Baptist Church Inc.", "designationCode": "C", "categoryCode": "31", "address": "612 ROUTE 850", "city": "ERB'S COVE", "province": "NB", "country": "CA", "postalCode": "E5N1Y5", "twitter": "None", "instagram": "None", "facebook": "None", "youtube": "None", "website": "None", "summary": "None", "logo": "None", "latitude": 45.58624087073013, "longitude": -65.9331070875274}, "815174560RR0001": {"name": "Eric and Teresa Knogler Family Foundation Inc.", "designationCode": "B", "categoryCode": "03", "address": "319 WHITESWAN DR", "city": "SASKATOON", "province": "SK", "country": "CA", "postalCode": "S7K4M7", "twitter": "None", "instagram": "None", "facebook": "None", "youtube": "None", "website": "None", "summary": "None", "logo": "None", "latitude": 52.174592821541914, "longitude": -106.60893170860962}, "772067724RR0001": {"name": "Erie Presbytery of The United Church of Canada", "designationCode": "C", "categoryCode": "44", "address": "381 BURTCH RD", "city": "MOUNT PLEASANT", "province": "ON", "country": "CA", "postalCode": "N0E1K0", "twitter": "None", "instagram": "None", "facebook": "None", "youtube": "None", "website": "None", "summary": "None", "logo": "None", "latitude": 43.07151161852859, "longitude": -80.29694143453241}, "140647116RR0001": {"name": "Erie Shores Health Foundation", "designationCode": "A", "categoryCode": "13", "address": "194 TALBOT W", "city": "LEAMINGTON", "province": "ON", "country": "CA", "postalCode": "N8H1N9", "twitter": "None", "instagram": "None", "facebook": "None", "youtube": "None", "website": "None", "summary": "None", "logo": "None", "latitude": 42.049510937589325, "longitude": -82.61423658713733}, "127103992RR0001": {"name": "Erie Shores Healthcare", "designationCode": "C", "categoryCode": "10", "address": "194 TALBOT ST W", "city": "LEAMINGTON", "province": "ON", "country": "CA", "postalCode": "N8H1N9", "twitter": "None", "instagram": "None", "facebook": "None", "youtube": "None", "website": "None", "summary": "None", "logo": "None", "latitude": 42.049510937589325, "longitude": -82.61423658713733}, "129640264RR0001": {"name": "Erie Shores HealthCare Auxiliary", "designationCode": "C", "categoryCode": "19", "address": "194 TALBOT ST W.", "city": "LEAMINGTON", "province": "ON", "country": "CA", "postalCode": "N8H1N9", "twitter": "None", "instagram": "None", "facebook": "None", "youtube": "None", "website": "None", "summary": "None", "logo": "None", "latitude": 42.049510937589325, "longitude": -82.61423658713733}, "118901446RR0001": {"name": "ErinoakKids Centre for Treatment and Development", "designationCode": "C", "categoryCode": "11", "address": "1230 CENTRAL PKY W", "city": "MISSISSAUGA", "province": "ON", "country": "CA", "postalCode": "L5C0A5", "twitter": "None", "instagram": "None", "facebook": "None", "youtube": "None", "website": "None", "summary": "None", "logo": "None", "latitude": 43.5669162974487, "longitude": -79.66114272154152}, "835878257RR0001": {"name": "Eritrean Immigrant and Refugee Centre Inc.", "designationCode": "C", "categoryCode": "09", "address": "634 SARGENT AVENUE", "city": "WINNIPEG", "province": "MB", "country": "CA", "postalCode": "R3E0A5", "twitter": "None", "instagram": "None", "facebook": "None", "youtube": "None", "website": "None", "summary": "None", "logo": "None", "latitude": 49.89658253952927, "longitude": -97.16082277990651}, "772922290RR0001": {"name": "Eritrean Kidist Selassie Orthodox Tewahdo Church of Edmonton", "designationCode": "C", "categoryCode": "39", "address": "11528-107 AVENUE NW           PO BOX 64075", "city": "EDMONTON", "province": "AB", "country": "CA", "postalCode": "T5H4K7", "twitter": "None", "instagram": "None", "facebook": "None", "youtube": "None", "website": "None", "summary": "None", "logo": "None"}, "813702271RR0001": {"name": "Eritrean Orthodox Tewahdo St. Michael Church", "designationCode": "C", "categoryCode": "39", "address": "235 8TH STREET NORTHEAST", "city": "CALGARY", "province": "AB", "country": "CA", "postalCode": "T2E4G6", "twitter": "None", "instagram": "None", "facebook": "None", "youtube": "None", "website": "None", "summary": "None", "logo": "None", "latitude": 51.054505239800335, "longitude": -114.04307660090015}, "828745323RR0001": {"name": "Ermitage Saint-Antoine", "designationCode": "C", "categoryCode": "49", "address": "250, ROUTE DE L'ERMITAGE", "city": "LAC-BOUCHETTE", "province": "QC", "country": "CA", "postalCode": "G0W1V0", "twitter": "None", "instagram": "None", "facebook": "None", "youtube": "None", "website": "None", "summary": "None", "logo": "None", "latitude": 48.27462134361468, "longitude": -72.19164683011157}, "842347270RR0001": {"name": "Erreur De Type 27", "designationCode": "C", "categoryCode": "22", "address": "7135 AV RENAUDE-LAPOINTE", "city": "QUEBEC", "province": "QC", "country": "CA", "postalCode": "G1H5Y2", "twitter": "None", "instagram": "None", "facebook": "None", "youtube": "None", "website": "None", "summary": "None", "logo": "None", "latitude": 46.8532637499279, "longitude": -71.27134427557867}, "123613523RR0074": {"name": "Escadron 4 de Maisonneuve", "designationCode": "C", "categoryCode": "29", "address": "CASIER POSTAL 24032           SUCC. DE LA POINTE", "city": "POINTE-AUX-TREMBLES", "province": "QC", "country": "CA", "postalCode": "H1A4Z2", "twitter": "None", "instagram": "None", "facebook": "None", "youtube": "None", "website": "None", "summary": "None", "logo": "None", "latitude": 45.64258800000006, "longitude": -73.50625249999993}, "123613523RR0072": {"name": "Escadron 626 - Ch\u00e2teauguay", "designationCode": "C", "categoryCode": "29", "address": "CASIER POSTAL 66010", "city": "CH\u00c2TEAUGUAY", "province": "QC", "country": "CA", "postalCode": "J6K5B7", "twitter": "None", "instagram": "None", "facebook": "None", "youtube": "None", "website": "None", "summary": "None", "logo": "None", "latitude": 45.36151800000006, "longitude": -73.75070149999993}, "123613523RR0025": {"name": "Escadron 635 Asbestos - Danville", "designationCode": "C", "categoryCode": "29", "address": "120 BOUL. OLIVIER             CP 235", "city": "ASBESTOS", "province": "QC", "country": "CA", "postalCode": "J1T4P1", "twitter": "None", "instagram": "None", "facebook": "None", "youtube": "None", "website": "None", "summary": "None", "logo": "None", "latitude": 45.76815141465176, "longitude": -71.9395785792314}, "123613523RR0073": {"name": "Escadron 686 Dorval Lachine", "designationCode": "C", "categoryCode": "29", "address": "B.P. 34010                    GALERIE LACHINE", "city": "LACHINE", "province": "QC", "country": "CA", "postalCode": "H8S4H4", "twitter": "None", "instagram": "None", "facebook": "None", "youtube": "None", "website": "None", "summary": "None", "logo": "None", "latitude": 45.438810000000046, "longitude": -73.69012999999995}, "123613523RR0077": {"name": "Escadron 728, La V\u00e9rendrye", "designationCode": "C", "categoryCode": "29", "address": "CASE POSTALE 789", "city": "VAL-D'OR", "province": "QC", "country": "CA", "postalCode": "J9P4P8", "twitter": "None", "instagram": "None", "facebook": "None", "youtube": "None", "website": "None", "summary": "None", "logo": "None", "latitude": 48.10161300000006, "longitude": -77.78872249999993}, "123613523RR0015": {"name": "Escadron 953 - St-Hyacinthe", "designationCode": "C", "categoryCode": "29", "address": "2155, BOUL. LAFRAMBOISE", "city": "ST-HYACINTHE", "province": "QC", "country": "CA", "postalCode": "J2S4X5", "twitter": "None", "instagram": "None", "facebook": "None", "youtube": "None", "website": "None", "summary": "None", "logo": "None", "latitude": 45.629909218651186, "longitude": -72.95173464591107}, "888782570RR0001": {"name": "Escarpment Biosphere Conservancy, Inc.", "designationCode": "C", "categoryCode": "52", "address": "503 DAVENPORT ROAD", "city": "TORONTO", "province": "ON", "country": "CA", "postalCode": "M4V1B8", "twitter": "None", "instagram": "None", "facebook": "None", "youtube": "None", "website": "None", "summary": "None", "logo": "None", "latitude": 43.677639053551964, "longitude": -79.40714441964342}, "802236315RR0001": {"name": "Esker Foundation", "designationCode": "B", "categoryCode": "50", "address": "226040 48 ST W", "city": "FOOTHILLS", "province": "AB", "country": "CA", "postalCode": "T1S3S5", "twitter": "None", "instagram": "None", "facebook": "None", "youtube": "None", "website": "None", "summary": "None", "logo": "None", "latitude": 50.84646554428978, "longitude": -114.07086019989664}, "801945254RR0001": {"name": "Eslah Islamic Association", "designationCode": "C", "categoryCode": "60", "address": "4383 KINGSTON RD              UNIT 2-3", "city": "TORONTO", "province": "ON", "country": "CA", "postalCode": "M1E2N2", "twitter": "None", "instagram": "None", "facebook": "None", "youtube": "None", "website": "None", "summary": "None", "logo": "None", "latitude": 43.76605440354327, "longitude": -79.1909074973456}, "820585891RR0001": {"name": "Esmail Safana Farzana Fayaz Bharwani Foundation", "designationCode": "B", "categoryCode": "05", "address": "RPO SILVERSPRINGS             BOX 71100", "city": "CALGARY", "province": "AB", "country": "CA", "postalCode": "T3B5K2", "twitter": "None", "instagram": "None", "facebook": "None", "youtube": "None", "website": "None", "summary": "None", "logo": "None", "latitude": 51.10348224324807, "longitude": -114.18908464889931}, "829793785RR0001": {"name": "Espace M\u00e9lilot", "designationCode": "C", "categoryCode": "09", "address": "5700 RUE SAINT-LOUIS", "city": "L\u00c9VIS", "province": "QC", "country": "CA", "postalCode": "G6V4E5", "twitter": "None", "instagram": "None", "facebook": "None", "youtube": "None", "website": "None", "summary": "None", "logo": "None", "latitude": 46.804927977234726, "longitude": -71.18379599443142}, "891827131RR0001": {"name": "Espace Multisoleil", "designationCode": "C", "categoryCode": "56", "address": "7378,RUE LAJEUNESSE           BUREAU 205", "city": "MONTREAL", "province": "QC", "country": "CA", "postalCode": "H2R2H8", "twitter": "None", "instagram": "None", "facebook": "None", "youtube": "None", "website": "None", "summary": "None", "logo": "None", "latitude": 45.5405610824054, "longitude": -73.61735839399262}, "808390439RR0001": {"name": "Espace-vie TSA", "designationCode": "C", "categoryCode": "09", "address": "1108 RUE DE LA RIVIERE", "city": "QUEBEC", "province": "QC", "country": "CA", "postalCode": "G1Y1Z8", "twitter": "None", "instagram": "None", "facebook": "None", "youtube": "None", "website": "None", "summary": "None", "logo": "None", "latitude": 46.75783223616501, "longitude": -71.35389751933147}, "843561242RR0001": {"name": "Espanola Helping Hand Food Bank Ltd.", "designationCode": "C", "categoryCode": "09", "address": "87 CENTRE ST.                 UNIT C", "city": "ESPANOLA", "province": "ON", "country": "CA", "postalCode": "P5E1S4", "twitter": "None", "instagram": "None", "facebook": "None", "youtube": "None", "website": "None", "summary": "None", "logo": "None", "latitude": 46.26486544156131, "longitude": -81.7703684391186}, "848155172RR0001": {"name": "Espanola Youth Centre (Board)", "designationCode": "C", "categoryCode": "09", "address": "32 ARTHUR CRT", "city": "ESPANOLA", "province": "ON", "country": "CA", "postalCode": "P5E1C3", "twitter": "None", "instagram": "None", "facebook": "None", "youtube": "None", "website": "None", "summary": "None", "logo": "None", "latitude": 46.26077575763408, "longitude": -81.78029758828492}, "850756982RR0001": {"name": "Esperanza Ministries Association", "designationCode": "C", "categoryCode": "49", "address": "PO BOX 368", "city": "TAHSIS", "province": "BC", "country": "CA", "postalCode": "V0P1X0", "twitter": "None", "instagram": "None", "facebook": "None", "youtube": "None", "website": "None", "summary": "None", "logo": "None", "latitude": 49.78331988056369, "longitude": -126.05044247435742}, "840253108RR0001": {"name": "Espoir \u00c9ternel / Eternal Hope", "designationCode": "C", "categoryCode": "09", "address": "411 - 45 RUE CHARLES-ALBANEL", "city": "GATINEAU", "province": "QC", "country": "CA", "postalCode": "J8Z1R5", "twitter": "None", "instagram": "None", "facebook": "None", "youtube": "None", "website": "None", "summary": "None", "logo": "None", "latitude": 45.46619806189049, "longitude": -75.75097054348171}, "835831397RR0001": {"name": "Espoir&Sant\u00e9 (Hope&Health)", "designationCode": "C", "categoryCode": "11", "address": "407-620 67 AVENUE SW", "city": "CALGARY", "province": "AB", "country": "CA", "postalCode": "T2V0M2", "twitter": "None", "instagram": "None", "facebook": "None", "youtube": "None", "website": "None", "summary": "None", "logo": "None", "latitude": 50.99325247489747, "longitude": -114.07597216763806}, "847481082RR0001": {"name": "Esquimalt Fire Fighters Charitable Foundation", "designationCode": "A", "categoryCode": "03", "address": "500 PARK PLACE", "city": "VICTORIA", "province": "BC", "country": "CA", "postalCode": "V9A6Z9", "twitter": "None", "instagram": "None", "facebook": "None", "youtube": "None", "website": "None", "summary": "None", "logo": "None", "latitude": 48.42933238190318, "longitude": -123.41497134168142}, "807599774RR0001": {"name": "Essence of Mind Outreach Program Inc.", "designationCode": "C", "categoryCode": "11", "address": "4 NEWARK WAY", "city": "BRAMPTON", "province": "ON", "country": "CA", "postalCode": "L7A2V1", "twitter": "None", "instagram": "None", "facebook": "None", "youtube": "None", "website": "None", "summary": "None", "logo": "None", "latitude": 43.70072818177634, "longitude": -79.82082842189378}, "825227648RR0001": {"name": "Essential Aid and Family Services of Ontario Inc.", "designationCode": "C", "categoryCode": "09", "address": "109 - 100 MAIN ST E", "city": "HAMILTON", "province": "ON", "country": "CA", "postalCode": "L8N3W4", "twitter": "None", "instagram": "None", "facebook": "None", "youtube": "None", "website": "None", "summary": "None", "logo": "None", "latitude": 43.25426302412158, "longitude": -79.86512817236992}, "803575067RR0001": {"name": "Essential Needs foundation", "designationCode": "B", "categoryCode": "03", "address": "1800 - 510 GEORGIA ST W", "city": "VANCOUVER", "province": "BC", "country": "CA", "postalCode": "V6B0M3", "twitter": "None", "instagram": "None", "facebook": "None", "youtube": "None", "website": "None", "summary": "None", "logo": "None", "latitude": 49.281267759207665, "longitude": -123.11633309804196}, "859015752RR0001": {"name": "Essex and Community Historical Research Society", "designationCode": "C", "categoryCode": "50", "address": "18 GORDON AVE", "city": "ESSEX", "province": "ON", "country": "CA", "postalCode": "N8M2M4", "twitter": "None", "instagram": "None", "facebook": "None", "youtube": "None", "website": "None", "summary": "None", "logo": "None", "latitude": 42.174601849270175, "longitude": -82.8207582964107}, "128780376RR0001": {"name": "Essex County Diversion Program Inc.", "designationCode": "C", "categoryCode": "09", "address": "1821 PROVINCIAL ROAD", "city": "WINDSOR", "province": "ON", "country": "CA", "postalCode": "N8W5V7", "twitter": "None", "instagram": "None", "facebook": "None", "youtube": "None", "website": "None", "summary": "None", "logo": "None", "latitude": 42.255689565612734, "longitude": -82.97310622817223}, "107311177RR0001": {"name": "Essex Region Conservation Authority", "designationCode": "C", "categoryCode": "52", "address": "311 - 360 FAIRVIEW AVE W", "city": "ESSEX", "province": "ON", "country": "CA", "postalCode": "N8M1Y6", "twitter": "None", "instagram": "None", "facebook": "None", "youtube": "None", "website": "None", "summary": "None", "logo": "None", "latitude": 42.161572190638566, "longitude": -82.82693013588201}, "837241017RR0001": {"name": "Essex Region Goodfellows", "designationCode": "A", "categoryCode": "03", "address": "38 CRANBERRY CRT", "city": "ESSEX", "province": "ON", "country": "CA", "postalCode": "N8M3G5", "twitter": "None", "instagram": "None", "facebook": "None", "youtube": "None", "website": "None", "summary": "None", "logo": "None", "latitude": 42.174177047435116, "longitude": -82.81730383138098}, "846305308RR0001": {"name": "Essex Region Literary Network", "designationCode": "C", "categoryCode": "21", "address": "100 AUGUSTINE DRIVE", "city": "KINGSVILLE", "province": "ON", "country": "CA", "postalCode": "N9Y1C5", "twitter": "None", "instagram": "None", "facebook": "None", "youtube": "None", "website": "None", "summary": "None", "logo": "None", "latitude": 42.04170372986991, "longitude": -82.7335513433378}, "813857794RR0001": {"name": "Essilor Vision Foundation Canada", "designationCode": "C", "categoryCode": "11", "address": "371 RUE DESLAURIERS", "city": "SAINT-LAURENT", "province": "QC", "country": "CA", "postalCode": "H4N1W2", "twitter": "None", "instagram": "None", "facebook": "None", "youtube": "None", "website": "None", "summary": "None", "logo": "None", "latitude": 45.523151962605525, "longitude": -73.66102437131427}, "134653385RR0001": {"name": "Est-Nord-Est, R\u00e9sidence d'artistes", "designationCode": "C", "categoryCode": "22", "address": "335,AVENUE DE GASP\u00c9 OUEST", "city": "SAINT-JEAN-PORT-JOLI", "province": "QC", "country": "CA", "postalCode": "G0R3G0", "twitter": "None", "instagram": "None", "facebook": "None", "youtube": "None", "website": "None", "summary": "None", "logo": "None", "latitude": 47.19378451454229, "longitude": -70.28702623656902}, "814890414RR0001": {"name": "Estate of L.V. Smith", "designationCode": "B", "categoryCode": "05", "address": "PO BOX 10085", "city": "VANCOUVER", "province": "BC", "country": "CA", "postalCode": "V7Y1B6", "twitter": "None", "instagram": "None", "facebook": "None", "youtube": "None", "website": "None", "summary": "None", "logo": "None", "latitude": 49.26037200000006, "longitude": -123.11336149999994}, "822114153RR0001": {"name": "Estate Albert H. Ginman", "designationCode": "A", "categoryCode": "05", "address": "C O ROYAL TRUS 1PVM 5TH FLOOR SOUTH WING", "city": "MONTR\u00c9AL", "province": "QC", "country": "CA", "postalCode": "H3B2B2", "twitter": "None", "instagram": "None", "facebook": "None", "youtube": "None", "website": "None", "summary": "None", "logo": "None", "latitude": 45.49987500000006, "longitude": -73.56867649999994}, "834429201RR0001": {"name": "Estate RB Pelley - Trust for the Christian Children's Fund of Canada", "designationCode": "B", "categoryCode": "05", "address": "1709 HOLLIS ST., 5TH FLOOR    PO BOX 457", "city": "HALIFAX", "province": "NS", "country": "CA", "postalCode": "B3P2S2", "twitter": "None", "instagram": "None", "facebook": "None", "youtube": "None", "website": "None", "summary": "None", "logo": "None", "latitude": 44.647722827370295, "longitude": -63.57286089243476}, "841148711RR0001": {"name": "Estate RB Pelley - Trust for Dr. H. Bliss Murphy Cancer Clinic Fund", "designationCode": "B", "categoryCode": "15", "address": "1709 HOLLIS ST., 5TH FLOOR    PO BOX 457", "city": "HALIFAX", "province": "NS", "country": "CA", "postalCode": "B3P2S2", "twitter": "None", "instagram": "None", "facebook": "None", "youtube": "None", "website": "None", "summary": "None", "logo": "None", "latitude": 44.647722827370295, "longitude": -63.57286089243476}, "829558782RR0001": {"name": "Esteli English School", "designationCode": "C", "categoryCode": "09", "address": "14 MCNEELY COURT SE", "city": "MEDICINE HAT", "province": "AB", "country": "CA", "postalCode": "T1A7P4", "twitter": "None", "instagram": "None", "facebook": "None", "youtube": "None", "website": "None", "summary": "None", "logo": "None", "latitude": 50.02081074216626, "longitude": -110.6744735111085}, "818929655RR0001": {"name": "Esterhazy - People Helping People", "designationCode": "C", "categoryCode": "09", "address": "1127 CORNING AVE              P.O. BOX 734", "city": "ESTERHAZY", "province": "SK", "country": "CA", "postalCode": "S0A0X0", "twitter": "None", "instagram": "None", "facebook": "None", "youtube": "None", "website": "None", "summary": "None", "logo": "None", "latitude": 50.65606163399076, "longitude": -102.06614379587}, "820719250RR0001": {"name": "Esterhazy Community Daycare Co-Operative Ltd.", "designationCode": "C", "categoryCode": "01", "address": "PO 2049", "city": "ESTERHAZY", "province": "SK", "country": "CA", "postalCode": "S0A0X0", "twitter": "None", "instagram": "None", "facebook": "None", "youtube": "None", "website": "None", "summary": "None", "logo": "None", "latitude": 50.65157000000005, "longitude": -102.05784999999997}, "839753555RR0001": {"name": "Estevan Area Literacy Group Inc.", "designationCode": "C", "categoryCode": "21", "address": "701 SOURIS AVENUE", "city": "ESTEVAN", "province": "SK", "country": "CA", "postalCode": "S4A2T1", "twitter": "None", "instagram": "None", "facebook": "None", "youtube": "None", "website": "None", "summary": "None", "logo": "None", "latitude": 49.142664923927704, "longitude": -102.99147871648171}, "119288918RR0055": {"name": "Estevan Congregation of Jehovah's Witnesses, Estevan, Saskatchewan", "designationCode": "C", "categoryCode": "61", "address": "511 MCLEOD AVE", "city": "ESTEVAN", "province": "SK", "country": "CA", "postalCode": "S4A0B2", "twitter": "None", "instagram": "None", "facebook": "None", "youtube": "None", "website": "None", "summary": "None", "logo": "None", "latitude": 49.12876381745662, "longitude": -102.98275458827024}, "809067614RR0001": {"name": "Estevan Family and Friends Inc.", "designationCode": "C", "categoryCode": "56", "address": "1339 6TH STREET", "city": "ESTEVAN", "province": "SK", "country": "CA", "postalCode": "S4A1B2", "twitter": "None", "instagram": "None", "facebook": "None", "youtube": "None", "website": "None", "summary": "None", "logo": "None", "latitude": 49.14303045557721, "longitude": -102.99600876017703}, "119030666RR0051": {"name": "Estevan Seventh-day Adventist Church", "designationCode": "C", "categoryCode": "41", "address": "10 HIGHWAY 39 WEST", "city": "ESTEVAN", "province": "SK", "country": "CA", "postalCode": "S4A0V5", "twitter": "None", "instagram": "None", "facebook": "None", "youtube": "None", "website": "None", "summary": "None", "logo": "None", "latitude": 49.14009227838077, "longitude": -102.9898431042361}, "891452575RR0001": {"name": "Estonian Foundation of Canada", "designationCode": "C", "categoryCode": "03", "address": "956 BROADVIEW AVE", "city": "TORONTO", "province": "ON", "country": "CA", "postalCode": "M4K2R6", "twitter": "None", "instagram": "None", "facebook": "None", "youtube": "None", "website": "None", "summary": "None", "logo": "None", "latitude": 43.68159412767612, "longitude": -79.35761734335486}, "804120020RR0001": {"name": "Estonian Studies Centre", "designationCode": "C", "categoryCode": "50", "address": "310 BLOOR STREET WEST,", "city": "TORONTO", "province": "ON", "country": "CA", "postalCode": "M5S1W4", "twitter": "None", "instagram": "None", "facebook": "None", "youtube": "None", "website": "None", "summary": "None", "logo": "None", "latitude": 43.66700418347842, "longitude": -79.40229689676258}, "818150781RR0001": {"name": "Eternal Hope Anglican Church", "designationCode": "C", "categoryCode": "39", "address": "117, VICTORIA STREET", "city": "CARLETON PLACE", "province": "ON", "country": "CA", "postalCode": "K7C2W9", "twitter": "None", "instagram": "None", "facebook": "None", "youtube": "None", "website": "None", "summary": "None", "logo": "None", "latitude": 45.13871460580229, "longitude": -76.14585173397803}, "848700944RR0001": {"name": "Eternal Hope Spiritualist Centre", "designationCode": "C", "categoryCode": "39", "address": "P.O.BOX 654,(201 SECOND ST.)", "city": "COBOURG", "province": "ON", "country": "CA", "postalCode": "K9A4L3", "twitter": "None", "instagram": "None", "facebook": "None", "youtube": "None", "website": "None", "summary": "None", "logo": "None", "latitude": 43.95868249451494, "longitude": -78.167158295689}, "809215569RR0001": {"name": "Eternal Life Prayer Ministry", "designationCode": "C", "categoryCode": "39", "address": "7 - 73 ALNESS ST", "city": "NORTH YORK", "province": "ON", "country": "CA", "postalCode": "M3J2H2", "twitter": "None", "instagram": "None", "facebook": "None", "youtube": "None", "website": "None", "summary": "None", "logo": "None", "latitude": 43.773866045530525, "longitude": -79.47316725056307}, "844047241RR0001": {"name": "Eternal Life Spiritual Centre of the Spiritual Science Fellowship", "designationCode": "C", "categoryCode": "39", "address": "139 MARY STREET NORTH         UNIT #212", "city": "OSHAWA", "province": "ON", "country": "CA", "postalCode": "L1G7X1", "twitter": "None", "instagram": "None", "facebook": "None", "youtube": "None", "website": "None", "summary": "None", "logo": "None", "latitude": 43.90207575021635, "longitude": -78.86229794861242}, "872844600RR0001": {"name": "Eternal Sacred Order of Cherubim and Seraphim Church Mount of Miracles", "designationCode": "C", "categoryCode": "39", "address": "11-1730 ALBION RD", "city": "TORONTO", "province": "ON", "country": "CA", "postalCode": "M9V1C2", "twitter": "None", "instagram": "None", "facebook": "None", "youtube": "None", "website": "None", "summary": "None", "logo": "None", "latitude": 43.74326732226306, "longitude": -79.60161811197999}, "825871973RR0001": {"name": "Ethan James Wyne MCADD Organization", "designationCode": "C", "categoryCode": "29", "address": "PO BOX 22036 RPO DOWNTOWN", "city": "BRANDON", "province": "MB", "country": "CA", "postalCode": "R7A6Y9", "twitter": "None", "instagram": "None", "facebook": "None", "youtube": "None", "website": "None", "summary": "None", "logo": "None", "latitude": 49.84965600000005, "longitude": -99.96197299999993}, "785283722RR0001": {"name": "Ethel Conservative Mennonite Church", "designationCode": "C", "categoryCode": "34", "address": "8864 ROAD 167                 RR 1", "city": "GOWANSTOWN", "province": "ON", "country": "CA", "postalCode": "N0G1Y0", "twitter": "None", "instagram": "None", "facebook": "None", "youtube": "None", "website": "None", "summary": "None", "logo": "None", "latitude": 43.8016306402218, "longitude": -80.9502234486559}, "846766806RR0001": {"name": "Ethio-Canadian Cultural Academy Inc.", "designationCode": "C", "categoryCode": "22", "address": "386 RIVER RD", "city": "WINNIPEG", "province": "MB", "country": "CA", "postalCode": "R2M3Z8", "twitter": "None", "instagram": "None", "facebook": "None", "youtube": "None", "website": "None", "summary": "None", "logo": "None", "latitude": 49.81808040048484, "longitude": -97.13379200585703}, "891443624RR0001": {"name": "Ethiopian Evangelical Churches Fellowship in Canada", "designationCode": "C", "categoryCode": "39", "address": "POST OFFICE BOX 744           STATION MAIN", "city": "CALGARY", "province": "AB", "country": "CA", "postalCode": "T2P2J3", "twitter": "None", "instagram": "None", "facebook": "None", "youtube": "None", "website": "None", "summary": "None", "logo": "None", "latitude": 51.04531500000006, "longitude": -114.06301099999993}, "838464139RR0001": {"name": "Ethiopian Orthodox Holly Saviour Church Inc.", "designationCode": "C", "categoryCode": "39", "address": "732 ELLICE AVENUE", "city": "WINNIPEG", "province": "MB", "country": "CA", "postalCode": "R3G0B4", "twitter": "None", "instagram": "None", "facebook": "None", "youtube": "None", "website": "None", "summary": "None", "logo": "None", "latitude": 49.89309653231591, "longitude": -97.16489077990651}, "816144711RR0001": {"name": "Ethiopian Orthodox Tewahedo Debre Yedras Like Semaetat St George Church Guelph", "designationCode": "C", "categoryCode": "39", "address": "RM 144-ORCHARD PARK OFFICE CTR5420 HIGHWAY 6, P.O.BOX 8", "city": "GUELPH", "province": "ON", "country": "CA", "postalCode": "N1H6J2", "twitter": "None", "instagram": "None", "facebook": "None", "youtube": "None", "website": "None", "summary": "None", "logo": "None", "latitude": 43.567331999935654, "longitude": -80.27849049228394}, "890097504RR0001": {"name": "Ethiopian Orthodox Tewahedo, Medhane Alem Church Inc.", "designationCode": "C", "categoryCode": "39", "address": "1260 5TH ST", "city": "BRANDON", "province": "MB", "country": "CA", "postalCode": "R7A3M4", "twitter": "None", "instagram": "None", "facebook": "None", "youtube": "None", "website": "None", "summary": "None", "logo": "None", "latitude": 49.830309, "longitude": -99.94465557732683}, "802683359RR0001": {"name": "Ethiopian Transit Workers' Association", "designationCode": "C", "categoryCode": "21", "address": "10749 132A STREET", "city": "SURREY", "province": "BC", "country": "CA", "postalCode": "V3T3Y1", "twitter": "None", "instagram": "None", "facebook": "None", "youtube": "None", "website": "None", "summary": "None", "logo": "None", "latitude": 49.19803049125744, "longitude": -122.85525550112517}, "897859609RR0001": {"name": "Ethno-Cultural Council of Calgary", "designationCode": "C", "categoryCode": "59", "address": "915 33 STREET NE", "city": "CALGARY", "province": "AB", "country": "CA", "postalCode": "T2A6T2", "twitter": "None", "instagram": "None", "facebook": "None", "youtube": "None", "website": "None", "summary": "None", "logo": "None", "latitude": 51.0602847485429, "longitude": -113.98603623968476}, "857773717RR0001": {"name": "Etobicoke Music Festival Foundation", "designationCode": "C", "categoryCode": "22", "address": "59 WOODCREST DRIVE", "city": "TORONTO", "province": "ON", "country": "CA", "postalCode": "M9A4J3", "twitter": "None", "instagram": "None", "facebook": "None", "youtube": "None", "website": "None", "summary": "None", "logo": "None", "latitude": 43.6803995059726, "longitude": -79.51502786147518}, "800826653RR0001": {"name": "Etrat Educational Institute Society", "designationCode": "C", "categoryCode": "60", "address": "650 CLYDE AVE                 UNIT 15", "city": "WEST VANCOUVER", "province": "BC", "country": "CA", "postalCode": "V7T1E2", "twitter": "None", "instagram": "None", "facebook": "None", "youtube": "None", "website": "None", "summary": "None", "logo": "None", "latitude": 49.328238470136945, "longitude": -123.13339119317328}, "850740432RR0001": {"name": "Eucharist Church of Hamilton", "designationCode": "C", "categoryCode": "39", "address": "49 MURRAY STREET WEST", "city": "HAMILTON", "province": "ON", "country": "CA", "postalCode": "L8L1B4", "twitter": "None", "instagram": "None", "facebook": "None", "youtube": "None", "website": "None", "summary": "None", "logo": "None", "latitude": 43.265552900340616, "longitude": -79.86766850903102}, "758168728RR0001": {"name": "Eugene William Ropchan Foundation", "designationCode": "A", "categoryCode": "13", "address": "1800-510 GEORGIA W ST", "city": "VANCOUVER", "province": "BC", "country": "CA", "postalCode": "V6B0M3", "twitter": "None", "instagram": "None", "facebook": "None", "youtube": "None", "website": "None", "summary": "None", "logo": "None", "latitude": 49.28012307167682, "longitude": -123.11442679241839}, "830949004RR0001": {"name": "Eun-Hae Methodist Church", "designationCode": "C", "categoryCode": "39", "address": "766 VERMOUTH AVE", "city": "MISSISSAUGA", "province": "ON", "country": "CA", "postalCode": "L5A3T3", "twitter": "None", "instagram": "None", "facebook": "None", "youtube": "None", "website": "None", "summary": "None", "logo": "None", "latitude": 43.60028027074008, "longitude": -79.612614}, "858633621RR0001": {"name": "Eva R. Gsum Foundation", "designationCode": "A", "categoryCode": "21", "address": "7056 MARIE ROLLET STREET", "city": "LASALLE", "province": "QC", "country": "CA", "postalCode": "H8N3E7", "twitter": "None", "instagram": "None", "facebook": "None", "youtube": "None", "website": "None", "summary": "None", "logo": "None", "latitude": 45.444946303941194, "longitude": -73.61189887844073}, "834585614RR0001": {"name": "Evan Grykuliak Memorial Society", "designationCode": "C", "categoryCode": "23", "address": "600-12220 STONY PLAIN RD NW", "city": "EDMONTON", "province": "AB", "country": "CA", "postalCode": "T5N3Y4", "twitter": "None", "instagram": "None", "facebook": "None", "youtube": "None", "website": "None", "summary": "None", "logo": "None", "latitude": 53.54771619514249, "longitude": -113.5465007925734}, "859244790RR0001": {"name": "Evan Ty Jenkins Pediatric Research Foundation", "designationCode": "C", "categoryCode": "11", "address": "5601 50 AVE", "city": "BEAUMONT", "province": "AB", "country": "CA", "postalCode": "T4X1C9", "twitter": "None", "instagram": "None", "facebook": "None", "youtube": "None", "website": "None", "summary": "None", "logo": "None", "latitude": 53.35237052120741, "longitude": -113.42254436081136}, "807556238RR0001": {"name": "Evangel Christian Baptist Church", "designationCode": "C", "categoryCode": "39", "address": "1882 DIAMOND VIEW DR", "city": "WEST KELOWNA", "province": "BC", "country": "CA", "postalCode": "V1Z4B7", "twitter": "None", "instagram": "None", "facebook": "None", "youtube": "None", "website": "None", "summary": "None", "logo": "None", "latitude": 49.88366522829642, "longitude": -119.54912170009874}, "826511230RR0001": {"name": "Evangel Pentecostal Church Oakville", "designationCode": "C", "categoryCode": "36", "address": "1450 REBECCA STREET", "city": "OAKVILLE", "province": "ON", "country": "CA", "postalCode": "L6L1Z7", "twitter": "None", "instagram": "None", "facebook": "None", "youtube": "None", "website": "None", "summary": "None", "logo": "None", "latitude": 43.41272108797397, "longitude": -79.70381258852224}, "849494653RR0001": {"name": "Evangelical Baptist Church of Windsor", "designationCode": "C", "categoryCode": "31", "address": "3285 MANCHESTER ROAD", "city": "WINDSOR", "province": "ON", "country": "CA", "postalCode": "N9C1Y1", "twitter": "None", "instagram": "None", "facebook": "None", "youtube": "None", "website": "None", "summary": "None", "logo": "None", "latitude": 42.29050043323342, "longitude": -83.06533893961006}, "819908526RR0001": {"name": "Evangelical Christian Church of Chilliwack", "designationCode": "C", "categoryCode": "39", "address": "45762 BRITTON AVE", "city": "CHILLIWACK", "province": "BC", "country": "CA", "postalCode": "V2R3T6", "twitter": "None", "instagram": "None", "facebook": "None", "youtube": "None", "website": "None", "summary": "None", "logo": "None", "latitude": 49.13173149567218, "longitude": -121.95782983236194}, "804121838RR0001": {"name": "Evangelical Christian Church Cartwright Inc.", "designationCode": "C", "categoryCode": "39", "address": "PO BOX 70", "city": "CARTWRIGHT", "province": "MB", "country": "CA", "postalCode": "R0K0L0", "twitter": "None", "instagram": "None", "facebook": "None", "youtube": "None", "website": "None", "summary": "None", "logo": "None", "latitude": 49.09414000000004, "longitude": -99.34137999999996}, "818980211RR0001": {"name": "Evangelical Church \"The Holy Trinity\"", "designationCode": "C", "categoryCode": "36", "address": "1 - 9651 RUE JEAN-MILOT", "city": "LASALLE", "province": "QC", "country": "CA", "postalCode": "H8R1Y1", "twitter": "None", "instagram": "None", "facebook": "None", "youtube": "None", "website": "None", "summary": "None", "logo": "None", "latitude": 45.431547212331886, "longitude": -73.65112575644876}}