{"861271252RR0001": {"name": "STEPPING-STONE FOUNDATION", "designationCode": "B", "categoryCode": "03", "address": "15557 KILKENNY DR", "city": "SURREY", "province": "BC", "country": "CA", "postalCode": "V3S6J3", "twitter": "None", "instagram": "None", "facebook": "None", "youtube": "None", "website": "None", "summary": "None", "logo": "None", "latitude": 49.107405456575606, "longitude": -122.79104375007212}, "869368019RR0001": {"name": "STEPS FORWARD - INCLUSIVE POST-SECONDARY EDUCATION SOCIETY", "designationCode": "C", "categoryCode": "09", "address": "890 GREENCHAIN", "city": "VANCOUVER", "province": "BC", "country": "CA", "postalCode": "V5Z3Z7", "twitter": "None", "instagram": "None", "facebook": "None", "youtube": "None", "website": "None", "summary": "None", "logo": "None", "latitude": 49.266916900414856, "longitude": -123.12255470726649}, "869170563RR0001": {"name": "STEPS TO THE FUTURE CHILD CARE SOCIETY", "designationCode": "C", "categoryCode": "01", "address": "1965 GLENIDLE RD", "city": "SOOKE", "province": "BC", "country": "CA", "postalCode": "V9Z0B2", "twitter": "None", "instagram": "None", "facebook": "None", "youtube": "None", "website": "None", "summary": "None", "logo": "None", "latitude": 48.38155632443389, "longitude": -123.69213317414919}, "853550077RR0001": {"name": "STEPSTONES FOR YOUTH", "designationCode": "C", "categoryCode": "56", "address": "44 VAN DUSEN BOULEVARD", "city": "TORONTO", "province": "ON", "country": "CA", "postalCode": "M8Z3E7", "twitter": "None", "instagram": "None", "facebook": "None", "youtube": "None", "website": "None", "summary": "None", "logo": "None", "latitude": 43.643300048588955, "longitude": -79.51396081877192}, "857135503RR0001": {"name": "STERI-ANIMAL", "designationCode": "C", "categoryCode": "54", "address": "PO BOX 34523                  3131 CHEMIN COTE VERTU", "city": "SAINT-LAURENT", "province": "QC", "country": "CA", "postalCode": "H4R1Y0", "twitter": "None", "instagram": "None", "facebook": "None", "youtube": "None", "website": "None", "summary": "None", "logo": "None", "latitude": 45.496971125454415, "longitude": -73.70463242146108}, "108015900RR0001": {"name": "STERLING MENNONITE FELLOWSHIP", "designationCode": "C", "categoryCode": "34", "address": "1008 DAKOTA STREET", "city": "WINNIPEG", "province": "MB", "country": "CA", "postalCode": "R2N1P2", "twitter": "None", "instagram": "None", "facebook": "None", "youtube": "None", "website": "None", "summary": "None", "logo": "None", "latitude": 49.82442206826712, "longitude": -97.10214975523665}, "130294028RR0001": {"name": "STETTLER & DISTRICT HANDIBUS SOCIETY", "designationCode": "C", "categoryCode": "09", "address": "BOX 2097", "city": "STETTLER", "province": "AB", "country": "CA", "postalCode": "T0C2L0", "twitter": "None", "instagram": "None", "facebook": "None", "youtube": "None", "website": "None", "summary": "None", "logo": "None", "latitude": 52.32597900000006, "longitude": -112.70698099999993}, "119173094RR0001": {"name": "STETTLER & DISTRICT SENIOR CITIZEN'S DROP-IN CENTRE ASSOCIATION", "designationCode": "C", "categoryCode": "09", "address": "6202 - 44 AVENUE", "city": "STETTLER", "province": "AB", "country": "CA", "postalCode": "T0C2L1", "twitter": "None", "instagram": "None", "facebook": "None", "youtube": "None", "website": "None", "summary": "None", "logo": "None", "latitude": 52.31775013647098, "longitude": -112.72755997902627}, "139837033RR0001": {"name": "STETTLER ALLIANCE CHURCH", "designationCode": "C", "categoryCode": "39", "address": "6109 - 41 AVE", "city": "STETTLER", "province": "AB", "country": "CA", "postalCode": "T0C2L1", "twitter": "None", "instagram": "None", "facebook": "None", "youtube": "None", "website": "None", "summary": "None", "logo": "None", "latitude": 52.31446549177704, "longitude": -112.72466410796928}, "886583590RR0001": {"name": "STETTLER AND DISTRICT FOOD BANK SOCIETY", "designationCode": "C", "categoryCode": "09", "address": "P.O. BOX 1492", "city": "STETTLER", "province": "AB", "country": "CA", "postalCode": "T0C2L0", "twitter": "None", "instagram": "None", "facebook": "None", "youtube": "None", "website": "None", "summary": "None", "logo": "None", "latitude": 52.32597900000006, "longitude": -112.70698099999993}, "888196466RR0001": {"name": "STETTLER AND DISTRICT MUSICAL FESTIVAL ASSOCIATION", "designationCode": "C", "categoryCode": "22", "address": "BOX 2031", "city": "STETTLER", "province": "AB", "country": "CA", "postalCode": "T0C2L0", "twitter": "None", "instagram": "None", "facebook": "None", "youtube": "None", "website": "None", "summary": "None", "logo": "None", "latitude": 52.32597900000006, "longitude": -112.70698099999993}, "119173052RR0001": {"name": "STETTLER CHURCH OF THE NAZARENE", "designationCode": "C", "categoryCode": "39", "address": "5717 50TH AVE", "city": "STETTLER", "province": "AB", "country": "CA", "postalCode": "T0C2L2", "twitter": "None", "instagram": "None", "facebook": "None", "youtube": "None", "website": "None", "summary": "None", "logo": "None", "latitude": 52.32497247345516, "longitude": -112.71942008381903}, "119173060RR0001": {"name": "STETTLER COMMUNITY HAMPER SOCIETY", "designationCode": "C", "categoryCode": "09", "address": "BOX 460", "city": "STETTLER", "province": "AB", "country": "CA", "postalCode": "T0C2L0", "twitter": "None", "instagram": "None", "facebook": "None", "youtube": "None", "website": "None", "summary": "None", "logo": "None", "latitude": 52.32597900000006, "longitude": -112.70698099999993}, "119173078RR0001": {"name": "STETTLER CONGREGATION OF JEHOVAH'S WITNESSES", "designationCode": "C", "categoryCode": "61", "address": "BOX 2338", "city": "STETTLER", "province": "AB", "country": "CA", "postalCode": "T0C2L0", "twitter": "None", "instagram": "None", "facebook": "None", "youtube": "None", "website": "None", "summary": "None", "logo": "None", "latitude": 52.32597900000006, "longitude": -112.70698099999993}, "888352887RR0001": {"name": "STETTLER FRIENDS OF THE LIBRARY SOCIETY", "designationCode": "A", "categoryCode": "53", "address": "6202 - 44 AVENUE              2ND FLOOR", "city": "STETTLER", "province": "AB", "country": "CA", "postalCode": "T0C2L1", "twitter": "None", "instagram": "None", "facebook": "None", "youtube": "None", "website": "None", "summary": "None", "logo": "None", "latitude": 52.31775013647098, "longitude": -112.72755997902627}, "892694720RR0001": {"name": "STETTLER HEALTH SERVICES FOUNDATION", "designationCode": "C", "categoryCode": "11", "address": "POSTAL BAG 500", "city": "STETTLER", "province": "AB", "country": "CA", "postalCode": "T0C2L0", "twitter": "None", "instagram": "None", "facebook": "None", "youtube": "None", "website": "None", "summary": "None", "logo": "None", "latitude": 52.32597900000006, "longitude": -112.70698099999993}, "119173110RR0001": {"name": "STETTLER REGIONAL CHILD CARE CENTRE", "designationCode": "C", "categoryCode": "01", "address": "5702 48 AVE", "city": "STETTLER", "province": "AB", "country": "CA", "postalCode": "T0C2L1", "twitter": "None", "instagram": "None", "facebook": "None", "youtube": "None", "website": "None", "summary": "None", "logo": "None", "latitude": 52.323074967539895, "longitude": -112.71628324560005}, "890729841RR0001": {"name": "STETTLER ROTARY CLUB TRUST", "designationCode": "A", "categoryCode": "05", "address": "4912 - 51 STREET              BOX 460", "city": "STETTLER", "province": "AB", "country": "CA", "postalCode": "T0C2L0", "twitter": "None", "instagram": "None", "facebook": "None", "youtube": "None", "website": "None", "summary": "None", "logo": "None", "latitude": 52.325224124617705, "longitude": -112.70672824219493}, "119173144RR0001": {"name": "STETTLER SEVENTH-DAY ADVENTIST CHURCH", "designationCode": "C", "categoryCode": "41", "address": "5816 HIGHWAY 2A", "city": "LACOMBE", "province": "AB", "country": "CA", "postalCode": "T4L2G5", "twitter": "None", "instagram": "None", "facebook": "None", "youtube": "None", "website": "None", "summary": "None", "logo": "None", "latitude": 52.474063600197404, "longitude": -113.71692568401835}, "119173037RR0001": {"name": "STETTLER TOWN AND COUNTRY MUSEUM", "designationCode": "C", "categoryCode": "50", "address": "6304 - 43 AVE", "city": "STETTLER", "province": "AB", "country": "CA", "postalCode": "T0C2L1", "twitter": "None", "instagram": "None", "facebook": "None", "youtube": "None", "website": "None", "summary": "None", "logo": "None", "latitude": 52.3169364532574, "longitude": -112.72740355536962}, "119173151RR0001": {"name": "STETTLER UNITED CHURCH", "designationCode": "C", "categoryCode": "44", "address": "PO BOX 1027", "city": "STETTLER", "province": "AB", "country": "CA", "postalCode": "T0C2L0", "twitter": "None", "instagram": "None", "facebook": "None", "youtube": "None", "website": "None", "summary": "None", "logo": "None", "latitude": 52.32597900000006, "longitude": -112.70698099999993}, "119173201RR0001": {"name": "STEVE AND SALLY STAVRO FAMILY FOUNDATION", "designationCode": "B", "categoryCode": "03", "address": "1598 QUEEN STREET EAST", "city": "TORONTO", "province": "ON", "country": "CA", "postalCode": "M4L1G2", "twitter": "None", "instagram": "None", "facebook": "None", "youtube": "None", "website": "None", "summary": "None", "logo": "None", "latitude": 43.666199139621334, "longitude": -79.31717718096827}, "893589689RR0001": {"name": "STEVE MCEVOY MINISTRIES INTERNATIONAL", "designationCode": "C", "categoryCode": "47", "address": "44 CROWELAND DRIVE", "city": "EAST MOUNTAIN", "province": "NS", "country": "CA", "postalCode": "B6L2C3", "twitter": "None", "instagram": "None", "facebook": "None", "youtube": "None", "website": "None", "summary": "None", "logo": "None", "latitude": 45.40430436969815, "longitude": -63.19793964276668}, "119173219RR0001": {"name": "STEVE MULFORD MEMORIAL FUND", "designationCode": "C", "categoryCode": "56", "address": "75 MORISON ST", "city": "STRATFORD", "province": "ON", "country": "CA", "postalCode": "N5A5L1", "twitter": "None", "instagram": "None", "facebook": "None", "youtube": "None", "website": "None", "summary": "None", "logo": "None", "latitude": 43.379283230999505, "longitude": -80.9672622364248}, "893040766RR0001": {"name": "STEVE RUSSO EVANGELISTIC TEAM (CANADA)", "designationCode": "C", "categoryCode": "47", "address": "3845 HIGHWAY 43 E             RR 3", "city": "SMITHS FALLS", "province": "ON", "country": "CA", "postalCode": "K7A4S4", "twitter": "None", "instagram": "None", "facebook": "None", "youtube": "None", "website": "None", "summary": "None", "logo": "None", "latitude": 44.910406833229644, "longitude": -76.05710025904408}, "862205234RR0001": {"name": "STEVE'S KIDS", "designationCode": "B", "categoryCode": "01", "address": "35 DAVIS ST", "city": "COLLINGWOOD", "province": "ON", "country": "CA", "postalCode": "L9Y0E2", "twitter": "None", "instagram": "None", "facebook": "None", "youtube": "None", "website": "None", "summary": "None", "logo": "None", "latitude": 44.48678772967278, "longitude": -80.2353354802645}, "108016965RR0001": {"name": "STEVENS ROAD UNITED BAPTIST CHURCH", "designationCode": "C", "categoryCode": "31", "address": "2 STEVENS ROAD", "city": "DARTMOUTH", "province": "NS", "country": "CA", "postalCode": "B2W1P5", "twitter": "None", "instagram": "None", "facebook": "None", "youtube": "None", "website": "None", "summary": "None", "logo": "None", "latitude": 44.68275203165206, "longitude": -63.53419061388457}, "130724578RR0001": {"name": "STEVENSON CHILDRENS CAMP FOUNDATION", "designationCode": "C", "categoryCode": "56", "address": "P O BOX 39020", "city": "LONDON", "province": "ON", "country": "CA", "postalCode": "N5Y5L1", "twitter": "None", "instagram": "None", "facebook": "None", "youtube": "None", "website": "None", "summary": "None", "logo": "None", "latitude": 42.98689500000006, "longitude": -81.24624349999993}, "853480366RR0001": {"name": "STEVENSON MEMORIAL HOSPITAL AUXILIARY", "designationCode": "C", "categoryCode": "19", "address": "200 FLETCHER CRESC.           PO BOX 4000", "city": "ALLISTON", "province": "ON", "country": "CA", "postalCode": "L9R1W7", "twitter": "None", "instagram": "None", "facebook": "None", "youtube": "None", "website": "None", "summary": "None", "logo": "None", "latitude": 44.15530995668989, "longitude": -79.87598153306132}, "119173235RR0001": {"name": "STEVENSON MEMORIAL HOSPITAL FOUNDATION", "designationCode": "A", "categoryCode": "13", "address": "200 FLETCHER CRES BOX 4000", "city": "ALLISTON", "province": "ON", "country": "CA", "postalCode": "L9R1W7", "twitter": "None", "instagram": "None", "facebook": "None", "youtube": "None", "website": "None", "summary": "None", "logo": "None", "latitude": 44.15530995668989, "longitude": -79.87598153306132}, "845571298RR0001": {"name": "STEVENSON MINISTRIES FOUNDATION - NEW BEGINNINGS", "designationCode": "B", "categoryCode": "09", "address": "53105 HIGHWAY 21", "city": "SHERWOOD PARK", "province": "AB", "country": "CA", "postalCode": "T8A4T7", "twitter": "None", "instagram": "None", "facebook": "None", "youtube": "None", "website": "None", "summary": "None", "logo": "None", "latitude": 53.56761041182558, "longitude": -113.24544603907367}, "132193202RR0001": {"name": "STEVESTON BUDDHIST TEMPLE", "designationCode": "C", "categoryCode": "35", "address": "4360 GARRY ST", "city": "RICHMOND", "province": "BC", "country": "CA", "postalCode": "V7E2V2", "twitter": "None", "instagram": "None", "facebook": "None", "youtube": "None", "website": "None", "summary": "None", "logo": "None", "latitude": 49.12926153837542, "longitude": -123.17594111365342}, "127290120RR0001": {"name": "STEVESTON CHRISTIAN CHURCH", "designationCode": "C", "categoryCode": "36", "address": "20411 DOUGLAS CRES", "city": "LANGLEY", "province": "BC", "country": "CA", "postalCode": "V3A4B6", "twitter": "None", "instagram": "None", "facebook": "None", "youtube": "None", "website": "None", "summary": "None", "logo": "None", "latitude": 49.10360045726032, "longitude": -122.65630487164188}, "868227760RR0001": {"name": "STEVESTON COMMUNITY FISH HATCHERY FUND", "designationCode": "C", "categoryCode": "21", "address": "6600 WILLIAMS ROAD", "city": "RICHMOND", "province": "BC", "country": "CA", "postalCode": "V7E2K5", "twitter": "None", "instagram": "None", "facebook": "None", "youtube": "None", "website": "None", "summary": "None", "logo": "None", "latitude": 49.140878592088875, "longitude": -123.1503603552843}, "119288918RR1581": {"name": "STEVESTON CONGREGATION OF JEHOVAH'S WITNESSES, VANCOUVER, BRITISH COLUMBIA", "designationCode": "C", "categoryCode": "61", "address": "3831 BARMOND AVE", "city": "RICHMOND", "province": "BC", "country": "CA", "postalCode": "V7E1A5", "twitter": "None", "instagram": "None", "facebook": "None", "youtube": "None", "website": "None", "summary": "None", "logo": "None", "latitude": 49.14754649321933, "longitude": -123.18348213918864}, "137716288RR0001": {"name": "STEVESTON HIGH SCHOOL ALUMNI ASSOCIATION SCHOLARSHIP FUND", "designationCode": "C", "categoryCode": "21", "address": "4771 TRIMARAN DRIVE", "city": "RICHMOND", "province": "BC", "country": "CA", "postalCode": "V7E4R5", "twitter": "None", "instagram": "None", "facebook": "None", "youtube": "None", "website": "None", "summary": "None", "logo": "None", "latitude": 49.13292352596791, "longitude": -123.172713}, "108017211RR0001": {"name": "STEVESTON HISTORICAL SOCIETY", "designationCode": "C", "categoryCode": "50", "address": "3811 MONCTON ST", "city": "RICHMOND", "province": "BC", "country": "CA", "postalCode": "V7E3A5", "twitter": "None", "instagram": "None", "facebook": "None", "youtube": "None", "website": "None", "summary": "None", "logo": "None", "latitude": 49.12520646047074, "longitude": -123.18297355536961}, "119173300RR0001": {"name": "STEVESTON JAPANESE LANGUAGE SCHOOL SOCIETY", "designationCode": "C", "categoryCode": "20", "address": "4111 MONCTON ST", "city": "RICHMOND", "province": "BC", "country": "CA", "postalCode": "V7E3A8", "twitter": "None", "instagram": "None", "facebook": "None", "youtube": "None", "website": "None", "summary": "None", "logo": "None", "latitude": 49.12521050158653, "longitude": -123.17911191618097}, "108017245RR0001": {"name": "STEVESTON UNITED CHURCH", "designationCode": "C", "categoryCode": "44", "address": "3720 BROADWAY ST", "city": "RICHMOND", "province": "BC", "country": "CA", "postalCode": "V7E4Y8", "twitter": "None", "instagram": "None", "facebook": "None", "youtube": "None", "website": "None", "summary": "None", "logo": "None", "latitude": 49.12733949567218, "longitude": -123.1835715}, "888463841RR0001": {"name": "STEWARDS CANADA", "designationCode": "C", "categoryCode": "49", "address": "106-1915 BROAD HOLLOW GATE", "city": "MISSISSAUGA", "province": "ON", "country": "CA", "postalCode": "L5L6A3", "twitter": "None", "instagram": "None", "facebook": "None", "youtube": "None", "website": "None", "summary": "None", "logo": "None", "latitude": 43.54393059322543, "longitude": -79.66672063323169}, "869179861RR0001": {"name": "STEWARDS' CHARITABLE FOUNDATION", "designationCode": "A", "categoryCode": "09", "address": "1250-1500 GEORGIA ST W        PO BOX 62", "city": "VANCOUVER", "province": "BC", "country": "CA", "postalCode": "V6G2Z6", "twitter": "None", "instagram": "None", "facebook": "None", "youtube": "None", "website": "None", "summary": "None", "logo": "None", "latitude": 49.29013479542975, "longitude": -123.1300069287031}, "822092854RR0001": {"name": "STEWARDSHIP FOUNDATION OF CANADA", "designationCode": "A", "categoryCode": "03", "address": "STE 1250 1500 W. GEORGIA ST   BOX 62", "city": "VANCOUVER", "province": "BC", "country": "CA", "postalCode": "V6G2Z6", "twitter": "None", "instagram": "None", "facebook": "None", "youtube": "None", "website": "None", "summary": "None", "logo": "None", "latitude": 49.29013479542975, "longitude": -123.1300069287031}, "868875949RR0001": {"name": "STEWART & MARILYN BLUSSON FOUNDATION", "designationCode": "B", "categoryCode": "03", "address": "BOX 62 SUITE 1250             1500 W GEORGIA ST", "city": "VANCOUVER", "province": "BC", "country": "CA", "postalCode": "V6G2Z6", "twitter": "None", "instagram": "None", "facebook": "None", "youtube": "None", "website": "None", "summary": "None", "logo": "None", "latitude": 49.29013479542975, "longitude": -123.1300069287031}, "119173342RR0001": {"name": "STEWART CEMETERY TOWNSHIP OF TILBURY EAST", "designationCode": "C", "categoryCode": "59", "address": "8194 16TH LINE                RR #1", "city": "BLENHEIM", "province": "ON", "country": "CA", "postalCode": "N0P1A0", "twitter": "None", "instagram": "None", "facebook": "None", "youtube": "None", "website": "None", "summary": "None", "logo": "None", "latitude": 42.28489150868526, "longitude": -82.06920356292969}, "119173383RR0001": {"name": "STEWART HALL SINGERS/LES CHANTEURS STEWART HALL", "designationCode": "C", "categoryCode": "22", "address": "176 LAKESHORE", "city": "PTE CLAIRE", "province": "QC", "country": "CA", "postalCode": "H9S4J7", "twitter": "None", "instagram": "None", "facebook": "None", "youtube": "None", "website": "None", "summary": "None", "logo": "None", "latitude": 45.43499205741844, "longitude": -73.80887605199408}, "108017492RR0001": {"name": "STEWART HISTORICAL SOCIETY", "designationCode": "C", "categoryCode": "50", "address": "703 BRIGHTWELL STREET         P.O. BOX 402", "city": "STEWART", "province": "BC", "country": "CA", "postalCode": "V0T1W0", "twitter": "None", "instagram": "None", "facebook": "None", "youtube": "None", "website": "None", "summary": "None", "logo": "None", "latitude": 55.93877796115742, "longitude": -129.99083288404614}, "119173409RR0001": {"name": "STEWART L. PAGE SCHOLARSHIP IN AGRICULTURE AND HOME ECONOMICS", "designationCode": "C", "categoryCode": "21", "address": "1110 HWY 26", "city": "MIDHURST", "province": "ON", "country": "CA", "postalCode": "L9X1N6", "twitter": "None", "instagram": "None", "facebook": "None", "youtube": "None", "website": "None", "summary": "None", "logo": "None", "latitude": 44.43555956962207, "longitude": -79.73054463987468}, "119173417RR0001": {"name": "STEWART MEMORIAL CHURCH", "designationCode": "C", "categoryCode": "39", "address": "114 JOHN STREET NORTH", "city": "HAMILTON", "province": "ON", "country": "CA", "postalCode": "L8R1H6", "twitter": "None", "instagram": "None", "facebook": "None", "youtube": "None", "website": "None", "summary": "None", "logo": "None", "latitude": 43.259128131997215, "longitude": -79.8650437314222}, "895301984RR0001": {"name": "STEWART MEMORIAL HOSPITAL FOUNDATION INC.", "designationCode": "A", "categoryCode": "13", "address": "287 LOW POINT RD", "city": "TYNE VALLEY", "province": "PE", "country": "CA", "postalCode": "C0B2C0", "twitter": "None", "instagram": "None", "facebook": "None", "youtube": "None", "website": "None", "summary": "None", "logo": "None", "latitude": 46.58219242382702, "longitude": -63.86065461379766}, "130813173RR0001": {"name": "STEWART PUBLIC LIBRARY ASSOCIATION", "designationCode": "C", "categoryCode": "50", "address": "PO BOX 546                    824 9TH AVENUE", "city": "STEWART", "province": "BC", "country": "CA", "postalCode": "V0T1W0", "twitter": "None", "instagram": "None", "facebook": "None", "youtube": "None", "website": "None", "summary": "None", "logo": "None", "latitude": 55.93945396747025, "longitude": -129.98852461222071}, "888554466RR0001": {"name": "STEWARTDALE CEMETERY COMPANY", "designationCode": "C", "categoryCode": "59", "address": "P O BOX 415", "city": "WHYCOCOMAGH", "province": "NS", "country": "CA", "postalCode": "B0E3M0", "twitter": "None", "instagram": "None", "facebook": "None", "youtube": "None", "website": "None", "summary": "None", "logo": "None", "latitude": 45.986578959739866, "longitude": -61.09164516623389}, "119173433RR0001": {"name": "STEWARTON UNITED CHURCH", "designationCode": "C", "categoryCode": "44", "address": "1921 RTE 870", "city": "SPRINGFIELD", "province": "NB", "country": "CA", "postalCode": "E5T2H9", "twitter": "None", "instagram": "None", "facebook": "None", "youtube": "None", "website": "None", "summary": "None", "logo": "None", "latitude": 45.68778318779776, "longitude": -65.79919342199126}, "119173474RR0001": {"name": "STEWIACKE BAPTIST CHURCH", "designationCode": "C", "categoryCode": "31", "address": "112 MAIN STREET               PO BOX 459", "city": "STEWIACKE", "province": "NS", "country": "CA", "postalCode": "B0N2J0", "twitter": "None", "instagram": "None", "facebook": "None", "youtube": "None", "website": "None", "summary": "None", "logo": "None", "latitude": 45.13896919790516, "longitude": -63.34697842951116}, "886796283RR0001": {"name": "STEWIACKE PASTORAL CHARGE,", "designationCode": "C", "categoryCode": "44", "address": "PO BOX 159", "city": "STEWIACKE", "province": "NS", "country": "CA", "postalCode": "B0N2J0", "twitter": "None", "instagram": "None", "facebook": "None", "youtube": "None", "website": "None", "summary": "None", "logo": "None", "latitude": 45.13692754928534, "longitude": -63.14444278875067}, "108017690RR0001": {"name": "STEWIACKE VALLEY BAPTIST CHURCH", "designationCode": "C", "categoryCode": "31", "address": "BOX 26", "city": "UPPER STEWIACKE", "province": "NS", "country": "CA", "postalCode": "B0N2P0", "twitter": "None", "instagram": "None", "facebook": "None", "youtube": "None", "website": "None", "summary": "None", "logo": "None", "latitude": 45.22354000000007, "longitude": -62.99186999999995}, "897112876RR0001": {"name": "STEWIACKE VALLEY HISTORICAL SOCIETY", "designationCode": "C", "categoryCode": "50", "address": "616 SOUTHSIDE RD", "city": "UPPER STEWIACKE", "province": "NS", "country": "CA", "postalCode": "B0N2P0", "twitter": "None", "instagram": "None", "facebook": "None", "youtube": "None", "website": "None", "summary": "None", "logo": "None", "latitude": 45.22305578664798, "longitude": -62.990362566352395}, "866056633RR0001": {"name": "STIKINE LIVING WATERS CHRISTIAN COMMUNITY", "designationCode": "C", "categoryCode": "39", "address": "P.O.BOX 301", "city": "DEASE LAKE", "province": "BC", "country": "CA", "postalCode": "V0C1L0", "twitter": "None", "instagram": "None", "facebook": "None", "youtube": "None", "website": "None", "summary": "None", "logo": "None", "latitude": 58.4363202097706, "longitude": -129.98762594213716}, "882088768RR0001": {"name": "STILESVILLE UNITED CHURCH CEMETERY LTD.", "designationCode": "C", "categoryCode": "59", "address": "P.O. BOX 25095", "city": "MONCTON", "province": "NB", "country": "CA", "postalCode": "E1C9M9", "twitter": "None", "instagram": "None", "facebook": "None", "youtube": "None", "website": "None", "summary": "None", "logo": "None", "latitude": 46.08834900000005, "longitude": -64.77824149999994}, "856253943RR0001": {"name": "STILL MOON ARTS SOCIETY", "designationCode": "C", "categoryCode": "22", "address": "3153 E 20TH AVE", "city": "VANCOUVER", "province": "BC", "country": "CA", "postalCode": "V5M2V4", "twitter": "None", "instagram": "None", "facebook": "None", "youtube": "None", "website": "None", "summary": "None", "logo": "None", "latitude": 49.25236252596791, "longitude": -123.03773027699232}, "865677397RR0001": {"name": "STILLWOOD CAMP AND CONFERENCE CENTRE", "designationCode": "C", "categoryCode": "56", "address": "44005 WATT ROAD", "city": "LINDELL BEACH", "province": "BC", "country": "CA", "postalCode": "V2R4X9", "twitter": "None", "instagram": "None", "facebook": "None", "youtube": "None", "website": "None", "summary": "None", "logo": "None", "latitude": 49.025703367204684, "longitude": -122.00645921054023}, "856405907RR0001": {"name": "STIRLING AGRICULTURAL SOCIETY INC.", "designationCode": "C", "categoryCode": "56", "address": "BOX 665", "city": "STIRLING", "province": "ON", "country": "CA", "postalCode": "K0K3E0", "twitter": "None", "instagram": "None", "facebook": "None", "youtube": "None", "website": "None", "summary": "None", "logo": "None", "latitude": 44.29383000389519, "longitude": -77.55681006939226}, "842280489RR0001": {"name": "STIRLING AND AREA CHRISTIAN COMMUNITY CARE INC.", "designationCode": "C", "categoryCode": "09", "address": "PO BOX 462", "city": "STIRLING", "province": "ON", "country": "CA", "postalCode": "K0K3E0", "twitter": "None", "instagram": "None", "facebook": "None", "youtube": "None", "website": "None", "summary": "None", "logo": "None", "latitude": 44.29383000389519, "longitude": -77.55681006939226}, "813291341RR0001": {"name": "STIRLING AVENUE MENNONITE CHURCH", "designationCode": "C", "categoryCode": "34", "address": "57 STIRLING AVE. N.", "city": "KITCHENER", "province": "ON", "country": "CA", "postalCode": "N2H3G4", "twitter": "None", "instagram": "None", "facebook": "None", "youtube": "None", "website": "None", "summary": "None", "logo": "None", "latitude": 43.44597249457564, "longitude": -80.47553734413427}, "891444176RR0001": {"name": "STIRLING CO-OPERATIVE NURSERY SCHOOL", "designationCode": "C", "categoryCode": "20", "address": "BOX 476", "city": "STIRLING", "province": "ON", "country": "CA", "postalCode": "K0K3E0", "twitter": "None", "instagram": "None", "facebook": "None", "youtube": "None", "website": "None", "summary": "None", "logo": "None", "latitude": 44.29383000389519, "longitude": -77.55681006939226}, "119288918RR0355": {"name": "STIRLING CONGREGATION OF JEHOVAH'S WITNESSES", "designationCode": "C", "categoryCode": "61", "address": "RR 2, 1337 FISH & GAME CLUB RD", "city": "FRANKFORD", "province": "ON", "country": "CA", "postalCode": "K0K2C0", "twitter": "None", "instagram": "None", "facebook": "None", "youtube": "None", "website": "None", "summary": "None", "logo": "None", "latitude": 44.22374866273333, "longitude": -77.55904742463508}, "892794868RR0001": {"name": "STIRLING FESTIVAL THEATRE INC.", "designationCode": "C", "categoryCode": "22", "address": "PO BOX 95", "city": "STIRLING", "province": "ON", "country": "CA", "postalCode": "K0K3E0", "twitter": "None", "instagram": "None", "facebook": "None", "youtube": "None", "website": "None", "summary": "None", "logo": "None"}, "119176634RR0001": {"name": "STIRLING MENNONITE CHURCH", "designationCode": "C", "categoryCode": "34", "address": "PO BOX 918", "city": "RAYMOND", "province": "AB", "country": "CA", "postalCode": "T0K2S0", "twitter": "None", "instagram": "None", "facebook": "None", "youtube": "None", "website": "None", "summary": "None", "logo": "None", "latitude": 49.465490000000045, "longitude": -112.66264999999999}, "119176709RR0001": {"name": "STITTSVILLE (ONTARIO NO. 618) BRANCH POPPY FUND", "designationCode": "C", "categoryCode": "09", "address": "P.O. BOX 640 MAIN STREET", "city": "STITTSVILLE", "province": "ON", "country": "CA", "postalCode": "K2S1A7", "twitter": "None", "instagram": "None", "facebook": "None", "youtube": "None", "website": "None", "summary": "None", "logo": "None", "latitude": 45.254629995528, "longitude": -75.91623006333275}, "133289132RR0001": {"name": "STITTSVILLE CO-OPERATIVE NURSERY SCHOOL INCORPORATED", "designationCode": "C", "categoryCode": "20", "address": "27 HOBIN STREET", "city": "STITTSVILLE", "province": "ON", "country": "CA", "postalCode": "K2S1G8", "twitter": "None", "instagram": "None", "facebook": "None", "youtube": "None", "website": "None", "summary": "None", "logo": "None", "latitude": 45.26252846797256, "longitude": -75.93532052755536}, "721720324RR0001": {"name": "STITTSVILLE COMMUNITY BIBLE CHURCH MINISTRY CORPORATION", "designationCode": "C", "categoryCode": "39", "address": "PO BOX 903", "city": "STITTSVILLE", "province": "ON", "country": "CA", "postalCode": "K2S1B1", "twitter": "None", "instagram": "None", "facebook": "None", "youtube": "None", "website": "None", "summary": "None", "logo": "None", "latitude": 45.264669000000055, "longitude": -75.92809399999993}, "889158978RR0001": {"name": "STITTSVILLE FOOD BANK", "designationCode": "C", "categoryCode": "09", "address": "PO. BOX 878", "city": "STITTSVILLE", "province": "ON", "country": "CA", "postalCode": "K2S1B1", "twitter": "None", "instagram": "None", "facebook": "None", "youtube": "None", "website": "None", "summary": "None", "logo": "None", "latitude": 45.264669000000055, "longitude": -75.92809399999993}, "133854562RR0001": {"name": "STITTSVILLE PASTORAL CHARGE", "designationCode": "C", "categoryCode": "44", "address": "6255 FERNBANK RD", "city": "STITTSVILLE", "province": "ON", "country": "CA", "postalCode": "K2S1X5", "twitter": "None", "instagram": "None", "facebook": "None", "youtube": "None", "website": "None", "summary": "None", "logo": "None", "latitude": 45.24671429560265, "longitude": -75.91427773010547}, "883354029RR0001": {"name": "STITTSVILLE PUBLIC SCHOOL COUNCIL", "designationCode": "C", "categoryCode": "21", "address": "40 GRANITE RIDGE DRIVE", "city": "STITTSVILLE", "province": "ON", "country": "CA", "postalCode": "K2S1Y9", "twitter": "None", "instagram": "None", "facebook": "None", "youtube": "None", "website": "None", "summary": "None", "logo": "None", "latitude": 45.271304279733634, "longitude": -75.90760082399379}, "119176717RR0001": {"name": "STITTSVILLE UNITED PENTECOSTAL CHURCH", "designationCode": "C", "categoryCode": "36", "address": "2031 STITTSVILLE MAIN ST      BOX 219", "city": "STITTSVILLE", "province": "ON", "country": "CA", "postalCode": "K2S1A3", "twitter": "None", "instagram": "None", "facebook": "None", "youtube": "None", "website": "None", "summary": "None", "logo": "None", "latitude": 45.23582396401918, "longitude": -75.90719181583002}, "108033465RR0001": {"name": "STOCKMEN'S MEMORIAL FOUNDATION", "designationCode": "C", "categoryCode": "59", "address": "101 RANCHEHOUSE RD", "city": "COCHRANE", "province": "AB", "country": "CA", "postalCode": "T4C2K8", "twitter": "None", "instagram": "None", "facebook": "None", "youtube": "None", "website": "None", "summary": "None", "logo": "None", "latitude": 51.20257191790369, "longitude": -114.4743452418571}, "107856593RR0001": {"name": "STOKE'S BAY PRESBYTERIAN CHURCH", "designationCode": "C", "categoryCode": "37", "address": "4 NORBURN RD                  RR # 2", "city": "LIONS HEAD", "province": "ON", "country": "CA", "postalCode": "N0H1W0", "twitter": "None", "instagram": "None", "facebook": "None", "youtube": "None", "website": "None", "summary": "None", "logo": "None", "latitude": 44.96604000141365, "longitude": -81.3404710885509}, "122073158RR0001": {"name": "STOLLERY CHILDREN'S HOSPITAL FOUNDATION", "designationCode": "A", "categoryCode": "13", "address": "800 - 8215 112 ST NW", "city": "EDMONTON", "province": "AB", "country": "CA", "postalCode": "T6G2C8", "twitter": "None", "instagram": "None", "facebook": "None", "youtube": "None", "website": "None", "summary": "None", "logo": "None", "latitude": 53.515807257478535, "longitude": -113.520744}, "865314405RR0001": {"name": "STONE BRIDGE BAPTIST CHURCH", "designationCode": "C", "categoryCode": "31", "address": "58 BREEZEWAY CRES", "city": "RICHMOND HILL", "province": "ON", "country": "CA", "postalCode": "L4S1V6", "twitter": "None", "instagram": "None", "facebook": "None", "youtube": "None", "website": "None", "summary": "None", "logo": "None", "latitude": 43.882058953661414, "longitude": -79.41644074799464}, "889005575RR0001": {"name": "STONE CHURCH CEMETERY COMMISSION", "designationCode": "C", "categoryCode": "59", "address": "B20 NANCY AVENUE", "city": "BEAVERTON", "province": "ON", "country": "CA", "postalCode": "L0K1A0", "twitter": "None", "instagram": "None", "facebook": "None", "youtube": "None", "website": "None", "summary": "None", "logo": "None", "latitude": 44.437335063397114, "longitude": -79.13570976010101}, "861303634RR0001": {"name": "STONE COMMUNITY CHURCH", "designationCode": "C", "categoryCode": "36", "address": "27 TAWNIE CRES", "city": "BRAMPTON", "province": "ON", "country": "CA", "postalCode": "L6X0L7", "twitter": "None", "instagram": "None", "facebook": "None", "youtube": "None", "website": "None", "summary": "None", "logo": "None", "latitude": 43.673518057187295, "longitude": -79.81329523426041}, "119107373RR0001": {"name": "STONE RIDGE BIBLE CHAPEL", "designationCode": "C", "categoryCode": "39", "address": "1457 UPPER SHERMAN AVE", "city": "HAMILTON", "province": "ON", "country": "CA", "postalCode": "L8W1C4", "twitter": "None", "instagram": "None", "facebook": "None", "youtube": "None", "website": "None", "summary": "None", "logo": "None", "latitude": 43.20145341159334, "longitude": -79.86075204936834}, "119192524RR0001": {"name": "STONE RIDGE PENTECOSTAL CHURCH INC", "designationCode": "C", "categoryCode": "39", "address": "78 SMYTHE LANE", "city": "NACKAWIC", "province": "NB", "country": "CA", "postalCode": "E6G2N3", "twitter": "None", "instagram": "None", "facebook": "None", "youtube": "None", "website": "None", "summary": "None", "logo": "None", "latitude": 46.00715600083674, "longitude": -67.24751924484931}, "119192532RR0001": {"name": "STONE UNITED CHURCH, ERAMOSA TOWNSHIP,", "designationCode": "C", "categoryCode": "44", "address": "4949 WELLINGTON ROAD 29", "city": "GUELPH", "province": "ON", "country": "CA", "postalCode": "N1H6H8", "twitter": "None", "instagram": "None", "facebook": "None", "youtube": "None", "website": "None", "summary": "None", "logo": "None", "latitude": 43.5758594540941, "longitude": -80.15742322491226}, "892532961RR0001": {"name": "STONEGATE COMMUNITY ASSOCIATION", "designationCode": "C", "categoryCode": "11", "address": "150 BERRY RD", "city": "ETOBICOKE", "province": "ON", "country": "CA", "postalCode": "M8Y1W3", "twitter": "None", "instagram": "None", "facebook": "None", "youtube": "None", "website": "None", "summary": "None", "logo": "None", "latitude": 43.63722317799583, "longitude": -79.488617408448}, "108033689RR0001": {"name": "STONEHENGE THERAPEUTIC COMMUNITY INC.", "designationCode": "C", "categoryCode": "57", "address": "60 WESTWOOD RD", "city": "GUELPH", "province": "ON", "country": "CA", "postalCode": "N1H7X3", "twitter": "None", "instagram": "None", "facebook": "None", "youtube": "None", "website": "None", "summary": "None", "logo": "None", "latitude": 43.533929707138675, "longitude": -80.2768961367654}, "119192516RR0001": {"name": "STONEMOOR DAY CARE CENTRE INC.", "designationCode": "C", "categoryCode": "01", "address": "763 DAVIS DRIVE", "city": "UXBRIDGE", "province": "ON", "country": "CA", "postalCode": "L9P1R3", "twitter": "None", "instagram": "None", "facebook": "None", "youtube": "None", "website": "None", "summary": "None", "logo": "None", "latitude": 44.1368344315407, "longitude": -79.11631617209395}, "889764734RR0001": {"name": "STONES 'N BONES MUSEUM", "designationCode": "C", "categoryCode": "50", "address": "632 ESSER CRES", "city": "SARNIA", "province": "ON", "country": "CA", "postalCode": "N7S5J2", "twitter": "None", "instagram": "None", "facebook": "None", "youtube": "None", "website": "None", "summary": "None", "logo": "None", "latitude": 43.0062969656004, "longitude": -82.35860098555256}, "884419227RR0001": {"name": "STONEVILLE PASTORAL CHARGE", "designationCode": "C", "categoryCode": "44", "address": "15 WHITEPINE DRIVE            PO BOX 1623", "city": "LEWISPORTE", "province": "NL", "country": "CA", "postalCode": "A0G3A0", "twitter": "None", "instagram": "None", "facebook": "None", "youtube": "None", "website": "None", "summary": "None", "logo": "None", "latitude": 37.64340332194593, "longitude": -118.99067053260434}, "119192581RR0001": {"name": "STONEWALL & DISTRICT CHRISTMAS CHEER BOARD", "designationCode": "C", "categoryCode": "59", "address": "P.O. BOX 1991", "city": "STONEWALL", "province": "MB", "country": "CA", "postalCode": "R0C2Z0", "twitter": "None", "instagram": "None", "facebook": "None", "youtube": "None", "website": "None", "summary": "None", "logo": "None", "latitude": 50.36947800000006, "longitude": -96.84479599999993}, "889045993RR0001": {"name": "STONEWALL & DISTRICT HEALTH CENTRE AUXILIARY", "designationCode": "C", "categoryCode": "19", "address": "124-622 CENTRE AVE.", "city": "STONEWALL", "province": "MB", "country": "CA", "postalCode": "R0C2Z0", "twitter": "None", "instagram": "None", "facebook": "None", "youtube": "None", "website": "None", "summary": "None", "logo": "None", "latitude": 50.13469247287825, "longitude": -97.3360000582838}, "898382189RR0001": {"name": "STONEWALL & DISTRICT HEALTH CENTRE FOUNDATION INC.", "designationCode": "A", "categoryCode": "13", "address": "BOX 4113", "city": "STONEWALL", "province": "MB", "country": "CA", "postalCode": "R0C2Z0", "twitter": "None", "instagram": "None", "facebook": "None", "youtube": "None", "website": "None", "summary": "None", "logo": "None", "latitude": 50.36947800000006, "longitude": -96.84479599999993}, "105033583RR0001": {"name": "STONEWALL CHILDREN'S CENTRE INC.", "designationCode": "C", "categoryCode": "01", "address": "BOX 418", "city": "STONEWALL", "province": "MB", "country": "CA", "postalCode": "R0C2Z0", "twitter": "None", "instagram": "None", "facebook": "None", "youtube": "None", "website": "None", "summary": "None", "logo": "None", "latitude": 50.36947800000006, "longitude": -96.84479599999993}, "108033820RR0001": {"name": "STONEWALL PASTORAL CHARGE", "designationCode": "C", "categoryCode": "44", "address": "BOX 1099", "city": "STONEWALL", "province": "MB", "country": "CA", "postalCode": "R0C2Z0", "twitter": "None", "instagram": "None", "facebook": "None", "youtube": "None", "website": "None", "summary": "None", "logo": "None", "latitude": 50.36947800000006, "longitude": -96.84479599999993}, "108033861RR0001": {"name": "STONEY CREEK BAPTIST CHURCH", "designationCode": "C", "categoryCode": "31", "address": "79 COLLEGIATE AVE", "city": "STONEY CREEK", "province": "ON", "country": "CA", "postalCode": "L8G3L5", "twitter": "None", "instagram": "None", "facebook": "None", "youtube": "None", "website": "None", "summary": "None", "logo": "None", "latitude": 43.21991393592527, "longitude": -79.74650891596221}, "889683249RR0001": {"name": "STONEY CREEK CHRISTIAN FELLOWSHIP", "designationCode": "C", "categoryCode": "47", "address": "5 - 889 BARTON ST", "city": "STONEY CREEK", "province": "ON", "country": "CA", "postalCode": "L8E5V1", "twitter": "None", "instagram": "None", "facebook": "None", "youtube": "None", "website": "None", "summary": "None", "logo": "None", "latitude": 43.21775609634117, "longitude": -79.68047366582039}, "131770257RR0001": {"name": "STONEY CREEK CHURCH OF CHRIST", "designationCode": "C", "categoryCode": "39", "address": "105 KING STREET EAST", "city": "STONEY CREEK", "province": "ON", "country": "CA", "postalCode": "L8G1L1", "twitter": "None", "instagram": "None", "facebook": "None", "youtube": "None", "website": "None", "summary": "None", "logo": "None", "latitude": 43.21702637333348, "longitude": -79.75098655274388}, "119192656RR0001": {"name": "STONEY CREEK CO-OPERATIVE PRE-SCHOOL INC", "designationCode": "C", "categoryCode": "20", "address": "79 COLLEGIATE AVE", "city": "STONEY CREEK", "province": "ON", "country": "CA", "postalCode": "L8G3L5", "twitter": "None", "instagram": "None", "facebook": "None", "youtube": "None", "website": "None", "summary": "None", "logo": "None", "latitude": 43.21991393592527, "longitude": -79.74650891596221}, "108033937RR0001": {"name": "STONEY CREEK COMMUNITY CHURCH", "designationCode": "C", "categoryCode": "36", "address": "725 HIGHWAY 8", "city": "STONEY CREEK", "province": "ON", "country": "CA", "postalCode": "L8E5J6", "twitter": "None", "instagram": "None", "facebook": "None", "youtube": "None", "website": "None", "summary": "None", "logo": "None", "latitude": 43.21199300992978, "longitude": -79.69724893322497}, "138661814RR0001": {"name": "STONEY CREEK COMMUNITY FOODBANK", "designationCode": "C", "categoryCode": "09", "address": "605 HWY #8                    REAR ENTRANCE", "city": "STONEY CREEK", "province": "ON", "country": "CA", "postalCode": "L8G5G2", "twitter": "None", "instagram": "None", "facebook": "None", "youtube": "None", "website": "None", "summary": "None", "logo": "None", "latitude": 43.214213507207525, "longitude": -79.70682808166995}, "119288918RR0163": {"name": "STONEY CREEK CONGREGATION OF JEHOVAH'S WITNESSES", "designationCode": "C", "categoryCode": "61", "address": "217 GLOVER ROAD", "city": "STONEY CREEK", "province": "ON", "country": "CA", "postalCode": "L8E5H6", "twitter": "None", "instagram": "None", "facebook": "None", "youtube": "None", "website": "None", "summary": "None", "logo": "None", "latitude": 43.21171016209814, "longitude": -79.68198328258956}}