{"132976168RR0001": {"name": "Afghan Canadian Islamic Community", "designationCode": "C", "categoryCode": "60", "address": "22 HOBSON AVE", "city": "TORONTO", "province": "ON", "country": "CA", "postalCode": "M4A1Y2", "twitter": "None", "instagram": "None", "facebook": "None", "youtube": "None", "website": "None", "summary": "None", "logo": "None", "latitude": 43.72048640908317, "longitude": -79.3079168817876}, "825464357RR0001": {"name": "Afghan Hussaini Charitable Foundation of Alberta", "designationCode": "C", "categoryCode": "60", "address": "11219 180 ST", "city": "EDMONTON", "province": "AB", "country": "CA", "postalCode": "T5S0B4", "twitter": "None", "instagram": "None", "facebook": "None", "youtube": "None", "website": "None", "summary": "None", "logo": "None", "latitude": 53.561015999999995, "longitude": -113.63026626954874}, "844365320RR0001": {"name": "Afghan Islamic and Cultural Centre of Hamilton", "designationCode": "C", "categoryCode": "60", "address": "644 BARTON ST E", "city": "HAMILTON", "province": "ON", "country": "CA", "postalCode": "L8L3A2", "twitter": "None", "instagram": "None", "facebook": "None", "youtube": "None", "website": "None", "summary": "None", "logo": "None", "latitude": 43.256812035230084, "longitude": -79.83752834722134}, "860216951RR0001": {"name": "Afghan Muslim Immigrant Aid", "designationCode": "C", "categoryCode": "09", "address": "70 IRWIN ROAD", "city": "ETOBICOKE", "province": "ON", "country": "CA", "postalCode": "M9V2P8", "twitter": "None", "instagram": "None", "facebook": "None", "youtube": "None", "website": "None", "summary": "None", "logo": "None", "latitude": 43.72504607412416, "longitude": -79.55910881585774}, "847561107RR0001": {"name": "Afghanistan Repatriation Memorial", "designationCode": "C", "categoryCode": "59", "address": "7 CRESWELL DRIVE,", "city": "TRENTON", "province": "ON", "country": "CA", "postalCode": "K8V6X5", "twitter": "None", "instagram": "None", "facebook": "None", "youtube": "None", "website": "None", "summary": "None", "logo": "None", "latitude": 44.097562244477395, "longitude": -77.57595403207314}, "816447296RR0001": {"name": "Afonso Chen Foundation", "designationCode": "B", "categoryCode": "22", "address": "20 WOODVALE CRESCENT", "city": "TORONTO", "province": "ON", "country": "CA", "postalCode": "M4C5N5", "twitter": "None", "instagram": "None", "facebook": "None", "youtube": "None", "website": "None", "summary": "None", "logo": "None", "latitude": 43.70060236886143, "longitude": -79.32254817335087}, "804194751RR0001": {"name": "Afri-Can Education & Support Fund (ACES Fund)", "designationCode": "C", "categoryCode": "09", "address": "3300-181 BAY STREET           P.O. BOX 786/BAY WELLINGTON TW", "city": "TORONTO", "province": "ON", "country": "CA", "postalCode": "M5J2T3", "twitter": "None", "instagram": "None", "facebook": "None", "youtube": "None", "website": "None", "summary": "None", "logo": "None", "latitude": 43.64678000836723, "longitude": -79.37943997056962}, "841583495RR0001": {"name": "Africa Reads Trust Charity", "designationCode": "C", "categoryCode": "25", "address": "345 MOUNTBATTEN AVENUE", "city": "OTTAWA", "province": "ON", "country": "CA", "postalCode": "K1H5W2", "twitter": "None", "instagram": "None", "facebook": "None", "youtube": "None", "website": "None", "summary": "None", "logo": "None", "latitude": 45.392331434935535, "longitude": -75.65799411379764}, "831101951RR0001": {"name": "Africa SOMA Inc./Afrique SOMA Inc.", "designationCode": "C", "categoryCode": "21", "address": "17 - 1335 AV BERNARD", "city": "OUTREMONT", "province": "QC", "country": "CA", "postalCode": "H2V1W1", "twitter": "None", "instagram": "None", "facebook": "None", "youtube": "None", "website": "None", "summary": "None", "logo": "None", "latitude": 45.518851570921534, "longitude": -73.60989491023702}, "845515154RR0001": {"name": "Africa Village Project Association", "designationCode": "C", "categoryCode": "09", "address": "877 CAPTAIN'S WAY", "city": "BOWEN ISLAND", "province": "BC", "country": "CA", "postalCode": "V0N1G2", "twitter": "None", "instagram": "None", "facebook": "None", "youtube": "None", "website": "None", "summary": "None", "logo": "None", "latitude": 49.37341138818259, "longitude": -123.41945189796542}, "854837952RR0001": {"name": "Africain-Canadian Christian Network - R\u00e9seau Chr\u00e9tien Canadien Africain", "designationCode": "A", "categoryCode": "03", "address": "1875 SHEPPARD AVENUE WEST", "city": "TORONTO", "province": "ON", "country": "CA", "postalCode": "M3L1Y6", "twitter": "None", "instagram": "None", "facebook": "None", "youtube": "None", "website": "None", "summary": "None", "logo": "None", "latitude": 43.74088984927016, "longitude": -79.50413654495361}, "870391372RR0001": {"name": "African Canadian Foundation for Culture and Economic Development Inc.", "designationCode": "C", "categoryCode": "09", "address": "265 KIRKBRIDGE DRIVE", "city": "WINNIPEG", "province": "MB", "country": "CA", "postalCode": "R3T4W5", "twitter": "None", "instagram": "None", "facebook": "None", "youtube": "None", "website": "None", "summary": "None", "logo": "None", "latitude": 49.781874173754915, "longitude": -97.16332559077259}, "870268034RR0001": {"name": "African Communities of Manitoba Inc.", "designationCode": "C", "categoryCode": "56", "address": "101-421 KENNEDY STREET", "city": "WINNIPEG", "province": "MB", "country": "CA", "postalCode": "R3B2N2", "twitter": "None", "instagram": "None", "facebook": "None", "youtube": "None", "website": "None", "summary": "None", "logo": "None", "latitude": 49.896207219545246, "longitude": -97.1506872265857}, "816807291RR0001": {"name": "African Girls Education Fund/Fond pour l'\u00e9ducation des filles africaines", "designationCode": "C", "categoryCode": "09", "address": "603 - 4900 BATHURST ST", "city": "NORTH YORK", "province": "ON", "country": "CA", "postalCode": "M2R1X6", "twitter": "None", "instagram": "None", "facebook": "None", "youtube": "None", "website": "None", "summary": "None", "logo": "None", "latitude": 43.77234262669516, "longitude": -79.44263729909376}, "818119208RR0001": {"name": "African Leaders of Tomorrow Society", "designationCode": "B", "categoryCode": "21", "address": "5 - 1309 CRAIGFLOWER RD", "city": "VICTORIA", "province": "BC", "country": "CA", "postalCode": "V9A2X9", "twitter": "None", "instagram": "None", "facebook": "None", "youtube": "None", "website": "None", "summary": "None", "logo": "None", "latitude": 48.44804539749421, "longitude": -123.41660802041964}, "834419897RR0001": {"name": "African People's Foundation", "designationCode": "A", "categoryCode": "03", "address": "610-825 GRANVILLE STREET", "city": "VANCOUVER", "province": "BC", "country": "CA", "postalCode": "V6Z1K9", "twitter": "None", "instagram": "None", "facebook": "None", "youtube": "None", "website": "None", "summary": "None", "logo": "None", "latitude": 49.28103532113788, "longitude": -123.12036894021564}, "840517486RR0001": {"name": "African Research and Conservation Foundation", "designationCode": "C", "categoryCode": "54", "address": "436 LIMESTONE CRES", "city": "TORONTO", "province": "ON", "country": "CA", "postalCode": "M3J2S4", "twitter": "None", "instagram": "None", "facebook": "None", "youtube": "None", "website": "None", "summary": "None", "logo": "None", "latitude": 43.782379068872714, "longitude": -79.48569475996852}, "820442663RR0001": {"name": "Africville Heritage Trust Society", "designationCode": "C", "categoryCode": "50", "address": "PO BOX 46053 RPO NOVALEA DR", "city": "HALIFAX", "province": "NS", "country": "CA", "postalCode": "B3K5V8", "twitter": "None", "instagram": "None", "facebook": "None", "youtube": "None", "website": "None", "summary": "None", "logo": "None", "latitude": 44.667847870099756, "longitude": -63.60672841210356}, "837201425RR0001": {"name": "Afrikespoir-enfants de guin\u00e9e", "designationCode": "C", "categoryCode": "09", "address": "10482,RUE TOLHURST", "city": "MONTR\u00c9AL", "province": "QC", "country": "CA", "postalCode": "H3L3A3", "twitter": "None", "instagram": "None", "facebook": "None", "youtube": "None", "website": "None", "summary": "None", "logo": "None", "latitude": 45.54515908630053, "longitude": -73.67007193395456}, "893151167RR0001": {"name": "Afrique 2000", "designationCode": "C", "categoryCode": "09", "address": "610 - 2540 BOUL DANIEL-JOHNSON", "city": "LAVAL", "province": "QC", "country": "CA", "postalCode": "H7T2S3", "twitter": "None", "instagram": "None", "facebook": "None", "youtube": "None", "website": "None", "summary": "None", "logo": "None", "latitude": 45.567061785446434, "longitude": -73.75546153915388}, "846527919RR0001": {"name": "Afro Canadian Development Inc.", "designationCode": "C", "categoryCode": "09", "address": "1270 FINCH AVENUE WEST        UNIT 18", "city": "NORTH YORK", "province": "ON", "country": "CA", "postalCode": "M3J3J7", "twitter": "None", "instagram": "None", "facebook": "None", "youtube": "None", "website": "None", "summary": "None", "logo": "None", "latitude": 43.764246086963425, "longitude": -79.48779026204599}, "801011719RR0001": {"name": "Afro-Canadian Positive Network of BC Society", "designationCode": "C", "categoryCode": "11", "address": "35 - 13947 68 AVE", "city": "SURREY", "province": "BC", "country": "CA", "postalCode": "V3W2G9", "twitter": "None", "instagram": "None", "facebook": "None", "youtube": "None", "website": "None", "summary": "None", "logo": "None", "latitude": 49.12626045657561, "longitude": -122.8352127485429}, "822613378RR0001": {"name": "Against the Grain Theatre Inc.", "designationCode": "C", "categoryCode": "22", "address": "400 - 227 FRONT ST E", "city": "TORONTO", "province": "ON", "country": "CA", "postalCode": "M5A1E8", "twitter": "None", "instagram": "None", "facebook": "None", "youtube": "None", "website": "None", "summary": "None", "logo": "None", "latitude": 43.650919834843435, "longitude": -79.36542553774024}, "852246982RR0001": {"name": "Agape in Action", "designationCode": "C", "categoryCode": "09", "address": "97 TWENTY PLACE BLVD", "city": "MT. HOPE", "province": "ON", "country": "CA", "postalCode": "L0R1W0", "twitter": "None", "instagram": "None", "facebook": "None", "youtube": "None", "website": "None", "summary": "None", "logo": "None", "latitude": 43.19408564862372, "longitude": -79.9092918240234}, "838536019RR0001": {"name": "Agape Christian Church", "designationCode": "C", "categoryCode": "36", "address": "172-906 CLARKE ROAD", "city": "PORT MOODY", "province": "BC", "country": "CA", "postalCode": "V3H1L7", "twitter": "None", "instagram": "None", "facebook": "None", "youtube": "None", "website": "None", "summary": "None", "logo": "None", "latitude": 49.27188078836802, "longitude": -122.87683085492854}, "836931717RR0001": {"name": "Agape Church Burnaby", "designationCode": "C", "categoryCode": "39", "address": "230 - 6688 SOUTHOAKS CRES", "city": "BURNABY", "province": "BC", "country": "CA", "postalCode": "V5E4M7", "twitter": "None", "instagram": "None", "facebook": "None", "youtube": "None", "website": "None", "summary": "None", "logo": "None", "latitude": 49.217862783224746, "longitude": -122.96481136395668}, "830837209RR0001": {"name": "Agape House Ministries Canada Inc.", "designationCode": "C", "categoryCode": "39", "address": "52 LAURENTIDE RD", "city": "RIVERVIEW", "province": "NB", "country": "CA", "postalCode": "E1B2W5", "twitter": "None", "instagram": "None", "facebook": "None", "youtube": "None", "website": "None", "summary": "None", "logo": "None", "latitude": 46.0538513222344, "longitude": -64.82000576545113}, "813200052RR0001": {"name": "Agape International Pentecostal Church, Calgary", "designationCode": "C", "categoryCode": "36", "address": "3338 CATALINA BLVD NE", "city": "CALGARY", "province": "AB", "country": "CA", "postalCode": "T1Y6T8", "twitter": "None", "instagram": "None", "facebook": "None", "youtube": "None", "website": "None", "summary": "None", "logo": "None", "latitude": 51.082461041635376, "longitude": -113.9318706719659}, "811495399RR0001": {"name": "Agape Kingdom Assembly", "designationCode": "C", "categoryCode": "39", "address": "1808 - 60 RUDDINGTON DR", "city": "NORTH YORK", "province": "ON", "country": "CA", "postalCode": "M2K2J9", "twitter": "None", "instagram": "None", "facebook": "None", "youtube": "None", "website": "None", "summary": "None", "logo": "None", "latitude": 43.791720308067475, "longitude": -79.38992503696085}, "816351696RR0001": {"name": "Agape Ministries Press", "designationCode": "C", "categoryCode": "49", "address": "30 AGINCOURT AVENUE", "city": "HAMILTON", "province": "ON", "country": "CA", "postalCode": "L8H3M3", "twitter": "None", "instagram": "None", "facebook": "None", "youtube": "None", "website": "None", "summary": "None", "logo": "None", "latitude": 43.25527124257029, "longitude": -79.81037827335699}, "805693116RR0001": {"name": "Agape New Life Fellowship Inc.", "designationCode": "C", "categoryCode": "39", "address": "POST OFFICE BOX 97", "city": "BIG RIVER", "province": "SK", "country": "CA", "postalCode": "S0J0E0", "twitter": "None", "instagram": "None", "facebook": "None", "youtube": "None", "website": "None", "summary": "None", "logo": "None", "latitude": 53.83341000000007, "longitude": -107.01782999999995}, "846048452RR0001": {"name": "Agape Unlimited Health Services", "designationCode": "C", "categoryCode": "19", "address": "12 JOCELYN CRESCENT", "city": "TORONTO", "province": "ON", "country": "CA", "postalCode": "M3B1A2", "twitter": "None", "instagram": "None", "facebook": "None", "youtube": "None", "website": "None", "summary": "None", "logo": "None", "latitude": 43.736770088550905, "longitude": -79.34814723925207}, "894945633RR0075": {"name": "Agape Vietnamese Alliance Church of The Christian and Missionary Alliance in Canada", "designationCode": "C", "categoryCode": "39", "address": "50 TRAFFORD CRES", "city": "MARKHAM", "province": "ON", "country": "CA", "postalCode": "L3R7H9", "twitter": "None", "instagram": "None", "facebook": "None", "youtube": "None", "website": "None", "summary": "None", "logo": "None", "latitude": 43.835654893127256, "longitude": -79.29102381611753}, "841578024RR0001": {"name": "Agassiz Medical Centre Board Inc.", "designationCode": "C", "categoryCode": "19", "address": "130-30 STEPHEN STREET", "city": "MORDEN", "province": "MB", "country": "CA", "postalCode": "R6M2G3", "twitter": "None", "instagram": "None", "facebook": "None", "youtube": "None", "website": "None", "summary": "None", "logo": "None", "latitude": 49.18996153621105, "longitude": -98.09271955536961}, "132643883RR0001": {"name": "Agassiz United Church", "designationCode": "C", "categoryCode": "44", "address": "6860 HIGHWAY NO 7", "city": "AGASSIZ", "province": "BC", "country": "CA", "postalCode": "V0M1A1", "twitter": "None", "instagram": "None", "facebook": "None", "youtube": "None", "website": "None", "summary": "None", "logo": "None", "latitude": 49.24248900000005, "longitude": -121.77105649999993}, "863769584RR0001": {"name": "Agidasin Initiatives", "designationCode": "C", "categoryCode": "20", "address": "P.O. BOX 133", "city": "MINAKI", "province": "ON", "country": "CA", "postalCode": "P0X1J0", "twitter": "None", "instagram": "None", "facebook": "None", "youtube": "None", "website": "None", "summary": "None", "logo": "None", "latitude": 49.98536000000007, "longitude": -94.67070999999999}, "841592686RR0001": {"name": "Agincourt Gospel Hall", "designationCode": "C", "categoryCode": "39", "address": "37 BLUEBERRY DR.", "city": "SCARBOROUGH", "province": "ON", "country": "CA", "postalCode": "M1S3G1", "twitter": "None", "instagram": "None", "facebook": "None", "youtube": "None", "website": "None", "summary": "None", "logo": "None", "latitude": 43.80048722898029, "longitude": -79.26598012833995}, "869378315RR0001": {"name": "Agincourt Muslim Religious Association", "designationCode": "C", "categoryCode": "60", "address": "3599 SHEPPARD AVENUE EAST", "city": "SCARBOROUGH", "province": "ON", "country": "CA", "postalCode": "M1T3K8", "twitter": "None", "instagram": "None", "facebook": "None", "youtube": "None", "website": "None", "summary": "None", "logo": "None", "latitude": 43.78088987422847, "longitude": -79.29870426406615}, "805135696RR0001": {"name": "Aging Research Network", "designationCode": "C", "categoryCode": "11", "address": "53514B RANGE ROAD 261", "city": "STURGEON COUNTY", "province": "AB", "country": "CA", "postalCode": "T8T0W7", "twitter": "None", "instagram": "None", "facebook": "None", "youtube": "None", "website": "None", "summary": "None", "logo": "None", "latitude": 53.62382527434629, "longitude": -113.71332436688046}, "108219536RR0001": {"name": "Aglow International Canada", "designationCode": "C", "categoryCode": "47", "address": "A - 690 PASQUA ST", "city": "REGINA", "province": "SK", "country": "CA", "postalCode": "S4T4K4", "twitter": "None", "instagram": "None", "facebook": "None", "youtube": "None", "website": "None", "summary": "None", "logo": "None", "latitude": 50.467805999999996, "longitude": -104.64103315684667}, "803861418RR0001": {"name": "Agora des arts", "designationCode": "C", "categoryCode": "22", "address": "100-37 7E RUE", "city": "ROUYN-NORANDA", "province": "QC", "country": "CA", "postalCode": "J9X1Z6", "twitter": "None", "instagram": "None", "facebook": "None", "youtube": "None", "website": "None", "summary": "None", "logo": "None", "latitude": 48.246399, "longitude": -79.016517}, "809459357RR0001": {"name": "Agricola Community Church Fellowship", "designationCode": "C", "categoryCode": "39", "address": "53577 RANGE ROAD 223", "city": "ARDROSSAN", "province": "AB", "country": "CA", "postalCode": "T8E2L7", "twitter": "None", "instagram": "None", "facebook": "None", "youtube": "None", "website": "None", "summary": "None", "logo": "None", "latitude": 53.62778674854292, "longitude": -113.17227768688356}, "845824507RR0001": {"name": "Agriculture for Life Inc.", "designationCode": "C", "categoryCode": "59", "address": "28 CROWFOOT TERRACE NW", "city": "CALGARY", "province": "AB", "country": "CA", "postalCode": "T3G3N8", "twitter": "None", "instagram": "None", "facebook": "None", "youtube": "None", "website": "None", "summary": "None", "logo": "None", "latitude": 51.126918356115524, "longitude": -114.19876515827268}, "806867396RR0001": {"name": "Agriculture in the Classroom Canada", "designationCode": "C", "categoryCode": "59", "address": "5315 PORTAGE AVE", "city": "HEADINGLEY", "province": "MB", "country": "CA", "postalCode": "R4H1J9", "twitter": "None", "instagram": "None", "facebook": "None", "youtube": "None", "website": "None", "summary": "None", "logo": "None", "latitude": 49.87587877016566, "longitude": -97.40072796066782}, "819491788RR0001": {"name": "Agriculture in the Classroom NL Inc.", "designationCode": "C", "categoryCode": "21", "address": "308 BROOKFIELD ROAD           POST OFFICE BOX 1045", "city": "MOUNT PEARL", "province": "NL", "country": "CA", "postalCode": "A1N3C9", "twitter": "None", "instagram": "None", "facebook": "None", "youtube": "None", "website": "None", "summary": "None", "logo": "None", "latitude": 47.50623637826973, "longitude": -52.79095654213885}, "726064892RR0001": {"name": "Agudas Shomrei Hadas", "designationCode": "C", "categoryCode": "49", "address": "38 VIEWMOUNT AVE", "city": "NORTH YORK", "province": "ON", "country": "CA", "postalCode": "M6B1T4", "twitter": "None", "instagram": "None", "facebook": "None", "youtube": "None", "website": "None", "summary": "None", "logo": "None", "latitude": 43.70991019069179, "longitude": -79.43043637122736}, "794482893RR0001": {"name": "Agudath Israel Congregation of Toronto", "designationCode": "C", "categoryCode": "42", "address": "129 MCGILLIVRAY AVE", "city": "NORTH YORK", "province": "ON", "country": "CA", "postalCode": "M5M2Y7", "twitter": "None", "instagram": "None", "facebook": "None", "youtube": "None", "website": "None", "summary": "None", "logo": "None", "latitude": 43.73569585316531, "longitude": -79.43248797945644}, "829490416RR0001": {"name": "Ahavat Shalom Sephardic Congregation", "designationCode": "C", "categoryCode": "42", "address": "2 COLTRANE DRIVE", "city": "THORNHILL", "province": "ON", "country": "CA", "postalCode": "L4J9A7", "twitter": "None", "instagram": "None", "facebook": "None", "youtube": "None", "website": "None", "summary": "None", "logo": "None", "latitude": 43.834520146834706, "longitude": -79.46797765543305}, "818503187RR0001": {"name": "Ahuva Mishpochah Messianic Congregation", "designationCode": "C", "categoryCode": "39", "address": "14 NORTH ST", "city": "CHARLOTTETOWN", "province": "PE", "country": "CA", "postalCode": "C1E1V4", "twitter": "None", "instagram": "None", "facebook": "None", "youtube": "None", "website": "None", "summary": "None", "logo": "None", "latitude": 46.285076723844405, "longitude": -63.15565141796997}, "130362593RR0001": {"name": "Aid to the Church in Need (Canada) Inc. / Aide \u00e0 l'\u00c9glise en D\u00e9tresse (Canada) Inc.", "designationCode": "C", "categoryCode": "47", "address": "1857 MAISONNEUVE O BUREAU 400", "city": "MONTREAL", "province": "QC", "country": "CA", "postalCode": "H3H1J9", "twitter": "None", "instagram": "None", "facebook": "None", "youtube": "None", "website": "None", "summary": "None", "logo": "None", "latitude": 45.49389958979164, "longitude": -73.58138263878462}, "858135924RR0001": {"name": "Aidan Foundation - Shushan Society", "designationCode": "C", "categoryCode": "57", "address": "11103 KEMPT HEAD ROAD", "city": "BOULARDERIE CENTRE", "province": "NS", "country": "CA", "postalCode": "B1X1L5", "twitter": "None", "instagram": "None", "facebook": "None", "youtube": "None", "website": "None", "summary": "None", "logo": "None", "latitude": 46.19172163318643, "longitude": -60.52573479987221}, "829195668RR0001": {"name": "Aide aux enfants congolais abandonn\u00e9s", "designationCode": "C", "categoryCode": "09", "address": "301 - 6035 RUE DES BRUMES", "city": "QUEBEC", "province": "QC", "country": "CA", "postalCode": "G2C1S7", "twitter": "None", "instagram": "None", "facebook": "None", "youtube": "None", "website": "None", "summary": "None", "logo": "None", "latitude": 46.82656969856897, "longitude": -71.31838176077657}, "850004300RR0001": {"name": "Aide aux familles de la capitale", "designationCode": "C", "categoryCode": "09", "address": "430 RUE SAINT-FRANCOIS", "city": "PORTNEUF", "province": "QC", "country": "CA", "postalCode": "G0A2Y0", "twitter": "None", "instagram": "None", "facebook": "None", "youtube": "None", "website": "None", "summary": "None", "logo": "None", "latitude": 46.711879513994035, "longitude": -71.889102524006}, "823721691RR0001": {"name": "Aide Mondiale aux Enfants (AME) / Aid to Children of the World (ACW)", "designationCode": "C", "categoryCode": "01", "address": "2-3482 AV. SAINT-DENIS", "city": "SHAWINIGAN", "province": "QC", "country": "CA", "postalCode": "G9N4Y8", "twitter": "None", "instagram": "None", "facebook": "None", "youtube": "None", "website": "None", "summary": "None", "logo": "None", "latitude": 46.56778966054028, "longitude": -72.74217787243946}, "815359211RR0001": {"name": "Aids Crisis Response Team", "designationCode": "C", "categoryCode": "11", "address": "9618 TECUMSEH ROAD EAST       SUITE #112", "city": "WINDSOR", "province": "ON", "country": "CA", "postalCode": "N8R1A2", "twitter": "None", "instagram": "None", "facebook": "None", "youtube": "None", "website": "None", "summary": "None", "logo": "None", "latitude": 42.31430144662095, "longitude": -82.92211022439267}, "841128168RR0001": {"name": "Air Cadet Foundation of British Columbia", "designationCode": "A", "categoryCode": "03", "address": "#2-7630 MONTREAL STREET", "city": "DELTA", "province": "BC", "country": "CA", "postalCode": "V4K0A7", "twitter": "None", "instagram": "None", "facebook": "None", "youtube": "None", "website": "None", "summary": "None", "logo": "None", "latitude": 49.08078747071387, "longitude": -123.01273260935426}, "845567445RR0001": {"name": "Air Cadet League of Canada (NF) Inc.", "designationCode": "C", "categoryCode": "29", "address": "PO BOX 13982", "city": "ST JOHN'S", "province": "NL", "country": "CA", "postalCode": "A1B4G8", "twitter": "None", "instagram": "None", "facebook": "None", "youtube": "None", "website": "None", "summary": "None", "logo": "None", "latitude": 47.56938900000006, "longitude": -52.78609699999993}, "123613523RR0039": {"name": "Air Cadet League of Canada - 588 Eric Simms Squadron", "designationCode": "C", "categoryCode": "29", "address": "CP 53542 CSP NORTHGATE", "city": "SAINT-LAURENT", "province": "QC", "country": "CA", "postalCode": "H4L5J9", "twitter": "None", "instagram": "None", "facebook": "None", "youtube": "None", "website": "None", "summary": "None", "logo": "None", "latitude": 45.506958000000054, "longitude": -73.68292249999993}, "130387665RR0096": {"name": "Air Cadet League of Canada 164 Shelburne Squadron SponsoringCommittee", "designationCode": "C", "categoryCode": "29", "address": "PO BOX 970 ST MAIN", "city": "SHELBURNE", "province": "ON", "country": "CA", "postalCode": "L9V3M2", "twitter": "None", "instagram": "None", "facebook": "None", "youtube": "None", "website": "None", "summary": "None", "logo": "None", "latitude": 44.13508148877166, "longitude": -80.33158927439862}, "893438408RR0001": {"name": "Air Cadet League of Canada, 279 Elk Valley Squadron Sponsoring Committee", "designationCode": "C", "categoryCode": "29", "address": "715 DOUGLAS FIR               PO BOX 821", "city": "SPARWOOD", "province": "BC", "country": "CA", "postalCode": "V0B2G0", "twitter": "None", "instagram": "None", "facebook": "None", "youtube": "None", "website": "None", "summary": "None", "logo": "None", "latitude": 49.713274372468106, "longitude": -114.8941323447685}, "832195622RR0001": {"name": "Air Cadet League of Canada, 609 Steveston Sponsoring Committee", "designationCode": "C", "categoryCode": "29", "address": "359-185 9040 BLUNDELL ROAD", "city": "RICHMOND", "province": "BC", "country": "CA", "postalCode": "V6H1K3", "twitter": "None", "instagram": "None", "facebook": "None", "youtube": "None", "website": "None", "summary": "None", "logo": "None", "latitude": 49.15541065871117, "longitude": -123.12476270458764}, "125693747RR0001": {"name": "Airdrie and District Agricultural Society", "designationCode": "C", "categoryCode": "56", "address": "PO BOX 80069 RPO TOWER LANE", "city": "AIRDRIE", "province": "AB", "country": "CA", "postalCode": "T4B2V8", "twitter": "None", "instagram": "None", "facebook": "None", "youtube": "None", "website": "None", "summary": "None", "logo": "None", "latitude": 51.28851200898983, "longitude": -114.01787887950324}, "844555789RR0001": {"name": "Airdrie and District Community Foundation", "designationCode": "A", "categoryCode": "03", "address": "257 SILVER RIDGE CRES NW", "city": "CALGARY", "province": "AB", "country": "CA", "postalCode": "T3B3T6", "twitter": "None", "instagram": "None", "facebook": "None", "youtube": "None", "website": "None", "summary": "None", "logo": "None", "latitude": 51.105312565641405, "longitude": -114.19634208090484}, "822140406RR0001": {"name": "Airdrie and District Hospice Society", "designationCode": "C", "categoryCode": "11", "address": "PO BOX 70014                  SOBEYS CREEKSIDE RPO", "city": "AIRDRIE", "province": "AB", "country": "CA", "postalCode": "T4B0V9", "twitter": "None", "instagram": "None", "facebook": "None", "youtube": "None", "website": "None", "summary": "None", "logo": "None", "latitude": 51.305359499999994, "longitude": -114.0240735}, "766542120RR0001": {"name": "Airdrie Dynamic Life Fellowship", "designationCode": "B", "categoryCode": "39", "address": "1436 BIG SPRINGS WAY SE", "city": "AIRDRIE", "province": "AB", "country": "CA", "postalCode": "T4A1N3", "twitter": "None", "instagram": "None", "facebook": "None", "youtube": "None", "website": "None", "summary": "None", "logo": "None", "latitude": 51.27890553955792, "longitude": -113.99337231207818}, "804272847RR0001": {"name": "Airdrie Health Foundation", "designationCode": "A", "categoryCode": "13", "address": "PO BOX 90054                  SIERRA SPRING RPO", "city": "AIRDRIE", "province": "AB", "country": "CA", "postalCode": "T4B0A2", "twitter": "None", "instagram": "None", "facebook": "None", "youtube": "None", "website": "None", "summary": "None", "logo": "None", "latitude": 51.267273834022184, "longitude": -114.00363787627306}, "837061498RR0001": {"name": "Airdrie Lioness Club Hamper Foundation", "designationCode": "C", "categoryCode": "09", "address": "P.O. BOX 80102                DOWNTOWN RPO", "city": "AIRDRIE", "province": "AB", "country": "CA", "postalCode": "T4B2V8", "twitter": "None", "instagram": "None", "facebook": "None", "youtube": "None", "website": "None", "summary": "None", "logo": "None", "latitude": 51.28868400000006, "longitude": -114.01344349999994}, "740378724RR0001": {"name": "Airdrie P.O.W.E.R.", "designationCode": "C", "categoryCode": "01", "address": "403 FLETT DR NE", "city": "AIRDRIE", "province": "AB", "country": "CA", "postalCode": "T4B1N1", "twitter": "None", "instagram": "None", "facebook": "None", "youtube": "None", "website": "None", "summary": "None", "logo": "None", "latitude": 51.298068532315895, "longitude": -114.006564}, "817661481RR0001": {"name": "Airdrie Performing Arts Society", "designationCode": "C", "categoryCode": "22", "address": "230 SAGEWOOD GDNS SW", "city": "AIRDRIE", "province": "AB", "country": "CA", "postalCode": "T4B3A3", "twitter": "None", "instagram": "None", "facebook": "None", "youtube": "None", "website": "None", "summary": "None", "logo": "None", "latitude": 51.29201162476194, "longitude": -114.04384968676798}, "821443645RR0001": {"name": "Airlie Foundation", "designationCode": "B", "categoryCode": "03", "address": "17886 THE GORE ROAD", "city": "CALEDON", "province": "ON", "country": "CA", "postalCode": "L7K2M5", "twitter": "None", "instagram": "None", "facebook": "None", "youtube": "None", "website": "None", "summary": "None", "logo": "None", "latitude": 43.93502151643323, "longitude": -79.88503152407272}, "820060358RR0001": {"name": "Ajax Christian Academy", "designationCode": "C", "categoryCode": "20", "address": "65 TAWN CRES", "city": "AJAX", "province": "ON", "country": "CA", "postalCode": "L1Z1H9", "twitter": "None", "instagram": "None", "facebook": "None", "youtube": "None", "website": "None", "summary": "None", "logo": "None", "latitude": 43.86746226340233, "longitude": -79.02750609463908}, "828226233RR0001": {"name": "Ajax Church of God", "designationCode": "C", "categoryCode": "39", "address": "254-, 2-157 HARWOOD AVE NORTH", "city": "AJAX", "province": "ON", "country": "CA", "postalCode": "L1Z0B6", "twitter": "None", "instagram": "None", "facebook": "None", "youtube": "None", "website": "None", "summary": "None", "logo": "None", "latitude": 43.867828956384685, "longitude": -79.02525751886981}, "774291082RR0001": {"name": "Ajax Connect Church of the Nazarene", "designationCode": "C", "categoryCode": "39", "address": "657 MILNER AVE", "city": "SCARBOROUGH", "province": "ON", "country": "CA", "postalCode": "M1B2K4", "twitter": "None", "instagram": "None", "facebook": "None", "youtube": "None", "website": "None", "summary": "None", "logo": "None", "latitude": 43.79509593972563, "longitude": -79.21830446153861}, "803270065RR0001": {"name": "Ajax New Life Church", "designationCode": "C", "categoryCode": "39", "address": "42 HARLEY DRIVE,", "city": "AJAX", "province": "ON", "country": "CA", "postalCode": "L1S5X5", "twitter": "None", "instagram": "None", "facebook": "None", "youtube": "None", "website": "None", "summary": "None", "logo": "None", "latitude": 43.85796405883206, "longitude": -79.03065934543234}, "849913702RR0001": {"name": "Ajax Ride 4 Youth Foundation Inc.", "designationCode": "A", "categoryCode": "23", "address": "38 WHITBREAD CRESCENT,", "city": "AJAX", "province": "ON", "country": "CA", "postalCode": "L1Z0E3", "twitter": "None", "instagram": "None", "facebook": "None", "youtube": "None", "website": "None", "summary": "None", "logo": "None", "latitude": 43.89329653817293, "longitude": -79.01882614726739}, "107797383RR0131": {"name": "Ajax Seventh-day Adventist Community Church", "designationCode": "C", "categoryCode": "41", "address": "P.O. BOX 31087                RPO WESTNEY HEIGHTS", "city": "AJAX", "province": "ON", "country": "CA", "postalCode": "L1T3V2", "twitter": "None", "instagram": "None", "facebook": "None", "youtube": "None", "website": "None", "summary": "None", "logo": "None", "latitude": 43.884352830582316, "longitude": -79.0465317875606}, "845636950RR0001": {"name": "Akal Academy Society", "designationCode": "C", "categoryCode": "62", "address": "204-12639 80 AVE", "city": "SURREY", "province": "BC", "country": "CA", "postalCode": "V3W3A6", "twitter": "None", "instagram": "None", "facebook": "None", "youtube": "None", "website": "None", "summary": "None", "logo": "None", "latitude": 49.148319690962396, "longitude": -122.87183587896853}, "801934134RR0001": {"name": "Akoma Family Centre Incorporated", "designationCode": "C", "categoryCode": "09", "address": "1018 MAIN STREET", "city": "DARTMOUTH", "province": "NS", "country": "CA", "postalCode": "B2W4X9", "twitter": "None", "instagram": "None", "facebook": "None", "youtube": "None", "website": "None", "summary": "None", "logo": "None", "latitude": 44.701460761556, "longitude": -63.47814630653825}, "801919739RR0001": {"name": "Akoma Holdings Incorporated", "designationCode": "C", "categoryCode": "03", "address": "1018 MAIN STREET", "city": "DARTMOUTH", "province": "NS", "country": "CA", "postalCode": "B2W4X9", "twitter": "None", "instagram": "None", "facebook": "None", "youtube": "None", "website": "None", "summary": "None", "logo": "None", "latitude": 44.701460761556, "longitude": -63.47814630653825}, "842756264RR0001": {"name": "Akonua and Kwama Children's Literacy Foundation", "designationCode": "B", "categoryCode": "21", "address": "215 CARMEL CLOSE NE", "city": "CALGARY", "province": "AB", "country": "CA", "postalCode": "T1Y6Z4", "twitter": "None", "instagram": "None", "facebook": "None", "youtube": "None", "website": "None", "summary": "None", "logo": "None", "latitude": 51.088229193173305, "longitude": -113.93234186551454}, "818419376RR0001": {"name": "Akwaaba Education Initiative", "designationCode": "C", "categoryCode": "21", "address": "70 ELSASSER RD", "city": "SEGUIN", "province": "ON", "country": "CA", "postalCode": "P2A2W8", "twitter": "None", "instagram": "None", "facebook": "None", "youtube": "None", "website": "None", "summary": "None", "logo": "None", "latitude": 45.29245440244673, "longitude": -79.83862020494561}, "831854807RR0001": {"name": "Akwacross Canada Charitable Foundation", "designationCode": "C", "categoryCode": "21", "address": "726 CARTOGRAPHE ST", "city": "ORLEANS", "province": "ON", "country": "CA", "postalCode": "K4A0Y8", "twitter": "None", "instagram": "None", "facebook": "None", "youtube": "None", "website": "None", "summary": "None", "logo": "None", "latitude": 45.49812057951987, "longitude": -75.46912604495361}, "837076991RR0001": {"name": "Al Green Sculpture Studio and School", "designationCode": "C", "categoryCode": "22", "address": "1-401 LOGAN AVENUE", "city": "TORONTO", "province": "ON", "country": "CA", "postalCode": "M4M2P2", "twitter": "None", "instagram": "None", "facebook": "None", "youtube": "None", "website": "None", "summary": "None", "logo": "None", "latitude": 43.66420681822369, "longitude": -79.34395846829062}, "843540840RR0001": {"name": "Al Purdy A-Frame Association", "designationCode": "C", "categoryCode": "22", "address": "5 CENTRE ST", "city": "PICTON", "province": "ON", "country": "CA", "postalCode": "K0K2T0", "twitter": "None", "instagram": "None", "facebook": "None", "youtube": "None", "website": "None", "summary": "None", "logo": "None", "latitude": 44.00955322840336, "longitude": -77.14235288149914}, "810965368RR0001": {"name": "Al Rayan Islamic Centre", "designationCode": "C", "categoryCode": "60", "address": "1 - 785 TAUNTON RD E", "city": "OSHAWA", "province": "ON", "country": "CA", "postalCode": "L1H7K5", "twitter": "None", "instagram": "None", "facebook": "None", "youtube": "None", "website": "None", "summary": "None", "logo": "None", "latitude": 43.93918683037137, "longitude": -78.85083488063377}, "807611298RR0001": {"name": "Al-Furqaan Foundation Canada", "designationCode": "C", "categoryCode": "39", "address": "546 - 420 MAIN ST E", "city": "MILTON", "province": "ON", "country": "CA", "postalCode": "L9T5G3", "twitter": "None", "instagram": "None", "facebook": "None", "youtube": "None", "website": "None", "summary": "None", "logo": "None", "latitude": 43.51784021896831, "longitude": -79.87805026377768}, "818963266RR0001": {"name": "Al-Mustafa Academy and Humanitarian Society", "designationCode": "C", "categoryCode": "20", "address": "202 - 9811 34 AVE NW", "city": "EDMONTON", "province": "AB", "country": "CA", "postalCode": "T6E5X9", "twitter": "None", "instagram": "None", "facebook": "None", "youtube": "None", "website": "None", "summary": "None", "logo": "None", "latitude": 53.46755285752393, "longitude": -113.48235570560189}, "823555677RR0001": {"name": "Al-Mustafa Academy Society", "designationCode": "C", "categoryCode": "60", "address": "235 - 11590 CAMBIE ROAD", "city": "RICHMOND", "province": "BC", "country": "CA", "postalCode": "V6X3Z5", "twitter": "None", "instagram": "None", "facebook": "None", "youtube": "None", "website": "None", "summary": "None", "logo": "None", "latitude": 49.184479200963075, "longitude": -123.09378269676493}, "879145910RR0001": {"name": "Al-Zahra Islamic Centre", "designationCode": "C", "categoryCode": "60", "address": "5100 MAINGATE DRIVE           UNIT 4", "city": "MISSISSAUGA", "province": "ON", "country": "CA", "postalCode": "L4W1X6", "twitter": "None", "instagram": "None", "facebook": "None", "youtube": "None", "website": "None", "summary": "None", "logo": "None", "latitude": 43.63087458529093, "longitude": -79.62822106766062}, "119288918RR1475": {"name": "Alabanza Congregation of Jehovah's Witnesses, Calgary, Alberta", "designationCode": "C", "categoryCode": "61", "address": "1705 RANCHLANDS WAY N.W.", "city": "CALGARY", "province": "AB", "country": "CA", "postalCode": "T3G3S6", "twitter": "None", "instagram": "None", "facebook": "None", "youtube": "None", "website": "None", "summary": "None", "logo": "None", "latitude": 51.12202551154118, "longitude": -114.19801458243406}, "801809377RR0001": {"name": "Alacanastu Family Foundation", "designationCode": "B", "categoryCode": "09", "address": "700-355 BURRARD STREET", "city": "VANCOUVER", "province": "BC", "country": "CA", "postalCode": "V6C2G8", "twitter": "None", "instagram": "None", "facebook": "None", "youtube": "None", "website": "None", "summary": "None", "logo": "None", "latitude": 49.287312051358924, "longitude": -123.11674798600596}, "118780048RR0001": {"name": "Alameda Pastoral Charge", "designationCode": "C", "categoryCode": "44", "address": "BOX 231", "city": "ALAMEDA", "province": "SK", "country": "CA", "postalCode": "S0C0A0", "twitter": "None", "instagram": "None", "facebook": "None", "youtube": "None", "website": "None", "summary": "None", "logo": "None", "latitude": 49.266710000000046, "longitude": -102.28233999999998}, "829768431RR0001": {"name": "Alan and Doreen Thompson Charitable Foundation Inc.", "designationCode": "B", "categoryCode": "03", "address": "650 WEST GEORGIA ST           SUITE 510", "city": "VANCOUVER", "province": "BC", "country": "CA", "postalCode": "V6B4N7", "twitter": "None", "instagram": "None", "facebook": "None", "youtube": "None", "website": "None", "summary": "None", "logo": "None", "latitude": 49.282095217179936, "longitude": -123.11767129779695}, "834230161RR0001": {"name": "Alan and Gwendoline Pyatt Foundation", "designationCode": "A", "categoryCode": "03", "address": "6012 NEWTON WYND", "city": "VANCOUVER", "province": "BC", "country": "CA", "postalCode": "V6T1H9", "twitter": "None", "instagram": "None", "facebook": "None", "youtube": "None", "website": "None", "summary": "None", "logo": "None", "latitude": 49.27315940865283, "longitude": -123.25214938803163}, "818536286RR0001": {"name": "Alan and Patricia Koval Foundation", "designationCode": "B", "categoryCode": "03", "address": "358 CONLEY STREET", "city": "THORNHILL", "province": "ON", "country": "CA", "postalCode": "L4J6S4", "twitter": "None", "instagram": "None", "facebook": "None", "youtube": "None", "website": "None", "summary": "None", "logo": "None", "latitude": 43.79310268056424, "longitude": -79.45322162574288}, "107353153RR0001": {"name": "Alano Club of Regina Incorporated", "designationCode": "C", "categoryCode": "11", "address": "1165 PASQUA STREET", "city": "REGINA", "province": "SK", "country": "CA", "postalCode": "S4T4L1", "twitter": "None", "instagram": "None", "facebook": "None", "youtube": "None", "website": "None", "summary": "None", "logo": "None", "latitude": 50.46048807799065, "longitude": -104.64093890865048}, "821217981RR0001": {"name": "Alanwar Center", "designationCode": "C", "categoryCode": "20", "address": "114 - 1644 BANK STREET", "city": "OTTAWA", "province": "ON", "country": "CA", "postalCode": "K1V7Y6", "twitter": "None", "instagram": "None", "facebook": "None", "youtube": "None", "website": "None", "summary": "None", "logo": "None", "latitude": 45.376713432108254, "longitude": -75.66662474242513}, "849592894RR0001": {"name": "Albania Canaan Christian Mission", "designationCode": "C", "categoryCode": "39", "address": "190 LYNDHURST DR", "city": "THORNHILL", "province": "ON", "country": "CA", "postalCode": "L3T6T4", "twitter": "None", "instagram": "None", "facebook": "None", "youtube": "None", "website": "None", "summary": "None", "logo": "None", "latitude": 43.826778796554926, "longitude": -79.36908338608677}, "855773453RR0001": {"name": "Albatros est-de-L'\u00cele-de-Montr\u00e9al", "designationCode": "C", "categoryCode": "11", "address": "6444, RUE LESCARBOT", "city": "MONTR\u00c9AL", "province": "QC", "country": "CA", "postalCode": "H1M1M7", "twitter": "None", "instagram": "None", "facebook": "None", "youtube": "None", "website": "None", "summary": "None", "logo": "None", "latitude": 45.58285512960937, "longitude": -73.54985185884945}, "809903339RR0001": {"name": "Albatros Centre-Mauricie", "designationCode": "C", "categoryCode": "09", "address": "1882, AVENUE GEORGES", "city": "SHAWINIGAN", "province": "QC", "country": "CA", "postalCode": "G9N2N3", "twitter": "None", "instagram": "None", "facebook": "None", "youtube": "None", "website": "None", "summary": "None", "logo": "None", "latitude": 46.55405402423846, "longitude": -72.74477341266872}}