{"130947682RR0001": {"name": "LA FABRIQUE DE LA PAROISSE DE SAINT FELICIEN", "designationCode": "C", "categoryCode": "38", "address": "CP 5116                       1233, BOUL. SACRE-COEUR", "city": "ST-FELICIEN", "province": "QC", "country": "CA", "postalCode": "G8K2R1", "twitter": "None", "instagram": "None", "facebook": "None", "youtube": "None", "website": "None", "summary": "None", "logo": "None", "latitude": 48.65365798274601, "longitude": -72.44745283037044}, "891795189RR0001": {"name": "LA FABRIQUE DE LA PAROISSE DE SAINT GERMAIN, ARCHIDIOCESE DE MONTREAL", "designationCode": "C", "categoryCode": "38", "address": "28 AVENUE VINCENT D'INDY", "city": "OUTREMONT", "province": "QC", "country": "CA", "postalCode": "H2V2S9", "twitter": "None", "instagram": "None", "facebook": "None", "youtube": "None", "website": "None", "summary": "None", "logo": "None", "latitude": 45.51133806829578, "longitude": -73.6145590614578}, "889268447RR0001": {"name": "LA FABRIQUE DE LA PAROISSE DE SAINT HIPPOLYTE ARCHIDIOCESE DE MONTREAL", "designationCode": "C", "categoryCode": "38", "address": "1055 RUE TASSE", "city": "SAINT-LAURENT", "province": "QC", "country": "CA", "postalCode": "H4L1P6", "twitter": "None", "instagram": "None", "facebook": "None", "youtube": "None", "website": "None", "summary": "None", "logo": "None", "latitude": 45.521494049425655, "longitude": -73.6828915935712}, "130141484RR0001": {"name": "LA FABRIQUE DE LA PAROISSE DE SAINT JACQUES ARCHIDIOCESE DE MONTREAL", "designationCode": "C", "categoryCode": "38", "address": "1280 RUE BERRI", "city": "MONTREAL", "province": "QC", "country": "CA", "postalCode": "H2L4S6", "twitter": "None", "instagram": "None", "facebook": "None", "youtube": "None", "website": "None", "summary": "None", "logo": "None", "latitude": 45.51409393834066, "longitude": -73.55850443190576}, "132427568RR0001": {"name": "LA FABRIQUE DE LA PAROISSE DE SAINT JEAN BAPTISTE, ARCHIDIOCESE DE MONTREAL", "designationCode": "C", "categoryCode": "38", "address": "4237 AVE HENRI-JULIEN", "city": "MONTREAL", "province": "QC", "country": "CA", "postalCode": "H2W2K7", "twitter": "None", "instagram": "None", "facebook": "None", "youtube": "None", "website": "None", "summary": "None", "logo": "None", "latitude": 45.52117818096827, "longitude": -73.57997853551853}, "130681125RR0001": {"name": "LA FABRIQUE DE LA PAROISSE DE SAINT JEAN BERCHMANS ARCHIDIOCESE DE MONTREAL", "designationCode": "C", "categoryCode": "38", "address": "1871 BOULEVARD ROSEMONT", "city": "MONTREAL", "province": "QC", "country": "CA", "postalCode": "H2G1S7", "twitter": "None", "instagram": "None", "facebook": "None", "youtube": "None", "website": "None", "summary": "None", "logo": "None", "latitude": 45.541483542068086, "longitude": -73.59066740360058}, "129603049RR0001": {"name": "LA FABRIQUE DE LA PAROISSE DE SAINT JOACHIM, ARCHIDIOCESE DE MONTREAL", "designationCode": "C", "categoryCode": "38", "address": "2 RUE STE-ANNE", "city": "POINTE-CLAIRE", "province": "QC", "country": "CA", "postalCode": "H9S4P5", "twitter": "None", "instagram": "None", "facebook": "None", "youtube": "None", "website": "None", "summary": "None", "logo": "None", "latitude": 45.42700969441403, "longitude": -73.82493734142162}, "132170747RR0001": {"name": "LA FABRIQUE DE LA PAROISSE DE SAINT JOSEPH", "designationCode": "C", "categoryCode": "38", "address": "297 RUE PRINCIPALE EST", "city": "SAINT-JOSEPH DE KAMOURASKA", "province": "QC", "country": "CA", "postalCode": "G0L3P0", "twitter": "None", "instagram": "None", "facebook": "None", "youtube": "None", "website": "None", "summary": "None", "logo": "None", "latitude": 47.61098352703579, "longitude": -69.64083135870521}, "130365521RR0001": {"name": "LA FABRIQUE DE LA PAROISSE DE SAINT LEON, ARCHIDIOCESE DE MONTREAL", "designationCode": "C", "categoryCode": "38", "address": "4311 DE MAISONNEUVE OUEST", "city": "WESTMOUNT", "province": "QC", "country": "CA", "postalCode": "H3Z1L1", "twitter": "None", "instagram": "None", "facebook": "None", "youtube": "None", "website": "None", "summary": "None", "logo": "None", "latitude": 45.48508060479529, "longitude": -73.59161362493481}, "132090895RR0001": {"name": "LA FABRIQUE DE LA PAROISSE DE SAINT MARCEL", "designationCode": "C", "categoryCode": "38", "address": "126 RUE DE L'EGLISE NORD", "city": "ST MARCEL DE RICHELIEU", "province": "QC", "country": "CA", "postalCode": "J0H1T0", "twitter": "None", "instagram": "None", "facebook": "None", "youtube": "None", "website": "None", "summary": "None", "logo": "None", "latitude": 45.86022986955393, "longitude": -72.89705809423505}, "137675187RR0001": {"name": "LA FABRIQUE DE LA PAROISSE DE SAINT MICHEL ARCHANGE", "designationCode": "C", "categoryCode": "38", "address": "840, NOTRE-DAME", "city": "ST-R\u00c9MI", "province": "QC", "country": "CA", "postalCode": "J0L2L0", "twitter": "None", "instagram": "None", "facebook": "None", "youtube": "None", "website": "None", "summary": "None", "logo": "None", "latitude": 45.25927608853303, "longitude": -73.61909261973126}, "133137679RR0001": {"name": "LA FABRIQUE DE LA PAROISSE DE SAINT NOEL CHABANEL ARCHIDIOCESE DE MONTREAL", "designationCode": "C", "categoryCode": "38", "address": "8560 RUE DE L'EGLISE", "city": "ST-FRANCOIS", "province": "QC", "country": "CA", "postalCode": "H7A1K9", "twitter": "None", "instagram": "None", "facebook": "None", "youtube": "None", "website": "None", "summary": "None", "logo": "None", "latitude": 45.66969496696296, "longitude": -73.57482769135561}, "130498280RR0001": {"name": "LA FABRIQUE DE LA PAROISSE DE SAINT OMER", "designationCode": "C", "categoryCode": "38", "address": "245, DES PELLETIER", "city": "ST-OMER-DE-L'ISLET", "province": "QC", "country": "CA", "postalCode": "G0R4R0", "twitter": "None", "instagram": "None", "facebook": "None", "youtube": "None", "website": "None", "summary": "None", "logo": "None", "latitude": 47.05901509704272, "longitude": -69.72822082676234}, "888225596RR0001": {"name": "LA FABRIQUE DE LA PAROISSE DE SAINT PASCAL", "designationCode": "C", "categoryCode": "38", "address": "509, RUE TACHE", "city": "SAINT-PASCAL", "province": "QC", "country": "CA", "postalCode": "G0L3Y0", "twitter": "None", "instagram": "None", "facebook": "None", "youtube": "None", "website": "None", "summary": "None", "logo": "None", "latitude": 47.5272390152921, "longitude": -69.80664709293697}, "840500458RR0001": {"name": "LA FABRIQUE DE LA PAROISSE DE SAINT RAYMOND/THE FABRIQUE OF THE PARISH OF SAINT RAYMOND", "designationCode": "C", "categoryCode": "38", "address": "3, PLACE HALIFAX", "city": "CANDIAC", "province": "QC", "country": "CA", "postalCode": "J5R3N7", "twitter": "None", "instagram": "None", "facebook": "None", "youtube": "None", "website": "None", "summary": "None", "logo": "None", "latitude": 45.38941908133752, "longitude": -73.51895595822039}, "130921075RR0001": {"name": "LA FABRIQUE DE LA PAROISSE DE SAINT RENE GOUPIL ARCHIDIOCESE DE MONTREAL", "designationCode": "C", "categoryCode": "38", "address": "4251 RUE DU PARC RENE GOUPIL", "city": "MONTREAL", "province": "QC", "country": "CA", "postalCode": "H1Z1X8", "twitter": "None", "instagram": "None", "facebook": "None", "youtube": "None", "website": "None", "summary": "None", "logo": "None", "latitude": 45.57828275105308, "longitude": -73.61150880630711}, "130167174RR0001": {"name": "LA FABRIQUE DE LA PAROISSE DE SAINT SIXTE ARCHIDIOCESE DE MONTREAL", "designationCode": "C", "categoryCode": "38", "address": "1895 RUE DE L'EGLISE", "city": "SAINT-LAURENT", "province": "QC", "country": "CA", "postalCode": "H4M1E6", "twitter": "None", "instagram": "None", "facebook": "None", "youtube": "None", "website": "None", "summary": "None", "logo": "None", "latitude": 45.50703853150783, "longitude": -73.68426074813887}, "889250841RR0001": {"name": "LA FABRIQUE DE LA PAROISSE DE SAINT SULPICE ARCHIDIOCESE DE MONTREAL", "designationCode": "C", "categoryCode": "38", "address": "1095 NOTRE-DAME", "city": "ST-SULPICE CO L'ASSOMPTION", "province": "QC", "country": "CA", "postalCode": "J5W3W2", "twitter": "None", "instagram": "None", "facebook": "None", "youtube": "None", "website": "None", "summary": "None", "logo": "None", "latitude": 45.826386659501075, "longitude": -73.35591301266636}, "132153602RR0001": {"name": "LA FABRIQUE DE LA PAROISSE DE SAINT THEOPHILE ARCHIDIOCESE DE MONTREAL", "designationCode": "C", "categoryCode": "38", "address": "6000 31E AVENUE", "city": "LAVAL", "province": "QC", "country": "CA", "postalCode": "H7R3N1", "twitter": "None", "instagram": "None", "facebook": "None", "youtube": "None", "website": "None", "summary": "None", "logo": "None", "latitude": 45.54582523339504, "longitude": -73.86933603834582}, "132989005RR0001": {"name": "LA FABRIQUE DE LA PAROISSE DE SAINT YVES, ARCHIDIOCESE DE MONTREAL", "designationCode": "C", "categoryCode": "38", "address": "2975 SAGUENAY", "city": "DUVERNAY LAVAL", "province": "QC", "country": "CA", "postalCode": "H7E1H6", "twitter": "None", "instagram": "None", "facebook": "None", "youtube": "None", "website": "None", "summary": "None", "logo": "None", "latitude": 45.59840294783302, "longitude": -73.67608506523737}, "107365009RR0001": {"name": "LA FABRIQUE DE LA PAROISSE DE SAINT-ADALBERT", "designationCode": "C", "categoryCode": "38", "address": "57 RUE PRINCIPALE", "city": "SAINT-ADALBERT", "province": "QC", "country": "CA", "postalCode": "G0R2M0", "twitter": "None", "instagram": "None", "facebook": "None", "youtube": "None", "website": "None", "summary": "None", "logo": "None", "latitude": 46.86414396090344, "longitude": -69.89771887099621}, "889913448RR0001": {"name": "LA FABRIQUE DE LA PAROISSE DE SAINT-ADELPHE", "designationCode": "C", "categoryCode": "38", "address": "575 RUE PRINCIPALE", "city": "SAINT-ADELPHE-DE-CHAMPLAIN", "province": "QC", "country": "CA", "postalCode": "G0X2G0", "twitter": "None", "instagram": "None", "facebook": "None", "youtube": "None", "website": "None", "summary": "None", "logo": "None", "latitude": 46.73199984736277, "longitude": -72.43231204601724}, "107360026RR0001": {"name": "LA FABRIQUE DE LA PAROISSE DE SAINT-AIME", "designationCode": "C", "categoryCode": "38", "address": "846 DE L'EGLISE", "city": "MASSUEVILLE", "province": "QC", "country": "CA", "postalCode": "J0G1K0", "twitter": "None", "instagram": "None", "facebook": "None", "youtube": "None", "website": "None", "summary": "None", "logo": "None", "latitude": 45.910501952536244, "longitude": -72.93093086822626}, "132004433RR0001": {"name": "LA FABRIQUE DE LA PAROISSE DE SAINT-ALEXIS-DE-MATAPEDIA", "designationCode": "C", "categoryCode": "38", "address": "CP 40", "city": "ST-ALEXIS DE MATAPEDIA", "province": "QC", "country": "CA", "postalCode": "G0J2E0", "twitter": "None", "instagram": "None", "facebook": "None", "youtube": "None", "website": "None", "summary": "None", "logo": "None", "latitude": 47.96906997778306, "longitude": -67.05194995556595}, "118994466RR0001": {"name": "LA FABRIQUE DE LA PAROISSE DE SAINT-ALEXIS-DES-MONTS", "designationCode": "C", "categoryCode": "38", "address": "30 ST-PIERRE", "city": "SAINT-ALEXIS-DES-MONTS", "province": "QC", "country": "CA", "postalCode": "J0K1V0", "twitter": "None", "instagram": "None", "facebook": "None", "youtube": "None", "website": "None", "summary": "None", "logo": "None", "latitude": 46.462684670032644, "longitude": -73.14551234404735}, "107358558RR0001": {"name": "LA FABRIQUE DE LA PAROISSE DE SAINT-AMABLE", "designationCode": "C", "categoryCode": "38", "address": "970 RUE PRINCIPALE", "city": "ST AMABLE", "province": "QC", "country": "CA", "postalCode": "J0L1N0", "twitter": "None", "instagram": "None", "facebook": "None", "youtube": "None", "website": "None", "summary": "None", "logo": "None", "latitude": 45.652222448208406, "longitude": -73.29576894373633}, "107365181RR0001": {"name": "LA FABRIQUE DE LA PAROISSE DE SAINT-AMBROISE DE LA JEUNE LORETTE", "designationCode": "C", "categoryCode": "38", "address": "277 RACINE", "city": "LORETTEVILLE", "province": "QC", "country": "CA", "postalCode": "G2B1E7", "twitter": "None", "instagram": "None", "facebook": "None", "youtube": "None", "website": "None", "summary": "None", "logo": "None", "latitude": 46.85174395859577, "longitude": -71.3595053143868}, "887530392RR0001": {"name": "LA FABRIQUE DE LA PAROISSE DE SAINT-ANDR\u00c9", "designationCode": "C", "categoryCode": "38", "address": "89 A PRINCIPALE N", "city": "SUTTON CTE BROME", "province": "QC", "country": "CA", "postalCode": "J0E2K0", "twitter": "None", "instagram": "None", "facebook": "None", "youtube": "None", "website": "None", "summary": "None", "logo": "None", "latitude": 45.11430846572222, "longitude": -72.62157185711776}, "889858643RR0001": {"name": "LA FABRIQUE DE LA PAROISSE DE SAINT-ANDR\u00c9", "designationCode": "C", "categoryCode": "38", "address": "2 RUE DU CAP", "city": "SAINT-ANDR\u00c9-DE-KAMOURASKA", "province": "QC", "country": "CA", "postalCode": "G0L2H0", "twitter": "None", "instagram": "None", "facebook": "None", "youtube": "None", "website": "None", "summary": "None", "logo": "None", "latitude": 47.673661401363404, "longitude": -69.72957696527932}, "130636319RR0001": {"name": "LA FABRIQUE DE LA PAROISSE DE SAINT-ANDR\u00c9-DE-LA-SARRE", "designationCode": "C", "categoryCode": "38", "address": "230 RUE PRINCIPALE", "city": "LA SARRE", "province": "QC", "country": "CA", "postalCode": "J9Z1Y6", "twitter": "None", "instagram": "None", "facebook": "None", "youtube": "None", "website": "None", "summary": "None", "logo": "None", "latitude": 48.80627122009349, "longitude": -79.20534516036645}, "118994565RR0001": {"name": "LA FABRIQUE DE LA PAROISSE DE SAINT-ANDRE", "designationCode": "C", "categoryCode": "38", "address": "1795 114E AV", "city": "SHAWINIGAN", "province": "QC", "country": "CA", "postalCode": "G9P2C5", "twitter": "None", "instagram": "None", "facebook": "None", "youtube": "None", "website": "None", "summary": "None", "logo": "None", "latitude": 46.51776545537887, "longitude": -72.75357645584998}, "107358947RR0001": {"name": "LA FABRIQUE DE LA PAROISSE DE SAINT-ANDRE-APOTRE", "designationCode": "C", "categoryCode": "38", "address": "1 ROUTE DES SEIGNEURS", "city": "ST ANDRE D'ARGENTEUIL", "province": "QC", "country": "CA", "postalCode": "J0V1X0", "twitter": "None", "instagram": "None", "facebook": "None", "youtube": "None", "website": "None", "summary": "None", "logo": "None", "latitude": 45.56306165777031, "longitude": -74.33522942319185}, "129779120RR0001": {"name": "LA FABRIQUE DE LA PAROISSE DE SAINT-ANTOINE-DE-PADOUE", "designationCode": "C", "categoryCode": "38", "address": "193 BEAULIEU                  C.P. 57", "city": "PADOUE", "province": "QC", "country": "CA", "postalCode": "G0J1X0", "twitter": "None", "instagram": "None", "facebook": "None", "youtube": "None", "website": "None", "summary": "None", "logo": "None", "latitude": 48.57918910413146, "longitude": -67.98795765462498}, "130008774RR0001": {"name": "LA FABRIQUE DE LA PAROISSE DE SAINT-ANTOINE-DE-TILLY", "designationCode": "C", "categoryCode": "38", "address": "3880 CH. DE TILLY", "city": "SAINT-ANTOINE-DE-TILLY", "province": "QC", "country": "CA", "postalCode": "G0S2C0", "twitter": "None", "instagram": "None", "facebook": "None", "youtube": "None", "website": "None", "summary": "None", "logo": "None", "latitude": 46.66429237001526, "longitude": -71.5736781264067}, "107360083RR0001": {"name": "LA FABRIQUE DE LA PAROISSE DE SAINT-ANTONIN", "designationCode": "C", "categoryCode": "38", "address": "290 RUE PRINCIPALE            C.P. 249", "city": "ST ANTONIN", "province": "QC", "country": "CA", "postalCode": "G0L2J0", "twitter": "None", "instagram": "None", "facebook": "None", "youtube": "None", "website": "None", "summary": "None", "logo": "None", "latitude": 47.76136911379765, "longitude": -69.47916679698763}, "107362980RR0001": {"name": "LA FABRIQUE DE LA PAROISSE DE SAINT-ANTONIN ARCHIDIOCESE DE MONTREAL", "designationCode": "C", "categoryCode": "38", "address": "5391 RUE SNOWDON", "city": "MONTREAL", "province": "QC", "country": "CA", "postalCode": "H3X1Y5", "twitter": "None", "instagram": "None", "facebook": "None", "youtube": "None", "website": "None", "summary": "None", "logo": "None", "latitude": 45.481433636418686, "longitude": -73.62795521316859}, "886889997RR0001": {"name": "LA FABRIQUE DE LA PAROISSE DE SAINT-ARSENE", "designationCode": "C", "categoryCode": "38", "address": "102, RUE PRINCIPALE", "city": "ST-ARSENE", "province": "QC", "country": "CA", "postalCode": "G0L2K0", "twitter": "None", "instagram": "None", "facebook": "None", "youtube": "None", "website": "None", "summary": "None", "logo": "None", "latitude": 47.91454991199736, "longitude": -69.43406320618637}, "118992262RR0001": {"name": "LA FABRIQUE DE LA PAROISSE DE SAINT-ARSENE ARCHIDIOCESE DE MONTREAL", "designationCode": "C", "categoryCode": "38", "address": "1015 RUE BELANGER", "city": "MONTREAL", "province": "QC", "country": "CA", "postalCode": "H2S1H1", "twitter": "None", "instagram": "None", "facebook": "None", "youtube": "None", "website": "None", "summary": "None", "logo": "None", "latitude": 45.54061201944704, "longitude": -73.60878402155318}, "118992197RR0001": {"name": "LA FABRIQUE DE LA PAROISSE DE SAINT-ATHANASE", "designationCode": "C", "categoryCode": "38", "address": "6128 CH. DE L'EGLISE", "city": "SAINT-ATHANASE", "province": "QC", "country": "CA", "postalCode": "G0L2L0", "twitter": "None", "instagram": "None", "facebook": "None", "youtube": "None", "website": "None", "summary": "None", "logo": "None", "latitude": 47.4412051784581, "longitude": -69.41167453621104}, "107365405RR0001": {"name": "LA FABRIQUE DE LA PAROISSE DE SAINT-AUBERT", "designationCode": "C", "categoryCode": "38", "address": "28 ROUTE DE L'EGLISE", "city": "ST-AUBERT", "province": "QC", "country": "CA", "postalCode": "G0R2R0", "twitter": "None", "instagram": "None", "facebook": "None", "youtube": "None", "website": "None", "summary": "None", "logo": "None", "latitude": 47.18055954258768, "longitude": -70.21981006122665}, "107365447RR0001": {"name": "LA FABRIQUE DE LA PAROISSE DE SAINT-BARNABE", "designationCode": "C", "categoryCode": "38", "address": "C.P.129", "city": "SAINT-BARNAB\u00c9", "province": "QC", "country": "CA", "postalCode": "G0X2K0", "twitter": "None", "instagram": "None", "facebook": "None", "youtube": "None", "website": "None", "summary": "None", "logo": "None", "latitude": 46.39385400000006, "longitude": -72.88007749999993}, "107362295RR0001": {"name": "LA FABRIQUE DE LA PAROISSE DE SAINT-BARTHELEMY", "designationCode": "C", "categoryCode": "38", "address": "601 YORK", "city": "ST-BARTHELEMY", "province": "QC", "country": "CA", "postalCode": "J0K1X0", "twitter": "None", "instagram": "None", "facebook": "None", "youtube": "None", "website": "None", "summary": "None", "logo": "None", "latitude": 46.19139779072276, "longitude": -73.12012435962538}, "107365462RR0001": {"name": "LA FABRIQUE DE LA PAROISSE DE SAINT-BARTHELEMY", "designationCode": "C", "categoryCode": "38", "address": "895 RUE CLOUGH                CP 6", "city": "AYER'S CLIFF", "province": "QC", "country": "CA", "postalCode": "J0B1C0", "twitter": "None", "instagram": "None", "facebook": "None", "youtube": "None", "website": "None", "summary": "None", "logo": "None", "latitude": 45.16894131447276, "longitude": -72.04466742991521}, "118994714RR0001": {"name": "LA FABRIQUE DE LA PAROISSE DE SAINT-BASILE-LE-GRAND", "designationCode": "C", "categoryCode": "38", "address": "205, RUE PRINCIPALE", "city": "ST-BASILE-LE-GRAND", "province": "QC", "country": "CA", "postalCode": "J3N1L6", "twitter": "None", "instagram": "None", "facebook": "None", "youtube": "None", "website": "None", "summary": "None", "logo": "None", "latitude": 45.526017991949914, "longitude": -73.28811275728548}, "130166242RR0001": {"name": "LA FABRIQUE DE LA PAROISSE DE SAINT-BENOIT-ABBE", "designationCode": "C", "categoryCode": "38", "address": "34 RUE PRINCIPALE", "city": "PACKINGTON", "province": "QC", "country": "CA", "postalCode": "G0L1Z0", "twitter": "None", "instagram": "None", "facebook": "None", "youtube": "None", "website": "None", "summary": "None", "logo": "None", "latitude": 47.490306800709874, "longitude": -68.78670486914989}, "132051251RR0001": {"name": "LA FABRIQUE DE LA PAROISSE DE SAINT-BERNARD", "designationCode": "C", "categoryCode": "38", "address": "116 RANG ST-CLAUDE", "city": "ST-BERNARD", "province": "QC", "country": "CA", "postalCode": "J0J1V0", "twitter": "None", "instagram": "None", "facebook": "None", "youtube": "None", "website": "None", "summary": "None", "logo": "None", "latitude": 45.08341213627446, "longitude": -73.41227241540156}, "131909251RR0001": {"name": "LA FABRIQUE DE LA PAROISSE DE SAINT-BERNARD, EVAIN, COMPTE ROUYN-NORANDA, P Q", "designationCode": "C", "categoryCode": "38", "address": "C.P. 10", "city": "ROUYN-NORANDA", "province": "QC", "country": "CA", "postalCode": "J0Z1Y0", "twitter": "None", "instagram": "None", "facebook": "None", "youtube": "None", "website": "None", "summary": "None", "logo": "None", "latitude": 47.88714013390985, "longitude": -79.00508716338149}, "118907393RR0001": {"name": "LA FABRIQUE DE LA PAROISSE DE SAINT-BERNARDIN", "designationCode": "C", "categoryCode": "38", "address": "5005 RUE FOSTER", "city": "WATERLOO", "province": "QC", "country": "CA", "postalCode": "J0E2N0", "twitter": "None", "instagram": "None", "facebook": "None", "youtube": "None", "website": "None", "summary": "None", "logo": "None", "latitude": 45.34454623590519, "longitude": -72.5165053222917}, "107360091RR0001": {"name": "LA FABRIQUE DE LA PAROISSE DE SAINT-BRUNO", "designationCode": "C", "categoryCode": "38", "address": "CP 30 1668 MONTARVILLE", "city": "ST BRUNO DE MONTARVILLE", "province": "QC", "country": "CA", "postalCode": "J3V4P8", "twitter": "None", "instagram": "None", "facebook": "None", "youtube": "None", "website": "None", "summary": "None", "logo": "None", "latitude": 45.52561180437389, "longitude": -73.33939411789528}, "107365611RR0001": {"name": "LA FABRIQUE DE LA PAROISSE DE SAINT-BRUNO", "designationCode": "C", "categoryCode": "38", "address": "302, RUE DE L'EGLISE,CP.69", "city": "ST-BRUNO-DE-KAMOURASKA", "province": "QC", "country": "CA", "postalCode": "G0L2M0", "twitter": "None", "instagram": "None", "facebook": "None", "youtube": "None", "website": "None", "summary": "None", "logo": "None", "latitude": 47.45715353003941, "longitude": -69.75436563130928}, "118994839RR0001": {"name": "LA FABRIQUE DE LA PAROISSE DE SAINT-CAMILLE", "designationCode": "C", "categoryCode": "38", "address": "1 RUE DE LA FABRIQUE", "city": "SAINT-CAMILLE-DE-LELLIS", "province": "QC", "country": "CA", "postalCode": "G0R2S0", "twitter": "None", "instagram": "None", "facebook": "None", "youtube": "None", "website": "None", "summary": "None", "logo": "None", "latitude": 46.49338157729817, "longitude": -70.21234596779968}, "118994870RR0001": {"name": "LA FABRIQUE DE LA PAROISSE DE SAINT-CASIMIR", "designationCode": "C", "categoryCode": "38", "address": "110 DE L'EGLISE", "city": "ST CASIMIR", "province": "QC", "country": "CA", "postalCode": "G0A3L0", "twitter": "None", "instagram": "None", "facebook": "None", "youtube": "None", "website": "None", "summary": "None", "logo": "None", "latitude": 46.65587329507257, "longitude": -72.1395455674095}, "132537135RR0001": {"name": "LA FABRIQUE DE LA PAROISSE DE SAINT-CESAIRE", "designationCode": "C", "categoryCode": "38", "address": "1385, RUE NOTRE-DAME", "city": "SAINT-CESAIRE", "province": "QC", "country": "CA", "postalCode": "J0L1T0", "twitter": "None", "instagram": "None", "facebook": "None", "youtube": "None", "website": "None", "summary": "None", "logo": "None", "latitude": 45.40947199417161, "longitude": -73.00209134756805}, "107365686RR0001": {"name": "LA FABRIQUE DE LA PAROISSE DE SAINT-CHARLES ARCHIDIOCESE DE MONTREAL", "designationCode": "C", "categoryCode": "38", "address": "2111 RUE CENTRE", "city": "MONTREAL", "province": "QC", "country": "CA", "postalCode": "H3K1J5", "twitter": "None", "instagram": "None", "facebook": "None", "youtube": "None", "website": "None", "summary": "None", "logo": "None", "latitude": 45.4812481757168, "longitude": -73.56488729188038}, "132198433RR0001": {"name": "LA FABRIQUE DE LA PAROISSE DE SAINT-CL\u00c9MENT DE BEAUDRY", "designationCode": "C", "categoryCode": "38", "address": "6928 BOUL.TEMISCAMINGUE", "city": "ROUYN-NORANDA", "province": "QC", "country": "CA", "postalCode": "J9Y1N1", "twitter": "None", "instagram": "None", "facebook": "None", "youtube": "None", "website": "None", "summary": "None", "logo": "None", "latitude": 48.10987766472388, "longitude": -79.15095162138545}, "129355970RR0001": {"name": "LA FABRIQUE DE LA PAROISSE DE SAINT-CLAUDE", "designationCode": "C", "categoryCode": "38", "address": "80  MEUNIER", "city": "LAVAL", "province": "QC", "country": "CA", "postalCode": "H7N1V6", "twitter": "None", "instagram": "None", "facebook": "None", "youtube": "None", "website": "None", "summary": "None", "logo": "None", "latitude": 45.56382155508115, "longitude": -73.69391898138969}, "107360117RR0001": {"name": "LA FABRIQUE DE LA PAROISSE DE SAINT-CLEMENT", "designationCode": "C", "categoryCode": "38", "address": "1 RUE ST PIERRE               CP 69", "city": "SAINT-CLEMENT", "province": "QC", "country": "CA", "postalCode": "G0L2N0", "twitter": "None", "instagram": "None", "facebook": "None", "youtube": "None", "website": "None", "summary": "None", "logo": "None", "latitude": 47.92418426839397, "longitude": -69.09608998447676}, "107365850RR0001": {"name": "LA FABRIQUE DE LA PAROISSE DE SAINT-CLEMENT-DE-TOURVILLE", "designationCode": "C", "categoryCode": "38", "address": "936, PRINCIPALE", "city": "TOURVILLE", "province": "QC", "country": "CA", "postalCode": "G0R4M0", "twitter": "None", "instagram": "None", "facebook": "None", "youtube": "None", "website": "None", "summary": "None", "logo": "None", "latitude": 47.094834080212365, "longitude": -69.98472733443941}, "118998947RR0001": {"name": "LA FABRIQUE DE LA PAROISSE DE SAINT-COEUR-DE-MARIE DE CHANDLER", "designationCode": "C", "categoryCode": "38", "address": "193 COMMERCIALE OUEST", "city": "CHANDLER", "province": "QC", "country": "CA", "postalCode": "G0C1K0", "twitter": "None", "instagram": "None", "facebook": "None", "youtube": "None", "website": "None", "summary": "None", "logo": "None", "latitude": 48.34817248600598, "longitude": -64.68582172009349}, "118992536RR0001": {"name": "LA FABRIQUE DE LA PAROISSE DE SAINT-CONSTANT", "designationCode": "C", "categoryCode": "38", "address": "242 RUE SAINT-PIERRE", "city": "SAINT-CONSTANT", "province": "QC", "country": "CA", "postalCode": "J5A2A4", "twitter": "None", "instagram": "None", "facebook": "None", "youtube": "None", "website": "None", "summary": "None", "logo": "None", "latitude": 45.3639875770097, "longitude": -73.56990378455238}, "107360133RR0001": {"name": "LA FABRIQUE DE LA PAROISSE DE SAINT-CYPRIEN", "designationCode": "C", "categoryCode": "38", "address": "185,PRINCIPALE,               C.P.127", "city": "ST-CYPRIEN", "province": "QC", "country": "CA", "postalCode": "G0L2P0", "twitter": "None", "instagram": "None", "facebook": "None", "youtube": "None", "website": "None", "summary": "None", "logo": "None", "latitude": 47.894907911420454, "longitude": -69.01742893317517}, "118995018RR0001": {"name": "LA FABRIQUE DE LA PAROISSE DE SAINT-CYPRIEN", "designationCode": "C", "categoryCode": "38", "address": "409 RUE PRINCIPALE", "city": "ST-CYPRIEN-DES-ETCHEMINS", "province": "QC", "country": "CA", "postalCode": "G0R1B0", "twitter": "None", "instagram": "None", "facebook": "None", "youtube": "None", "website": "None", "summary": "None", "logo": "None", "latitude": 46.35305008237673, "longitude": -70.2635935190726}, "132003740RR0001": {"name": "LA FABRIQUE DE LA PAROISSE DE SAINT-CYRILLE", "designationCode": "C", "categoryCode": "38", "address": "291 PRINCIPALE", "city": "ST-CYRILLE DE L'ISLET", "province": "QC", "country": "CA", "postalCode": "G0R2W0", "twitter": "None", "instagram": "None", "facebook": "None", "youtube": "None", "website": "None", "summary": "None", "logo": "None", "latitude": 47.03502258451152, "longitude": -70.27151377696366}, "118992551RR0001": {"name": "LA FABRIQUE DE LA PAROISSE DE SAINT-DAMASE", "designationCode": "C", "categoryCode": "38", "address": "1 PLACE DE L'EGLISE", "city": "ST-DAMASE DE L'ISLET", "province": "QC", "country": "CA", "postalCode": "G0R2X0", "twitter": "None", "instagram": "None", "facebook": "None", "youtube": "None", "website": "None", "summary": "None", "logo": "None", "latitude": 47.195883199549925, "longitude": -70.1299260599859}, "131634453RR0001": {"name": "LA FABRIQUE DE LA PAROISSE DE SAINT-DAMIEN", "designationCode": "C", "categoryCode": "38", "address": "26 DE L'EGLISE", "city": "BEDFORD", "province": "QC", "country": "CA", "postalCode": "J0J1A0", "twitter": "None", "instagram": "None", "facebook": "None", "youtube": "None", "website": "None", "summary": "None", "logo": "None", "latitude": 45.12206965892416, "longitude": -72.98551425088017}, "118992544RR0001": {"name": "LA FABRIQUE DE LA PAROISSE DE SAINT-DENIS", "designationCode": "C", "categoryCode": "38", "address": "1 RTE DE L'EGLISE", "city": "SAINT-DENIS-DE-LA-BOUTEILLERIE", "province": "QC", "country": "CA", "postalCode": "G0L2R0", "twitter": "None", "instagram": "None", "facebook": "None", "youtube": "None", "website": "None", "summary": "None", "logo": "None", "latitude": 47.503036563507095, "longitude": -69.93838161239586}, "107366015RR0001": {"name": "LA FABRIQUE DE LA PAROISSE DE SAINT-DOMINIQUE", "designationCode": "C", "categoryCode": "38", "address": "2551 ST-DOMINQUE", "city": "JONQUIERE", "province": "QC", "country": "CA", "postalCode": "G7X6J6", "twitter": "None", "instagram": "None", "facebook": "None", "youtube": "None", "website": "None", "summary": "None", "logo": "None", "latitude": 48.408797927385095, "longitude": -71.25755866584996}, "118905892RR0001": {"name": "LA FABRIQUE DE LA PAROISSE DE SAINT-DOMINIQUE", "designationCode": "C", "categoryCode": "38", "address": "1211 RUE PRINCIPALE", "city": "SAINT-DOMINIQUE", "province": "QC", "country": "CA", "postalCode": "J0H1L0", "twitter": "None", "instagram": "None", "facebook": "None", "youtube": "None", "website": "None", "summary": "None", "logo": "None", "latitude": 45.56428475325473, "longitude": -72.85264634553867}, "132031790RR0001": {"name": "LA FABRIQUE DE LA PAROISSE DE SAINT-DOMINIQUE-DE-NEWPORT", "designationCode": "C", "categoryCode": "38", "address": "C.P. 100", "city": "NEWPORT", "province": "QC", "country": "CA", "postalCode": "G0C2A0", "twitter": "None", "instagram": "None", "facebook": "None", "youtube": "None", "website": "None", "summary": "None", "logo": "None", "latitude": 45.419695536252156, "longitude": -73.64419721367624}, "118908268RR0001": {"name": "LA FABRIQUE DE LA PAROISSE DE SAINT-DOMINIQUE-DU-ROSAIRE", "designationCode": "C", "categoryCode": "38", "address": "233-PRINCIPALE", "city": "ST-DOMINIQUE-DU-ROSAIRE", "province": "QC", "country": "CA", "postalCode": "J0Y2K0", "twitter": "None", "instagram": "None", "facebook": "None", "youtube": "None", "website": "None", "summary": "None", "logo": "None", "latitude": 48.76385310935427, "longitude": -78.11415214868103}, "107363160RR0001": {"name": "LA FABRIQUE DE LA PAROISSE DE SAINT-DONAT ARCHIDIOCESE DE MONTREAL", "designationCode": "C", "categoryCode": "38", "address": "6805 RUE DE MARSEILLE", "city": "MONTREAL", "province": "QC", "country": "CA", "postalCode": "H1N1M6", "twitter": "None", "instagram": "None", "facebook": "None", "youtube": "None", "website": "None", "summary": "None", "logo": "None", "latitude": 45.58358348932419, "longitude": -73.5380223181081}, "107358608RR0001": {"name": "LA FABRIQUE DE LA PAROISSE DE SAINT-EDOUARD", "designationCode": "C", "categoryCode": "38", "address": "116 RUE PRINCIPALE", "city": "ST EDOUARD   NAPIERVILLE", "province": "QC", "country": "CA", "postalCode": "J0L1Y0", "twitter": "None", "instagram": "None", "facebook": "None", "youtube": "None", "website": "None", "summary": "None", "logo": "None", "latitude": 45.23965629733465, "longitude": -73.50877335382422}, "107359135RR0001": {"name": "LA FABRIQUE DE LA PAROISSE DE SAINT-EDOUARD ARCHIDIOCESE DE MONTREAL", "designationCode": "C", "categoryCode": "38", "address": "6500 RUE DE SAINT-VALLIER", "city": "MONTREAL", "province": "QC", "country": "CA", "postalCode": "H2S2P7", "twitter": "None", "instagram": "None", "facebook": "None", "youtube": "None", "website": "None", "summary": "None", "logo": "None", "latitude": 45.53504682624509, "longitude": -73.60498231516524}, "118992627RR0001": {"name": "LA FABRIQUE DE LA PAROISSE DE SAINT-ELEUTHERE", "designationCode": "C", "categoryCode": "38", "address": "1904, ST-VALLIER", "city": "POHENEGAMOOK", "province": "QC", "country": "CA", "postalCode": "G0L1J0", "twitter": "None", "instagram": "None", "facebook": "None", "youtube": "None", "website": "None", "summary": "None", "logo": "None", "latitude": 47.4883942564053, "longitude": -69.28052633753919}, "890807449RR0001": {"name": "LA FABRIQUE DE LA PAROISSE DE SAINT-ELOI", "designationCode": "C", "categoryCode": "38", "address": "A-319, PRINCIPALE EST", "city": "ST-\u00c9LOI", "province": "QC", "country": "CA", "postalCode": "G0L2V0", "twitter": "None", "instagram": "None", "facebook": "None", "youtube": "None", "website": "None", "summary": "None", "logo": "None", "latitude": 47.611404619405285, "longitude": -69.63968011725343}, "130296023RR0001": {"name": "LA FABRIQUE DE LA PAROISSE DE SAINT-EPIPHANE", "designationCode": "C", "categoryCode": "38", "address": "232 RUE DE L'EGLISE", "city": "SAINT-EPIPHANE", "province": "QC", "country": "CA", "postalCode": "G0L2X0", "twitter": "None", "instagram": "None", "facebook": "None", "youtube": "None", "website": "None", "summary": "None", "logo": "None", "latitude": 47.89784431724273, "longitude": -69.33107382624509}, "107358640RR0001": {"name": "LA FABRIQUE DE LA PAROISSE DE SAINT-ESPRIT", "designationCode": "C", "categoryCode": "38", "address": "88 RUE ST-ISIDORE", "city": "ST-ESPRIT", "province": "QC", "country": "CA", "postalCode": "J0K2L0", "twitter": "None", "instagram": "None", "facebook": "None", "youtube": "None", "website": "None", "summary": "None", "logo": "None", "latitude": 45.90206873189449, "longitude": -73.66452720985038}, "130349145RR0001": {"name": "LA FABRIQUE DE LA PAROISSE DE SAINT-ESPRIT DES PENTES-COTES", "designationCode": "C", "categoryCode": "38", "address": "230 PRINCIPALE", "city": "EAST BROUGHTON", "province": "QC", "country": "CA", "postalCode": "G0N1G0", "twitter": "None", "instagram": "None", "facebook": "None", "youtube": "None", "website": "None", "summary": "None", "logo": "None", "latitude": 46.216963112384036, "longitude": -71.0736456295807}, "107367328RR0001": {"name": "LA FABRIQUE DE LA PAROISSE DE SAINT-ESPRIT-DE-ROSEMONT", "designationCode": "C", "categoryCode": "38", "address": "2851 RUE MASSON", "city": "MONTREAL", "province": "QC", "country": "CA", "postalCode": "H1Y1X1", "twitter": "None", "instagram": "None", "facebook": "None", "youtube": "None", "website": "None", "summary": "None", "logo": "None", "latitude": 45.54782996808815, "longitude": -73.57507136430246}, "118999143RR0001": {"name": "LA FABRIQUE DE LA PAROISSE DE SAINT-ETIENNE", "designationCode": "C", "categoryCode": "38", "address": "1161 PRINCIPALE", "city": "ST-ETIENNE-DES-GRES", "province": "QC", "country": "CA", "postalCode": "G0X2P0", "twitter": "None", "instagram": "None", "facebook": "None", "youtube": "None", "website": "None", "summary": "None", "logo": "None", "latitude": 46.43916411373926, "longitude": -72.77205828592746}, "132278573RR0001": {"name": "LA FABRIQUE DE LA PAROISSE DE SAINT-ETIENNE-DE NEW-CARLISLE", "designationCode": "C", "categoryCode": "38", "address": "C.P. 69", "city": "NEW CARLISLE", "province": "QC", "country": "CA", "postalCode": "G0C1Z0", "twitter": "None", "instagram": "None", "facebook": "None", "youtube": "None", "website": "None", "summary": "None", "logo": "None", "latitude": 48.00876000000005, "longitude": -65.33776999999998}, "107363590RR0001": {"name": "LA FABRIQUE DE LA PAROISSE DE SAINT-ETIENNE-DE-BEAUMONT", "designationCode": "C", "categoryCode": "38", "address": "60, CHEMIN DU DOMAINE", "city": "BEAUMONT", "province": "QC", "country": "CA", "postalCode": "G0R1C0", "twitter": "None", "instagram": "None", "facebook": "None", "youtube": "None", "website": "None", "summary": "None", "logo": "None", "latitude": 46.83038222733551, "longitude": -71.01156791297832}, "118992643RR0001": {"name": "LA FABRIQUE DE LA PAROISSE DE SAINT-EUGENE", "designationCode": "C", "categoryCode": "38", "address": "15, DES PIONNIERS EST", "city": "L'ISLET", "province": "QC", "country": "CA", "postalCode": "G0R2B0", "twitter": "None", "instagram": "None", "facebook": "None", "youtube": "None", "website": "None", "summary": "None", "logo": "None", "latitude": 47.127429659183946, "longitude": -70.37230402902632}, "131454670RR0001": {"name": "LA FABRIQUE DE LA PAROISSE DE SAINT-EUGENE-D'ARGENTENAY", "designationCode": "C", "categoryCode": "38", "address": "511 RUE PRINCIPALE", "city": "SAINT-EUGENE D'ARGENTENAY", "province": "QC", "country": "CA", "postalCode": "G0W1B0", "twitter": "None", "instagram": "None", "facebook": "None", "youtube": "None", "website": "None", "summary": "None", "logo": "None", "latitude": 48.978830757401056, "longitude": -72.2867527680186}, "131460537RR0001": {"name": "LA FABRIQUE DE LA PAROISSE DE SAINT-EUGENE-DE-LADRIERE", "designationCode": "C", "categoryCode": "38", "address": "15 RUE DU CAMPAGNARD", "city": "ST-EUG\u00c8NE-DE-LADRI\u00c8RE", "province": "QC", "country": "CA", "postalCode": "G0L1P0", "twitter": "None", "instagram": "None", "facebook": "None", "youtube": "None", "website": "None", "summary": "None", "logo": "None", "latitude": 48.251603251745564, "longitude": -68.79561567303375}, "118992882RR0001": {"name": "LA FABRIQUE DE LA PAROISSE DE SAINT-EUSEBE-DE-VERCEIL, ARCHIDIOCESE DE MONTREAL", "designationCode": "C", "categoryCode": "38", "address": "2151 RUE FULLUM", "city": "MONTREAL", "province": "QC", "country": "CA", "postalCode": "H2K3P1", "twitter": "None", "instagram": "None", "facebook": "None", "youtube": "None", "website": "None", "summary": "None", "logo": "None", "latitude": 45.531551218188916, "longitude": -73.55744904936834}, "107367559RR0001": {"name": "LA FABRIQUE DE LA PAROISSE DE SAINT-EUSTACHE", "designationCode": "C", "categoryCode": "38", "address": "123 RUE SAINT LOUIS", "city": "SAINT EUSTACHE", "province": "QC", "country": "CA", "postalCode": "J7R1X9", "twitter": "None", "instagram": "None", "facebook": "None", "youtube": "None", "website": "None", "summary": "None", "logo": "None", "latitude": 45.55732802830518, "longitude": -73.88956037356462}, "135439099RR0001": {"name": "LA FABRIQUE DE LA PAROISSE DE SAINT-EVAGRE DE RIVI\u00c8RE-\u00c0-CLAUDE", "designationCode": "C", "categoryCode": "38", "address": "396 RUE PRINCIPALE EST", "city": "RIVIERE-A-CLAUDE", "province": "QC", "country": "CA", "postalCode": "G0E1Z0", "twitter": "None", "instagram": "None", "facebook": "None", "youtube": "None", "website": "None", "summary": "None", "logo": "None", "latitude": 49.22523075766084, "longitude": -65.90328747726339}, "118990407RR0001": {"name": "LA FABRIQUE DE LA PAROISSE DE SAINT-FABIEN", "designationCode": "C", "categoryCode": "38", "address": "109, 1ERE RUE C.P.68", "city": "ST-FABIEN DE RIMOUSKI", "province": "QC", "country": "CA", "postalCode": "G0L2Z0", "twitter": "None", "instagram": "None", "facebook": "None", "youtube": "None", "website": "None", "summary": "None", "logo": "None", "latitude": 48.29495505020508, "longitude": -68.86753622101712}, "118907013RR0001": {"name": "LA FABRIQUE DE LA PAROISSE DE SAINT-FABIEN-DE-PANET", "designationCode": "C", "categoryCode": "38", "address": "20A RUE PRINCIPALE EST", "city": "SAINT-FABIEN-DE-PANET", "province": "QC", "country": "CA", "postalCode": "G0R2J0", "twitter": "None", "instagram": "None", "facebook": "None", "youtube": "None", "website": "None", "summary": "None", "logo": "None", "latitude": 46.655258795272715, "longitude": -70.14582101016545}, "130122641RR0001": {"name": "LA FABRIQUE DE LA PAROISSE DE SAINT-FABIEN, ARCHIDIOCESE DE MONTREAL", "designationCode": "C", "categoryCode": "38", "address": "6455 AV DE RENTY", "city": "MONTREAL", "province": "QC", "country": "CA", "postalCode": "H1M1M3", "twitter": "None", "instagram": "None", "facebook": "None", "youtube": "None", "website": "None", "summary": "None", "logo": "None", "latitude": 45.58313435887811, "longitude": -73.55074846006671}, "107367591RR0001": {"name": "LA FABRIQUE DE LA PAROISSE DE SAINT-FELIX-DE-DALQUIER", "designationCode": "C", "categoryCode": "38", "address": "1 RUE DE L'\u00c9GLISE E", "city": "SAINT-F\u00c9LIX-DE-DALQUIER", "province": "QC", "country": "CA", "postalCode": "J0Y1G0", "twitter": "None", "instagram": "None", "facebook": "None", "youtube": "None", "website": "None", "summary": "None", "logo": "None", "latitude": 48.67584446162458, "longitude": -78.112944}, "107367625RR0001": {"name": "LA FABRIQUE DE LA PAROISSE DE SAINT-FERDINAND ARCHIDIOCESE DE MONTREAL", "designationCode": "C", "categoryCode": "38", "address": "3250 RUE ESTHER", "city": "LAVAL", "province": "QC", "country": "CA", "postalCode": "H7P4X3", "twitter": "None", "instagram": "None", "facebook": "None", "youtube": "None", "website": "None", "summary": "None", "logo": "None", "latitude": 45.57673670327218, "longitude": -73.80054688802001}, "130120256RR0001": {"name": "LA FABRIQUE DE LA PAROISSE DE SAINT-FEREOL-LES-NEIGES", "designationCode": "C", "categoryCode": "38", "address": "3432 RUE ROYALE", "city": "ST-FERREOL-LES-NEIGES", "province": "QC", "country": "CA", "postalCode": "G0A3R0", "twitter": "None", "instagram": "None", "facebook": "None", "youtube": "None", "website": "None", "summary": "None", "logo": "None", "latitude": 47.117352762681165, "longitude": -70.85920705548519}, "119084531RR0001": {"name": "LA FABRIQUE DE LA PAROISSE DE SAINT-FID\u00c8LE", "designationCode": "C", "categoryCode": "38", "address": "CP 68", "city": "FASSETT", "province": "QC", "country": "CA", "postalCode": "J0V1H0", "twitter": "None", "instagram": "None", "facebook": "None", "youtube": "None", "website": "None", "summary": "None", "logo": "None", "latitude": 45.65442988393505, "longitude": -74.87179487184822}, "118996065RR0001": {"name": "LA FABRIQUE DE LA PAROISSE DE SAINT-FLAVIEN", "designationCode": "C", "categoryCode": "38", "address": "80 RUE PRINCIPALE", "city": "SAINT-FLAVIEN", "province": "QC", "country": "CA", "postalCode": "G0S2M0", "twitter": "None", "instagram": "None", "facebook": "None", "youtube": "None", "website": "None", "summary": "None", "logo": "None", "latitude": 46.51288124727349, "longitude": -71.59492823844401}, "107359838RR0001": {"name": "LA FABRIQUE DE LA PAROISSE DE SAINT-FRANCOIS D'ASSISE", "designationCode": "C", "categoryCode": "38", "address": "151 ROUTE 132", "city": "PABOS MILLS", "province": "QC", "country": "CA", "postalCode": "G0C2J0", "twitter": "None", "instagram": "None", "facebook": "None", "youtube": "None", "website": "None", "summary": "None", "logo": "None", "latitude": 48.31742043608204, "longitude": -64.72676217480965}, "858949076RR0001": {"name": "LA FABRIQUE DE LA PAROISSE DE SAINT-FRANCOIS D'ASSISE", "designationCode": "C", "categoryCode": "38", "address": "1028 CH PRINCIPAL", "city": "SAINT-JOSEPH-DU-LAC", "province": "QC", "country": "CA", "postalCode": "J0N1M0", "twitter": "None", "instagram": "None", "facebook": "None", "youtube": "None", "website": "None", "summary": "None", "logo": "None", "latitude": 45.53252740380305, "longitude": -74.00475751933148}, "130576218RR0001": {"name": "LA FABRIQUE DE LA PAROISSE DE SAINT-FRANCOIS-D'ASSISE", "designationCode": "C", "categoryCode": "38", "address": "50 RUE TREMBLAY", "city": "PETIT SAGUENAY", "province": "QC", "country": "CA", "postalCode": "G0V1N0", "twitter": "None", "instagram": "None", "facebook": "None", "youtube": "None", "website": "None", "summary": "None", "logo": "None", "latitude": 48.21476905571632, "longitude": -70.07356109163797}, "131056962RR0001": {"name": "LA FABRIQUE DE LA PAROISSE DE SAINT-FRANCOIS-DE-SALES", "designationCode": "C", "categoryCode": "38", "address": "7290 RANG DU PARC", "city": "ROUYN-NORANDA", "province": "QC", "country": "CA", "postalCode": "J9Y0C8", "twitter": "None", "instagram": "None", "facebook": "None", "youtube": "None", "website": "None", "summary": "None", "logo": "None", "latitude": 48.45932549047804, "longitude": -78.95204333666109}}