{"108165184RR0001": {"name": "VALLEY CHRISTIAN ACADEMY", "designationCode": "C", "categoryCode": "20", "address": "BOX 279", "city": "OSLER", "province": "SK", "country": "CA", "postalCode": "S0K3A0", "twitter": "None", "instagram": "None", "facebook": "None", "youtube": "None", "website": "None", "summary": "None", "logo": "None", "latitude": 52.37312184017284, "longitude": -106.5326670943257}, "119280519RR0001": {"name": "VALLEY CHRISTIAN EDUCATION RESOURCE LIBRARY", "designationCode": "C", "categoryCode": "49", "address": "20 ACADIA DR", "city": "KENTVILLE", "province": "NS", "country": "CA", "postalCode": "B4N5E1", "twitter": "None", "instagram": "None", "facebook": "None", "youtube": "None", "website": "None", "summary": "None", "logo": "None", "latitude": 45.07365584373025, "longitude": -64.52810057741374}, "895717486RR0001": {"name": "VALLEY CHRISTIAN MINISTERIES", "designationCode": "C", "categoryCode": "39", "address": "42202 SOUTH SUMAS RD", "city": "CHILLIWACK", "province": "BC", "country": "CA", "postalCode": "V2R4W3", "twitter": "None", "instagram": "None", "facebook": "None", "youtube": "None", "website": "None", "summary": "None", "logo": "None", "latitude": 49.11825947013694, "longitude": -122.05631249999999}, "108165192RR0001": {"name": "VALLEY CHRISTIAN SCHOOL SOCIETY", "designationCode": "C", "categoryCode": "20", "address": "8955 CEDAR ST", "city": "MISSION", "province": "BC", "country": "CA", "postalCode": "V4S1A3", "twitter": "None", "instagram": "None", "facebook": "None", "youtube": "None", "website": "None", "summary": "None", "logo": "None", "latitude": 49.1648516751663, "longitude": -122.31607550832229}, "105474183RR0001": {"name": "VALLEY CHRISTIAN SERVICE FOUNDATION INCORPORATED", "designationCode": "B", "categoryCode": "03", "address": "99 SHERWOOD DRIVE", "city": "WOLFVILLE", "province": "NS", "country": "CA", "postalCode": "B4P2K5", "twitter": "None", "instagram": "None", "facebook": "None", "youtube": "None", "website": "None", "summary": "None", "logo": "None", "latitude": 45.085981964769914, "longitude": -64.34491464986446}, "108165234RR0001": {"name": "VALLEY COMMUNITY CHURCH OF GOD", "designationCode": "C", "categoryCode": "39", "address": "14 NORDAL CLOSE", "city": "WETASKIWIN", "province": "AB", "country": "CA", "postalCode": "T9A0P1", "twitter": "None", "instagram": "None", "facebook": "None", "youtube": "None", "website": "None", "summary": "None", "logo": "None", "latitude": 52.983467549541245, "longitude": -113.36429806985365}, "899933386RR0001": {"name": "VALLEY COMMUNITY LEARNING ASSOCIATION", "designationCode": "C", "categoryCode": "21", "address": "106 - 49 CORNWALLIS STREET", "city": "KENTVILLE", "province": "NS", "country": "CA", "postalCode": "B4N2E3", "twitter": "None", "instagram": "None", "facebook": "None", "youtube": "None", "website": "None", "summary": "None", "logo": "None", "latitude": 45.08823437909743, "longitude": -64.49703120214659}, "860028521RR0001": {"name": "VALLEY CONGREGATIONAL CHRISTIAN CHURCH IN CANADA", "designationCode": "C", "categoryCode": "39", "address": "PO BOX 1235", "city": "OLIVER", "province": "BC", "country": "CA", "postalCode": "V0H1T0", "twitter": "None", "instagram": "None", "facebook": "None", "youtube": "None", "website": "None", "summary": "None", "logo": "None", "latitude": 49.182600000000036, "longitude": -119.55045999999999}, "119280550RR0001": {"name": "VALLEY CORNERSTONE ASSEMBLY", "designationCode": "C", "categoryCode": "39", "address": "PO BOX 221", "city": "CANNING", "province": "NS", "country": "CA", "postalCode": "B0P1H0", "twitter": "None", "instagram": "None", "facebook": "None", "youtube": "None", "website": "None", "summary": "None", "logo": "None", "latitude": 45.15015000000005, "longitude": -64.41545999999994}, "863113015RR0001": {"name": "VALLEY COUNTRY SCHOOL CORP.", "designationCode": "C", "categoryCode": "20", "address": "BOX 507", "city": "HAGUE", "province": "SK", "country": "CA", "postalCode": "S0K1X0", "twitter": "None", "instagram": "None", "facebook": "None", "youtube": "None", "website": "None", "summary": "None", "logo": "None", "latitude": 52.50953000000004, "longitude": -106.41138999999998}, "119442838RR0001": {"name": "VALLEY EAST CHURCH OF CHRIST", "designationCode": "C", "categoryCode": "39", "address": "2314 FLAKE STREET             UNIT 2", "city": "VALCARON", "province": "ON", "country": "CA", "postalCode": "P3N1A4", "twitter": "None", "instagram": "None", "facebook": "None", "youtube": "None", "website": "None", "summary": "None", "logo": "None", "latitude": 46.61476145325739, "longitude": -81.03554027699232}, "108165317RR0001": {"name": "VALLEY EVANGELICAL COVENANT CHURCH INC.", "designationCode": "C", "categoryCode": "39", "address": "BOX 32", "city": "DURBAN", "province": "MB", "country": "CA", "postalCode": "R0L0P0", "twitter": "None", "instagram": "None", "facebook": "None", "youtube": "None", "website": "None", "summary": "None", "logo": "None"}, "899200539RR0001": {"name": "VALLEY FAMILY RESOURCE CENTRE INC", "designationCode": "C", "categoryCode": "09", "address": "1-110 RICHMOND ST", "city": "WOODSTOCK", "province": "NB", "country": "CA", "postalCode": "E7M2N9", "twitter": "None", "instagram": "None", "facebook": "None", "youtube": "None", "website": "None", "summary": "None", "logo": "None", "latitude": 46.15173608340976, "longitude": -67.57205932425376}, "119280584RR0001": {"name": "VALLEY FESTIVAL SINGERS SOCIETY", "designationCode": "C", "categoryCode": "22", "address": "34508 ETON CRES", "city": "ABBOTSFORD", "province": "BC", "country": "CA", "postalCode": "V2S4W3", "twitter": "None", "instagram": "None", "facebook": "None", "youtube": "None", "website": "None", "summary": "None", "logo": "None", "latitude": 49.06497654674263, "longitude": -122.26887008381902}, "119280642RR0001": {"name": "VALLEY GARDENS PLAY SCHOOL INC", "designationCode": "C", "categoryCode": "01", "address": "166 ANTRIM ROAD", "city": "WINNIPEG", "province": "MB", "country": "CA", "postalCode": "R2K3L2", "twitter": "None", "instagram": "None", "facebook": "None", "youtube": "None", "website": "None", "summary": "None", "logo": "None", "latitude": 49.92019303075802, "longitude": -97.06795992301895}, "859322331RR0001": {"name": "VALLEY GATE VINEYARD CHRISTIAN FELLOWSHIP", "designationCode": "C", "categoryCode": "39", "address": "437 MAIN ST", "city": "KENTVILLE", "province": "NS", "country": "CA", "postalCode": "B4N1K9", "twitter": "None", "instagram": "None", "facebook": "None", "youtube": "None", "website": "None", "summary": "None", "logo": "None", "latitude": 45.07742003535454, "longitude": -64.49745928987058}, "872556618RR0001": {"name": "VALLEY GOSPEL CHAPEL", "designationCode": "C", "categoryCode": "39", "address": "1787 QUEENSLINE RD            RR 1", "city": "FORESTERS FALLS", "province": "ON", "country": "CA", "postalCode": "K0J1V0", "twitter": "None", "instagram": "None", "facebook": "None", "youtube": "None", "website": "None", "summary": "None", "logo": "None", "latitude": 45.67048527991415, "longitude": -76.77297868716737}, "119280659RR0001": {"name": "VALLEY GOSPEL MISSION", "designationCode": "C", "categoryCode": "49", "address": "10074 REEVES RD", "city": "CHILLIWACK", "province": "BC", "country": "CA", "postalCode": "V2P6H4", "twitter": "None", "instagram": "None", "facebook": "None", "youtube": "None", "website": "None", "summary": "None", "logo": "None", "latitude": 49.18386987710196, "longitude": -121.88676805244425}, "864411392RR0001": {"name": "VALLEY HEIGHTS COMMUNITY CHURCH", "designationCode": "C", "categoryCode": "39", "address": "50875 CASTLEMAN RD", "city": "ROSEDALE", "province": "BC", "country": "CA", "postalCode": "V0X1X2", "twitter": "None", "instagram": "None", "facebook": "None", "youtube": "None", "website": "None", "summary": "None", "logo": "None", "latitude": 49.19067244949448, "longitude": -121.81660574212599}, "894902923RR0001": {"name": "VALLEY HOSPICE FOUNDATION", "designationCode": "C", "categoryCode": "59", "address": "23 EARNSCLIFF AVE", "city": "WOLFVILLE", "province": "NS", "country": "CA", "postalCode": "B4P1X4", "twitter": "None", "instagram": "None", "facebook": "None", "youtube": "None", "website": "None", "summary": "None", "logo": "None", "latitude": 45.087550228980305, "longitude": -64.37102632289822}, "131310914RR0001": {"name": "VALLEY INTEGRATION TO ACTIVE LIVING SOCIETY", "designationCode": "C", "categoryCode": "01", "address": "156D GOVERNMENT ST.", "city": "DUNCAN", "province": "BC", "country": "CA", "postalCode": "V9L1A2", "twitter": "None", "instagram": "None", "facebook": "None", "youtube": "None", "website": "None", "summary": "None", "logo": "None", "latitude": 48.777291829208735, "longitude": -123.70931254558921}, "122087273RR0001": {"name": "VALLEY MANOR INC.", "designationCode": "C", "categoryCode": "10", "address": "88 MINTHA ST.                 P.O. BOX 880", "city": "BARRY'S BAY", "province": "ON", "country": "CA", "postalCode": "K0J1B0", "twitter": "None", "instagram": "None", "facebook": "None", "youtube": "None", "website": "None", "summary": "None", "logo": "None", "latitude": 45.486679748604935, "longitude": -77.68700567491528}, "898829353RR0001": {"name": "VALLEY MENNONITE ACADEMY INC.", "designationCode": "C", "categoryCode": "20", "address": "BOX 139, R.R. #1, GRP. 7", "city": "WINKLER", "province": "MB", "country": "CA", "postalCode": "R6W4A1", "twitter": "None", "instagram": "None", "facebook": "None", "youtube": "None", "website": "None", "summary": "None", "logo": "None", "latitude": 49.17773400000006, "longitude": -97.93841299999994}, "889244216RR0001": {"name": "VALLEY MENNONITE CHURCH", "designationCode": "C", "categoryCode": "34", "address": "BOX 490", "city": "ROSTHERN", "province": "SK", "country": "CA", "postalCode": "S0K3R0", "twitter": "None", "instagram": "None", "facebook": "None", "youtube": "None", "website": "None", "summary": "None", "logo": "None", "latitude": 52.663230000000055, "longitude": -106.32952999999998}, "132796723RR0001": {"name": "VALLEY MILLS & DISTRICT VOLUNTEER FIRE DEPT", "designationCode": "C", "categoryCode": "59", "address": "9311 MARBLE MOUNTAIN RD", "city": "RIVER DENYS", "province": "NS", "country": "CA", "postalCode": "B0E2Y0", "twitter": "None", "instagram": "None", "facebook": "None", "youtube": "None", "website": "None", "summary": "None", "logo": "None", "latitude": 45.85179887914061, "longitude": -61.082514683585906}, "892187048RR0001": {"name": "VALLEY NEIGHBOURS CLUB", "designationCode": "C", "categoryCode": "59", "address": "BOX 1024", "city": "TURNER VALLEY", "province": "AB", "country": "CA", "postalCode": "T0L2A0", "twitter": "None", "instagram": "None", "facebook": "None", "youtube": "None", "website": "None", "summary": "None", "logo": "None", "latitude": 50.663565, "longitude": -114.28559999999999}, "108165606RR0001": {"name": "VALLEY PENTECOSTAL CHURCH", "designationCode": "C", "categoryCode": "36", "address": "231 MARTHA ST", "city": "HANMER", "province": "ON", "country": "CA", "postalCode": "P3P1G4", "twitter": "None", "instagram": "None", "facebook": "None", "youtube": "None", "website": "None", "summary": "None", "logo": "None", "latitude": 46.65406152452562, "longitude": -80.95455972300768}, "119280808RR0001": {"name": "VALLEY REGIONAL HOSPITAL FOUNDATION", "designationCode": "A", "categoryCode": "13", "address": "150 EXHIBITION STREET         P.O. BOX 911", "city": "KENTVILLE", "province": "NS", "country": "CA", "postalCode": "B4N4H8", "twitter": "None", "instagram": "None", "facebook": "None", "youtube": "None", "website": "None", "summary": "None", "logo": "None", "latitude": 45.08394314708527, "longitude": -64.50094199572872}, "891516841RR0001": {"name": "VALLEY RESTORATIVE JUSTICE SOCIETY", "designationCode": "C", "categoryCode": "59", "address": "P.O. BOX 621", "city": "KENTVILLE", "province": "NS", "country": "CA", "postalCode": "B4N3X7", "twitter": "None", "instagram": "None", "facebook": "None", "youtube": "None", "website": "None", "summary": "None", "logo": "None", "latitude": 45.07663200000006, "longitude": -64.49369299999994}, "888754843RR0001": {"name": "VALLEY SEARCH AND RESCUE", "designationCode": "C", "categoryCode": "59", "address": "177 MIDDLE DYKE RD", "city": "PORT WILLIAMS", "province": "NS", "country": "CA", "postalCode": "B0P1T0", "twitter": "None", "instagram": "None", "facebook": "None", "youtube": "None", "website": "None", "summary": "None", "logo": "None", "latitude": 45.09280573798268, "longitude": -64.47617303918254}, "119280824RR0001": {"name": "VALLEY THERAPEUTIC EQUESTRIAN ASSOCIATION", "designationCode": "C", "categoryCode": "56", "address": "3330 256 ST", "city": "LANGLEY", "province": "BC", "country": "CA", "postalCode": "V4W1Y4", "twitter": "None", "instagram": "None", "facebook": "None", "youtube": "None", "website": "None", "summary": "None", "logo": "None", "latitude": 49.05999690452421, "longitude": -122.51464872147848}, "119280840RR0001": {"name": "VALLEY UNITED PENTECOSTAL CHURCH", "designationCode": "C", "categoryCode": "39", "address": "1814 FITZGERALD AVE", "city": "COURTENAY", "province": "BC", "country": "CA", "postalCode": "V9N2S8", "twitter": "None", "instagram": "None", "facebook": "None", "youtube": "None", "website": "None", "summary": "None", "logo": "None", "latitude": 49.681723660309125, "longitude": -124.9906173714585}, "894945633RR0014": {"name": "VALLEY VIEW ALLIANCE CHURCH OF THE CHRISTIAN AND MISSIONARY ALLIANCE IN CANADA", "designationCode": "C", "categoryCode": "39", "address": "800 DAVIS DRIVE", "city": "NEWMARKET", "province": "ON", "country": "CA", "postalCode": "L3Y2R5", "twitter": "None", "instagram": "None", "facebook": "None", "youtube": "None", "website": "None", "summary": "None", "logo": "None", "latitude": 44.06313789976368, "longitude": -79.44333426406614}, "119280865RR0001": {"name": "VALLEY VIEW BAPTIST CHURCH", "designationCode": "C", "categoryCode": "31", "address": "234 36TH AVENUE NORTH", "city": "CRESTON", "province": "BC", "country": "CA", "postalCode": "V0B1G1", "twitter": "None", "instagram": "None", "facebook": "None", "youtube": "None", "website": "None", "summary": "None", "logo": "None"}, "893174375RR0001": {"name": "VALLEY VIEW BIBLE CAMP", "designationCode": "C", "categoryCode": "56", "address": "PO BOX 7", "city": "FRONTIER", "province": "SK", "country": "CA", "postalCode": "S0N0W0", "twitter": "None", "instagram": "None", "facebook": "None", "youtube": "None", "website": "None", "summary": "None", "logo": "None", "latitude": 49.20003000000003, "longitude": -108.56809999999996}, "107764573RR0008": {"name": "VALLEY VIEW BIBLE CAMP AND RETREAT CENTRE", "designationCode": "C", "categoryCode": "56", "address": "BOX 430", "city": "MACGREGOR", "province": "MB", "country": "CA", "postalCode": "R0H0R0", "twitter": "None", "instagram": "None", "facebook": "None", "youtube": "None", "website": "None", "summary": "None", "logo": "None", "latitude": 49.965220000000045, "longitude": -98.77929999999998}, "119280899RR0001": {"name": "VALLEY VIEW CEMETERY", "designationCode": "C", "categoryCode": "59", "address": "111 BLACK BROOK ROAD", "city": "EAST RIVER ST. MARY'S", "province": "NS", "country": "CA", "postalCode": "B2H5C8", "twitter": "None", "instagram": "None", "facebook": "None", "youtube": "None", "website": "None", "summary": "None", "logo": "None", "latitude": 45.39834723226986, "longitude": -62.177079531420915}, "107864258RR0001": {"name": "VALLEY VIEW CENTRE-GRANTS AND DONATIONS TRUST ACCOUNT", "designationCode": "C", "categoryCode": "20", "address": "BOX 1300", "city": "MOOSE JAW", "province": "SK", "country": "CA", "postalCode": "S6H4R2", "twitter": "None", "instagram": "None", "facebook": "None", "youtube": "None", "website": "None", "summary": "None", "logo": "None", "latitude": 50.39688300000006, "longitude": -105.53701399999993}, "891322166RR0001": {"name": "VALLEY WINDS MUSIC ASSOCIATION", "designationCode": "C", "categoryCode": "22", "address": "P.O. BOX 8140", "city": "CANMORE", "province": "AB", "country": "CA", "postalCode": "T1W2T9", "twitter": "None", "instagram": "None", "facebook": "None", "youtube": "None", "website": "None", "summary": "None", "logo": "None", "latitude": 51.08960400000005, "longitude": -115.36085149999994}, "831386701RR0001": {"name": "VALLEYFIELD CEMETERY INC.", "designationCode": "C", "categoryCode": "59", "address": "2445 HEATHERDALE RD. RR#1", "city": "MONTAGUE", "province": "PE", "country": "CA", "postalCode": "C0A1R0", "twitter": "None", "instagram": "None", "facebook": "None", "youtube": "None", "website": "None", "summary": "None", "logo": "None", "latitude": 46.11374412284242, "longitude": -62.70058345979219}, "866781420RR0001": {"name": "VALLEYS 2000 (BOWMANVILLE) INC", "designationCode": "C", "categoryCode": "52", "address": "PO BOX 364", "city": "BOWMANVILLE", "province": "ON", "country": "CA", "postalCode": "L1C3L1", "twitter": "None", "instagram": "None", "facebook": "None", "youtube": "None", "website": "None", "summary": "None", "logo": "None", "latitude": 43.91376900000006, "longitude": -78.68855149999993}, "133897496RR0001": {"name": "VALLEYVIEW & DISTRICT SANTAS ANONYMOUS SOCIETY", "designationCode": "C", "categoryCode": "09", "address": "POST OFFICE BOX 643", "city": "VALLEYVIEW", "province": "AB", "country": "CA", "postalCode": "T0H3N0", "twitter": "None", "instagram": "None", "facebook": "None", "youtube": "None", "website": "None", "summary": "None", "logo": "None", "latitude": 55.06844000000007, "longitude": -117.27238999999997}, "119280857RR0001": {"name": "VALLEYVIEW ALBERTA CONGREGATION OF JEHOVAH'S WITNESSES,", "designationCode": "C", "categoryCode": "61", "address": "BOX 763", "city": "VALLEYVIEW", "province": "AB", "country": "CA", "postalCode": "T0H3N0", "twitter": "None", "instagram": "None", "facebook": "None", "youtube": "None", "website": "None", "summary": "None", "logo": "None", "latitude": 55.05383002553526, "longitude": -117.28028991776837}, "132349713RR0001": {"name": "VALLEYVIEW ALLIANCE CHURCH", "designationCode": "C", "categoryCode": "39", "address": "BOX 1229", "city": "VALLEYVIEW", "province": "AB", "country": "CA", "postalCode": "T0H3N0", "twitter": "None", "instagram": "None", "facebook": "None", "youtube": "None", "website": "None", "summary": "None", "logo": "None", "latitude": 55.05383002553526, "longitude": -117.28028991776837}, "865201438RR0001": {"name": "VALLEYVIEW BIBLE CHURCH", "designationCode": "C", "categoryCode": "34", "address": "2386 EAST TRANS CANADA HWY", "city": "KAMLOOPS", "province": "BC", "country": "CA", "postalCode": "V2C4A8", "twitter": "None", "instagram": "None", "facebook": "None", "youtube": "None", "website": "None", "summary": "None", "logo": "None", "latitude": 50.67641856134053, "longitude": -120.25218967807194}, "889440178RR0001": {"name": "VALLEYVIEW COMMUNITY CENTRE INC", "designationCode": "C", "categoryCode": "56", "address": "RR 2", "city": "CRAVEN", "province": "SK", "country": "CA", "postalCode": "S0G0W0", "twitter": "None", "instagram": "None", "facebook": "None", "youtube": "None", "website": "None", "summary": "None", "logo": "None", "latitude": 50.78455650000001, "longitude": -103.80089025}, "119288918RR0483": {"name": "VALLEYVIEW CONGREGATION OF JEHOVAH'S WITNESSES", "designationCode": "C", "categoryCode": "61", "address": "30 ROY AVE", "city": "PENTICTON", "province": "BC", "country": "CA", "postalCode": "V2A3M6", "twitter": "None", "instagram": "None", "facebook": "None", "youtube": "None", "website": "None", "summary": "None", "logo": "None", "latitude": 49.475437878989, "longitude": -119.58403895948979}, "119288918RR0207": {"name": "VALLEYVIEW CONGREGATION OF JEHOVAH'S WITNESSES, PORT ALBERNI", "designationCode": "C", "categoryCode": "61", "address": "5055 MAEBELLE ROAD", "city": "PORT ALBERNI", "province": "BC", "country": "CA", "postalCode": "V9Y8R2", "twitter": "None", "instagram": "None", "facebook": "None", "youtube": "None", "website": "None", "summary": "None", "logo": "None", "latitude": 49.26575895974959, "longitude": -124.76626062658053}, "851429654RR0001": {"name": "VALLEYVIEW HEALTH CENTRE FOUNDATION", "designationCode": "A", "categoryCode": "11", "address": "PO BOX 358", "city": "VALLEYVIEW", "province": "AB", "country": "CA", "postalCode": "T0H3N0", "twitter": "None", "instagram": "None", "facebook": "None", "youtube": "None", "website": "None", "summary": "None", "logo": "None", "latitude": 55.06844000000007, "longitude": -117.27238999999997}, "879172906RR0001": {"name": "VALLEYVIEW KIDS ZONE INC.", "designationCode": "C", "categoryCode": "01", "address": "77 WHILLIER DR", "city": "BRANDON", "province": "MB", "country": "CA", "postalCode": "R7B0X8", "twitter": "None", "instagram": "None", "facebook": "None", "youtube": "None", "website": "None", "summary": "None", "logo": "None", "latitude": 49.84495513738975, "longitude": -99.97937304944853}, "845019124RR0001": {"name": "VALLEYVIEW MANOR (ST. JACOBS) NON-PROFIT INC.", "designationCode": "C", "categoryCode": "09", "address": "1070 PRINTERY ROAD", "city": "ST JACOBS", "province": "ON", "country": "CA", "postalCode": "N0B2N0", "twitter": "None", "instagram": "None", "facebook": "None", "youtube": "None", "website": "None", "summary": "None", "logo": "None", "latitude": 43.52781860887003, "longitude": -80.5515875279765}, "119280980RR0001": {"name": "VALLEYVIEW MENNONITE CHURCH", "designationCode": "C", "categoryCode": "34", "address": "1170 MELSANDRA AVE", "city": "LONDON", "province": "ON", "country": "CA", "postalCode": "N5Y4N9", "twitter": "None", "instagram": "None", "facebook": "None", "youtube": "None", "website": "None", "summary": "None", "logo": "None", "latitude": 43.01994520180028, "longitude": -81.22800553303703}, "108165861RR0001": {"name": "VALLEYVIEW PENTECOSTAL EVANGEL TEMPLE", "designationCode": "C", "categoryCode": "36", "address": "BOX 673", "city": "VALLEYVIEW", "province": "AB", "country": "CA", "postalCode": "T0H3N0", "twitter": "None", "instagram": "None", "facebook": "None", "youtube": "None", "website": "None", "summary": "None", "logo": "None", "latitude": 55.05383002553526, "longitude": -117.28028991776837}, "886107325RR0001": {"name": "VALLEYVIEW VICTIMS ASSISTANCE ASSOCIATION", "designationCode": "C", "categoryCode": "59", "address": "BOX 1050", "city": "VALLEYVIEW", "province": "AB", "country": "CA", "postalCode": "T0H3N0", "twitter": "None", "instagram": "None", "facebook": "None", "youtube": "None", "website": "None", "summary": "None", "logo": "None", "latitude": 55.05383002553526, "longitude": -117.28028991776837}, "119281020RR0001": {"name": "VALLICAN HERITAGE HALL SOCIETY", "designationCode": "C", "categoryCode": "56", "address": "4192 SLOCAN RIVER RD", "city": "WINLAW", "province": "BC", "country": "CA", "postalCode": "V0G2J0", "twitter": "None", "instagram": "None", "facebook": "None", "youtube": "None", "website": "None", "summary": "None", "logo": "None", "latitude": 49.564453361615904, "longitude": -117.65451546477378}, "868597931RR0001": {"name": "VALMIKI ASHRAM THE TORONTO HINDU COMMUNITY CENTRE", "designationCode": "C", "categoryCode": "48", "address": "1720 MIDLAND AVE UNIT 14", "city": "SCARBOROUGH", "province": "ON", "country": "CA", "postalCode": "M1P3C8", "twitter": "None", "instagram": "None", "facebook": "None", "youtube": "None", "website": "None", "summary": "None", "logo": "None", "latitude": 43.76010568417091, "longitude": -79.27092705470672}, "119281046RR0001": {"name": "VALOIS UNITED CHURCH,", "designationCode": "C", "categoryCode": "44", "address": "70 BELMONT AVE", "city": "POINTE-CLAIRE", "province": "QC", "country": "CA", "postalCode": "H9R2N5", "twitter": "None", "instagram": "None", "facebook": "None", "youtube": "None", "website": "None", "summary": "None", "logo": "None", "latitude": 45.454715089358956, "longitude": -73.79067424658099}, "857239909RR0001": {"name": "VALORIZACTION", "designationCode": "C", "categoryCode": "09", "address": "245 BOUL NILUS-LECLERC        LOCAL 7", "city": "L'ISLET", "province": "QC", "country": "CA", "postalCode": "G0R2C0", "twitter": "None", "instagram": "None", "facebook": "None", "youtube": "None", "website": "None", "summary": "None", "logo": "None", "latitude": 47.10615076715322, "longitude": -70.35399496292358}, "119288918RR1156": {"name": "VALPARAISO CONGREGATION OF JEHOVAH'S WITNESSES, TORONTO, ONTARIO", "designationCode": "C", "categoryCode": "61", "address": "BOX 4100", "city": "GEORGETOWN", "province": "ON", "country": "CA", "postalCode": "L7G4Y4", "twitter": "None", "instagram": "None", "facebook": "None", "youtube": "None", "website": "None", "summary": "None", "logo": "None", "latitude": 43.65006000000005, "longitude": -79.89909199999994}, "895912830RR0001": {"name": "VAN DAELE MANOR RESIDENTS COUNCIL", "designationCode": "C", "categoryCode": "09", "address": "39 VAN DAELE ST", "city": "SAULT STE. MARIE", "province": "ON", "country": "CA", "postalCode": "P6B4V3", "twitter": "None", "instagram": "None", "facebook": "None", "youtube": "None", "website": "None", "summary": "None", "logo": "None", "latitude": 46.52849963502719, "longitude": -84.32451285347585}, "867893448RR0001": {"name": "VAN DER ENDE CHARITABLE FOUNDATION", "designationCode": "B", "categoryCode": "05", "address": "18601 88 AVE", "city": "SURREY", "province": "BC", "country": "CA", "postalCode": "V4N5T1", "twitter": "None", "instagram": "None", "facebook": "None", "youtube": "None", "website": "None", "summary": "None", "logo": "None", "latitude": 49.16287148211083, "longitude": -122.7073905}, "118812809RR0002": {"name": "VAN ES CAMP AND CONFERENCE CENTRE", "designationCode": "C", "categoryCode": "49", "address": "BOX 551", "city": "BRUDERHEIM", "province": "AB", "country": "CA", "postalCode": "T0B0S0", "twitter": "None", "instagram": "None", "facebook": "None", "youtube": "None", "website": "None", "summary": "None", "logo": "None", "latitude": 53.803450000000055, "longitude": -112.92708999999996}, "139942429RR0001": {"name": "VAN GRIMDE CORPS SECRETS", "designationCode": "C", "categoryCode": "22", "address": "3680, RUE JEANNE MANCE, NO.420", "city": "MONTREAL", "province": "QC", "country": "CA", "postalCode": "H2X2K5", "twitter": "None", "instagram": "None", "facebook": "None", "youtube": "None", "website": "None", "summary": "None", "logo": "None", "latitude": 45.51161383345846, "longitude": -73.57612466876323}, "873099394RR0001": {"name": "VAN HANH BUDDHIST ASSOCIATION (HOI PHAT GIAO VAN HANH) OF ONTARIO", "designationCode": "C", "categoryCode": "35", "address": "338 WESTON ROAD", "city": "TORONTO", "province": "ON", "country": "CA", "postalCode": "M6N3P8", "twitter": "None", "instagram": "None", "facebook": "None", "youtube": "None", "website": "None", "summary": "None", "logo": "None", "latitude": 43.67939111933759, "longitude": -79.47460549974019}, "874169790RR0001": {"name": "VAN HANH BUDDHIST SOCIETY", "designationCode": "C", "categoryCode": "35", "address": "933 COLVILLE ROAD", "city": "VICTORIA", "province": "BC", "country": "CA", "postalCode": "V9A4P4", "twitter": "None", "instagram": "None", "facebook": "None", "youtube": "None", "website": "None", "summary": "None", "logo": "None", "latitude": 48.43875749956733, "longitude": -123.40098377699232}, "119282648RR0001": {"name": "VAN NORMAN CHARITABLE FOUNDATION INC", "designationCode": "B", "categoryCode": "43", "address": "74 ASPEN RIDGE WAY, S.W.", "city": "CALGARY", "province": "AB", "country": "CA", "postalCode": "T3H5M2", "twitter": "None", "instagram": "None", "facebook": "None", "youtube": "None", "website": "None", "summary": "None", "logo": "None", "latitude": 51.04633449708581, "longitude": -114.19709465918395}, "131849762RR0001": {"name": "VANASTRA COMMUNITY CHRISTIAN REFORMED CHURCH", "designationCode": "C", "categoryCode": "39", "address": "50 FIFTH AVE", "city": "VANASTRA", "province": "ON", "country": "CA", "postalCode": "N0M1L0", "twitter": "None", "instagram": "None", "facebook": "None", "youtube": "None", "website": "None", "summary": "None", "logo": "None", "latitude": 43.585053570892875, "longitude": -81.51859187691338}, "832241608RR0001": {"name": "VANCHORVERVE FOUNDATION", "designationCode": "A", "categoryCode": "03", "address": "1500 WEST GEORGIA STREET      SUITE 1250   BOX 62", "city": "VANCOUVER", "province": "BC", "country": "CA", "postalCode": "V6G2Z6", "twitter": "None", "instagram": "None", "facebook": "None", "youtube": "None", "website": "None", "summary": "None", "logo": "None", "latitude": 49.2900638104334, "longitude": -123.12989899362336}, "892028242RR0001": {"name": "VANCITY COMMUNITY FOUNDATION", "designationCode": "A", "categoryCode": "03", "address": "810-815 WEST HASTINGS STREET", "city": "VANCOUVER", "province": "BC", "country": "CA", "postalCode": "V6C1B4", "twitter": "None", "instagram": "None", "facebook": "None", "youtube": "None", "website": "None", "summary": "None", "logo": "None", "latitude": 49.28614132835121, "longitude": -123.1151151547119}, "864856075RR0001": {"name": "VANCLIFFEN ARTS FOUNDATION", "designationCode": "C", "categoryCode": "22", "address": "P O BOX 237", "city": "MALTON", "province": "ON", "country": "CA", "postalCode": "L4T3B6", "twitter": "None", "instagram": "None", "facebook": "None", "youtube": "None", "website": "None", "summary": "None", "logo": "None", "latitude": 43.70488000000006, "longitude": -79.64132999999998}, "138399233RR0001": {"name": "VANCOUVER ABORIGINAL CHILD AND FAMILY SERVICES SOCIETY", "designationCode": "C", "categoryCode": "09", "address": "745 CLARK DR", "city": "VANCOUVER", "province": "BC", "country": "CA", "postalCode": "V5L3J3", "twitter": "None", "instagram": "None", "facebook": "None", "youtube": "None", "website": "None", "summary": "None", "logo": "None", "latitude": 49.278286676380645, "longitude": -123.0772220017021}, "898202833RR0001": {"name": "VANCOUVER ABORIGINAL FRIENDSHIP CENTRE SOCIETY", "designationCode": "C", "categoryCode": "09", "address": "1607 EAST HASTINGS STREET", "city": "VANCOUVER", "province": "BC", "country": "CA", "postalCode": "V5L1S7", "twitter": "None", "instagram": "None", "facebook": "None", "youtube": "None", "website": "None", "summary": "None", "logo": "None", "latitude": 49.28127050432783, "longitude": -123.07145252262103}, "108166240RR0001": {"name": "VANCOUVER ACADEMY OF MUSIC", "designationCode": "C", "categoryCode": "22", "address": "1270 CHESTNUT ST", "city": "VANCOUVER", "province": "BC", "country": "CA", "postalCode": "V6J4R9", "twitter": "None", "instagram": "None", "facebook": "None", "youtube": "None", "website": "None", "summary": "None", "logo": "None", "latitude": 49.27466566506806, "longitude": -123.14618561597229}, "884956426RR0001": {"name": "VANCOUVER ACADEMY OF MUSIC FOUNDATION", "designationCode": "A", "categoryCode": "22", "address": "1270 CHESTNUT STREET", "city": "VANCOUVER", "province": "BC", "country": "CA", "postalCode": "V6J4R9", "twitter": "None", "instagram": "None", "facebook": "None", "youtube": "None", "website": "None", "summary": "None", "logo": "None", "latitude": 49.27466566506806, "longitude": -123.14618561597229}, "891324394RR0001": {"name": "VANCOUVER ACCESS ARTIST RUN CENTRE", "designationCode": "C", "categoryCode": "22", "address": "222 E. GEORGIA STREET", "city": "VANCOUVER", "province": "BC", "country": "CA", "postalCode": "V6A1Z7", "twitter": "None", "instagram": "None", "facebook": "None", "youtube": "None", "website": "None", "summary": "None", "logo": "None", "latitude": 49.278428429100614, "longitude": -123.09878540157409}, "130463607RR0001": {"name": "VANCOUVER ADAPTED MUSIC SOCIETY", "designationCode": "C", "categoryCode": "22", "address": "318-425 CARRALL STREET", "city": "VANCOUVER", "province": "BC", "country": "CA", "postalCode": "V6B6E3", "twitter": "None", "instagram": "None", "facebook": "None", "youtube": "None", "website": "None", "summary": "None", "logo": "None", "latitude": 49.28107458090486, "longitude": -123.10442464770009}, "892542168RR0001": {"name": "VANCOUVER ADAPTIVE SNOW SPORTS", "designationCode": "C", "categoryCode": "56", "address": "125A - 1030 DENMAN STREET     SUITE 322", "city": "VANCOUVER", "province": "BC", "country": "CA", "postalCode": "V6G2M6", "twitter": "None", "instagram": "None", "facebook": "None", "youtube": "None", "website": "None", "summary": "None", "logo": "None", "latitude": 49.28898777321276, "longitude": -123.13915680775034}, "106689896RR0001": {"name": "VANCOUVER AIDS SOCIETY", "designationCode": "C", "categoryCode": "11", "address": "PO BOX 32719                  RPO LIBERTY SQUARE", "city": "VANCOUVER", "province": "BC", "country": "CA", "postalCode": "V6B0H5", "twitter": "None", "instagram": "None", "facebook": "None", "youtube": "None", "website": "None", "summary": "None", "logo": "None", "latitude": 49.28024400000005, "longitude": -123.11294749999993}, "108166257RR0001": {"name": "VANCOUVER AIRPORT CHAPLAINCY", "designationCode": "C", "categoryCode": "49", "address": "PO BOX 32362 RPO YVR TERMINAL", "city": "RICHMOND", "province": "BC", "country": "CA", "postalCode": "V7B1W2", "twitter": "None", "instagram": "None", "facebook": "None", "youtube": "None", "website": "None", "summary": "None", "logo": "None", "latitude": 49.193260000000066, "longitude": -123.17232999999999}, "135178424RR0001": {"name": "VANCOUVER AND LOWER MAINLAND MULTICULTURAL FAMILY SUPPORT SERVICES SOCIETY", "designationCode": "C", "categoryCode": "09", "address": "306-4980 KINGSWAY", "city": "BURNABY", "province": "BC", "country": "CA", "postalCode": "V5H4K7", "twitter": "None", "instagram": "None", "facebook": "None", "youtube": "None", "website": "None", "summary": "None", "logo": "None", "latitude": 49.22612463227306, "longitude": -122.99267874251223}, "883079063RR0001": {"name": "VANCOUVER AQUARIUM CONSERVATION FOUNDATION", "designationCode": "A", "categoryCode": "55", "address": "PO BOX 3232", "city": "VANCOUVER", "province": "BC", "country": "CA", "postalCode": "V6B3X8", "twitter": "None", "instagram": "None", "facebook": "None", "youtube": "None", "website": "None", "summary": "None", "logo": "None", "latitude": 49.28024400000005, "longitude": -123.11294749999993}, "887416683RR0001": {"name": "VANCOUVER ARBUTUS ROTARY FUND", "designationCode": "A", "categoryCode": "03", "address": "2001 NANTON AVE", "city": "VANCOUVER", "province": "BC", "country": "CA", "postalCode": "V6J4A1", "twitter": "None", "instagram": "None", "facebook": "None", "youtube": "None", "website": "None", "summary": "None", "logo": "None", "latitude": 49.24764345109301, "longitude": -123.1520396179526}, "890364821RR0001": {"name": "VANCOUVER ART GALLERY FOUNDATION", "designationCode": "A", "categoryCode": "23", "address": "750 HORNBY STREET", "city": "VANCOUVER", "province": "BC", "country": "CA", "postalCode": "V6Z2H7", "twitter": "None", "instagram": "None", "facebook": "None", "youtube": "None", "website": "None", "summary": "None", "logo": "None", "latitude": 49.28315467626438, "longitude": -123.12082222220515}, "119281145RR0001": {"name": "VANCOUVER ART THERAPY INSTITUTE ASSOCIATION", "designationCode": "C", "categoryCode": "20", "address": "PO BOX 52242 RPO LYNNMOUR", "city": "NORTH VANCOUVER", "province": "BC", "country": "CA", "postalCode": "V7J3V5", "twitter": "None", "instagram": "None", "facebook": "None", "youtube": "None", "website": "None", "summary": "None", "logo": "None", "latitude": 49.31765000000007, "longitude": -123.02845999999994}, "890621196RR0001": {"name": "VANCOUVER ASSOCIATION FOR INJURED MOTORCYCLISTS", "designationCode": "C", "categoryCode": "09", "address": "37-13320 116 AVE", "city": "SURREY", "province": "BC", "country": "CA", "postalCode": "V3R0R8", "twitter": "None", "instagram": "None", "facebook": "None", "youtube": "None", "website": "None", "summary": "None", "logo": "None", "latitude": 49.213548, "longitude": -122.81519925}, "896839537RR0001": {"name": "VANCOUVER ASSOCIATION FOR PHOTOGRAPHIC ARTS", "designationCode": "C", "categoryCode": "22", "address": "305 CAMBIE ST", "city": "VANCOUVER", "province": "BC", "country": "CA", "postalCode": "V6B2N4", "twitter": "None", "instagram": "None", "facebook": "None", "youtube": "None", "website": "None", "summary": "None", "logo": "None", "latitude": 49.28343115899821, "longitude": -123.10923079065864}, "119281160RR0001": {"name": "VANCOUVER ASSOCIATION FOR THE SURVIVORS OF TORTURE", "designationCode": "C", "categoryCode": "11", "address": "2610 VICTORIA DR", "city": "VANCOUVER", "province": "BC", "country": "CA", "postalCode": "V5N4L2", "twitter": "None", "instagram": "None", "facebook": "None", "youtube": "None", "website": "None", "summary": "None", "logo": "None", "latitude": 49.261066878989, "longitude": -123.06589849440276}, "867700833RR0001": {"name": "VANCOUVER ASSOCIATION OF RESTORATIVE JUSTICE", "designationCode": "C", "categoryCode": "59", "address": "#308-2410 CORNWALL STREET", "city": "VANCOUVER", "province": "BC", "country": "CA", "postalCode": "V6K1B8", "twitter": "None", "instagram": "None", "facebook": "None", "youtube": "None", "website": "None", "summary": "None", "logo": "None", "latitude": 49.272678, "longitude": -123.1608465}, "119281186RR0001": {"name": "VANCOUVER BACH CHOIR", "designationCode": "C", "categoryCode": "22", "address": "304-3102 MAIN ST", "city": "VANCOUVER", "province": "BC", "country": "CA", "postalCode": "V5T3G7", "twitter": "None", "instagram": "None", "facebook": "None", "youtube": "None", "website": "None", "summary": "None", "logo": "None", "latitude": 49.257205292255776, "longitude": -123.10116061876066}, "119281194RR0001": {"name": "VANCOUVER BALLET SOCIETY,", "designationCode": "C", "categoryCode": "22", "address": "677 DAVIE ST, LEVEL 6         SCOTIABANK DANCE CENTRE", "city": "VANCOUVER", "province": "BC", "country": "CA", "postalCode": "V6B2G6", "twitter": "None", "instagram": "None", "facebook": "None", "youtube": "None", "website": "None", "summary": "None", "logo": "None", "latitude": 49.27699003664376, "longitude": -123.12586997778297}, "869762377RR0001": {"name": "VANCOUVER BETHANY KOREAN CHURCH", "designationCode": "C", "categoryCode": "39", "address": "67 FOXWOOD DR", "city": "PORT MOODY", "province": "BC", "country": "CA", "postalCode": "V3H4X2", "twitter": "None", "instagram": "None", "facebook": "None", "youtube": "None", "website": "None", "summary": "None", "logo": "None", "latitude": 49.29686219401002, "longitude": -122.84146974314721}, "837517077RR0001": {"name": "VANCOUVER BIBLE STUDY ASSOCIATION", "designationCode": "C", "categoryCode": "47", "address": "4847 GILPIN CRT", "city": "BURNABY", "province": "BC", "country": "CA", "postalCode": "V5G3A2", "twitter": "None", "instagram": "None", "facebook": "None", "youtube": "None", "website": "None", "summary": "None", "logo": "None", "latitude": 49.240536926712544, "longitude": -123.01467405609075}, "867530297RR0001": {"name": "VANCOUVER BIBLE-PRESBYTERIAN CHURCH", "designationCode": "C", "categoryCode": "37", "address": "1651 LOUGHEED HWY", "city": "PORT COQUITLAM", "province": "BC", "country": "CA", "postalCode": "V3B1A5", "twitter": "None", "instagram": "None", "facebook": "None", "youtube": "None", "website": "None", "summary": "None", "logo": "None", "latitude": 49.26126948739094, "longitude": -122.76100176767284}, "119281285RR0001": {"name": "VANCOUVER BILINGUAL PRE-SCHOOL SOCIETY", "designationCode": "C", "categoryCode": "20", "address": "949 WEST 49TH AVENUE", "city": "VANCOUVER", "province": "BC", "country": "CA", "postalCode": "V5Z2T1", "twitter": "None", "instagram": "None", "facebook": "None", "youtube": "None", "website": "None", "summary": "None", "logo": "None", "latitude": 49.22653944993916, "longitude": -123.12757091756595}, "874538812RR0001": {"name": "VANCOUVER BOARD OF TRADE FOUNDATION", "designationCode": "A", "categoryCode": "59", "address": "300-2083 ALMA ST", "city": "VANCOUVER", "province": "BC", "country": "CA", "postalCode": "V6R4N6", "twitter": "None", "instagram": "None", "facebook": "None", "youtube": "None", "website": "None", "summary": "None", "logo": "None", "latitude": 49.26819645045876, "longitude": -123.18579609331141}, "895041234RR0001": {"name": "VANCOUVER BREAD OF LIFE CHURCH", "designationCode": "C", "categoryCode": "39", "address": "8-12020 GREENLAND DR.", "city": "RICHMOND", "province": "BC", "country": "CA", "postalCode": "V6V2M8", "twitter": "None", "instagram": "None", "facebook": "None", "youtube": "None", "website": "None", "summary": "None", "logo": "None", "latitude": 49.18728860261405, "longitude": -123.09104579101314}, "890249394RR0001": {"name": "VANCOUVER BUDDHIST TEMPLE", "designationCode": "C", "categoryCode": "35", "address": "220 JACKSON AVE", "city": "VANCOUVER", "province": "BC", "country": "CA", "postalCode": "V6A3B3", "twitter": "None", "instagram": "None", "facebook": "None", "youtube": "None", "website": "None", "summary": "None", "logo": "None", "latitude": 49.282792994171615, "longitude": -123.093327940591}, "890158264RR0001": {"name": "VANCOUVER CANAAN CHURCH", "designationCode": "C", "categoryCode": "39", "address": "6311 PRINCE ALBERT ST", "city": "VANCOUVER", "province": "BC", "country": "CA", "postalCode": "V5W3E7", "twitter": "None", "instagram": "None", "facebook": "None", "youtube": "None", "website": "None", "summary": "None", "logo": "None", "latitude": 49.22717453427779, "longitude": -123.0879950017021}, "108166406RR0001": {"name": "VANCOUVER CANTATA SOCIETY", "designationCode": "C", "categoryCode": "22", "address": "1254 7TH AVE W", "city": "VANCOUVER", "province": "BC", "country": "CA", "postalCode": "V6H1B6", "twitter": "None", "instagram": "None", "facebook": "None", "youtube": "None", "website": "None", "summary": "None", "logo": "None", "latitude": 49.26522451399404, "longitude": -123.13264444463039}, "862683521RR0001": {"name": "VANCOUVER CANTONESE OPERA", "designationCode": "C", "categoryCode": "22", "address": "13134 63A AVE", "city": "SURREY", "province": "BC", "country": "CA", "postalCode": "V3X2Z6", "twitter": "None", "instagram": "None", "facebook": "None", "youtube": "None", "website": "None", "summary": "None", "logo": "None", "latitude": 49.118072543424404, "longitude": -122.8590801931733}}