{"119292662RR0001": {"name": "WEST DALHOUSIE UNITED BAPTIST CHURCH,", "designationCode": "C", "categoryCode": "31", "address": "815 MORSE RD. RR#5", "city": "BRIDGETOWN", "province": "NS", "country": "CA", "postalCode": "B0S1C0", "twitter": "None", "instagram": "None", "facebook": "None", "youtube": "None", "website": "None", "summary": "None", "logo": "None", "latitude": 44.75436007770219, "longitude": -65.23684213757252}, "119292688RR0002": {"name": "WEST EDMONTON BAPTIST CHURCH", "designationCode": "C", "categoryCode": "31", "address": "17821 98 AVE NW", "city": "EDMONTON", "province": "AB", "country": "CA", "postalCode": "T5T4W3", "twitter": "None", "instagram": "None", "facebook": "None", "youtube": "None", "website": "None", "summary": "None", "logo": "None", "latitude": 53.53344173212562, "longitude": -113.63040941176624}, "131062531RR0001": {"name": "WEST EDMONTON CHRISTIAN ASSEMBLY", "designationCode": "C", "categoryCode": "36", "address": "6315 199 ST NW", "city": "EDMONTON", "province": "AB", "country": "CA", "postalCode": "T5T6N2", "twitter": "None", "instagram": "None", "facebook": "None", "youtube": "None", "website": "None", "summary": "None", "logo": "None", "latitude": 53.49726270397061, "longitude": -113.66450492870585}, "133722702RR0001": {"name": "WEST EDMONTON GRACE ASSEMBLY FULL GOSPEL CHURCH", "designationCode": "C", "categoryCode": "39", "address": "10320 147 ST", "city": "EDMONTON", "province": "AB", "country": "CA", "postalCode": "T5N3C3", "twitter": "None", "instagram": "None", "facebook": "None", "youtube": "None", "website": "None", "summary": "None", "logo": "None", "latitude": 53.54460866472388, "longitude": -113.5743371932306}, "106693047RR0010": {"name": "WEST EDMONTON SEVENTH-DAY ADVENTIST CHURCH", "designationCode": "C", "categoryCode": "41", "address": "5816 HIGHWAY, 2A", "city": "LACOMBE", "province": "AB", "country": "CA", "postalCode": "T4L2G5", "twitter": "None", "instagram": "None", "facebook": "None", "youtube": "None", "website": "None", "summary": "None", "logo": "None", "latitude": 52.474063600197404, "longitude": -113.71692568401835}, "135572535RR0001": {"name": "WEST ELGIN COMMUNITY HEALTH CENTRE", "designationCode": "C", "categoryCode": "11", "address": "153 MAIN ST", "city": "WEST LORNE", "province": "ON", "country": "CA", "postalCode": "N0L2P0", "twitter": "None", "instagram": "None", "facebook": "None", "youtube": "None", "website": "None", "summary": "None", "logo": "None", "latitude": 42.604837386026375, "longitude": -81.60520452536292}, "889512679RR0001": {"name": "WEST ELGIN DRAMATICS SOCIETY", "designationCode": "C", "categoryCode": "22", "address": "199 CURRIE RD, UPPER", "city": "DUTTON", "province": "ON", "country": "CA", "postalCode": "N0L1J0", "twitter": "None", "instagram": "None", "facebook": "None", "youtube": "None", "website": "None", "summary": "None", "logo": "None", "latitude": 42.66383897282128, "longitude": -81.50271521726235}, "871698742RR0001": {"name": "WEST ELGIN LIVING WATER PENTECOSTAL CHURCH", "designationCode": "C", "categoryCode": "36", "address": "35 TODD PL", "city": "WEST LORNE", "province": "ON", "country": "CA", "postalCode": "N0L2P0", "twitter": "None", "instagram": "None", "facebook": "None", "youtube": "None", "website": "None", "summary": "None", "logo": "None", "latitude": 42.59585572896381, "longitude": -81.59920313428991}, "882577521RR0001": {"name": "WEST ELGIN NATURE TRUST", "designationCode": "C", "categoryCode": "52", "address": "PO BOX 532", "city": "RODNEY", "province": "ON", "country": "CA", "postalCode": "N0L2C0", "twitter": "None", "instagram": "None", "facebook": "None", "youtube": "None", "website": "None", "summary": "None", "logo": "None", "latitude": 42.56805000000003, "longitude": -81.68310999999994}, "890819725RR0001": {"name": "WEST ELGIN SECONDARY SCHOOL SUPPORT ASSOCIATION", "designationCode": "C", "categoryCode": "21", "address": "24806 PIONEER LINE", "city": "WEST LORNE", "province": "ON", "country": "CA", "postalCode": "N0L2P0", "twitter": "None", "instagram": "None", "facebook": "None", "youtube": "None", "website": "None", "summary": "None", "logo": "None", "latitude": 42.596849254662615, "longitude": -81.61671315484719}, "108199100RR0001": {"name": "WEST END BAPTIST CHURCH OF ST. JOHN'S NEWFOUNDLAND", "designationCode": "C", "categoryCode": "31", "address": "314 TOPSAIL RD", "city": "ST. JOHN'S", "province": "NL", "country": "CA", "postalCode": "A1E2B5", "twitter": "None", "instagram": "None", "facebook": "None", "youtube": "None", "website": "None", "summary": "None", "logo": "None", "latitude": 47.537980877892466, "longitude": -52.73973124482065}, "878531797RR0001": {"name": "WEST END CHRISTIAN COMMUNITY INC.", "designationCode": "C", "categoryCode": "39", "address": "221 HAMPTON ST", "city": "WINNIPEG", "province": "MB", "country": "CA", "postalCode": "R3J1P5", "twitter": "None", "instagram": "None", "facebook": "None", "youtube": "None", "website": "None", "summary": "None", "logo": "None", "latitude": 49.880076202608365, "longitude": -97.21272075405416}, "108199134RR0001": {"name": "WEST END CHRISTIAN REFORMED CHURCH", "designationCode": "C", "categoryCode": "39", "address": "10015 149 ST NW", "city": "EDMONTON", "province": "AB", "country": "CA", "postalCode": "T5P4Y4", "twitter": "None", "instagram": "None", "facebook": "None", "youtube": "None", "website": "None", "summary": "None", "logo": "None", "latitude": 53.53956894754458, "longitude": -113.57797628844753}, "866442684RR0001": {"name": "WEST END CHURCH OF CHRIST", "designationCode": "C", "categoryCode": "39", "address": "101 AVIEMORE DRIVE", "city": "NORTH YORK", "province": "ON", "country": "CA", "postalCode": "M9L2M1", "twitter": "None", "instagram": "None", "facebook": "None", "youtube": "None", "website": "None", "summary": "None", "logo": "None", "latitude": 43.75451112184773, "longitude": -79.57119807712527}, "119292779RR0001": {"name": "WEST END COMMUNITY CENTRE ASSOCIATION", "designationCode": "C", "categoryCode": "56", "address": "870 DENMAN ST", "city": "VANCOUVER", "province": "BC", "country": "CA", "postalCode": "V6G2L8", "twitter": "None", "instagram": "None", "facebook": "None", "youtube": "None", "website": "None", "summary": "None", "logo": "None", "latitude": 49.290423068574505, "longitude": -123.13689866858641}, "895807246RR0001": {"name": "WEST END COMMUNITY CENTRE INC.", "designationCode": "C", "categoryCode": "56", "address": "234-22ND STREET", "city": "BRANDON", "province": "MB", "country": "CA", "postalCode": "R7B1R7", "twitter": "None", "instagram": "None", "facebook": "None", "youtube": "None", "website": "None", "summary": "None", "logo": "None", "latitude": 49.84602338773155, "longitude": -99.96760663561062}, "119292829RR0001": {"name": "WEST END GOSPEL HALL", "designationCode": "C", "categoryCode": "39", "address": "234 PARKVIEW STREET", "city": "WINNIPEG", "province": "MB", "country": "CA", "postalCode": "R3J1S3", "twitter": "None", "instagram": "None", "facebook": "None", "youtube": "None", "website": "None", "summary": "None", "logo": "None", "latitude": 49.88027890674589, "longitude": -97.21508221651547}, "875497992RR0001": {"name": "WEST END M.C.C. COMMUNITY ASSISTANCE CENTRE INC.", "designationCode": "A", "categoryCode": "09", "address": "644 BURNELL ST", "city": "WINNIPEG", "province": "MB", "country": "CA", "postalCode": "R3G2B7", "twitter": "None", "instagram": "None", "facebook": "None", "youtube": "None", "website": "None", "summary": "None", "logo": "None", "latitude": 49.89655979156328, "longitude": -97.17065442411548}, "108199316RR0001": {"name": "WEST END PARENTS DAY CARE CENTRE", "designationCode": "C", "categoryCode": "01", "address": "375 DOVERCOURT RD", "city": "TORONTO", "province": "ON", "country": "CA", "postalCode": "M6J3E5", "twitter": "None", "instagram": "None", "facebook": "None", "youtube": "None", "website": "None", "summary": "None", "logo": "None", "latitude": 43.65219501416692, "longitude": -79.42581952894035}, "119292845RR0001": {"name": "WEST END SENIORS' NETWORK SOCIETY", "designationCode": "C", "categoryCode": "09", "address": "1447 BARCLAY STREET", "city": "VANCOUVER", "province": "BC", "country": "CA", "postalCode": "V6G1J6", "twitter": "None", "instagram": "None", "facebook": "None", "youtube": "None", "website": "None", "summary": "None", "logo": "None", "latitude": 49.287108715935766, "longitude": -123.1328928257635}, "868277963RR0001": {"name": "WEST END STUDIO THEATRE", "designationCode": "C", "categoryCode": "22", "address": "1109 NORTH SERVICE RD E", "city": "OAKVILLE", "province": "ON", "country": "CA", "postalCode": "L6H1A6", "twitter": "None", "instagram": "None", "facebook": "None", "youtube": "None", "website": "None", "summary": "None", "logo": "None", "latitude": 43.471710764094816, "longitude": -79.67616560188108}, "119292860RR0001": {"name": "WEST END UNITED BAPTIST CHURCH,", "designationCode": "C", "categoryCode": "31", "address": "1986 PRESTON ST", "city": "HALIFAX", "province": "NS", "country": "CA", "postalCode": "B3H3W2", "twitter": "None", "instagram": "None", "facebook": "None", "youtube": "None", "website": "None", "summary": "None", "logo": "None", "latitude": 44.644966166801346, "longitude": -63.59779103623969}, "868581570RR0001": {"name": "WEST END-COAL HARBOUR COMMUNITY POLICING CENTRE", "designationCode": "C", "categoryCode": "59", "address": "1267 DAVIE ST", "city": "VANCOUVER", "province": "BC", "country": "CA", "postalCode": "V6E1N4", "twitter": "None", "instagram": "None", "facebook": "None", "youtube": "None", "website": "None", "summary": "None", "logo": "None", "latitude": 49.282460266172265, "longitude": -123.13435395822039}, "108200676RR0001": {"name": "WEST FERRIS DAY NURSERY", "designationCode": "C", "categoryCode": "01", "address": "60 MARSHALL PARK DR", "city": "NORTH BAY", "province": "ON", "country": "CA", "postalCode": "P1A2P2", "twitter": "None", "instagram": "None", "facebook": "None", "youtube": "None", "website": "None", "summary": "None", "logo": "None", "latitude": 46.27686807328745, "longitude": -79.43578072909679}, "825579428RR0001": {"name": "WEST FIFTH BIBLE CHAPEL", "designationCode": "C", "categoryCode": "39", "address": "440 WEST FIFTH ST", "city": "HAMILTON", "province": "ON", "country": "CA", "postalCode": "L9C3P6", "twitter": "None", "instagram": "None", "facebook": "None", "youtube": "None", "website": "None", "summary": "None", "logo": "None", "latitude": 43.23068352365304, "longitude": -79.88617583945295}, "131801813RR0001": {"name": "WEST FLAMBORO PRESBYTERIAN CHURCH", "designationCode": "C", "categoryCode": "37", "address": "262 MIDDLETOWN RD.", "city": "DUNDAS", "province": "ON", "country": "CA", "postalCode": "L9H5E1", "twitter": "None", "instagram": "None", "facebook": "None", "youtube": "None", "website": "None", "summary": "None", "logo": "None", "latitude": 43.26744795865307, "longitude": -80.03240939601278}, "811552116RR0001": {"name": "WEST GORE CEMETERY CO-OPERATIVE LTD.", "designationCode": "C", "categoryCode": "59", "address": "2695 HIGHWAY 236", "city": "KENNETCOOK", "province": "NS", "country": "CA", "postalCode": "B0N1P0", "twitter": "None", "instagram": "None", "facebook": "None", "youtube": "None", "website": "None", "summary": "None", "logo": "None", "latitude": 45.13256993140835, "longitude": -63.789300546855394}, "132106402RR0001": {"name": "WEST GUILFORD BAPTIST CHURCH", "designationCode": "C", "categoryCode": "31", "address": "BOX 52                        1299 NILA RD", "city": "WEST GUILFORD", "province": "ON", "country": "CA", "postalCode": "K0M2S0", "twitter": "None", "instagram": "None", "facebook": "None", "youtube": "None", "website": "None", "summary": "None", "logo": "None", "latitude": 45.12222650964398, "longitude": -78.58824736857798}, "119293801RR0001": {"name": "WEST GUILFORD GOSPEL CHAPEL,", "designationCode": "C", "categoryCode": "39", "address": "1362 IRISH LINE RD, RR1", "city": "HALIBURTON", "province": "ON", "country": "CA", "postalCode": "K0M1S0", "twitter": "None", "instagram": "None", "facebook": "None", "youtube": "None", "website": "None", "summary": "None", "logo": "None", "latitude": 45.09285911962944, "longitude": -78.61376440050799}, "108200940RR0001": {"name": "WEST HALDIMAND GENERAL HOSPITAL", "designationCode": "C", "categoryCode": "10", "address": "75 PARKVIEW ROAD", "city": "HAGERVILLE", "province": "ON", "country": "CA", "postalCode": "N0A1H0", "twitter": "None", "instagram": "None", "facebook": "None", "youtube": "None", "website": "None", "summary": "None", "logo": "None", "latitude": 42.95766292234969, "longitude": -80.04551468213937}, "119293819RR0001": {"name": "WEST HALDIMAND GENERAL HOSPITAL AUXILIARY", "designationCode": "C", "categoryCode": "19", "address": "75 PARKVIEW RD", "city": "HAGERSVILLE", "province": "ON", "country": "CA", "postalCode": "N0A1H0", "twitter": "None", "instagram": "None", "facebook": "None", "youtube": "None", "website": "None", "summary": "None", "logo": "None", "latitude": 42.95766292234969, "longitude": -80.04551468213937}, "889835799RR0001": {"name": "WEST HALDIMAND HOSPITAL AND HEALTHCARE FOUNDATION", "designationCode": "C", "categoryCode": "13", "address": "75 PARKVIEW RD", "city": "HAGARSVILLE", "province": "ON", "country": "CA", "postalCode": "N0A1H0", "twitter": "None", "instagram": "None", "facebook": "None", "youtube": "None", "website": "None", "summary": "None", "logo": "None", "latitude": 42.95766292234969, "longitude": -80.04551468213937}, "131568560RR0001": {"name": "WEST HANTS GROUND SEARCH AND RESCUE", "designationCode": "C", "categoryCode": "59", "address": "P.O. BOX 654", "city": "WINDSOR", "province": "NS", "country": "CA", "postalCode": "B0N2T0", "twitter": "None", "instagram": "None", "facebook": "None", "youtube": "None", "website": "None", "summary": "None", "logo": "None", "latitude": 44.990170000000035, "longitude": -64.12904999999995}, "108200981RR0001": {"name": "WEST HANTS HISTORICAL SOCIETY", "designationCode": "C", "categoryCode": "50", "address": "PO BOX 2335                   281 KING STREET", "city": "WINDSOR", "province": "NS", "country": "CA", "postalCode": "B0N2T0", "twitter": "None", "instagram": "None", "facebook": "None", "youtube": "None", "website": "None", "summary": "None", "logo": "None", "latitude": 44.993735232368515, "longitude": -64.13360858114797}, "899880058RR0001": {"name": "WEST HAVEN UNITED CHURCH CAMP INC.", "designationCode": "C", "categoryCode": "56", "address": "PO BOX 613", "city": "CORNER BROOK", "province": "NL", "country": "CA", "postalCode": "A2H6G1", "twitter": "None", "instagram": "None", "facebook": "None", "youtube": "None", "website": "None", "summary": "None", "logo": "None", "latitude": 48.95097900000006, "longitude": -57.950103499999926}, "895110526RR0001": {"name": "WEST HAWK LAKE ROMAN CATHOLIC CHAPEL", "designationCode": "C", "categoryCode": "39", "address": "P.O. BOX 103                  WHITESHELL POST OFFICE", "city": "WEST HAWK LAKE", "province": "MB", "country": "CA", "postalCode": "R0E2H0", "twitter": "None", "instagram": "None", "facebook": "None", "youtube": "None", "website": "None", "summary": "None", "logo": "None", "latitude": 49.73708400000005, "longitude": -95.20521199999993}, "119293868RR0001": {"name": "WEST HAWK UNITED CHURCH", "designationCode": "C", "categoryCode": "44", "address": "P.O. BOX 28", "city": "FALCON BEACH", "province": "MB", "country": "CA", "postalCode": "R0E0N0", "twitter": "None", "instagram": "None", "facebook": "None", "youtube": "None", "website": "None", "summary": "None", "logo": "None", "latitude": 49.68834445411479, "longitude": -95.32622591910874}, "106686520RR0001": {"name": "WEST HEAD WESLEYAN CHURCH OF WEST HEAD, NOVA SCOTIA", "designationCode": "C", "categoryCode": "39", "address": "PO 111", "city": "CLARK'S HARBOUR", "province": "NS", "country": "CA", "postalCode": "B0W1P0", "twitter": "None", "instagram": "None", "facebook": "None", "youtube": "None", "website": "None", "summary": "None", "logo": "None", "latitude": 43.44549995614297, "longitude": -65.63261007328738}, "119293884RR0001": {"name": "WEST HEIGHTS GOSPEL CHAPEL", "designationCode": "C", "categoryCode": "39", "address": "32699 CHERRY AVE", "city": "MISSION", "province": "BC", "country": "CA", "postalCode": "V2V2T8", "twitter": "None", "instagram": "None", "facebook": "None", "youtube": "None", "website": "None", "summary": "None", "logo": "None", "latitude": 49.154687453257395, "longitude": -122.31921222300767}, "108201047RR0001": {"name": "WEST HIGHLAND FELLOWSHIP BAPTIST CHURCH", "designationCode": "C", "categoryCode": "31", "address": "1605 GARTH ST", "city": "HAMILTON", "province": "ON", "country": "CA", "postalCode": "L9B1X8", "twitter": "None", "instagram": "None", "facebook": "None", "youtube": "None", "website": "None", "summary": "None", "logo": "None", "latitude": 43.210741296958965, "longitude": -79.91060831216508}, "119288918RR0127": {"name": "WEST HILL CONGREGATION OF JEHOVAH'S WITNESSES, TORONTO, ONTARIO", "designationCode": "C", "categoryCode": "61", "address": "11 HOMESTEAD RD", "city": "SCARBOROUGH", "province": "ON", "country": "CA", "postalCode": "M1E3R8", "twitter": "None", "instagram": "None", "facebook": "None", "youtube": "None", "website": "None", "summary": "None", "logo": "None", "latitude": 43.76065195060299, "longitude": -79.17626722228653}, "889522371RR0001": {"name": "WEST HILL GOSPEL HALL", "designationCode": "C", "categoryCode": "39", "address": "566 FOXWOOD TRAIL", "city": "PICKERING", "province": "ON", "country": "CA", "postalCode": "L1V4P7", "twitter": "None", "instagram": "None", "facebook": "None", "youtube": "None", "website": "None", "summary": "None", "logo": "None", "latitude": 43.8231662837468, "longitude": -79.12795902122731}, "893628461RR0001": {"name": "WEST HILL MENNONITE FELLOWSHIP", "designationCode": "C", "categoryCode": "34", "address": "846 NAFZIGER RD", "city": "NEW HAMBURG", "province": "ON", "country": "CA", "postalCode": "N3A3G6", "twitter": "None", "instagram": "None", "facebook": "None", "youtube": "None", "website": "None", "summary": "None", "logo": "None", "latitude": 43.373530835939945, "longitude": -80.66769426371943}, "892736760RR0001": {"name": "WEST HILL UNITED CHURCH,", "designationCode": "C", "categoryCode": "44", "address": "62 ORCHARD PARK DRIVE", "city": "TORONTO", "province": "ON", "country": "CA", "postalCode": "M1E3T7", "twitter": "None", "instagram": "None", "facebook": "None", "youtube": "None", "website": "None", "summary": "None", "logo": "None", "latitude": 43.77425941742171, "longitude": -79.17915405860091}, "129267993RR0001": {"name": "WEST HILLHURST GO-GETTERS (S C ) ASSOCIATION", "designationCode": "C", "categoryCode": "56", "address": "1940 6TH AVE NW", "city": "CALGARY", "province": "AB", "country": "CA", "postalCode": "T2N0W3", "twitter": "None", "instagram": "None", "facebook": "None", "youtube": "None", "website": "None", "summary": "None", "logo": "None", "latitude": 51.0577028705693, "longitude": -114.10455852699931}, "119293942RR0001": {"name": "WEST HILLHURST GOSPEL HALL", "designationCode": "C", "categoryCode": "39", "address": "2326 7AVE N.W.", "city": "CALGARY", "province": "AB", "country": "CA", "postalCode": "T2N1A1", "twitter": "None", "instagram": "None", "facebook": "None", "youtube": "None", "website": "None", "summary": "None", "logo": "None", "latitude": 51.05909400000006, "longitude": -114.11424349999993}, "891470577RR0001": {"name": "WEST INDIAN CHRISTIAN FELLOWSHIP INTERNATIONAL", "designationCode": "C", "categoryCode": "49", "address": "2900 STEELES AVENUE EAST      PO BOX 94611", "city": "THORNHILL", "province": "ON", "country": "CA", "postalCode": "L3T7R5", "twitter": "None", "instagram": "None", "facebook": "None", "youtube": "None", "website": "None", "summary": "None", "logo": "None", "latitude": 43.81179887663566, "longitude": -79.3587265211524}, "119294007RR0001": {"name": "WEST ISLAND BAPTIST CHURCH,", "designationCode": "C", "categoryCode": "31", "address": "298 BROOKHAVEN", "city": "DORVAL", "province": "QC", "country": "CA", "postalCode": "H9S2N4", "twitter": "None", "instagram": "None", "facebook": "None", "youtube": "None", "website": "None", "summary": "None", "logo": "None", "latitude": 45.44427766610887, "longitude": -73.76895571859295}, "118782630RR0022": {"name": "WEST ISLAND CHINESE ALLIANCE CHURCH", "designationCode": "C", "categoryCode": "39", "address": "310 BROOKHAVEN", "city": "DORVAL", "province": "QC", "country": "CA", "postalCode": "H9S2N7", "twitter": "None", "instagram": "None", "facebook": "None", "youtube": "None", "website": "None", "summary": "None", "logo": "None", "latitude": 45.44489195031453, "longitude": -73.76914687569942}, "133235929RR0002": {"name": "WEST ISLAND CHURCH OF GOD", "designationCode": "C", "categoryCode": "39", "address": "11645 RUE PAVILLON", "city": "PIERREFONDS", "province": "QC", "country": "CA", "postalCode": "H8Y2Y3", "twitter": "None", "instagram": "None", "facebook": "None", "youtube": "None", "website": "None", "summary": "None", "logo": "None", "latitude": 45.51031758200137, "longitude": -73.81920908130887}, "892497744RR0001": {"name": "WEST ISLAND COLLEGE FOUNDATION / LA FONDATION DU COLLEGE DE L'OUEST DE L'ILE", "designationCode": "A", "categoryCode": "21", "address": "851 TECUMSEH", "city": "DOLLARD-DES-ORMEAUX", "province": "QC", "country": "CA", "postalCode": "H9B2L9", "twitter": "None", "instagram": "None", "facebook": "None", "youtube": "None", "website": "None", "summary": "None", "logo": "None", "latitude": 45.478399209302104, "longitude": -73.81557882757275}, "105645212RR0001": {"name": "WEST ISLAND COLLEGE SOCIETY OF ALBERTA", "designationCode": "C", "categoryCode": "20", "address": "7410 BLACKFOOT TRAIL SE", "city": "CALGARY", "province": "AB", "country": "CA", "postalCode": "T2H1M5", "twitter": "None", "instagram": "None", "facebook": "None", "youtube": "None", "website": "None", "summary": "None", "logo": "None", "latitude": 50.98721567638063, "longitude": -114.05307841020836}, "118793074RR0042": {"name": "WEST ISLAND SEVENTH-DAY ADVENTIST CHURCH", "designationCode": "C", "categoryCode": "41", "address": "120 PLACE DU BUISSON", "city": "PIERREFONDS", "province": "QC", "country": "CA", "postalCode": "H8Y2Z6", "twitter": "None", "instagram": "None", "facebook": "None", "youtube": "None", "website": "None", "summary": "None", "logo": "None", "latitude": 45.50710267415895, "longitude": -73.81744924329143}, "878987916RR0001": {"name": "WEST KOOTENAY BRAIN INJURY ASSOCIATION", "designationCode": "C", "categoryCode": "11", "address": "RM#3-BOX D-1250-26TH STREET", "city": "CASTLEGAR", "province": "BC", "country": "CA", "postalCode": "V1N4C9", "twitter": "None", "instagram": "None", "facebook": "None", "youtube": "None", "website": "None", "summary": "None", "logo": "None", "latitude": 49.28239935978679, "longitude": -117.66119054219516}, "119294072RR0001": {"name": "WEST KOOTENAY EDUCATIONAL RESOURCE SOCIETY", "designationCode": "C", "categoryCode": "23", "address": "PO BOX 240", "city": "WINLAW", "province": "BC", "country": "CA", "postalCode": "V0G2J0", "twitter": "None", "instagram": "None", "facebook": "None", "youtube": "None", "website": "None", "summary": "None", "logo": "None", "latitude": 49.612520000000075, "longitude": -117.56098999999995}, "119294114RR0001": {"name": "WEST KOOTENAY REGIONAL ARTS COUNCIL", "designationCode": "C", "categoryCode": "22", "address": "P.O. BOX 103", "city": "NELSON", "province": "BC", "country": "CA", "postalCode": "V1L5P7", "twitter": "None", "instagram": "None", "facebook": "None", "youtube": "None", "website": "None", "summary": "None", "logo": "None", "latitude": 49.49754900000005, "longitude": -117.28882249999992}, "119294122RR0001": {"name": "WEST KOOTENAY WOMEN S ASSOCIATION", "designationCode": "C", "categoryCode": "09", "address": "420 MILL STREET", "city": "NELSON", "province": "BC", "country": "CA", "postalCode": "V1L4R9", "twitter": "None", "instagram": "None", "facebook": "None", "youtube": "None", "website": "None", "summary": "None", "logo": "None", "latitude": 49.488419580806635, "longitude": -117.29227568842502}, "888650660RR0001": {"name": "WEST KOOTENAY/BOUNDARY A I D S NETWORK OUTREACH SUPPORT SOCIETY", "designationCode": "C", "categoryCode": "11", "address": "101 BAKER STREET", "city": "NELSON", "province": "BC", "country": "CA", "postalCode": "V1L4H1", "twitter": "None", "instagram": "None", "facebook": "None", "youtube": "None", "website": "None", "summary": "None", "logo": "None", "latitude": 49.4899882486756, "longitude": -117.2995703119002}, "892322769RR0001": {"name": "WEST KOOTENAY/BOUNDARY CRIME STOPPERS", "designationCode": "C", "categoryCode": "59", "address": "#4-615 COLUMBA AVENUE", "city": "CASTLEGAR", "province": "BC", "country": "CA", "postalCode": "V1N1G9", "twitter": "None", "instagram": "None", "facebook": "None", "youtube": "None", "website": "None", "summary": "None", "logo": "None", "latitude": 49.30970000000008, "longitude": -117.66035}, "108201476RR0001": {"name": "WEST LANE BAPTIST CHURCH", "designationCode": "C", "categoryCode": "31", "address": "69 HUNTINGTON COURT", "city": "MONCTON", "province": "NB", "country": "CA", "postalCode": "E1C9L6", "twitter": "None", "instagram": "None", "facebook": "None", "youtube": "None", "website": "None", "summary": "None", "logo": "None", "latitude": 46.09952338802001, "longitude": -64.83368880587442}, "890756745RR0001": {"name": "WEST LANGLEY PARENT ADVISORY COUNCIL", "designationCode": "C", "categoryCode": "21", "address": "9403-212 STREET", "city": "LANGLEY", "province": "BC", "country": "CA", "postalCode": "V1M1M1", "twitter": "None", "instagram": "None", "facebook": "None", "youtube": "None", "website": "None", "summary": "None", "logo": "None", "latitude": 49.17326024485719, "longitude": -122.63461849703039}, "852257278RR0001": {"name": "WEST LINCOLN COMMUNITY CARE", "designationCode": "C", "categoryCode": "09", "address": "2660 INDUSTRIAL PARK ROAD #6", "city": "SMITHVILLE", "province": "ON", "country": "CA", "postalCode": "L0R2A0", "twitter": "None", "instagram": "None", "facebook": "None", "youtube": "None", "website": "None", "summary": "None", "logo": "None", "latitude": 43.098951644757236, "longitude": -79.53603468062155}, "119294213RR0001": {"name": "WEST LINCOLN HISTORICAL SOCIETY", "designationCode": "C", "categoryCode": "50", "address": "P.O. BOX 797", "city": "SMITHVILLE", "province": "ON", "country": "CA", "postalCode": "L0R2A0", "twitter": "None", "instagram": "None", "facebook": "None", "youtube": "None", "website": "None", "summary": "None", "logo": "None", "latitude": 43.09114347619214, "longitude": -79.56149144437846}, "138593462RR0001": {"name": "WEST LINCOLN MEMORIAL AUXILIARY", "designationCode": "C", "categoryCode": "19", "address": "169 MAIN STREET EAST", "city": "GRIMSBY", "province": "ON", "country": "CA", "postalCode": "L3M1P3", "twitter": "None", "instagram": "None", "facebook": "None", "youtube": "None", "website": "None", "summary": "None", "logo": "None", "latitude": 43.1876220419525, "longitude": -79.54224401260905}, "108201526RR0001": {"name": "WEST LINCOLN MEMORIAL HOSPITAL FOUNDATION INC.", "designationCode": "A", "categoryCode": "13", "address": "167 MAIN STREET EAST", "city": "GRIMSBY", "province": "ON", "country": "CA", "postalCode": "L3M1P2", "twitter": "None", "instagram": "None", "facebook": "None", "youtube": "None", "website": "None", "summary": "None", "logo": "None", "latitude": 43.18764383602155, "longitude": -79.5421100489777}, "108201773RR0001": {"name": "WEST LONDON ALLIANCE CHURCH OF THE CHRISTIAN AND MISSIONARY ALLIANCE IN CANADA", "designationCode": "C", "categoryCode": "39", "address": "750 WONDERLAND RD N", "city": "LONDON", "province": "ON", "country": "CA", "postalCode": "N6H4K9", "twitter": "None", "instagram": "None", "facebook": "None", "youtube": "None", "website": "None", "summary": "None", "logo": "None", "latitude": 42.98904108102042, "longitude": -81.29532415453808}, "119294379RR0001": {"name": "WEST LORNE BAPTIST CHURCH", "designationCode": "C", "categoryCode": "31", "address": "197 GRAHAM STREET", "city": "WEST LORNE", "province": "ON", "country": "CA", "postalCode": "N0L2P0", "twitter": "None", "instagram": "None", "facebook": "None", "youtube": "None", "website": "None", "summary": "None", "logo": "None", "latitude": 42.60212889953256, "longitude": -81.60443155591787}, "119294395RR0001": {"name": "WEST LORNE UNITED CHURCH,", "designationCode": "C", "categoryCode": "44", "address": "224 NANCY STREET", "city": "DUTTON", "province": "ON", "country": "CA", "postalCode": "N0L1J0", "twitter": "None", "instagram": "None", "facebook": "None", "youtube": "None", "website": "None", "summary": "None", "logo": "None", "latitude": 42.66686732824338, "longitude": -81.50386497650639}, "119288918RR0427": {"name": "WEST LYNDE CONGREGATION OF JEHOVAH'S WITNESSES WHITBY ONTARIO", "designationCode": "C", "categoryCode": "61", "address": "60 WETHERBURN DRIVE", "city": "WHITBY", "province": "ON", "country": "CA", "postalCode": "L1P1M8", "twitter": "None", "instagram": "None", "facebook": "None", "youtube": "None", "website": "None", "summary": "None", "logo": "None", "latitude": 43.89855362946514, "longitude": -78.9654370422123}, "897075263RR0001": {"name": "WEST MEADOWLARK PLAYGROUND RECONSTRUCTION SOCIETY", "designationCode": "C", "categoryCode": "56", "address": "9305-168 STREET", "city": "EDMONTON", "province": "AB", "country": "CA", "postalCode": "T5R2W1", "twitter": "None", "instagram": "None", "facebook": "None", "youtube": "None", "website": "None", "summary": "None", "logo": "None", "latitude": 53.52895200611684, "longitude": -113.61160780264312}, "119036267RR0001": {"name": "WEST MEADOWS BAPTIST CHURCH", "designationCode": "C", "categoryCode": "31", "address": "9333-199 STREET", "city": "EDMONTON", "province": "AB", "country": "CA", "postalCode": "T5T6E8", "twitter": "None", "instagram": "None", "facebook": "None", "youtube": "None", "website": "None", "summary": "None", "logo": "None", "latitude": 53.528987200376804, "longitude": -113.664245107518}, "119288918RR0633": {"name": "WEST MILTON CONGREGATION OF JEHOVAH'S WITNESSES", "designationCode": "C", "categoryCode": "61", "address": "10 MCCANDLESS CRT", "city": "MILTON", "province": "ON", "country": "CA", "postalCode": "L9T7B1", "twitter": "None", "instagram": "None", "facebook": "None", "youtube": "None", "website": "None", "summary": "None", "logo": "None", "latitude": 43.48847754400131, "longitude": -79.86923420970614}, "119295145RR0001": {"name": "WEST NEPEAN ECUMENICAL RESIDENTIAL PROJECTS", "designationCode": "C", "categoryCode": "09", "address": "848 SEYTON DRIVE", "city": "NEPEAN", "province": "ON", "country": "CA", "postalCode": "K2H9G6", "twitter": "None", "instagram": "None", "facebook": "None", "youtube": "None", "website": "None", "summary": "None", "logo": "None", "latitude": 45.31359559665923, "longitude": -75.83306658647342}, "856998604RR0001": {"name": "WEST NIAGARA FAMILY CENTRE INC.", "designationCode": "C", "categoryCode": "09", "address": "40 BAKER RD S", "city": "GRIMSBY", "province": "ON", "country": "CA", "postalCode": "L3M5H6", "twitter": "None", "instagram": "None", "facebook": "None", "youtube": "None", "website": "None", "summary": "None", "logo": "None", "latitude": 43.18233117652487, "longitude": -79.54016628201263}, "140813411RR0001": {"name": "WEST NIAGARA PALLIATIVE CARE SERVICES", "designationCode": "C", "categoryCode": "11", "address": "148 CENTRAL AVE", "city": "GRIMSBY", "province": "ON", "country": "CA", "postalCode": "L3M4Z3", "twitter": "None", "instagram": "None", "facebook": "None", "youtube": "None", "website": "None", "summary": "None", "logo": "None", "latitude": 43.19076908240539, "longitude": -79.54123539800334}, "867858979RR0001": {"name": "WEST NIAGARA SECOND STAGE HOUSING & COUNSELLING INC", "designationCode": "C", "categoryCode": "09", "address": "P.O. BOX 1115", "city": "BEAMSVILLE", "province": "ON", "country": "CA", "postalCode": "L0R1B0", "twitter": "None", "instagram": "None", "facebook": "None", "youtube": "None", "website": "None", "summary": "None", "logo": "None", "latitude": 43.16732700000006, "longitude": -79.47640249999994}, "892112582RR0001": {"name": "WEST NIPISSING FOOD BANK", "designationCode": "C", "categoryCode": "01", "address": "109 THIRD STREET, UNIT #3", "city": "STURGEON FALLS", "province": "ON", "country": "CA", "postalCode": "P2B3A7", "twitter": "None", "instagram": "None", "facebook": "None", "youtube": "None", "website": "None", "summary": "None", "logo": "None", "latitude": 46.36043347936953, "longitude": -79.92560322300767}, "108203100RR0001": {"name": "WEST ORO BAPTIST CHURCH", "designationCode": "C", "categoryCode": "31", "address": "1827 LINE 4 N", "city": "ORO-MEDONTE", "province": "ON", "country": "CA", "postalCode": "L0L2L0", "twitter": "None", "instagram": "None", "facebook": "None", "youtube": "None", "website": "None", "summary": "None", "logo": "None", "latitude": 44.511657378909426, "longitude": -79.62357927194236}, "873941611RR0001": {"name": "WEST OTTAWA CHRISTIAN COMMUNITY", "designationCode": "C", "categoryCode": "47", "address": "3123 CARP ROAD", "city": "CARP", "province": "ON", "country": "CA", "postalCode": "K0A1L0", "twitter": "None", "instagram": "None", "facebook": "None", "youtube": "None", "website": "None", "summary": "None", "logo": "None", "latitude": 45.31948117591929, "longitude": -76.00463955378216}, "119295327RR0001": {"name": "WEST OXFORD UNITED CHURCH,", "designationCode": "C", "categoryCode": "44", "address": "30 KING STREET EAST", "city": "INGERSOLL", "province": "ON", "country": "CA", "postalCode": "N5C1G4", "twitter": "None", "instagram": "None", "facebook": "None", "youtube": "None", "website": "None", "summary": "None", "logo": "None", "latitude": 43.03795207172888, "longitude": -80.88123853894663}, "108203142RR0001": {"name": "WEST PARK BAPTIST CHURCH", "designationCode": "C", "categoryCode": "31", "address": "955 GAINSBOROUGH RD", "city": "LONDON", "province": "ON", "country": "CA", "postalCode": "N6G5C9", "twitter": "None", "instagram": "None", "facebook": "None", "youtube": "None", "website": "None", "summary": "None", "logo": "None", "latitude": 43.00004177616832, "longitude": -81.32789052887001}, "119288918RR1056": {"name": "WEST PARK CONGREGATION OF JEHOVAH'S WITNESSES TORONTO, ONTARIO", "designationCode": "C", "categoryCode": "61", "address": "1001 - 2130 WESTON RD", "city": "TORONTO", "province": "ON", "country": "CA", "postalCode": "M9N3R9", "twitter": "None", "instagram": "None", "facebook": "None", "youtube": "None", "website": "None", "summary": "None", "logo": "None", "latitude": 43.7025985053957, "longitude": -79.52445109882267}, "108203209RR0001": {"name": "WEST PARK HEALTHCARE CENTRE", "designationCode": "C", "categoryCode": "10", "address": "82 BUTTONWOOD AVE", "city": "TORONTO", "province": "ON", "country": "CA", "postalCode": "M6M2J5", "twitter": "None", "instagram": "None", "facebook": "None", "youtube": "None", "website": "None", "summary": "None", "logo": "None", "latitude": 43.68882215130677, "longitude": -79.5079902815217}, "119295350RR0001": {"name": "WEST PARK HEALTHCARE CENTRE FOUNDATION", "designationCode": "A", "categoryCode": "09", "address": "82 BUTTONWOOD AVE", "city": "TORONTO", "province": "ON", "country": "CA", "postalCode": "M6M2J5", "twitter": "None", "instagram": "None", "facebook": "None", "youtube": "None", "website": "None", "summary": "None", "logo": "None", "latitude": 43.68882215130677, "longitude": -79.5079902815217}, "119295376RR0001": {"name": "WEST PARK MANOR PERSONAL CARE HOME INC", "designationCode": "C", "categoryCode": "01", "address": "3199 GRANT AVE", "city": "WINNIPEG", "province": "MB", "country": "CA", "postalCode": "R3R1X2", "twitter": "None", "instagram": "None", "facebook": "None", "youtube": "None", "website": "None", "summary": "None", "logo": "None", "latitude": 49.85878451269503, "longitude": -97.25292034096027}, "119030666RR0019": {"name": "WEST PARK SEVENTH-DAY ADVENTIST CHURCH", "designationCode": "C", "categoryCode": "41", "address": "1004 VICTORIA AVE", "city": "SASKATOON", "province": "SK", "country": "CA", "postalCode": "S7N0Z8", "twitter": "None", "instagram": "None", "facebook": "None", "youtube": "None", "website": "None", "summary": "None", "logo": "None", "latitude": 52.115409, "longitude": -106.66240826773014}, "108203274RR0001": {"name": "WEST PARRY SOUND DISTRICT MUSEUM", "designationCode": "C", "categoryCode": "50", "address": "PO BOX 337                    17 GEORGE ST", "city": "PARRY SOUND", "province": "ON", "country": "CA", "postalCode": "P2A2X4", "twitter": "None", "instagram": "None", "facebook": "None", "youtube": "None", "website": "None", "summary": "None", "logo": "None", "latitude": 45.34028433331422, "longitude": -80.02769972612342}, "896350261RR0001": {"name": "WEST PARRY SOUND HEALTH CENTRE", "designationCode": "C", "categoryCode": "10", "address": "6 ALBERT ST", "city": "PARRY SOUND", "province": "ON", "country": "CA", "postalCode": "P2A3A4", "twitter": "None", "instagram": "None", "facebook": "None", "youtube": "None", "website": "None", "summary": "None", "logo": "None", "latitude": 45.34190277268198, "longitude": -80.01937494825869}, "866879950RR0001": {"name": "WEST PARRY SOUND HEALTH CENTRE FOUNDATION", "designationCode": "A", "categoryCode": "03", "address": "6 ALBERT STREET", "city": "PARRY SOUND", "province": "ON", "country": "CA", "postalCode": "P2A1T2", "twitter": "None", "instagram": "None", "facebook": "None", "youtube": "None", "website": "None", "summary": "None", "logo": "None", "latitude": 45.34190277268198, "longitude": -80.01937494825869}, "894711662RR0001": {"name": "WEST PICTOU SCHOOLS CATERING SOCIETY", "designationCode": "C", "categoryCode": "21", "address": "RR 3", "city": "WESTVILLE", "province": "NS", "country": "CA", "postalCode": "B0K2A0", "twitter": "None", "instagram": "None", "facebook": "None", "youtube": "None", "website": "None", "summary": "None", "logo": "None", "latitude": 45.559140000000056, "longitude": -62.70123049999994}, "119295434RR0001": {"name": "WEST PLAINS UNITED CHURCH,", "designationCode": "C", "categoryCode": "44", "address": "549 PLAINS ROAD WEST", "city": "BURLINGTON", "province": "ON", "country": "CA", "postalCode": "L7T1H1", "twitter": "None", "instagram": "None", "facebook": "None", "youtube": "None", "website": "None", "summary": "None", "logo": "None", "latitude": 43.29271444549576, "longitude": -79.8701559069188}, "855790887RR0001": {"name": "WEST POINT GREY ACADEMY FOUNDATION", "designationCode": "A", "categoryCode": "23", "address": "4125 WEST 8TH AVENUE          WEST POINT GREY ACADEMY C/O", "city": "VANCOUVER", "province": "BC", "country": "CA", "postalCode": "V6R4P9", "twitter": "None", "instagram": "None", "facebook": "None", "youtube": "None", "website": "None", "summary": "None", "logo": "None", "latitude": 49.26542100000006, "longitude": -123.19708849999994}, "119295442RR0001": {"name": "WEST POINT GREY BAPTIST CHURCH", "designationCode": "C", "categoryCode": "31", "address": "4509 11TH AVE W", "city": "VANCOUVER", "province": "BC", "country": "CA", "postalCode": "V6R2M5", "twitter": "None", "instagram": "None", "facebook": "None", "youtube": "None", "website": "None", "summary": "None", "logo": "None", "latitude": 49.26294351875456, "longitude": -123.2098599970858}, "108203332RR0001": {"name": "WEST POINT GREY COMMUNITY ASSOCIATION", "designationCode": "C", "categoryCode": "59", "address": "4397 WEST 2ND AVENUE", "city": "VANCOUVER", "province": "BC", "country": "CA", "postalCode": "V6R1K4", "twitter": "None", "instagram": "None", "facebook": "None", "youtube": "None", "website": "None", "summary": "None", "logo": "None", "latitude": 49.27138669949517, "longitude": -123.2056515810812}, "897267795RR0001": {"name": "WEST POINT GREY INDEPENDENT SCHOOL SOCIETY", "designationCode": "C", "categoryCode": "20", "address": "4125 8TH AVE W", "city": "VANCOUVER", "province": "BC", "country": "CA", "postalCode": "V6R4P9", "twitter": "None", "instagram": "None", "facebook": "None", "youtube": "None", "website": "None", "summary": "None", "logo": "None", "latitude": 49.26545415766143, "longitude": -123.19695069902085}, "108203365RR0001": {"name": "WEST POINT GREY UNITED CHURCH", "designationCode": "C", "categoryCode": "44", "address": "4595 WEST 8TH AVE", "city": "VANCOUVER", "province": "BC", "country": "CA", "postalCode": "V6R2A4", "twitter": "None", "instagram": "None", "facebook": "None", "youtube": "None", "website": "None", "summary": "None", "logo": "None", "latitude": 49.26570586157148, "longitude": -123.21185583052181}, "119295467RR0001": {"name": "WEST POINT PRESBYTERIAN CHURCH,", "designationCode": "C", "categoryCode": "37", "address": "936 HAMILTON RD               RR2", "city": "O'LEARY", "province": "PE", "country": "CA", "postalCode": "C0B1V0", "twitter": "None", "instagram": "None", "facebook": "None", "youtube": "None", "website": "None", "summary": "None", "logo": "None", "latitude": 46.648320358329855, "longitude": -64.37001701664842}, "108203373RR0001": {"name": "WEST PORTAL CHURCH-MENNONITE BRETHREN", "designationCode": "C", "categoryCode": "34", "address": "3134-33RD ST W", "city": "SASKATOON", "province": "SK", "country": "CA", "postalCode": "S7L6V5", "twitter": "None", "instagram": "None", "facebook": "None", "youtube": "None", "website": "None", "summary": "None", "logo": "None", "latitude": 52.14389050822297, "longitude": -106.72041133236193}, "892927245RR0001": {"name": "WEST PRINCE ALBERT CONGREGATION OF JEHOVAH'S WITNESSES INC", "designationCode": "C", "categoryCode": "61", "address": "SHELL RIVER HEIGHTS           SITE 28 COMP 66 RR #5", "city": "PRINCE ALBERT", "province": "SK", "country": "CA", "postalCode": "S6V5R3", "twitter": "None", "instagram": "None", "facebook": "None", "youtube": "None", "website": "None", "summary": "None", "logo": "None", "latitude": 53.199456000000055, "longitude": -105.74863099999993}, "133746263RR0001": {"name": "WEST PRINCE CARING CUPBOARD INC", "designationCode": "C", "categoryCode": "09", "address": "P.O. BOX 187", "city": "ALBERTON", "province": "PE", "country": "CA", "postalCode": "C0B1B0", "twitter": "None", "instagram": "None", "facebook": "None", "youtube": "None", "website": "None", "summary": "None", "logo": "None", "latitude": 46.813510000000065, "longitude": -64.06533999999994}}