{"872113303RR0002": {"name": "FELLOWSHIP CHRISTIAN REFORMED CHURCH OF ST. THOMAS", "designationCode": "C", "categoryCode": "39", "address": "641 ELM ST.", "city": "ST. THOMAS", "province": "ON", "country": "CA", "postalCode": "N5R1K9", "twitter": "None", "instagram": "None", "facebook": "None", "youtube": "None", "website": "None", "summary": "None", "logo": "None", "latitude": 42.763399218116106, "longitude": -81.15883013398926}, "812708881RR0001": {"name": "FELLOWSHIP COMMUNITY CHURCH INCORPORATED", "designationCode": "C", "categoryCode": "39", "address": "BOX 262", "city": "WASKADA", "province": "MB", "country": "CA", "postalCode": "R0M2E0", "twitter": "None", "instagram": "None", "facebook": "None", "youtube": "None", "website": "None", "summary": "None", "logo": "None", "latitude": 49.09763000000004, "longitude": -100.80228999999997}, "133231761RR0002": {"name": "FELLOWSHIP DEACONRY ASSOCIATION OF BRITISH COLUMBIA", "designationCode": "C", "categoryCode": "39", "address": "6311 PRINCE ALBERT STREET", "city": "VANCOUVER", "province": "BC", "country": "CA", "postalCode": "V5W3E7", "twitter": "None", "instagram": "None", "facebook": "None", "youtube": "None", "website": "None", "summary": "None", "logo": "None", "latitude": 49.22717453427779, "longitude": -123.0879950017021}, "891740847RR0001": {"name": "FELLOWSHIP DEACONRY INC.", "designationCode": "C", "categoryCode": "39", "address": "10519-79 AVE", "city": "EDMONTON", "province": "AB", "country": "CA", "postalCode": "T6E1R9", "twitter": "None", "instagram": "None", "facebook": "None", "youtube": "None", "website": "None", "summary": "None", "logo": "None", "latitude": 53.51514653231591, "longitude": -113.50134008381903}, "107379901RR0001": {"name": "FELLOWSHIP FOR PRINT WITNESS INC.", "designationCode": "C", "categoryCode": "47", "address": "245 WILLOW BAY", "city": "ALTONA", "province": "MB", "country": "CA", "postalCode": "R0G0B1", "twitter": "None", "instagram": "None", "facebook": "None", "youtube": "None", "website": "None", "summary": "None", "logo": "None", "latitude": 49.105548000000006, "longitude": -97.5695111072618}, "118914407RR0001": {"name": "FELLOWSHIP GOSPEL ASSEMBLY", "designationCode": "C", "categoryCode": "39", "address": "527 KILLARNEY ROAD", "city": "KELOWNA", "province": "BC", "country": "CA", "postalCode": "V1X5C6", "twitter": "None", "instagram": "None", "facebook": "None", "youtube": "None", "website": "None", "summary": "None", "logo": "None", "latitude": 49.90993568311462, "longitude": -119.39597818112543}, "893026765RR0001": {"name": "FELLOWSHIP HAVEN AMISH MENNONITE CHURCH", "designationCode": "C", "categoryCode": "39", "address": "4466 COMMUNITY CENTRE DR.     BOX 41", "city": "NEWTON", "province": "ON", "country": "CA", "postalCode": "N0K1R0", "twitter": "None", "instagram": "None", "facebook": "None", "youtube": "None", "website": "None", "summary": "None", "logo": "None", "latitude": 43.59229000759733, "longitude": -80.87768460876464}, "899724363RR0001": {"name": "FELLOWSHIP OF CATHOLIC SCHOLARS, CANADA / AMICALE DES SAVANTS CATHOLIQUES, CANADA", "designationCode": "C", "categoryCode": "49", "address": "44 AUGUSTA DRIVE WAY", "city": "MARKHAM", "province": "ON", "country": "CA", "postalCode": "L6E1B5", "twitter": "None", "instagram": "None", "facebook": "None", "youtube": "None", "website": "None", "summary": "None", "logo": "None", "latitude": 43.90114887676729, "longitude": -79.24817748017759}, "868042342RR0001": {"name": "FELLOWSHIP OF CHRISTIAN COWBOYS - MANITOBA CHAPTER", "designationCode": "C", "categoryCode": "49", "address": "BOX 187", "city": "NEWDALE", "province": "MB", "country": "CA", "postalCode": "R0J0J0", "twitter": "None", "instagram": "None", "facebook": "None", "youtube": "None", "website": "None", "summary": "None", "logo": "None", "latitude": 50.34361403826694, "longitude": -100.06583333072398}, "860487958RR0001": {"name": "FELLOWSHIP OF CHRISTIAN FARMERS - CANADA", "designationCode": "C", "categoryCode": "45", "address": "PO BOX 607", "city": "ALEXANDRIA", "province": "ON", "country": "CA", "postalCode": "K0C1A0", "twitter": "None", "instagram": "None", "facebook": "None", "youtube": "None", "website": "None", "summary": "None", "logo": "None", "latitude": 45.324006000000054, "longitude": -74.57325649999993}, "890169774RR0001": {"name": "FELLOWSHIP OF CHRISTIANS", "designationCode": "C", "categoryCode": "39", "address": "147 CHANDLER DRIVE", "city": "LOWER SACKVILLE", "province": "NS", "country": "CA", "postalCode": "B4C1Y3", "twitter": "None", "instagram": "None", "facebook": "None", "youtube": "None", "website": "None", "summary": "None", "logo": "None", "latitude": 44.767227404668446, "longitude": -63.66181664262245}, "135939692RR0001": {"name": "FELLOWSHIP OF EVANGELICAL BAPTIST CHURCHES ATLANTIC REGION", "designationCode": "C", "categoryCode": "49", "address": "39 OLIVE AVE", "city": "BEDFORD", "province": "NS", "country": "CA", "postalCode": "B4B1C7", "twitter": "None", "instagram": "None", "facebook": "None", "youtube": "None", "website": "None", "summary": "None", "logo": "None", "latitude": 44.724619172918196, "longitude": -63.714639230249695}, "131959777RR0001": {"name": "FELLOWSHIP OF EVANGELICAL BAPTIST CHURCHES IN BRITISH COLUMBIA AND YUKON", "designationCode": "C", "categoryCode": "31", "address": "PO BOX 1107", "city": "FORT LANGLEY", "province": "BC", "country": "CA", "postalCode": "V1M2S4", "twitter": "None", "instagram": "None", "facebook": "None", "youtube": "None", "website": "None", "summary": "None", "logo": "None", "latitude": 49.16854007718262, "longitude": -122.57416995556595}, "136938149RR0001": {"name": "FELLOWSHIP OF EVANGELICAL BIBLE CHURCHES OF CANADA INC.", "designationCode": "C", "categoryCode": "34", "address": "PO BOX 115", "city": "LANGHAM", "province": "SK", "country": "CA", "postalCode": "S0K2L0", "twitter": "None", "instagram": "None", "facebook": "None", "youtube": "None", "website": "None", "summary": "None", "logo": "None", "latitude": 52.405424999999994, "longitude": -106.9638075}, "118914456RR0001": {"name": "FELLOWSHIP OF FAITH FOR THE MUSLIMS", "designationCode": "C", "categoryCode": "47", "address": "746 PAPE AVENUE               P.O. BOX 65214", "city": "TORONTO", "province": "ON", "country": "CA", "postalCode": "M4K3Z2", "twitter": "None", "instagram": "None", "facebook": "None", "youtube": "None", "website": "None", "summary": "None", "logo": "None", "latitude": 43.68066438328817, "longitude": -79.34555772136291}, "890942535RR0001": {"name": "FELLOWSHIP OF LIBERTY GOSPEL CITY CHURCH", "designationCode": "C", "categoryCode": "39", "address": "BOX 5, 127 PINTO LANE", "city": "AIRDRIE", "province": "AB", "country": "CA", "postalCode": "T4B2A4", "twitter": "None", "instagram": "None", "facebook": "None", "youtube": "None", "website": "None", "summary": "None", "logo": "None", "latitude": 51.279269921980685, "longitude": -113.95987802654483}, "857786339RR0001": {"name": "FELLOWSHIP OF LOVE COMMUNITY CHURCH OF GOD", "designationCode": "C", "categoryCode": "39", "address": "2045 GRANDVIEW ST N", "city": "OSHAWA", "province": "ON", "country": "CA", "postalCode": "L1H8L7", "twitter": "None", "instagram": "None", "facebook": "None", "youtube": "None", "website": "None", "summary": "None", "logo": "None", "latitude": 43.9596301423913, "longitude": -78.84753118036268}, "132031741RR0001": {"name": "FELLOWSHIP OF MAN CHARITABLE FOUNDATION", "designationCode": "B", "categoryCode": "03", "address": "130 KING ST. W.  20TH FLOOR   BOX 430 STN FIRST CANADIAN PL.", "city": "TORONTO", "province": "ON", "country": "CA", "postalCode": "M5X1K1", "twitter": "None", "instagram": "None", "facebook": "None", "youtube": "None", "website": "None", "summary": "None", "logo": "None", "latitude": 43.64826932503962, "longitude": -79.38190945606182}, "119232809RR0001": {"name": "FELLOWSHIP PRAIRIES INC.", "designationCode": "C", "categoryCode": "31", "address": "11525 23 AVE NW", "city": "EDMONTON", "province": "AB", "country": "CA", "postalCode": "T6J4T3", "twitter": "None", "instagram": "None", "facebook": "None", "youtube": "None", "website": "None", "summary": "None", "logo": "None", "latitude": 53.45376650822484, "longitude": -113.52726215361537}, "118781459RR0001": {"name": "FELLOWSHIP PRESBYTERIAN CHURCH", "designationCode": "C", "categoryCode": "37", "address": "80 THISLTE DOWN BLVD.", "city": "ETOBICOKE", "province": "ON", "country": "CA", "postalCode": "M9V1J2", "twitter": "None", "instagram": "None", "facebook": "None", "youtube": "None", "website": "None", "summary": "None", "logo": "None", "latitude": 43.73773031115456, "longitude": -79.55686622329614}, "882632367RR0001": {"name": "FELLOWSHIP TOWERS FOUNDATION", "designationCode": "A", "categoryCode": "09", "address": "877 YONGE STREET", "city": "TORONTO", "province": "ON", "country": "CA", "postalCode": "M4W3M2", "twitter": "None", "instagram": "None", "facebook": "None", "youtube": "None", "website": "None", "summary": "None", "logo": "None", "latitude": 43.6741696408621, "longitude": -79.38836055796669}, "891836843RR0001": {"name": "FELLOWSHIP WILDERNESS CAMP", "designationCode": "C", "categoryCode": "49", "address": "PO BOX 2345", "city": "PETERBOROUGH", "province": "ON", "country": "CA", "postalCode": "K9J7Y8", "twitter": "None", "instagram": "None", "facebook": "None", "youtube": "None", "website": "None", "summary": "None", "logo": "None", "latitude": 44.30591700000005, "longitude": -78.31950199999993}, "132948852RR0001": {"name": "FELSEN FOUNDATION", "designationCode": "B", "categoryCode": "03", "address": "200-1889 SPRINGFIELD RD", "city": "KELOWNA", "province": "BC", "country": "CA", "postalCode": "V1Y5V5", "twitter": "None", "instagram": "None", "facebook": "None", "youtube": "None", "website": "None", "summary": "None", "logo": "None", "latitude": 49.87710040660634, "longitude": -119.4548724756288}, "118914498RR0001": {"name": "FELTZEN SOUTH CEMETERY COMPANY", "designationCode": "C", "categoryCode": "59", "address": "863 FELTZEN SOUTH RD.", "city": "LUNENBURG CO.", "province": "NS", "country": "CA", "postalCode": "B0J2X0", "twitter": "None", "instagram": "None", "facebook": "None", "youtube": "None", "website": "None", "summary": "None", "logo": "None", "latitude": 44.33224158670457, "longitude": -64.28737674730216}, "120052469RR0001": {"name": "FEMMES AUTOCHTONES DU QUEBEC INC", "designationCode": "C", "categoryCode": "59", "address": "C.P. 1989", "city": "KAHNAWAKE", "province": "QC", "country": "CA", "postalCode": "J0L1B0", "twitter": "None", "instagram": "None", "facebook": "None", "youtube": "None", "website": "None", "summary": "None", "logo": "None", "latitude": 45.40893900000006, "longitude": -73.67383249999993}, "870172525RR0001": {"name": "FEMMES AVERTIES/WOMEN AWARE", "designationCode": "C", "categoryCode": "59", "address": "7 - 1200 AV ATWATER", "city": "WESTMOUNT", "province": "QC", "country": "CA", "postalCode": "H3Z1X4", "twitter": "None", "instagram": "None", "facebook": "None", "youtube": "None", "website": "None", "summary": "None", "logo": "None", "latitude": 45.48882355952457, "longitude": -73.58404112727209}, "868686767RR0001": {"name": "FEMMES DU MONDE \u00c0 C\u00d4TE-DES-NEIGES", "designationCode": "C", "categoryCode": "03", "address": "6767 CH DE LA COTE DES NEIGES SUITE 597", "city": "MONTREAL", "province": "QC", "country": "CA", "postalCode": "H3S2T6", "twitter": "None", "instagram": "None", "facebook": "None", "youtube": "None", "website": "None", "summary": "None", "logo": "None", "latitude": 45.50313226868245, "longitude": -73.63713869926147}, "891948887RR0001": {"name": "FEMMES ET MINISTERES", "designationCode": "C", "categoryCode": "21", "address": "127A RUE LAROCHELLE", "city": "ASBESTOS", "province": "QC", "country": "CA", "postalCode": "J1T3M7", "twitter": "None", "instagram": "None", "facebook": "None", "youtube": "None", "website": "None", "summary": "None", "logo": "None", "latitude": 45.79202771270136, "longitude": -71.90154534775525}, "132646969RR0001": {"name": "FEMMES-ACTION: S\u00c9PARATION-DIVORCE", "designationCode": "C", "categoryCode": "09", "address": "780 RUE JOLLIET               C.P. 8208", "city": "CHICOUTIMI", "province": "QC", "country": "CA", "postalCode": "G7H5B7", "twitter": "None", "instagram": "None", "facebook": "None", "youtube": "None", "website": "None", "summary": "None", "logo": "None", "latitude": 48.41722057146978, "longitude": -71.06912305862957}, "817529670RR0001": {"name": "FEMMES, ENFANTS, ETC.", "designationCode": "C", "categoryCode": "01", "address": "2956 RUE GIROUARD O", "city": "SAINT-HYACINTHE", "province": "QC", "country": "CA", "postalCode": "J2S3B9", "twitter": "None", "instagram": "None", "facebook": "None", "youtube": "None", "website": "None", "summary": "None", "logo": "None", "latitude": 45.618141372208314, "longitude": -72.95790769014353}, "118914548RR0001": {"name": "FENELON AGRICULTURAL SOCIETY", "designationCode": "C", "categoryCode": "56", "address": "27 VETERANS WAY               P.O. BOX 872", "city": "FENELON FALLS", "province": "ON", "country": "CA", "postalCode": "K0M1N0", "twitter": "None", "instagram": "None", "facebook": "None", "youtube": "None", "website": "None", "summary": "None", "logo": "None", "latitude": 44.53081572937499, "longitude": -78.74181479838535}, "877974782RR0001": {"name": "FENELON FALLS MUSEUM BOARD", "designationCode": "C", "categoryCode": "53", "address": "PO BOX 179", "city": "FENELON FALLS", "province": "ON", "country": "CA", "postalCode": "K0M1N0", "twitter": "None", "instagram": "None", "facebook": "None", "youtube": "None", "website": "None", "summary": "None", "logo": "None", "latitude": 44.53758000000005, "longitude": -78.73584999999997}, "132041443RR0001": {"name": "FENELON FALLS PASTORAL CHARGE,", "designationCode": "C", "categoryCode": "44", "address": "123 COLBORNE STREET           P.O. BOX 14", "city": "FENELON FALLS", "province": "ON", "country": "CA", "postalCode": "K0M1N0", "twitter": "None", "instagram": "None", "facebook": "None", "youtube": "None", "website": "None", "summary": "None", "logo": "None", "latitude": 44.539971464337235, "longitude": -78.73416824508045}, "130177819RR0001": {"name": "FENWICK PASTORAL CHARGE", "designationCode": "C", "categoryCode": "44", "address": "PO BOX 5                      1050 CHURCH ST", "city": "FENWICK", "province": "ON", "country": "CA", "postalCode": "L0S1C0", "twitter": "None", "instagram": "None", "facebook": "None", "youtube": "None", "website": "None", "summary": "None", "logo": "None", "latitude": 43.02384308381903, "longitude": -79.36244909709099}, "118914589RR0001": {"name": "FENWICK UNITED CHURCH", "designationCode": "C", "categoryCode": "44", "address": "R.R.#6", "city": "AMHERST", "province": "NS", "country": "CA", "postalCode": "B4H3Y4", "twitter": "None", "instagram": "None", "facebook": "None", "youtube": "None", "website": "None", "summary": "None", "logo": "None", "latitude": 45.78644400000006, "longitude": -64.19574349999994}, "119288918RR0718": {"name": "FERGUS ONTARIO, CONGREGATION OF JEHOVAH'S WITNESSES", "designationCode": "C", "categoryCode": "61", "address": "585 GARAFRAXA ST E", "city": "FERGUS", "province": "ON", "country": "CA", "postalCode": "N1M1E8", "twitter": "None", "instagram": "None", "facebook": "None", "youtube": "None", "website": "None", "summary": "None", "logo": "None", "latitude": 43.7157222505381, "longitude": -80.37158693432355}, "119288918RR0138": {"name": "FERGUSON CONGREGATION OF JEHOVAH'S WITNESSES", "designationCode": "C", "categoryCode": "61", "address": "#2807 - 892 CARNARVON STREET", "city": "SURREY", "province": "BC", "country": "CA", "postalCode": "V3M0C5", "twitter": "None", "instagram": "None", "facebook": "None", "youtube": "None", "website": "None", "summary": "None", "logo": "None", "latitude": 49.20058576038343, "longitude": -122.91526327790639}, "890402373RR0001": {"name": "FERGUSON FLATS ASSOCIATION", "designationCode": "C", "categoryCode": "56", "address": "BOX 54", "city": "LINDBERGH", "province": "AB", "country": "CA", "postalCode": "T0A2J0", "twitter": "None", "instagram": "None", "facebook": "None", "youtube": "None", "website": "None", "summary": "None", "logo": "None"}, "118914639RR0001": {"name": "FERGUSON PRESBYTERIAN CHURCH", "designationCode": "C", "categoryCode": "37", "address": "26 SHERWOOD DR", "city": "SOUTH ESK", "province": "NB", "country": "CA", "postalCode": "E1V4N4", "twitter": "None", "instagram": "None", "facebook": "None", "youtube": "None", "website": "None", "summary": "None", "logo": "None", "latitude": 46.95579658116465, "longitude": -65.61762460522796}, "140648874RR0001": {"name": "FERME P\u00c9DAGOGIQUE MARICHEL", "designationCode": "C", "categoryCode": "29", "address": "809 RANG BOIS FRANC", "city": "STE-AGATHE-DE-LOTBINIERE", "province": "QC", "country": "CA", "postalCode": "G0S2A0", "twitter": "None", "instagram": "None", "facebook": "None", "youtube": "None", "website": "None", "summary": "None", "logo": "None", "latitude": 46.38478970179935, "longitude": -71.43257461238308}, "121270748RR0001": {"name": "FERN HILL SCHOOL (OTTAWA) INC", "designationCode": "C", "categoryCode": "01", "address": "50 VAUGHAN STREET", "city": "OTTAWA", "province": "ON", "country": "CA", "postalCode": "K1M1X1", "twitter": "None", "instagram": "None", "facebook": "None", "youtube": "None", "website": "None", "summary": "None", "logo": "None", "latitude": 45.44039177240468, "longitude": -75.67826798955532}, "129879094RR0001": {"name": "FERNDALE BIBLE CHURCH", "designationCode": "C", "categoryCode": "39", "address": "25 FERNDALE AVENUE", "city": "PETERBOROUGH", "province": "ON", "country": "CA", "postalCode": "K9J1M1", "twitter": "None", "instagram": "None", "facebook": "None", "youtube": "None", "website": "None", "summary": "None", "logo": "None", "latitude": 44.282220358329866, "longitude": -78.36021726034389}, "118914779RR0001": {"name": "FERNIE & DISTRICT HISTORICAL SOCIETY", "designationCode": "C", "categoryCode": "50", "address": "PO BOX 1527", "city": "FERNIE", "province": "BC", "country": "CA", "postalCode": "V0B1M0", "twitter": "None", "instagram": "None", "facebook": "None", "youtube": "None", "website": "None", "summary": "None", "logo": "None", "latitude": 49.499960000000044, "longitude": -115.06870999999995}, "898329297RR0001": {"name": "FERNIE & DISTRICT SEARCH AND RESCUE SOCIETY", "designationCode": "C", "categoryCode": "59", "address": "P.O. BOX 190", "city": "FERNIE", "province": "BC", "country": "CA", "postalCode": "V0B1M0", "twitter": "None", "instagram": "None", "facebook": "None", "youtube": "None", "website": "None", "summary": "None", "logo": "None", "latitude": 49.499960000000044, "longitude": -115.06870999999995}, "124758558RR0001": {"name": "FERNIE AND DISTRICT ARTS COUNCIL", "designationCode": "C", "categoryCode": "22", "address": "BOX 1453", "city": "FERNIE", "province": "BC", "country": "CA", "postalCode": "V0B1M0", "twitter": "None", "instagram": "None", "facebook": "None", "youtube": "None", "website": "None", "summary": "None", "logo": "None", "latitude": 49.499960000000044, "longitude": -115.06870999999995}, "119288918RR0338": {"name": "FERNIE B C CONGREGATION OF JEHOVAH'S WITNESSES", "designationCode": "C", "categoryCode": "61", "address": "BOX 702", "city": "FERNIE", "province": "BC", "country": "CA", "postalCode": "V0B1M0", "twitter": "None", "instagram": "None", "facebook": "None", "youtube": "None", "website": "None", "summary": "None", "logo": "None", "latitude": 49.499960000000044, "longitude": -115.06870999999995}, "894132810RR0001": {"name": "FERNIE FAMILY HOUSING SOCIETY", "designationCode": "C", "categoryCode": "09", "address": "PO BOX 2768", "city": "FERNIE", "province": "BC", "country": "CA", "postalCode": "V0B1M0", "twitter": "None", "instagram": "None", "facebook": "None", "youtube": "None", "website": "None", "summary": "None", "logo": "None", "latitude": 49.499960000000044, "longitude": -115.06870999999995}, "107380867RR0001": {"name": "FERNIE FELLOWSHIP BAPTIST CHURCH", "designationCode": "C", "categoryCode": "31", "address": "BOX 1079", "city": "FERNIE", "province": "BC", "country": "CA", "postalCode": "V0B1M0", "twitter": "None", "instagram": "None", "facebook": "None", "youtube": "None", "website": "None", "summary": "None", "logo": "None", "latitude": 49.499960000000044, "longitude": -115.06870999999995}, "887107811RR0001": {"name": "FERNIE PUBLIC LIBRARY ASSOCIATION", "designationCode": "C", "categoryCode": "50", "address": "P.O.BOX 448                   492 3RD AVENUE", "city": "FERNIE", "province": "BC", "country": "CA", "postalCode": "V0B1M0", "twitter": "None", "instagram": "None", "facebook": "None", "youtube": "None", "website": "None", "summary": "None", "logo": "None", "latitude": 49.50334250184508, "longitude": -115.06276829680894}, "107380909RR0001": {"name": "FERNIE WOMEN'S RESOURCE AND DROP IN CENTRE", "designationCode": "C", "categoryCode": "56", "address": "BOX 2054", "city": "FERNIE", "province": "BC", "country": "CA", "postalCode": "V0B1M0", "twitter": "None", "instagram": "None", "facebook": "None", "youtube": "None", "website": "None", "summary": "None", "logo": "None", "latitude": 49.499960000000044, "longitude": -115.06870999999995}, "107380974RR0001": {"name": "FERNWOOD COMMUNITY ASSOCIATION OF GREATER VICTORIA", "designationCode": "C", "categoryCode": "59", "address": "1923 FERNWOOD RD", "city": "VICTORIA", "province": "BC", "country": "CA", "postalCode": "V8T2Y6", "twitter": "None", "instagram": "None", "facebook": "None", "youtube": "None", "website": "None", "summary": "None", "logo": "None", "latitude": 48.43022296280802, "longitude": -123.3451106838538}, "107380982RR0001": {"name": "FERNWOOD NEIGHBOURHOOD RESOURCE GROUP SOCIETY", "designationCode": "C", "categoryCode": "56", "address": "1240 GLADSTONE AVE", "city": "VICTORIA", "province": "BC", "country": "CA", "postalCode": "V8T1G6", "twitter": "None", "instagram": "None", "facebook": "None", "youtube": "None", "website": "None", "summary": "None", "logo": "None", "latitude": 48.43063351211811, "longitude": -123.34810869885744}, "862204716RR0001": {"name": "FERRET RESCUE & EDUCATION SOCIETY (FRES)", "designationCode": "C", "categoryCode": "54", "address": "BOX 159  204-1440-52 ST NE", "city": "CALGARY", "province": "AB", "country": "CA", "postalCode": "T2A4T8", "twitter": "None", "instagram": "None", "facebook": "None", "youtube": "None", "website": "None", "summary": "None", "logo": "None", "latitude": 51.063345, "longitude": -113.95828626363345}, "118914886RR0001": {"name": "FERRY POINT HISTORICAL SOCIETY", "designationCode": "C", "categoryCode": "50", "address": "BOX 133", "city": "MEETING CREEK", "province": "AB", "country": "CA", "postalCode": "T0B2Z0", "twitter": "None", "instagram": "None", "facebook": "None", "youtube": "None", "website": "None", "summary": "None", "logo": "None", "latitude": 52.684376496964816, "longitude": -112.72999992825802}, "885414763RR0001": {"name": "FERRYBANK CHARITABLE TRUST", "designationCode": "B", "categoryCode": "39", "address": "3425 2 AVENUE SOUTH", "city": "LETHBRIDGE", "province": "AB", "country": "CA", "postalCode": "T1J4V1", "twitter": "None", "instagram": "None", "facebook": "None", "youtube": "None", "website": "None", "summary": "None", "logo": "None", "latitude": 49.696839530439966, "longitude": -112.78914308381903}, "118914894RR0001": {"name": "FERTILE COMMUNITY RINK CO-OPERATIVE ASSOCIATION", "designationCode": "C", "categoryCode": "56", "address": "PO BOX 39", "city": "FERTILE", "province": "SK", "country": "CA", "postalCode": "S0C0W0", "twitter": "None", "instagram": "None", "facebook": "None", "youtube": "None", "website": "None", "summary": "None", "logo": "None", "latitude": 49.38481000000007, "longitude": -101.44898999999998}, "139790521RR0001": {"name": "FERTILE FOREST HISTORICAL CENTRE SOCIETY", "designationCode": "C", "categoryCode": "50", "address": "RR 4", "city": "PONOKA", "province": "AB", "country": "CA", "postalCode": "T4J1R4", "twitter": "None", "instagram": "None", "facebook": "None", "youtube": "None", "website": "None", "summary": "None", "logo": "None", "latitude": 52.67526900000006, "longitude": -113.58076399999993}, "870238904RR0001": {"name": "FERTILE GROUND: EAST/WEST SUSTAINABILITY NETWORK", "designationCode": "C", "categoryCode": "29", "address": "BOX 179                       7040 RIVER AVENUE", "city": "MERVILLE", "province": "BC", "country": "CA", "postalCode": "V0R2M0", "twitter": "None", "instagram": "None", "facebook": "None", "youtube": "None", "website": "None", "summary": "None", "logo": "None", "latitude": 49.78135887533998, "longitude": -125.07321726876313}, "130153208RR0001": {"name": "FESTI JAZZ RIMOUSKI INC.", "designationCode": "C", "categoryCode": "22", "address": "148 AV. DE LA CATH\u00c9DRALE      SUITE # 3", "city": "RIMOUSKI", "province": "QC", "country": "CA", "postalCode": "G5L5H8", "twitter": "None", "instagram": "None", "facebook": "None", "youtube": "None", "website": "None", "summary": "None", "logo": "None", "latitude": 48.450641960326514, "longitude": -68.52673616331022}, "886201599RR0001": {"name": "FESTIVAL ANTIGONISH SOCIETY", "designationCode": "C", "categoryCode": "22", "address": "PO BOX 5000 STN MAIN", "city": "ANTIGONISH", "province": "NS", "country": "CA", "postalCode": "B2G2W5", "twitter": "None", "instagram": "None", "facebook": "None", "youtube": "None", "website": "None", "summary": "None", "logo": "None", "latitude": 45.6227685541313, "longitude": -61.98878201843836}, "866374374RR0001": {"name": "FESTIVAL CITY WINDS MUSIC SOCIETY", "designationCode": "C", "categoryCode": "50", "address": "11908-132 ST. NW", "city": "EDMONTON", "province": "AB", "country": "CA", "postalCode": "T5L1P4", "twitter": "None", "instagram": "None", "facebook": "None", "youtube": "None", "website": "None", "summary": "None", "logo": "None", "latitude": 53.57162137440135, "longitude": -113.54802407149845}, "121030597RR0001": {"name": "FESTIVAL D'ETE INTERNATIONAL DE QUEBEC INC", "designationCode": "C", "categoryCode": "22", "address": "683 RUE ST-JOSEPH EST         BUREAU 150", "city": "QU\u00c9BEC", "province": "QC", "country": "CA", "postalCode": "G1K3C1", "twitter": "None", "instagram": "None", "facebook": "None", "youtube": "None", "website": "None", "summary": "None", "logo": "None", "latitude": 46.815297151797715, "longitude": -71.22097187717131}, "140672825RR0001": {"name": "FESTIVAL DE FILMS CINEMANIA", "designationCode": "C", "categoryCode": "22", "address": "302-4115 SHERBROOKE O", "city": "MONTREAL", "province": "QC", "country": "CA", "postalCode": "H3Z1K9", "twitter": "None", "instagram": "None", "facebook": "None", "youtube": "None", "website": "None", "summary": "None", "logo": "None", "latitude": 45.488759122136194, "longitude": -73.59081987096755}, "894522234RR0001": {"name": "FESTIVAL DE MUSIQUE DE CHAMBRE DE MONTREAL/MONTREAL CHAMBER MUSIC FESTIVAL", "designationCode": "C", "categoryCode": "22", "address": "2064 AV DE MARLOWE", "city": "MONTREAL", "province": "QC", "country": "CA", "postalCode": "H4A3L5", "twitter": "None", "instagram": "None", "facebook": "None", "youtube": "None", "website": "None", "summary": "None", "logo": "None", "latitude": 45.47426976961727, "longitude": -73.60562448252797}, "890705791RR0001": {"name": "FESTIVAL DE MUSIQUE DU ROYAUME INC.", "designationCode": "C", "categoryCode": "22", "address": "C P 8335", "city": "CHICOUTIMI", "province": "QC", "country": "CA", "postalCode": "G7H5C2", "twitter": "None", "instagram": "None", "facebook": "None", "youtube": "None", "website": "None", "summary": "None", "logo": "None", "latitude": 48.42928500000005, "longitude": -71.06546149999993}, "140893728RR0001": {"name": "FESTIVAL DES ARTS DE SAINT-SAUVEUR", "designationCode": "C", "categoryCode": "22", "address": "30 RUE FILION", "city": "SAINT-SAUVEUR", "province": "QC", "country": "CA", "postalCode": "J0R1R0", "twitter": "None", "instagram": "None", "facebook": "None", "youtube": "None", "website": "None", "summary": "None", "logo": "None", "latitude": 45.895833566189665, "longitude": -74.15907809132085}, "889184487RR0001": {"name": "FESTIVAL DU NOUVEAU CIN\u00c9MA DE MONTR\u00c9AL", "designationCode": "C", "categoryCode": "22", "address": "3805 BOUL.SAINT-LAURENT", "city": "MONTREAL", "province": "QC", "country": "CA", "postalCode": "H2W1X9", "twitter": "None", "instagram": "None", "facebook": "None", "youtube": "None", "website": "None", "summary": "None", "logo": "None", "latitude": 45.51548837803669, "longitude": -73.57603306298701}, "118914993RR0001": {"name": "FESTIVAL INTERNATIONAL DE LANAUDIERE INC.", "designationCode": "C", "categoryCode": "22", "address": "1500 BOUL.BASE-DE-ROC", "city": "JOLIETTE", "province": "QC", "country": "CA", "postalCode": "J6E0L2", "twitter": "None", "instagram": "None", "facebook": "None", "youtube": "None", "website": "None", "summary": "None", "logo": "None", "latitude": 46.00575085544432, "longitude": -73.41456699021917}, "118915040RR0001": {"name": "FESTIVAL INTERNATIONAL DE MUSIQUE BAROQUE/INTERNATIONAL FESTIVAL OF BAROQUE MUSIC", "designationCode": "C", "categoryCode": "22", "address": "2-28 RUE DE L'HOPITAL", "city": "LAMEQUE", "province": "NB", "country": "CA", "postalCode": "E8T1C3", "twitter": "None", "instagram": "None", "facebook": "None", "youtube": "None", "website": "None", "summary": "None", "logo": "None", "latitude": 47.79202543854221, "longitude": -64.65341668197787}, "860671809RR0001": {"name": "FESTIVAL INTERNATIONAL DE TANGO DE MONTREAL", "designationCode": "C", "categoryCode": "22", "address": "1650 RUE MARIE-ANNE E", "city": "MONTREAL", "province": "QC", "country": "CA", "postalCode": "H2J2E1", "twitter": "None", "instagram": "None", "facebook": "None", "youtube": "None", "website": "None", "summary": "None", "logo": "None", "latitude": 45.531160565352955, "longitude": -73.57286023339503}, "136057676RR0001": {"name": "FESTIVAL INTERNATIONAL DE THEATRE JEUNE PUBLIC DU QUEBEC (1992) INC", "designationCode": "C", "categoryCode": "22", "address": "1908 RUE PANET BUREAU 403", "city": "MONTREAL", "province": "QC", "country": "CA", "postalCode": "H2L3A2", "twitter": "None", "instagram": "None", "facebook": "None", "youtube": "None", "website": "None", "summary": "None", "logo": "None", "latitude": 45.52251698277466, "longitude": -73.56046463171549}, "118915057RR0001": {"name": "FESTIVAL INTERNATIONAL DU FILM SUR L'ART (FIFA)", "designationCode": "C", "categoryCode": "22", "address": "403 - 5333 AV CASGRAIN", "city": "MONTREAL", "province": "QC", "country": "CA", "postalCode": "H2T1X3", "twitter": "None", "instagram": "None", "facebook": "None", "youtube": "None", "website": "None", "summary": "None", "logo": "None", "latitude": 45.52595122872049, "longitude": -73.59527018093961}, "862316213RR0001": {"name": "FESTIVAL LITTERAIRE INTERNATIONAL NORTHROP FRYE INTERNATIONAL LITERARY FESTIVAL INC.", "designationCode": "C", "categoryCode": "22", "address": "P.O. BOX 26023", "city": "MONCTON", "province": "NB", "country": "CA", "postalCode": "E1E4H9", "twitter": "None", "instagram": "None", "facebook": "None", "youtube": "None", "website": "None", "summary": "None", "logo": "None", "latitude": 46.08834900000005, "longitude": -64.77824149999994}, "107381303RR0001": {"name": "FESTIVAL MONDIAL DE FOLKLORE (DRUMMOND)", "designationCode": "C", "categoryCode": "22", "address": "1352 JEAN-BERCHMANS-MICHAUD", "city": "DRUMMONDVILLE", "province": "QC", "country": "CA", "postalCode": "J2C2Z5", "twitter": "None", "instagram": "None", "facebook": "None", "youtube": "None", "website": "None", "summary": "None", "logo": "None", "latitude": 45.89416456341971, "longitude": -72.5334730881182}, "118915065RR0001": {"name": "FESTIVAL OF PRAISE INC.", "designationCode": "C", "categoryCode": "39", "address": "61 HALCOMB ROAD", "city": "LYTTLETON", "province": "NB", "country": "CA", "postalCode": "E9E1V5", "twitter": "None", "instagram": "None", "facebook": "None", "youtube": "None", "website": "None", "summary": "None", "logo": "None", "latitude": 46.93821985316529, "longitude": -65.91302675783373}, "877870923RR0001": {"name": "FESTIVAL OF PRAISE INTERNATIONAL", "designationCode": "C", "categoryCode": "47", "address": "236 MELITA AVE", "city": "TORONTO", "province": "ON", "country": "CA", "postalCode": "M6G2A2", "twitter": "None", "instagram": "None", "facebook": "None", "youtube": "None", "website": "None", "summary": "None", "logo": "None", "latitude": 43.67414313240799, "longitude": -79.42166578740832}, "107381311RR0001": {"name": "FESTIVAL OF THE SOUND", "designationCode": "C", "categoryCode": "22", "address": "P.O. BOX 750", "city": "PARRY SOUND", "province": "ON", "country": "CA", "postalCode": "P2A2Z1", "twitter": "None", "instagram": "None", "facebook": "None", "youtube": "None", "website": "None", "summary": "None", "logo": "None", "latitude": 45.34362600000006, "longitude": -80.03579299999993}, "896308921RR0001": {"name": "FESTIVAL ORGUE ET COULEURS", "designationCode": "C", "categoryCode": "22", "address": "3 - 660 RUE LE MOYNE O", "city": "LONGUEUIL", "province": "QC", "country": "CA", "postalCode": "J4H1X8", "twitter": "None", "instagram": "None", "facebook": "None", "youtube": "None", "website": "None", "summary": "None", "logo": "None", "latitude": 45.532162475044345, "longitude": -73.50315994335234}, "101787554RR0001": {"name": "FESTIVAL TRANSAMERIQUES", "designationCode": "C", "categoryCode": "22", "address": "C.P. 1206                     SUCC. DESJARDINS", "city": "MONTR\u00c9AL", "province": "QC", "country": "CA", "postalCode": "H5B1C3", "twitter": "None", "instagram": "None", "facebook": "None", "youtube": "None", "website": "None", "summary": "None", "logo": "None", "latitude": 45.55170820308116, "longitude": -73.54252439995393}, "877976944RR0001": {"name": "FESTIVAL WIND ORCHESTRA", "designationCode": "C", "categoryCode": "22", "address": "65 EAST LYNN AVE", "city": "TORONTO", "province": "ON", "country": "CA", "postalCode": "M4C3X3", "twitter": "None", "instagram": "None", "facebook": "None", "youtube": "None", "website": "None", "summary": "None", "logo": "None", "latitude": 43.68340970774423, "longitude": -79.31437565318268}, "882855570RR0001": {"name": "FESTIVAL 500 CORPORATION", "designationCode": "C", "categoryCode": "22", "address": "P.O. BOX 2333, STATION C", "city": "ST. JOHN'S", "province": "NL", "country": "CA", "postalCode": "A1C6E6", "twitter": "None", "instagram": "None", "facebook": "None", "youtube": "None", "website": "None", "summary": "None", "logo": "None", "latitude": 47.56082100000006, "longitude": -52.71219349999993}, "137414827RR0001": {"name": "FESTIVAL-CONCOURS DE MUSIQUE DE SHERBROOKE ET DE LA REGION DE L'ESTRIE", "designationCode": "C", "categoryCode": "22", "address": "5959 RUE FRAPPIER", "city": "SHERBROOKE", "province": "QC", "country": "CA", "postalCode": "J1N2K2", "twitter": "None", "instagram": "None", "facebook": "None", "youtube": "None", "website": "None", "summary": "None", "logo": "None", "latitude": 45.35591262753189, "longitude": -71.99215092925137}, "862526126RR0001": {"name": "FETAL ALCOHOL SPECTRUM DISORDER (FASD) SOCIETY FOR BRITISH COLUMBIA", "designationCode": "C", "categoryCode": "09", "address": "103 22356 MCINTOSH AVE", "city": "MAPLE RIDGE", "province": "BC", "country": "CA", "postalCode": "V2X3C1", "twitter": "None", "instagram": "None", "facebook": "None", "youtube": "None", "website": "None", "summary": "None", "logo": "None", "latitude": 49.21944748514059, "longitude": -122.60285991618096}, "885570390RR0001": {"name": "FETAL ALCOHOL SYNDROME SOCIETY OF YUKON", "designationCode": "C", "categoryCode": "29", "address": "PO BOX 31396", "city": "WHITEHORSE", "province": "YT", "country": "CA", "postalCode": "Y1A6K8", "twitter": "None", "instagram": "None", "facebook": "None", "youtube": "None", "website": "None", "summary": "None", "logo": "None", "latitude": 60.72084600000005, "longitude": -135.05323399999992}, "887623593RR0001": {"name": "FEVERSHAM CHURCH OF THE NAZARENE,", "designationCode": "C", "categoryCode": "39", "address": "494442 GREY ROAD 2", "city": "FEVERSHAM", "province": "ON", "country": "CA", "postalCode": "N0C1C0", "twitter": "None", "instagram": "None", "facebook": "None", "youtube": "None", "website": "None", "summary": "None", "logo": "None", "latitude": 44.35121976873191, "longitude": -80.38076300031706}, "807647664RR0001": {"name": "FFF Food For Famine Society", "designationCode": "C", "categoryCode": "09", "address": "19091 36 AVE", "city": "SURREY", "province": "BC", "country": "CA", "postalCode": "V3Z0P6", "twitter": "None", "instagram": "None", "facebook": "None", "youtube": "None", "website": "None", "summary": "None", "logo": "None", "latitude": 49.067522999999994, "longitude": -122.80612527649731}, "841930183RR0001": {"name": "FGMF Housing Inc.", "designationCode": "C", "categoryCode": "09", "address": "150 BAYRIDGE AVE", "city": "WINNIPEG", "province": "MB", "country": "CA", "postalCode": "R3T5B5", "twitter": "None", "instagram": "None", "facebook": "None", "youtube": "None", "website": "None", "summary": "None", "logo": "None", "latitude": 49.798306614749954, "longitude": -97.1511713711987}, "132152893RR0001": {"name": "FH Canada", "designationCode": "C", "categoryCode": "09", "address": "1 - 31741 PEARDONVILLE ROAD", "city": "ABBOTSFORD", "province": "BC", "country": "CA", "postalCode": "V2T1L2", "twitter": "None", "instagram": "None", "facebook": "None", "youtube": "None", "website": "None", "summary": "None", "logo": "None", "latitude": 49.045909471579236, "longitude": -122.34438038773155}, "891455867RR0001": {"name": "FIBROMYALGIA ASSOCIATION OF SASKATCHEWAN", "designationCode": "C", "categoryCode": "09", "address": "113 - 110 HAMPTON CIR", "city": "SASKATOON", "province": "SK", "country": "CA", "postalCode": "S7R0C5", "twitter": "None", "instagram": "None", "facebook": "None", "youtube": "None", "website": "None", "summary": "None", "logo": "None", "latitude": 52.15264453895235, "longitude": -106.71898347016561}, "140193830RR0001": {"name": "FIBROMYALGIA SOCIETY OF ONTARIO", "designationCode": "C", "categoryCode": "01", "address": "RR1 SITE 15 BOX 10", "city": "MINDEMOYA", "province": "ON", "country": "CA", "postalCode": "P0P1S0", "twitter": "None", "instagram": "None", "facebook": "None", "youtube": "None", "website": "None", "summary": "None", "logo": "None", "latitude": 45.741940000000056, "longitude": -82.14143999999999}, "885228866RR0001": {"name": "FIBROMYALGIA SUPPORT GROUP OF WINNIPEG INC.", "designationCode": "C", "categoryCode": "11", "address": "825 SHERBROOK ST", "city": "WINNIPEG", "province": "MB", "country": "CA", "postalCode": "R3A1M5", "twitter": "None", "instagram": "None", "facebook": "None", "youtube": "None", "website": "None", "summary": "None", "logo": "None", "latitude": 49.90293714680605, "longitude": -97.15654520699444}, "852736966RR0001": {"name": "FIBROMYALGIA WELL SPRING FOUNDATION", "designationCode": "C", "categoryCode": "11", "address": "PO 1600", "city": "ALDERGROVE", "province": "BC", "country": "CA", "postalCode": "V4W2V1", "twitter": "None", "instagram": "None", "facebook": "None", "youtube": "None", "website": "None", "summary": "None", "logo": "None", "latitude": 49.05687300000005, "longitude": -122.47227349999994}, "818305013RR0001": {"name": "FIDA (Fonds d'investissement et de d\u00e9veloppement athl\u00e9tique)", "designationCode": "B", "categoryCode": "23", "address": "2041, RUE DES SAULES", "city": "ST-BRUNO", "province": "QC", "country": "CA", "postalCode": "J3V5Z8", "twitter": "None", "instagram": "None", "facebook": "None", "youtube": "None", "website": "None", "summary": "None", "logo": "None", "latitude": 45.52268295308451, "longitude": -73.31796534168141}, "118915172RR0001": {"name": "FIDUCIAIRES DES OEUVRES DE CHARITE DU CLUB RICHELIEU - EDMUNDSTON", "designationCode": "C", "categoryCode": "65", "address": "C P 1", "city": "EDMUNDSTON", "province": "NB", "country": "CA", "postalCode": "E3V2K5", "twitter": "None", "instagram": "None", "facebook": "None", "youtube": "None", "website": "None", "summary": "None", "logo": "None", "latitude": 47.37714900000006, "longitude": -68.33203549999993}, "875155426RR0001": {"name": "FIDUCIE AUTHIER, HARKINS ET METRAS", "designationCode": "A", "categoryCode": "03", "address": "11991 PIERRE BAILLARGEON", "city": "MONTREAL", "province": "QC", "country": "CA", "postalCode": "H1E2E5", "twitter": "None", "instagram": "None", "facebook": "None", "youtube": "None", "website": "None", "summary": "None", "logo": "None", "latitude": 45.64103650265439, "longitude": -73.57619208364615}, "118915198RR0001": {"name": "FIDUCIE CHARITABLE FOURNIER-ETHIER", "designationCode": "B", "categoryCode": "05", "address": "600 LA GAUCHETIERE O.         SUITE 1762", "city": "MONTREAL", "province": "QC", "country": "CA", "postalCode": "H3B4L2", "twitter": "None", "instagram": "None", "facebook": "None", "youtube": "None", "website": "None", "summary": "None", "logo": "None", "latitude": 45.50188920231989, "longitude": -73.56436485827253}, "893726612RR0001": {"name": "FIDUCIE COLLECTION BLEUE", "designationCode": "C", "categoryCode": "21", "address": "UNIVERSITE D'OTTAWA           57 RUE LOUIS PASTEUR", "city": "OTTAWA", "province": "ON", "country": "CA", "postalCode": "K1N6N5", "twitter": "None", "instagram": "None", "facebook": "None", "youtube": "None", "website": "None", "summary": "None", "logo": "None", "latitude": 45.42256000000003, "longitude": -75.68430999999998}, "118915206RR0001": {"name": "FIDUCIE DE CHARITE D'EMPLOYES L'INDUSTRIELLE-ALLIANCE COMPAGNIE D'ASSURANCE SUR LA VIE", "designationCode": "B", "categoryCode": "75", "address": "CP 1907 SUCC TERMINUS", "city": "QUEBEC", "province": "QC", "country": "CA", "postalCode": "G1K7M3", "twitter": "None", "instagram": "None", "facebook": "None", "youtube": "None", "website": "None", "summary": "None", "logo": "None", "latitude": 46.81272300000006, "longitude": -71.21930299999994}, "890103575RR0001": {"name": "FIDUCIE DE L'ECOLE SECONDAIRE NEPISIGUIT", "designationCode": "C", "categoryCode": "25", "address": "915 ST. ANNE ST", "city": "BATHURST", "province": "NB", "country": "CA", "postalCode": "E2A6X1", "twitter": "None", "instagram": "None", "facebook": "None", "youtube": "None", "website": "None", "summary": "None", "logo": "None", "latitude": 47.626722989529995, "longitude": -65.6826797273144}, "828662361RR0001": {"name": "FIDUCIE DE LA FEDERATION DES FEMMES DU QUEBEC", "designationCode": "C", "categoryCode": "09", "address": "501 - 110 RUE SAINTE-THERESE", "city": "MONTREAL", "province": "QC", "country": "CA", "postalCode": "H2Y1E6", "twitter": "None", "instagram": "None", "facebook": "None", "youtube": "None", "website": "None", "summary": "None", "logo": "None", "latitude": 45.5070284007733, "longitude": -73.55364246681872}}