{"130486186RR0001": {"name": "LA FABRIQUE DE LA PAROISSE SACRE COEUR DE JESUS", "designationCode": "C", "categoryCode": "38", "address": "202 RUE ALPHONSE-DESJARDINS", "city": "SALABERRY-DE-VALLEYFIELD", "province": "QC", "country": "CA", "postalCode": "J6S2N6", "twitter": "None", "instagram": "None", "facebook": "None", "youtube": "None", "website": "None", "summary": "None", "logo": "None", "latitude": 45.25966606408353, "longitude": -74.12241461322073}, "107587594RR0001": {"name": "LA FABRIQUE DE LA PAROISSE SACRE-COEUR DE GRANDE-ENTREE I-M", "designationCode": "C", "categoryCode": "38", "address": "8 CHEMIN DE L'EGLISE", "city": "GRANDE-ENTREE", "province": "QC", "country": "CA", "postalCode": "G4T7C3", "twitter": "None", "instagram": "None", "facebook": "None", "youtube": "None", "website": "None", "summary": "None", "logo": "None", "latitude": 47.56212464141035, "longitude": -61.524650494027384}, "132719188RR0001": {"name": "LA FABRIQUE DE LA PAROISSE SAINT-ALBERT-DE-GASP\u00c9", "designationCode": "C", "categoryCode": "39", "address": "20 RUE DE LA CATHEDRALE", "city": "GASPE", "province": "QC", "country": "CA", "postalCode": "G4X1N8", "twitter": "None", "instagram": "None", "facebook": "None", "youtube": "None", "website": "None", "summary": "None", "logo": "None", "latitude": 48.82980147267576, "longitude": -64.48683440559206}, "895194710RR0001": {"name": "LA FABRIQUE DE LA PAROISSE SAINT-ALEXANDRE", "designationCode": "C", "categoryCode": "39", "address": "34, RUE NOTRE-DAME SUD", "city": "THETFORD MINES", "province": "QC", "country": "CA", "postalCode": "G6G1J2", "twitter": "None", "instagram": "None", "facebook": "None", "youtube": "None", "website": "None", "summary": "None", "logo": "None", "latitude": 46.090374392434754, "longitude": -71.30087796540508}, "107365249RR0001": {"name": "LA FABRIQUE DE LA PAROISSE SAINT-ANDR\u00c9-AVELLIN", "designationCode": "C", "categoryCode": "38", "address": "8 RUE ST-ANDRE", "city": "ST ANDRE AVELLIN", "province": "QC", "country": "CA", "postalCode": "J0V1W0", "twitter": "None", "instagram": "None", "facebook": "None", "youtube": "None", "website": "None", "summary": "None", "logo": "None", "latitude": 45.72218249321933, "longitude": -75.0578945405102}, "118998590RR0001": {"name": "LA FABRIQUE DE LA PAROISSE SAINT-AUGUSTIN", "designationCode": "C", "categoryCode": "38", "address": "110 MATHIAS", "city": "SALABERRY-DE-VALLEYFIELD", "province": "QC", "country": "CA", "postalCode": "J6T3L6", "twitter": "None", "instagram": "None", "facebook": "None", "youtube": "None", "website": "None", "summary": "None", "logo": "None", "latitude": 45.245805591436415, "longitude": -74.13758611994317}, "107362261RR0001": {"name": "LA FABRIQUE DE LA PAROISSE SAINT-BERNARDIN-DE-SIENNE", "designationCode": "C", "categoryCode": "38", "address": "605 DE L'\u00c9GLISE", "city": "RIVI\u00c8RE \u00c0 PIERRE", "province": "QC", "country": "CA", "postalCode": "G0A3A0", "twitter": "None", "instagram": "None", "facebook": "None", "youtube": "None", "website": "None", "summary": "None", "logo": "None", "latitude": 46.9974904765709, "longitude": -72.17799715465364}, "118998939RR0001": {"name": "LA FABRIQUE DE LA PAROISSE SAINT-CAMILLE DE VILLEBOIS", "designationCode": "C", "categoryCode": "38", "address": "3845 RUE DE L'EGLISE", "city": "BAIE-JAMES", "province": "QC", "country": "CA", "postalCode": "J0Z3V0", "twitter": "None", "instagram": "None", "facebook": "None", "youtube": "None", "website": "None", "summary": "None", "logo": "None", "latitude": 49.097327521784315, "longitude": -79.15039191618096}, "107365710RR0001": {"name": "LA FABRIQUE DE LA PAROISSE SAINT-CHARLES-BORROMEE", "designationCode": "C", "categoryCode": "38", "address": "747, BOULEVARD LOUIS-XIV", "city": "QUEBEC", "province": "QC", "country": "CA", "postalCode": "G1H4M6", "twitter": "None", "instagram": "None", "facebook": "None", "youtube": "None", "website": "None", "summary": "None", "logo": "None", "latitude": 46.86082870442601, "longitude": -71.27056468668108}, "886636471RR0001": {"name": "LA FABRIQUE DE LA PAROISSE SAINT-DAVID", "designationCode": "C", "categoryCode": "38", "address": "19 RUE PRINCIPALE", "city": "ST-DAVID D'YAMASKA", "province": "QC", "country": "CA", "postalCode": "J0G1L0", "twitter": "None", "instagram": "None", "facebook": "None", "youtube": "None", "website": "None", "summary": "None", "logo": "None", "latitude": 45.95554288703906, "longitude": -72.85731686594724}, "118908516RR0001": {"name": "LA FABRIQUE DE LA PAROISSE SAINT-FRAN\u00c7OIS XAVIER DE GRANDE-VALL\u00c9E", "designationCode": "C", "categoryCode": "38", "address": "5 ST-FRANCOIS XAVIER", "city": "GRANDE-VALLEE", "province": "QC", "country": "CA", "postalCode": "G0E1K0", "twitter": "None", "instagram": "None", "facebook": "None", "youtube": "None", "website": "None", "summary": "None", "logo": "None", "latitude": 49.22467076545112, "longitude": -65.128534135986}, "132152976RR0001": {"name": "LA FABRIQUE DE LA PAROISSE SAINT-FRANCOIS D'ASSISE", "designationCode": "C", "categoryCode": "38", "address": "2122 CH.DU FER A CHEVAL", "city": "STE-JULIE", "province": "QC", "country": "CA", "postalCode": "J0L2S0", "twitter": "None", "instagram": "None", "facebook": "None", "youtube": "None", "website": "None", "summary": "None", "logo": "None", "latitude": 45.570022618356646, "longitude": -73.3289983305156}, "889014346RR0001": {"name": "LA FABRIQUE DE LA PAROISSE SAINT-FRANCOIS D'ASSISE-DE-LONGUE-POINTE-DE-MINGAN", "designationCode": "C", "categoryCode": "38", "address": "212 BORD DE LA MER C.P. 164", "city": "LONGUE-POINTE-DE-MINGAN", "province": "QC", "country": "CA", "postalCode": "G0G1V0", "twitter": "None", "instagram": "None", "facebook": "None", "youtube": "None", "website": "None", "summary": "None", "logo": "None", "latitude": 50.27000996169683, "longitude": -64.13650977456352}, "107367724RR0001": {"name": "LA FABRIQUE DE LA PAROISSE SAINT-FRANCOIS-DE-SALES", "designationCode": "C", "categoryCode": "38", "address": "625 RUE PRINCIPALE", "city": "ST-FRANCOIS-DE-SALES", "province": "QC", "country": "CA", "postalCode": "G0W1M0", "twitter": "None", "instagram": "None", "facebook": "None", "youtube": "None", "website": "None", "summary": "None", "logo": "None", "latitude": 48.325485069940584, "longitude": -72.13396218774893}, "132191362RR0001": {"name": "LA FABRIQUE DE LA PAROISSE SAINT-FRANCOIS-SUR-LE-LAC", "designationCode": "C", "categoryCode": "38", "address": "183, PRINCIPALE", "city": "LES COTEAUX", "province": "QC", "country": "CA", "postalCode": "J7X1A1", "twitter": "None", "instagram": "None", "facebook": "None", "youtube": "None", "website": "None", "summary": "None", "logo": "None", "latitude": 45.256831097885076, "longitude": -74.20848022331977}, "889021143RR0001": {"name": "LA FABRIQUE DE LA PAROISSE SAINT-HIPPOLYTE-DE-LA-RIVIERE-AU-TONNERRE", "designationCode": "C", "categoryCode": "38", "address": "18, DE L'EGLISE", "city": "RIVIERE-AU-TONNERRE", "province": "QC", "country": "CA", "postalCode": "G0G2L0", "twitter": "None", "instagram": "None", "facebook": "None", "youtube": "None", "website": "None", "summary": "None", "logo": "None", "latitude": 50.27421776129618, "longitude": -64.77656337621902}, "129665824RR0001": {"name": "LA FABRIQUE DE LA PAROISSE SAINT-JEAN L'EVANGELISTE", "designationCode": "C", "categoryCode": "38", "address": "215 RUE LONGUEUIL", "city": "SAINT JEAN SUR RICHELIEU", "province": "QC", "country": "CA", "postalCode": "J3B6P6", "twitter": "None", "instagram": "None", "facebook": "None", "youtube": "None", "website": "None", "summary": "None", "logo": "None", "latitude": 45.30636877990651, "longitude": -73.25476448245755}, "130400344RR0001": {"name": "LA FABRIQUE DE LA PAROISSE SAINT-JEROME", "designationCode": "C", "categoryCode": "38", "address": "355, PLACE CURE-LABELLE", "city": "SAINT-JEROME", "province": "QC", "country": "CA", "postalCode": "J7Z5A9", "twitter": "None", "instagram": "None", "facebook": "None", "youtube": "None", "website": "None", "summary": "None", "logo": "None", "latitude": 45.77841057112399, "longitude": -74.00216483501633}, "107360547RR0001": {"name": "LA FABRIQUE DE LA PAROISSE SAINT-JOSEPH", "designationCode": "C", "categoryCode": "39", "address": "70 RUE ST JOSEPH SUD", "city": "ALMA", "province": "QC", "country": "CA", "postalCode": "G8B3E4", "twitter": "None", "instagram": "None", "facebook": "None", "youtube": "None", "website": "None", "summary": "None", "logo": "None", "latitude": 48.55041613933288, "longitude": -71.65166813226375}, "118907138RR0001": {"name": "LA FABRIQUE DE LA PAROISSE SAINT-JOSEPH (RIVIERE-DES-PRAIRIES) ARCHIDIOCESE DE MONTREAL", "designationCode": "C", "categoryCode": "38", "address": "10050 BOUL. GOUIN EST", "city": "MONTREAL", "province": "QC", "country": "CA", "postalCode": "H1C1A8", "twitter": "None", "instagram": "None", "facebook": "None", "youtube": "None", "website": "None", "summary": "None", "logo": "None", "latitude": 45.66319903326818, "longitude": -73.5619970252181}, "107358129RR0001": {"name": "LA FABRIQUE DE LA PAROISSE SAINT-JOSEPH DE CAP-D'ESPOIR", "designationCode": "C", "categoryCode": "38", "address": "38 CURE POIRIER               C.P. 10", "city": "CAP D'ESPOIR", "province": "QC", "country": "CA", "postalCode": "G0C1G0", "twitter": "None", "instagram": "None", "facebook": "None", "youtube": "None", "website": "None", "summary": "None", "logo": "None", "latitude": 48.426119760048685, "longitude": -64.33136508751353}, "118906288RR0001": {"name": "LA FABRIQUE DE LA PAROISSE SAINT-JOSEPH-DE-LEVIS", "designationCode": "C", "categoryCode": "38", "address": "ADM.18 NOTRE-DAME", "city": "LEVIS", "province": "QC", "country": "CA", "postalCode": "G6V4A4", "twitter": "None", "instagram": "None", "facebook": "None", "youtube": "None", "website": "None", "summary": "None", "logo": "None", "latitude": 46.8105626277917, "longitude": -71.18161650732893}, "868977315RR0001": {"name": "LA FABRIQUE DE LA PAROISSE SAINT-JOSEPH-DES-MONTS", "designationCode": "C", "categoryCode": "39", "address": "17 RACINE NORD", "city": "LA PATRIE", "province": "QC", "country": "CA", "postalCode": "J0B1Y0", "twitter": "None", "instagram": "None", "facebook": "None", "youtube": "None", "website": "None", "summary": "None", "logo": "None", "latitude": 45.40267802109182, "longitude": -71.25292902143761}, "118908730RR0001": {"name": "LA FABRIQUE DE LA PAROISSE SAINT-L\u00c9ON-LE-GRAND", "designationCode": "C", "categoryCode": "38", "address": "824 DES PIONNIERS", "city": "LAUNAY", "province": "QC", "country": "CA", "postalCode": "J0Y1W0", "twitter": "None", "instagram": "None", "facebook": "None", "youtube": "None", "website": "None", "summary": "None", "logo": "None", "latitude": 48.644488195654795, "longitude": -78.53515093548378}, "861443737RR0001": {"name": "LA FABRIQUE DE LA PAROISSE SAINT-LUC", "designationCode": "C", "categoryCode": "39", "address": "388, ADOLPHE-CHAPLEAU", "city": "BOIS-DES-FILION", "province": "QC", "country": "CA", "postalCode": "J6Z1H6", "twitter": "None", "instagram": "None", "facebook": "None", "youtube": "None", "website": "None", "summary": "None", "logo": "None", "latitude": 45.66822216400272, "longitude": -73.75641149050762}, "861682813RR0001": {"name": "LA FABRIQUE DE LA PAROISSE SAINT-MARTIN-DE-TOURS", "designationCode": "C", "categoryCode": "38", "address": "308, RUE ST-JOSEPH", "city": "LA TUQUE", "province": "QC", "country": "CA", "postalCode": "G9X1L1", "twitter": "None", "instagram": "None", "facebook": "None", "youtube": "None", "website": "None", "summary": "None", "logo": "None", "latitude": 47.44101543435861, "longitude": -72.78445333236193}, "130506637RR0001": {"name": "LA FABRIQUE DE LA PAROISSE SAINT-MICHEL", "designationCode": "C", "categoryCode": "38", "address": "414 SAINT-CHARLES", "city": "VAUDREUIL-DORION", "province": "QC", "country": "CA", "postalCode": "J7V2M6", "twitter": "None", "instagram": "None", "facebook": "None", "youtube": "None", "website": "None", "summary": "None", "logo": "None", "latitude": 45.39828343403214, "longitude": -74.02585186325626}, "875216913RR0001": {"name": "LA FABRIQUE DE LA PAROISSE SAINT-MICHEL", "designationCode": "C", "categoryCode": "38", "address": "8961, 12E AVENUE", "city": "MONTREAL", "province": "QC", "country": "CA", "postalCode": "H1Z3J5", "twitter": "None", "instagram": "None", "facebook": "None", "youtube": "None", "website": "None", "summary": "None", "logo": "None", "latitude": 45.57170326868244, "longitude": -73.62529953453759}, "895688018RR0001": {"name": "LA FABRIQUE DE LA PAROISSE SAINT-NOM-DE-JESUS", "designationCode": "C", "categoryCode": "38", "address": "1645 RUE DESJARDINS", "city": "MONTR\u00c9AL", "province": "QC", "country": "CA", "postalCode": "H1V2G7", "twitter": "None", "instagram": "None", "facebook": "None", "youtube": "None", "website": "None", "summary": "None", "logo": "None", "latitude": 45.55016679323672, "longitude": -73.53765260407413}, "118999580RR0001": {"name": "LA FABRIQUE DE LA PAROISSE SAINT-PAUL DE MURDOCHVILLE", "designationCode": "C", "categoryCode": "38", "address": "C.P. 1000", "city": "MURDOCHVILLE", "province": "QC", "country": "CA", "postalCode": "G0E1W0", "twitter": "None", "instagram": "None", "facebook": "None", "youtube": "None", "website": "None", "summary": "None", "logo": "None", "latitude": 48.95476000000008, "longitude": -65.49333999999993}, "132263633RR0001": {"name": "LA FABRIQUE DE LA PAROISSE SAINT-PIE-X", "designationCode": "C", "categoryCode": "38", "address": "4080, BOUL. ST-MARTIN OUEST", "city": "LAVAL", "province": "QC", "country": "CA", "postalCode": "H7T1C1", "twitter": "None", "instagram": "None", "facebook": "None", "youtube": "None", "website": "None", "summary": "None", "logo": "None", "latitude": 45.55010290132824, "longitude": -73.76347204908946}, "118997501RR0001": {"name": "LA FABRIQUE DE LA PAROISSE SAINT-PIERRE-AUX-LIENS DU MONT-SAINT-PIERRE", "designationCode": "C", "categoryCode": "38", "address": "112 RUE PRUDENT CLOUTIER      CP 100", "city": "MONT ST-PIERRE", "province": "QC", "country": "CA", "postalCode": "G0E1V0", "twitter": "None", "instagram": "None", "facebook": "None", "youtube": "None", "website": "None", "summary": "None", "logo": "None", "latitude": 49.22357068942237, "longitude": -65.7985965874257}, "132699794RR0001": {"name": "LA FABRIQUE DE LA PAROISSE SAINT-RAPHAEL DE PREISSAC", "designationCode": "C", "categoryCode": "38", "address": "27 DES RAPIDES", "city": "PREISSAC", "province": "QC", "country": "CA", "postalCode": "J0Y2E0", "twitter": "None", "instagram": "None", "facebook": "None", "youtube": "None", "website": "None", "summary": "None", "logo": "None", "latitude": 48.40708527898288, "longitude": -78.36258491199737}, "129472098RR0001": {"name": "LA FABRIQUE DE LA PAROISSE SAINT-SACREMENT D'ALMA", "designationCode": "C", "categoryCode": "38", "address": "265, BOUL. DEQUEN N.", "city": "ALMA", "province": "QC", "country": "CA", "postalCode": "G8B5N8", "twitter": "None", "instagram": "None", "facebook": "None", "youtube": "None", "website": "None", "summary": "None", "logo": "None", "latitude": 48.55645500000006, "longitude": -71.64824749999994}, "118908995RR0001": {"name": "LA FABRIQUE DE LA PAROISSE SAINT-SIXTE", "designationCode": "C", "categoryCode": "38", "address": "19 PRINCIPALE", "city": "ST-SIXTE", "province": "QC", "country": "CA", "postalCode": "J0X3B0", "twitter": "None", "instagram": "None", "facebook": "None", "youtube": "None", "website": "None", "summary": "None", "logo": "None", "latitude": 45.69953178934156, "longitude": -75.20797056414084}, "118999127RR0001": {"name": "LA FABRIQUE DE LA PAROISSE SAINT-VINCENT-DE-PAUL", "designationCode": "C", "categoryCode": "38", "address": "1705 RUE DE MALAPART", "city": "TROIS-RIVIERES", "province": "QC", "country": "CA", "postalCode": "G8Y6C6", "twitter": "None", "instagram": "None", "facebook": "None", "youtube": "None", "website": "None", "summary": "None", "logo": "None", "latitude": 46.353013763806366, "longitude": -72.58471092904982}, "107369399RR0001": {"name": "LA FABRIQUE DE LA PAROISSE SAINTE-ANG\u00c8LE-DE-SAINT-MALO", "designationCode": "C", "categoryCode": "38", "address": "275 RUE MARIE-DE-L'INCARNATION", "city": "QUEBEC", "province": "QC", "country": "CA", "postalCode": "G1N3G5", "twitter": "None", "instagram": "None", "facebook": "None", "youtube": "None", "website": "None", "summary": "None", "logo": "None", "latitude": 46.80805066250218, "longitude": -71.24515077407813}, "107363194RR0001": {"name": "LA FABRIQUE DE LA PAROISSE SAINTE-ANNE", "designationCode": "C", "categoryCode": "38", "address": "129 BOUL. STE-ANNE", "city": "STE-ANNE-DES-PLAINES", "province": "QC", "country": "CA", "postalCode": "J0N1H0", "twitter": "None", "instagram": "None", "facebook": "None", "youtube": "None", "website": "None", "summary": "None", "logo": "None", "latitude": 45.75914931807944, "longitude": -73.81557558745436}, "131642548RR0001": {"name": "LA FABRIQUE DE LA PAROISSE SAINTE-FAMILLE", "designationCode": "C", "categoryCode": "38", "address": "72 RUE PRINCIPALE", "city": "ST-GUILLAUME", "province": "QC", "country": "CA", "postalCode": "J0C1L0", "twitter": "None", "instagram": "None", "facebook": "None", "youtube": "None", "website": "None", "summary": "None", "logo": "None", "latitude": 45.88079760997683, "longitude": -72.7692449679433}, "132170127RR0001": {"name": "LA FABRIQUE DE LA PAROISSE SAINTE-GERMAINE DE BOULE", "designationCode": "C", "categoryCode": "38", "address": "202 RUE PRINCIPALE", "city": "SAINTE-GERMAINE-BOULE", "province": "QC", "country": "CA", "postalCode": "J0Z1M0", "twitter": "None", "instagram": "None", "facebook": "None", "youtube": "None", "website": "None", "summary": "None", "logo": "None", "latitude": 48.602503504904746, "longitude": -79.11446391618097}, "118998640RR0001": {"name": "LA FABRIQUE DE LA PAROISSE SAINTE-IRENE", "designationCode": "C", "categoryCode": "38", "address": "366 RUE DE LA FABRIQUE", "city": "STE-IRENE", "province": "QC", "country": "CA", "postalCode": "G0J2P0", "twitter": "None", "instagram": "None", "facebook": "None", "youtube": "None", "website": "None", "summary": "None", "logo": "None", "latitude": 48.434557125118125, "longitude": -67.59413410077178}, "130090277RR0001": {"name": "LA FABRIQUE DE LA PAROISSE SAINTE-MARGUERITE", "designationCode": "C", "categoryCode": "38", "address": "271, RUE SAINT-JACQUES", "city": "SAINTE-MARGUERITE-DE-DORCHESTE", "province": "QC", "country": "CA", "postalCode": "G0S2X0", "twitter": "None", "instagram": "None", "facebook": "None", "youtube": "None", "website": "None", "summary": "None", "logo": "None", "latitude": 46.51130347685938, "longitude": -70.93553342648141}, "886613017RR0001": {"name": "LA FABRIQUE DE LA PAROISSE SAINTE-MARGUERITE D'YOUVILLE", "designationCode": "C", "categoryCode": "38", "address": "792 AVENUE HEMLOCK", "city": "SHAWINIGAN", "province": "QC", "country": "CA", "postalCode": "G9N1S7", "twitter": "None", "instagram": "None", "facebook": "None", "youtube": "None", "website": "None", "summary": "None", "logo": "None", "latitude": 46.54249845516197, "longitude": -72.7493523828268}, "136830296RR0001": {"name": "LA FABRIQUE DE LA PAROISSE SAINTE-MARGUERITE D'YOUVILLE (PLESSISVILLE)", "designationCode": "C", "categoryCode": "38", "address": "1460 ST-CALIXTE", "city": "PLESSISVILLE", "province": "QC", "country": "CA", "postalCode": "G6L1P6", "twitter": "None", "instagram": "None", "facebook": "None", "youtube": "None", "website": "None", "summary": "None", "logo": "None", "latitude": 46.21652711180709, "longitude": -71.77604559236005}, "889174942RR0001": {"name": "LA FABRIQUE DE LA PAROISSE SAINTE-MARGUERITE-BOURGEOYS", "designationCode": "C", "categoryCode": "38", "address": "10 RUE CARON", "city": "KINGSEY FALLS", "province": "QC", "country": "CA", "postalCode": "J0A1B0", "twitter": "None", "instagram": "None", "facebook": "None", "youtube": "None", "website": "None", "summary": "None", "logo": "None", "latitude": 45.85832545158396, "longitude": -72.0725806494891}, "897913026RR0001": {"name": "LA FABRIQUE DE LA PAROISSE SAINTE-MARGUERITE-BOURGEOYS", "designationCode": "C", "categoryCode": "38", "address": "3055 - 2IEME AVENUE", "city": "QUEBEC", "province": "QC", "country": "CA", "postalCode": "G1L3G1", "twitter": "None", "instagram": "None", "facebook": "None", "youtube": "None", "website": "None", "summary": "None", "logo": "None", "latitude": 46.83967693669587, "longitude": -71.2431754373301}, "118998681RR0001": {"name": "LA FABRIQUE DE LA PAROISSE SAINTE-PAULE", "designationCode": "C", "categoryCode": "38", "address": "194 DE L'EGLISE", "city": "STE PAULE", "province": "QC", "country": "CA", "postalCode": "G0J3C0", "twitter": "None", "instagram": "None", "facebook": "None", "youtube": "None", "website": "None", "summary": "None", "logo": "None", "latitude": 48.65982952816096, "longitude": -67.55945258185713}, "899533509RR0001": {"name": "LA FABRIQUE DE LA PAROISSE SAINTE-TRINITE", "designationCode": "C", "categoryCode": "38", "address": "1177 RUE DE LA PISCICULTURE", "city": "ST-FAUSTIN-LAC-CARRE", "province": "QC", "country": "CA", "postalCode": "J0T1J3", "twitter": "None", "instagram": "None", "facebook": "None", "youtube": "None", "website": "None", "summary": "None", "logo": "None", "latitude": 46.11310335890677, "longitude": -74.48094995446947}, "107364002RR0002": {"name": "LA FABRIQUE DE LA PAROISSE SAINTE-TRINITE-D'ORLEANS", "designationCode": "C", "categoryCode": "39", "address": "6985 CH ROYAL                 RR 2", "city": "SAINT-LAURENT-ILE-D'ORLEANS", "province": "QC", "country": "CA", "postalCode": "G0A3Z0", "twitter": "None", "instagram": "None", "facebook": "None", "youtube": "None", "website": "None", "summary": "None", "logo": "None", "latitude": 46.86061341774084, "longitude": -71.00471858063159}, "107370280RR0002": {"name": "LA FABRIQUE DE LA PAROISSE SAINTS-MARTYRS-CANADIENS", "designationCode": "C", "categoryCode": "38", "address": "690 BOUL DES RECOLLETS", "city": "TROIS RIVIERES", "province": "QC", "country": "CA", "postalCode": "G8Z3V9", "twitter": "None", "instagram": "None", "facebook": "None", "youtube": "None", "website": "None", "summary": "None", "logo": "None", "latitude": 46.36163736444668, "longitude": -72.56827145259355}, "887663995RR0001": {"name": "LA FABRIQUE DE LA PAROISSE ST ALEXIS", "designationCode": "C", "categoryCode": "38", "address": "3291 BOUL DE LA GRANDE-BAIE S.", "city": "LA BAIE", "province": "QC", "country": "CA", "postalCode": "G7B1G1", "twitter": "None", "instagram": "None", "facebook": "None", "youtube": "None", "website": "None", "summary": "None", "logo": "None", "latitude": 48.317335703272185, "longitude": -70.85435871899698}, "891161747RR0001": {"name": "LA FABRIQUE DE LA PAROISSE ST EDMOND", "designationCode": "C", "categoryCode": "38", "address": "CP 128", "city": "LAC AU SAUMON MATAPEDIA", "province": "QC", "country": "CA", "postalCode": "G0J1M0", "twitter": "None", "instagram": "None", "facebook": "None", "youtube": "None", "website": "None", "summary": "None", "logo": "None", "latitude": 48.42274000000003, "longitude": -67.34347999999994}, "131809733RR0001": {"name": "LA FABRIQUE DE LA PAROISSE ST ODILON", "designationCode": "C", "categoryCode": "38", "address": "440 RUE DU CHARBONNIER", "city": "TROIS-RIVIERES", "province": "QC", "country": "CA", "postalCode": "G8T6S6", "twitter": "None", "instagram": "None", "facebook": "None", "youtube": "None", "website": "None", "summary": "None", "logo": "None", "latitude": 46.37792665116253, "longitude": -72.5387547724916}, "132189077RR0001": {"name": "LA FABRIQUE DE LA PAROISSE ST REMI DU LAC AUX SABLES", "designationCode": "C", "categoryCode": "38", "address": "251 RUE PRINCIPALE", "city": "LAC AUX SABLES CO PORTNEU", "province": "QC", "country": "CA", "postalCode": "G0X1M0", "twitter": "None", "instagram": "None", "facebook": "None", "youtube": "None", "website": "None", "summary": "None", "logo": "None", "latitude": 46.84512300000006, "longitude": -72.46979899999994}, "889892246RR0001": {"name": "LA FABRIQUE DE LA PAROISSE ST SAUVEUR DE SHAWINIGAN SUD", "designationCode": "C", "categoryCode": "38", "address": "ATT: PAROISSE ST-SAUVEUR      615, 123E RUE", "city": "SHAWINIGAN-SUD", "province": "QC", "country": "CA", "postalCode": "G9P3R3", "twitter": "None", "instagram": "None", "facebook": "None", "youtube": "None", "website": "None", "summary": "None", "logo": "None", "latitude": 46.518923276126934, "longitude": -72.74536596956001}, "118999473RR0001": {"name": "LA FABRIQUE DE LA PAROISSE ST. PATRICK OF THE ISLAND", "designationCode": "C", "categoryCode": "38", "address": "278 RUE SHAMROCK", "city": "PINCOURT", "province": "QC", "country": "CA", "postalCode": "J7W3W8", "twitter": "None", "instagram": "None", "facebook": "None", "youtube": "None", "website": "None", "summary": "None", "logo": "None", "latitude": 45.375833167926515, "longitude": -73.98338127999342}, "107360067RR0001": {"name": "LA FABRIQUE DE LA PAROISSE ST-ANDR\u00c9 DE CAP-AUX-MEULES", "designationCode": "C", "categoryCode": "38", "address": "500 CHEMIN PRINCIPAL", "city": "CAP-AUX-MEULES", "province": "QC", "country": "CA", "postalCode": "G4T1E5", "twitter": "None", "instagram": "None", "facebook": "None", "youtube": "None", "website": "None", "summary": "None", "logo": "None", "latitude": 47.37531361417303, "longitude": -61.87127108503112}, "132388794RR0001": {"name": "LA FABRIQUE DE LA PAROISSE ST-CLEMENT DE BEAUHARNOIS", "designationCode": "C", "categoryCode": "38", "address": "183 ST-LOUIS", "city": "BEAUHARNOIS", "province": "QC", "country": "CA", "postalCode": "J6N2H8", "twitter": "None", "instagram": "None", "facebook": "None", "youtube": "None", "website": "None", "summary": "None", "logo": "None", "latitude": 45.32768011338238, "longitude": -73.84143592711564}, "118999036RR0001": {"name": "LA FABRIQUE DE LA PAROISSE ST-ELIE DE CAXTON", "designationCode": "C", "categoryCode": "38", "address": "2410 AVE PRINCIPALE", "city": "ST-ELIE DE CAXTON", "province": "QC", "country": "CA", "postalCode": "G0X2N0", "twitter": "None", "instagram": "None", "facebook": "None", "youtube": "None", "website": "None", "summary": "None", "logo": "None", "latitude": 46.49116969648081, "longitude": -72.96001829723578}, "107367500RR0001": {"name": "LA FABRIQUE DE LA PAROISSE ST-EUGENE", "designationCode": "C", "categoryCode": "38", "address": "152 ST-ALPHONSE", "city": "CAP-DE-LA-MADELEINE", "province": "QC", "country": "CA", "postalCode": "G8T7R8", "twitter": "None", "instagram": "None", "facebook": "None", "youtube": "None", "website": "None", "summary": "None", "logo": "None", "latitude": 46.36788746130747, "longitude": -72.5320041424782}, "137876389RR0001": {"name": "LA FABRIQUE DE LA PAROISSE ST-FRANCOIS-DE-SALES DE VAL D'ESPOIR", "designationCode": "C", "categoryCode": "38", "address": "1234 RANG 5                   CP 40", "city": "VAL D'ESPOIR", "province": "QC", "country": "CA", "postalCode": "G0C3G0", "twitter": "None", "instagram": "None", "facebook": "None", "youtube": "None", "website": "None", "summary": "None", "logo": "None", "latitude": 48.535782000000054, "longitude": -64.34194399999993}, "118999176RR0001": {"name": "LA FABRIQUE DE LA PAROISSE ST-FRANCOIS-XAVIER BASSIN IM", "designationCode": "C", "categoryCode": "38", "address": "588 CH. DU BASSIN", "city": "BASSIN", "province": "QC", "country": "CA", "postalCode": "G4T0C5", "twitter": "None", "instagram": "None", "facebook": "None", "youtube": "None", "website": "None", "summary": "None", "logo": "None", "latitude": 47.222048461314046, "longitude": -61.932475212958735}, "107360414RR0001": {"name": "LA FABRIQUE DE LA PAROISSE ST-GEORGES-DE-MALBAIE", "designationCode": "C", "categoryCode": "38", "address": "C.P. 69", "city": "ST-GEORGES DE MALBAIE", "province": "QC", "country": "CA", "postalCode": "G0C2X0", "twitter": "None", "instagram": "None", "facebook": "None", "youtube": "None", "website": "None", "summary": "None", "logo": "None", "latitude": 48.62570100000005, "longitude": -64.17338749999993}, "118999234RR0001": {"name": "LA FABRIQUE DE LA PAROISSE ST-HENRI DE TAILLON", "designationCode": "C", "categoryCode": "38", "address": "504 RUE PRINCIPALE", "city": "TAILLON", "province": "QC", "country": "CA", "postalCode": "G0W2X0", "twitter": "None", "instagram": "None", "facebook": "None", "youtube": "None", "website": "None", "summary": "None", "logo": "None", "latitude": 48.66268032283996, "longitude": -71.82565663791924}, "118999317RR0001": {"name": "LA FABRIQUE DE LA PAROISSE ST-JOSEPH DE MASKINONGE", "designationCode": "C", "categoryCode": "38", "address": "29 RUE SAINT-JOSEPH", "city": "MASKINONGE", "province": "QC", "country": "CA", "postalCode": "J0K1N0", "twitter": "None", "instagram": "None", "facebook": "None", "youtube": "None", "website": "None", "summary": "None", "logo": "None", "latitude": 46.226880336372666, "longitude": -73.01564616561791}, "107364226RR0001": {"name": "LA FABRIQUE DE LA PAROISSE ST-MICHEL-DE-SILLERY", "designationCode": "C", "categoryCode": "38", "address": "1600 RUE DE PERSICO", "city": "QU\u00c9BEC", "province": "QC", "country": "CA", "postalCode": "G1T1H3", "twitter": "None", "instagram": "None", "facebook": "None", "youtube": "None", "website": "None", "summary": "None", "logo": "None", "latitude": 46.77484200000005, "longitude": -71.24432299999994}, "107369969RR0001": {"name": "LA FABRIQUE DE LA PAROISSE ST-PAUL DE SENNETERRE", "designationCode": "C", "categoryCode": "38", "address": "700, 8E AVENUE", "city": "SENNETERRE", "province": "QC", "country": "CA", "postalCode": "J0Y2M0", "twitter": "None", "instagram": "None", "facebook": "None", "youtube": "None", "website": "None", "summary": "None", "logo": "None", "latitude": 48.38793407527751, "longitude": -77.24403981436807}, "107369928RR0001": {"name": "LA FABRIQUE DE LA PAROISSE ST-PAUL-DE-GRANDE-MERE", "designationCode": "C", "categoryCode": "38", "address": "499, AV. DE GRAND-MERE", "city": "SHAWINIGAN", "province": "QC", "country": "CA", "postalCode": "G9T2H3", "twitter": "None", "instagram": "None", "facebook": "None", "youtube": "None", "website": "None", "summary": "None", "logo": "None", "latitude": 46.61591390810223, "longitude": -72.69019457031594}, "118999507RR0001": {"name": "LA FABRIQUE DE LA PAROISSE ST-PIERRE DE LA VERNIERE ILES DE LA MADELEINE", "designationCode": "C", "categoryCode": "38", "address": "1318 CHEMIN DE LA VERNIERE", "city": "ETANG-DU-NORD", "province": "QC", "country": "CA", "postalCode": "G4T3E6", "twitter": "None", "instagram": "None", "facebook": "None", "youtube": "None", "website": "None", "summary": "None", "logo": "None", "latitude": 47.37077513630312, "longitude": -61.90599672410419}, "890095060RR0001": {"name": "LA FABRIQUE DE LA PAROISSE ST-PIERRE-DE-MALBAIE (BARACHOIS)", "designationCode": "C", "categoryCode": "38", "address": "1070 RTE 132", "city": "BARACHOIS DE MALBAIE", "province": "QC", "country": "CA", "postalCode": "G0C1A0", "twitter": "None", "instagram": "None", "facebook": "None", "youtube": "None", "website": "None", "summary": "None", "logo": "None", "latitude": 48.61776722148687, "longitude": -64.27887310547392}, "107370348RR0001": {"name": "LA FABRIQUE DE LA PAROISSE ST-PROSPER", "designationCode": "C", "categoryCode": "38", "address": "340 RUE DE L'EGLISE", "city": "SAINT-PROSPER", "province": "QC", "country": "CA", "postalCode": "G0X3A0", "twitter": "None", "instagram": "None", "facebook": "None", "youtube": "None", "website": "None", "summary": "None", "logo": "None", "latitude": 46.61422481683869, "longitude": -72.29372823478}, "118999606RR0001": {"name": "LA FABRIQUE DE LA PAROISSE ST-ROCH", "designationCode": "C", "categoryCode": "38", "address": "1214 RUE PRINCIPALE", "city": "ST-ROCH DE MEKINAC", "province": "QC", "country": "CA", "postalCode": "G0X2E0", "twitter": "None", "instagram": "None", "facebook": "None", "youtube": "None", "website": "None", "summary": "None", "logo": "None", "latitude": 46.81112572883606, "longitude": -72.76976313875596}, "107370827RR0001": {"name": "LA FABRIQUE DE LA PAROISSE ST-THOMAS D'AQUIN", "designationCode": "C", "categoryCode": "38", "address": "413, ROUTE MAIN", "city": "HUDSON", "province": "QC", "country": "CA", "postalCode": "J0P1H0", "twitter": "None", "instagram": "None", "facebook": "None", "youtube": "None", "website": "None", "summary": "None", "logo": "None", "latitude": 45.457426128240414, "longitude": -74.13913083901734}, "129963211RR0001": {"name": "LA FABRIQUE DE LA PAROISSE STE CECILE DU BIC", "designationCode": "C", "categoryCode": "38", "address": "88, AV. DE L'EGLISE", "city": "RIMOUSKI", "province": "QC", "country": "CA", "postalCode": "G0L1B0", "twitter": "None", "instagram": "None", "facebook": "None", "youtube": "None", "website": "None", "summary": "None", "logo": "None", "latitude": 48.371982106065076, "longitude": -68.70587045987368}, "887647394RR0001": {"name": "LA FABRIQUE DE LA PAROISSE STE LUCIE D'ALBANEL", "designationCode": "C", "categoryCode": "38", "address": "153 RUE PRINCIPALE", "city": "ALBANEL", "province": "QC", "country": "CA", "postalCode": "G8M3J3", "twitter": "None", "instagram": "None", "facebook": "None", "youtube": "None", "website": "None", "summary": "None", "logo": "None", "latitude": 48.88342659507177, "longitude": -72.4416097236715}, "107358194RR0001": {"name": "LA FABRIQUE DE LA PAROISSE STE-CECILE DE CLORIDORME", "designationCode": "C", "categoryCode": "38", "address": "CP 130", "city": "CLORIDORME CTE GASPE", "province": "QC", "country": "CA", "postalCode": "G0E1G0", "twitter": "None", "instagram": "None", "facebook": "None", "youtube": "None", "website": "None", "summary": "None", "logo": "None", "latitude": 49.16052600000006, "longitude": -64.79083699999994}, "107367096RR0001": {"name": "LA FABRIQUE DE LA PAROISSE STE-MARIE-MADELEINE", "designationCode": "C", "categoryCode": "38", "address": "2 RUE DE L'EGLISE", "city": "MADELEINE CENTRE", "province": "QC", "country": "CA", "postalCode": "G0E1P0", "twitter": "None", "instagram": "None", "facebook": "None", "youtube": "None", "website": "None", "summary": "None", "logo": "None", "latitude": 49.25068899751851, "longitude": -65.36285595669118}, "107367229RR0001": {"name": "LA FABRIQUE DE LA PAROISSE STE-PHILOMENE", "designationCode": "C", "categoryCode": "38", "address": "893 BOUL ST-JEAN-BAPTISTE", "city": "MERCIER", "province": "QC", "country": "CA", "postalCode": "J6R2K8", "twitter": "None", "instagram": "None", "facebook": "None", "youtube": "None", "website": "None", "summary": "None", "logo": "None", "latitude": 45.310367240377246, "longitude": -73.74564320018416}, "118908458RR0001": {"name": "LA FABRIQUE DE LA PAROISSE STE-TH\u00c9R\u00c8SE-D'AVILA", "designationCode": "C", "categoryCode": "38", "address": "1121 BOUL. WALLBERG", "city": "DOLBEAU", "province": "QC", "country": "CA", "postalCode": "G8L1G8", "twitter": "None", "instagram": "None", "facebook": "None", "youtube": "None", "website": "None", "summary": "None", "logo": "None", "latitude": 48.87632198079898, "longitude": -72.22663152030763}, "871106118RR0001": {"name": "LA FABRIQUE DE LA PAROISSE TRINITE-SUR-RICHELIEU", "designationCode": "C", "categoryCode": "39", "address": "360, BOUL. SIR-WILFRID-LAURIER", "city": "BELOEIL", "province": "QC", "country": "CA", "postalCode": "J3G4H4", "twitter": "None", "instagram": "None", "facebook": "None", "youtube": "None", "website": "None", "summary": "None", "logo": "None", "latitude": 45.556672934502835, "longitude": -73.21106703026707}, "129961140RR0001": {"name": "LA FABRIQUE DE LAC A LA CROIX", "designationCode": "C", "categoryCode": "38", "address": "101-335 DE ROUILLAC", "city": "METABETCHOUAN-LAC-A-LA-CROIX", "province": "QC", "country": "CA", "postalCode": "G8G2B5", "twitter": "None", "instagram": "None", "facebook": "None", "youtube": "None", "website": "None", "summary": "None", "logo": "None", "latitude": 48.40919582041673, "longitude": -71.78288958156867}, "107361396RR0002": {"name": "LA FABRIQUE DE NOTRE-DAME-DE-LA-GARDE", "designationCode": "C", "categoryCode": "38", "address": "761 RUE CHAMPLAIN", "city": "QUEBEC", "province": "QC", "country": "CA", "postalCode": "G1K4J6", "twitter": "None", "instagram": "None", "facebook": "None", "youtube": "None", "website": "None", "summary": "None", "logo": "None", "latitude": 46.7989085806164, "longitude": -71.21737620439735}, "130501067RR0001": {"name": "LA FABRIQUE DE PERIBONKA", "designationCode": "C", "categoryCode": "38", "address": "296 RUE ED NIQUET             GERVAIS CANTIN", "city": "PERIBONKA", "province": "QC", "country": "CA", "postalCode": "G0W2G0", "twitter": "None", "instagram": "None", "facebook": "None", "youtube": "None", "website": "None", "summary": "None", "logo": "None", "latitude": 48.746094000000056, "longitude": -72.00151099999994}, "892197047RR0001": {"name": "LA FABRIQUE DE ST MATHIEU", "designationCode": "C", "categoryCode": "38", "address": "379B RUE PRINCIPALE", "city": "ST-MATHIEU", "province": "QC", "country": "CA", "postalCode": "G0L3T0", "twitter": "None", "instagram": "None", "facebook": "None", "youtube": "None", "website": "None", "summary": "None", "logo": "None", "latitude": 45.31161181890835, "longitude": -73.52203350804656}, "107369613RR0001": {"name": "LA FABRIQUE DE ST-MICHEL-DE-MISTASSINI", "designationCode": "C", "categoryCode": "38", "address": "137 AV. DE L'EGLISE", "city": "DOLBEAU-MISTASSINI", "province": "QC", "country": "CA", "postalCode": "G8L4W3", "twitter": "None", "instagram": "None", "facebook": "None", "youtube": "None", "website": "None", "summary": "None", "logo": "None", "latitude": 48.891300741272225, "longitude": -72.20505091820112}, "118999309RR0001": {"name": "LA FABRIQUE SAINT-JOSEPH DE L'ANSE-AU-GRIFFON", "designationCode": "C", "categoryCode": "39", "address": "618, BOUL.GRIFFON             CP 10", "city": "L'ANSE AU GRIFFON GASPE", "province": "QC", "country": "CA", "postalCode": "G4X6A6", "twitter": "None", "instagram": "None", "facebook": "None", "youtube": "None", "website": "None", "summary": "None", "logo": "None", "latitude": 48.93128069937704, "longitude": -64.29615484805807}, "118910272RR0001": {"name": "LA FABRIQUE SAINTE-FAMILLE", "designationCode": "C", "categoryCode": "09", "address": "CP 700", "city": "LEBEL-SUR QUEVILLON", "province": "QC", "country": "CA", "postalCode": "J0Y1X0", "twitter": "None", "instagram": "None", "facebook": "None", "youtube": "None", "website": "None", "summary": "None", "logo": "None", "latitude": 49.05088942013703, "longitude": -76.98896325751171}, "130976939RR0001": {"name": "LA FABRIQUE SAINTE-MADELEINE DE RIGAUD", "designationCode": "C", "categoryCode": "38", "address": "4 ST-JEAN BAPTISTE CP 327", "city": "RIGAUD", "province": "QC", "country": "CA", "postalCode": "J0P1P0", "twitter": "None", "instagram": "None", "facebook": "None", "youtube": "None", "website": "None", "summary": "None", "logo": "None", "latitude": 45.30155445431517, "longitude": -74.30371882646952}, "118999903RR0001": {"name": "LA FABRIQUE ST-GERARD MAJELLA", "designationCode": "C", "categoryCode": "38", "address": "656 RUE GAUTHIER", "city": "LAROUCHE", "province": "QC", "country": "CA", "postalCode": "G0W1A0", "twitter": "None", "instagram": "None", "facebook": "None", "youtube": "None", "website": "None", "summary": "None", "logo": "None", "latitude": 48.44782451096427, "longitude": -71.52402002830519}, "889197042RR0001": {"name": "LA FABRIQUE ST-NORBERT-DE-CAP-CHAT", "designationCode": "C", "categoryCode": "38", "address": "51 NOTRE-DAME                 C.P. 189", "city": "CAP CHAT", "province": "QC", "country": "CA", "postalCode": "G0J1E0", "twitter": "None", "instagram": "None", "facebook": "None", "youtube": "None", "website": "None", "summary": "None", "logo": "None", "latitude": 49.09744157949121, "longitude": -66.68747624868713}, "130140361RR0001": {"name": "LA FABRIQUEDE LA PAROISSE DE ST-JOACHIM DE TOURELLE", "designationCode": "C", "categoryCode": "38", "address": "1 B BOULEVARD PERRON EST", "city": "SAINTE-ANNE-DES-MONTS", "province": "QC", "country": "CA", "postalCode": "G4V2Z7", "twitter": "None", "instagram": "None", "facebook": "None", "youtube": "None", "website": "None", "summary": "None", "logo": "None", "latitude": 49.161334801517945, "longitude": -66.40849420869652}, "862798071RR0001": {"name": "LA FAMILLE DES COEURS DE JESUS ET MARIE", "designationCode": "C", "categoryCode": "49", "address": "9 RANG 1, R.R. 2", "city": "WOTTON", "province": "QC", "country": "CA", "postalCode": "J0A1N0", "twitter": "None", "instagram": "None", "facebook": "None", "youtube": "None", "website": "None", "summary": "None", "logo": "None", "latitude": 45.754333130326344, "longitude": -71.76534490830919}, "107587982RR0001": {"name": "LA FAMILLE DES FILS ET FILLES DE MARIE INC.", "designationCode": "C", "categoryCode": "49", "address": "626 ROUTE DU SANCTUAIRE", "city": "LAC-ETCHEMIN", "province": "QC", "country": "CA", "postalCode": "G0R1S0", "twitter": "None", "instagram": "None", "facebook": "None", "youtube": "None", "website": "None", "summary": "None", "logo": "None", "latitude": 46.38889625578277, "longitude": -70.50398658702751}, "876849712RR0001": {"name": "LA FAMILLE DES PUITS DE LUMIERE", "designationCode": "C", "categoryCode": "49", "address": "CP 612 SUCC BROMPTONVILLE", "city": "SHERBROOKE", "province": "QC", "country": "CA", "postalCode": "J1C1A1", "twitter": "None", "instagram": "None", "facebook": "None", "youtube": "None", "website": "None", "summary": "None", "logo": "None", "latitude": 45.47493000000003, "longitude": -71.94280999999995}, "129745287RR0001": {"name": "LA FAMILLE DU SACRE-COEUR DE JESUS", "designationCode": "C", "categoryCode": "49", "address": "84 BOUL LACOMBE", "city": "REPENTIGNY", "province": "QC", "country": "CA", "postalCode": "J5Z1R8", "twitter": "None", "instagram": "None", "facebook": "None", "youtube": "None", "website": "None", "summary": "None", "logo": "None", "latitude": 45.75960493701039, "longitude": -73.46030476495059}, "889072245RR0001": {"name": "LA FEDERATION DES COOPERATIVES DU NOUVEAU-QUEBEC, EDUCATION TRUST", "designationCode": "C", "categoryCode": "21", "address": "19950 CLARK GRAHAM", "city": "BAIE D'URFE", "province": "QC", "country": "CA", "postalCode": "H9X3R8", "twitter": "None", "instagram": "None", "facebook": "None", "youtube": "None", "website": "None", "summary": "None", "logo": "None", "latitude": 45.422007259998125, "longitude": -73.91694350467455}, "107378408RR0001": {"name": "LA FEDERATION DES MONASTERES DES AUGUSTINES DE LA MISERICORDE DE JESUS", "designationCode": "C", "categoryCode": "46", "address": "75, RUE DES REMPARTS", "city": "QUEBEC", "province": "QC", "country": "CA", "postalCode": "G1R3R9", "twitter": "None", "instagram": "None", "facebook": "None", "youtube": "None", "website": "None", "summary": "None", "logo": "None", "latitude": 46.81627776442446, "longitude": -71.20959778269064}, "877502963RR0001": {"name": "LA FEDERATION DES SCOUTS CATHOLIQUES DE LA PROVINCE DE QUEBEC - DISTRICT SCOUT DE LA SAINT-MAURICE", "designationCode": "C", "categoryCode": "29", "address": "10555 CHEMIN STE-MARGUERITE", "city": "TROIS-RIVI\u00c8RES", "province": "QC", "country": "CA", "postalCode": "G9B6N6", "twitter": "None", "instagram": "None", "facebook": "None", "youtube": "None", "website": "None", "summary": "None", "logo": "None", "latitude": 46.28938450790586, "longitude": -72.67397506910385}, "118914050RR0001": {"name": "LA FEDERATION QUEBECOISE DU CANOT ET DU KAYAK", "designationCode": "C", "categoryCode": "56", "address": "4545 AV. PIERRE-DE COUBERTIN", "city": "MONTR\u00c9AL", "province": "QC", "country": "CA", "postalCode": "H1V0B2", "twitter": "None", "instagram": "None", "facebook": "None", "youtube": "None", "website": "None", "summary": "None", "logo": "None", "latitude": 45.555920590080106, "longitude": -73.55036240097485}, "870092665RR0001": {"name": "LA FENETRE, CENTRE D'IMMERSION AUX ARTS", "designationCode": "C", "categoryCode": "22", "address": "460 ST-GEORGES                CP 1024", "city": "TROIS RIVIERES", "province": "QC", "country": "CA", "postalCode": "G9A5K4", "twitter": "None", "instagram": "None", "facebook": "None", "youtube": "None", "website": "None", "summary": "None", "logo": "None", "latitude": 46.34140492480796, "longitude": -72.54527321536162}}