{"119264174RR0030": {"name": "ST MARY'S CHURCH", "designationCode": "C", "categoryCode": "38", "address": "209 VICTORIA AVE", "city": "FORT FRANCES", "province": "ON", "country": "CA", "postalCode": "P9A2B8", "twitter": "None", "instagram": "None", "facebook": "None", "youtube": "None", "website": "None", "summary": "None", "logo": "None", "latitude": 48.606929632141416, "longitude": -93.39264779207144}, "133079822RR0001": {"name": "ST MARY'S CHURCH", "designationCode": "C", "categoryCode": "38", "address": "BOX 539", "city": "CENTRAL BUTTE", "province": "SK", "country": "CA", "postalCode": "S0H0T0", "twitter": "None", "instagram": "None", "facebook": "None", "youtube": "None", "website": "None", "summary": "None", "logo": "None", "latitude": 50.80006000000003, "longitude": -106.51793999999995}, "887057081RR0001": {"name": "ST MARY'S CHURCH", "designationCode": "C", "categoryCode": "38", "address": "40 NOTRE DAME AVE", "city": "SUDBURY", "province": "ON", "country": "CA", "postalCode": "P3C5K2", "twitter": "None", "instagram": "None", "facebook": "None", "youtube": "None", "website": "None", "summary": "None", "logo": "None", "latitude": 46.494792697235894, "longitude": -80.99090004490459}, "888335262RR0001": {"name": "ST MARY'S CHURCH", "designationCode": "C", "categoryCode": "38", "address": "464 RITSON RD S", "city": "OSHAWA", "province": "ON", "country": "CA", "postalCode": "L1H5J9", "twitter": "None", "instagram": "None", "facebook": "None", "youtube": "None", "website": "None", "summary": "None", "logo": "None", "latitude": 43.887843451555284, "longitude": -78.84837483308308}, "889408571RR0002": {"name": "ST MARY'S CHURCH", "designationCode": "C", "categoryCode": "30", "address": "261 MAIN RD.", "city": "HUDSON", "province": "QC", "country": "CA", "postalCode": "J0P1H0", "twitter": "None", "instagram": "None", "facebook": "None", "youtube": "None", "website": "None", "summary": "None", "logo": "None", "latitude": 45.45187653542694, "longitude": -74.11442422560516}, "890954241RR0001": {"name": "ST MARY'S CHURCH", "designationCode": "C", "categoryCode": "38", "address": "P.O. BOX 225", "city": "RED LAKE", "province": "ON", "country": "CA", "postalCode": "P0V2M0", "twitter": "None", "instagram": "None", "facebook": "None", "youtube": "None", "website": "None", "summary": "None", "logo": "None", "latitude": 51.017789973887886, "longitude": -93.82652994835257}, "890487366RR0001": {"name": "ST MARY'S CHURCH KERRISDALE TRUST AND ENDOWMENT FUND", "designationCode": "A", "categoryCode": "45", "address": "2490 WEST 37TH AVENUE", "city": "VANCOUVER", "province": "BC", "country": "CA", "postalCode": "V6M1P5", "twitter": "None", "instagram": "None", "facebook": "None", "youtube": "None", "website": "None", "summary": "None", "logo": "None", "latitude": 49.23841150288554, "longitude": -123.16207299861503}, "892918962RR0001": {"name": "ST MARY'S DISTRICT FOOD BANK", "designationCode": "C", "categoryCode": "09", "address": "POST OFFICE BOX 102", "city": "SHERBROOKE", "province": "NS", "country": "CA", "postalCode": "B0J3C0", "twitter": "None", "instagram": "None", "facebook": "None", "youtube": "None", "website": "None", "summary": "None", "logo": "None", "latitude": 44.62486683013651, "longitude": -64.54661386209058}, "119188993RR0001": {"name": "ST MARY'S FRATERNITY SECULAR FRANCISCAN ORDER", "designationCode": "C", "categoryCode": "46", "address": "26 ROYAL OAK PARK NW", "city": "CALGARY", "province": "AB", "country": "CA", "postalCode": "T3G0A5", "twitter": "None", "instagram": "None", "facebook": "None", "youtube": "None", "website": "None", "summary": "None", "logo": "None", "latitude": 51.15165353427781, "longitude": -114.22051973867516}, "119189025RR0001": {"name": "ST MARY'S GENERAL HOSPITAL", "designationCode": "C", "categoryCode": "10", "address": "911 QUEEN'S BLVD", "city": "KITCHENER", "province": "ON", "country": "CA", "postalCode": "N2M1B2", "twitter": "None", "instagram": "None", "facebook": "None", "youtube": "None", "website": "None", "summary": "None", "logo": "None", "latitude": 43.438183676379396, "longitude": -80.5004276584491}, "119189017RR0001": {"name": "ST MARY'S GENERAL HOSPITAL FOUNDATION KITCHENER-WATERLOO", "designationCode": "A", "categoryCode": "15", "address": "911 QUEEN'S BLVD", "city": "KITCHENER", "province": "ON", "country": "CA", "postalCode": "N2M1B2", "twitter": "None", "instagram": "None", "facebook": "None", "youtube": "None", "website": "None", "summary": "None", "logo": "None", "latitude": 43.438183676379396, "longitude": -80.5004276584491}, "119189058RR0001": {"name": "ST MARY'S HISTORICAL SOCIETY OF MAXSTONE", "designationCode": "C", "categoryCode": "52", "address": "BOX 33", "city": "SCOUT LAKE", "province": "SK", "country": "CA", "postalCode": "S0H3V0", "twitter": "None", "instagram": "None", "facebook": "None", "youtube": "None", "website": "None", "summary": "None", "logo": "None", "latitude": 49.36592400000005, "longitude": -106.00039249999993}, "119189066RR0001": {"name": "ST MARY'S HOLY DORMITION RUSSO-GREEK ORTHODOX CATHOIC CHURCHOF SHISHKOVTZY,CHIPMAN,ALBERTA", "designationCode": "C", "categoryCode": "39", "address": "10721 SAINT GABRIEL SCHOOL RD", "city": "EDMONTON", "province": "AB", "country": "CA", "postalCode": "T6A3S7", "twitter": "None", "instagram": "None", "facebook": "None", "youtube": "None", "website": "None", "summary": "None", "logo": "None", "latitude": 53.5537450258237, "longitude": -113.42535321715064}, "119189157RR0001": {"name": "ST MARY'S KERRISDALE HOUSING SOCIETY", "designationCode": "C", "categoryCode": "01", "address": "205-2025 W 42ND AVE", "city": "VANCOUVER", "province": "BC", "country": "CA", "postalCode": "V6M2B5", "twitter": "None", "instagram": "None", "facebook": "None", "youtube": "None", "website": "None", "summary": "None", "logo": "None", "latitude": 49.23357351154118, "longitude": -123.15270133236194}, "890725146RR0001": {"name": "ST MARY'S MEMORIAL HOSPITAL SOCIETY", "designationCode": "A", "categoryCode": "13", "address": "ST.MARY'S MEMORIAL HOSPITAL   GENERAL DELIVERY", "city": "SHERBROOKE", "province": "NS", "country": "CA", "postalCode": "B0J3C0", "twitter": "None", "instagram": "None", "facebook": "None", "youtube": "None", "website": "None", "summary": "None", "logo": "None", "latitude": 45.146840062179, "longitude": -61.9815400261121}, "119264174RR0032": {"name": "ST MARY'S OUR LADY QUEEN OF POLAND CHURCH", "designationCode": "C", "categoryCode": "38", "address": "93 N.ALGOMA STREET", "city": "THUNDER BAY", "province": "ON", "country": "CA", "postalCode": "P7A4Z5", "twitter": "None", "instagram": "None", "facebook": "None", "youtube": "None", "website": "None", "summary": "None", "logo": "None", "latitude": 48.43973392033592, "longitude": -89.2211673682845}, "119189462RR0001": {"name": "ST MARY'S PARISH", "designationCode": "C", "categoryCode": "38", "address": "BOX 146", "city": "SOURIS", "province": "MB", "country": "CA", "postalCode": "R0K2C0", "twitter": "None", "instagram": "None", "facebook": "None", "youtube": "None", "website": "None", "summary": "None", "logo": "None", "latitude": 49.59915625917259, "longitude": -99.8622610573006}, "119189470RR0001": {"name": "ST MARY'S PARISH", "designationCode": "C", "categoryCode": "38", "address": "PO BOX 447", "city": "BIRTLE", "province": "MB", "country": "CA", "postalCode": "R0M0C0", "twitter": "None", "instagram": "None", "facebook": "None", "youtube": "None", "website": "None", "summary": "None", "logo": "None", "latitude": 50.422120000000064, "longitude": -101.04440999999997}, "119189488RR0001": {"name": "ST MARY'S PARISH", "designationCode": "C", "categoryCode": "38", "address": "BOX 221", "city": "CHURCHBRIDGE", "province": "SK", "country": "CA", "postalCode": "S0A0M0", "twitter": "None", "instagram": "None", "facebook": "None", "youtube": "None", "website": "None", "summary": "None", "logo": "None", "latitude": 50.897380000000055, "longitude": -101.89767999999998}, "119189546RR0001": {"name": "ST MARY'S PARISH", "designationCode": "C", "categoryCode": "38", "address": "BOX 146", "city": "BEAVERLODGE", "province": "AB", "country": "CA", "postalCode": "T0H0C0", "twitter": "None", "instagram": "None", "facebook": "None", "youtube": "None", "website": "None", "summary": "None", "logo": "None", "latitude": 55.209100000000035, "longitude": -119.42957999999999}, "140716937RR0001": {"name": "ST MARY'S PARISH", "designationCode": "C", "categoryCode": "38", "address": "BOX 127", "city": "TRIBUNE", "province": "SK", "country": "CA", "postalCode": "S0C2M0", "twitter": "None", "instagram": "None", "facebook": "None", "youtube": "None", "website": "None", "summary": "None", "logo": "None", "latitude": 49.24816000000004, "longitude": -103.82251999999994}, "890238447RR0001": {"name": "ST MARY'S PARISH OF GRAYSON", "designationCode": "C", "categoryCode": "38", "address": "BOX 100", "city": "GRAYSON", "province": "SK", "country": "CA", "postalCode": "S0A1E0", "twitter": "None", "instagram": "None", "facebook": "None", "youtube": "None", "website": "None", "summary": "None", "logo": "None", "latitude": 50.716710000000035, "longitude": -102.65098999999998}, "132378639RR0001": {"name": "ST MARY'S PASTORAL CHARGE", "designationCode": "C", "categoryCode": "44", "address": "BOX 542", "city": "ST MARYS", "province": "ON", "country": "CA", "postalCode": "N4X1B3", "twitter": "None", "instagram": "None", "facebook": "None", "youtube": "None", "website": "None", "summary": "None", "logo": "None", "latitude": 43.25948700000005, "longitude": -81.14143399999993}, "108030990RR0001": {"name": "ST MARY'S RIVER MARINE CENTRE", "designationCode": "C", "categoryCode": "50", "address": "PO BOX 23099  STATION MALL", "city": "SAULT STE MARIE", "province": "ON", "country": "CA", "postalCode": "P6A6W6", "twitter": "None", "instagram": "None", "facebook": "None", "youtube": "None", "website": "None", "summary": "None", "logo": "None", "latitude": 46.51177000000007, "longitude": -84.33922999999999}, "131815532RR0001": {"name": "ST MARY'S ROMAN CATHOLIC CHURCH", "designationCode": "C", "categoryCode": "38", "address": "P.O BOX 550", "city": "LANIGAN", "province": "SK", "country": "CA", "postalCode": "S0K2M0", "twitter": "None", "instagram": "None", "facebook": "None", "youtube": "None", "website": "None", "summary": "None", "logo": "None", "latitude": 51.84617000000003, "longitude": -105.03797999999995}, "130399363RR0001": {"name": "ST MARY'S ROMAN CATHOLIC PARISH", "designationCode": "C", "categoryCode": "38", "address": "BOX 940", "city": "WYNYARD", "province": "SK", "country": "CA", "postalCode": "S0A4T0", "twitter": "None", "instagram": "None", "facebook": "None", "youtube": "None", "website": "None", "summary": "None", "logo": "None", "latitude": 51.76523000000003, "longitude": -104.18008999999995}, "119189736RR0001": {"name": "ST MARY'S ROMANIAN ORTHODOX CHURCH", "designationCode": "C", "categoryCode": "39", "address": "295 LAKESHORE RD", "city": "TIMMINS", "province": "ON", "country": "CA", "postalCode": "P4N7A3", "twitter": "None", "instagram": "None", "facebook": "None", "youtube": "None", "website": "None", "summary": "None", "logo": "None", "latitude": 48.481809446682774, "longitude": -81.31990324065592}, "119189744RR0001": {"name": "ST MARY'S ROMANIAN ORTHODOX CONGREGATION OF BOIAN", "designationCode": "C", "categoryCode": "39", "address": "BOX 14", "city": "WILLINGDON", "province": "AB", "country": "CA", "postalCode": "T0B4R0", "twitter": "None", "instagram": "None", "facebook": "None", "youtube": "None", "website": "None", "summary": "None", "logo": "None", "latitude": 53.83346000000006, "longitude": -112.13515999999998}, "716235098RR0001": {"name": "ST MARY'S RUSSIAN ORTHODOX GREEK CATHOLIC CHURCH AT NISKU", "designationCode": "C", "categoryCode": "39", "address": "5604 101A AVE NW", "city": "EDMONTON", "province": "AB", "country": "CA", "postalCode": "T6A0L8", "twitter": "None", "instagram": "None", "facebook": "None", "youtube": "None", "website": "None", "summary": "None", "logo": "None", "latitude": 53.542225486005975, "longitude": -113.42309399999999}, "119221380RR0006": {"name": "ST MARY'S SCHOOL", "designationCode": "C", "categoryCode": "20", "address": "3665 BENVOULIN RD.", "city": "KELOWNA", "province": "BC", "country": "CA", "postalCode": "V1W4M7", "twitter": "None", "instagram": "None", "facebook": "None", "youtube": "None", "website": "None", "summary": "None", "logo": "None", "latitude": 49.85056104631423, "longitude": -119.46776856721908}, "129322699RR0001": {"name": "ST MARY'S SENIOR CITIZENS' RESIDENCE OSHAWA", "designationCode": "C", "categoryCode": "09", "address": "600 MARION AVE", "city": "OSHAWA", "province": "ON", "country": "CA", "postalCode": "L1J7M4", "twitter": "None", "instagram": "None", "facebook": "None", "youtube": "None", "website": "None", "summary": "None", "logo": "None", "latitude": 43.906251750610245, "longitude": -78.88977757722012}, "119189801RR0001": {"name": "ST MARY'S UKRAINIAN CATHOLIC CHURCH", "designationCode": "C", "categoryCode": "38", "address": "155 CATHERINE STREET", "city": "YORKTON", "province": "SK", "country": "CA", "postalCode": "S3N0B9", "twitter": "None", "instagram": "None", "facebook": "None", "youtube": "None", "website": "None", "summary": "None", "logo": "None", "latitude": 51.21763256564139, "longitude": -102.47216319317329}, "124881962RR0001": {"name": "ST MARY'S UKRAINIAN CATHOLIC CHURCH", "designationCode": "C", "categoryCode": "38", "address": "BOX 84", "city": "EDEN", "province": "MB", "country": "CA", "postalCode": "R0J0M0", "twitter": "None", "instagram": "None", "facebook": "None", "youtube": "None", "website": "None", "summary": "None", "logo": "None", "latitude": 50.37653000000006, "longitude": -99.47072999999995}, "887553196RR0001": {"name": "ST MARY'S UKRAINIAN CATHOLIC PARISH", "designationCode": "C", "categoryCode": "38", "address": "550 14TH AVE. W", "city": "VANCOUVER", "province": "BC", "country": "CA", "postalCode": "V5Z1P6", "twitter": "None", "instagram": "None", "facebook": "None", "youtube": "None", "website": "None", "summary": "None", "logo": "None", "latitude": 49.258770523371766, "longitude": -123.11749311226845}, "890368970RR0001": {"name": "ST MARY'S UKRAINIAN ORTHODOX CHURCH", "designationCode": "C", "categoryCode": "39", "address": "BOX 257", "city": "SHEHO", "province": "SK", "country": "CA", "postalCode": "S0A3T0", "twitter": "None", "instagram": "None", "facebook": "None", "youtube": "None", "website": "None", "summary": "None", "logo": "None", "latitude": 51.58994202791057, "longitude": -103.21179149855433}, "888328796RR0001": {"name": "ST MARY'S, ST ANNE'S - THE CHURCH THAT PENNIES BUILT", "designationCode": "C", "categoryCode": "39", "address": "BOX 340", "city": "BIRCH HILLS", "province": "SK", "country": "CA", "postalCode": "S0J0G0", "twitter": "None", "instagram": "None", "facebook": "None", "youtube": "None", "website": "None", "summary": "None", "logo": "None", "latitude": 56.325968466910076, "longitude": -103.2432009425047}, "119188225RR0001": {"name": "ST MARYS ARMENIAN CHURCH OF HAMILTON", "designationCode": "C", "categoryCode": "39", "address": "8 MAYHURST AVE", "city": "HAMILTON", "province": "ON", "country": "CA", "postalCode": "L8K3M8", "twitter": "None", "instagram": "None", "facebook": "None", "youtube": "None", "website": "None", "summary": "None", "logo": "None", "latitude": 43.229399363869774, "longitude": -79.79800299642199}, "837843325RR0001": {"name": "ST MARYS GOSPEL HALL", "designationCode": "C", "categoryCode": "39", "address": "24167 FAIRVIEW ROAD           R.R. #3", "city": "THORNDALE", "province": "ON", "country": "CA", "postalCode": "N0M2P0", "twitter": "None", "instagram": "None", "facebook": "None", "youtube": "None", "website": "None", "summary": "None", "logo": "None", "latitude": 43.14484610382367, "longitude": -81.16055792899687}, "119189181RR0001": {"name": "ST MARYS MEMORIAL HOSPITAL", "designationCode": "C", "categoryCode": "10", "address": "BOX 940", "city": "ST MARY'S", "province": "ON", "country": "CA", "postalCode": "N4X1B6", "twitter": "None", "instagram": "None", "facebook": "None", "youtube": "None", "website": "None", "summary": "None", "logo": "None", "latitude": 43.254770081077794, "longitude": -81.1415099955279}, "890809841RR0001": {"name": "ST MARYS MEMORIAL HOSPITAL FOUNDATION", "designationCode": "A", "categoryCode": "13", "address": "PO BOX 940", "city": "ST MARYS", "province": "ON", "country": "CA", "postalCode": "N4X1B6", "twitter": "None", "instagram": "None", "facebook": "None", "youtube": "None", "website": "None", "summary": "None", "logo": "None", "latitude": 43.25948700000005, "longitude": -81.14143399999993}, "128967353RR0098": {"name": "ST MARYS PARISH", "designationCode": "C", "categoryCode": "38", "address": "100 YOUNG ST", "city": "OTTAWA", "province": "ON", "country": "CA", "postalCode": "K1Y3P7", "twitter": "None", "instagram": "None", "facebook": "None", "youtube": "None", "website": "None", "summary": "None", "logo": "None", "latitude": 45.40088110404548, "longitude": -75.71636317580372}, "129900213RR0001": {"name": "ST MARYS PRESBYTERIAN CHURCH", "designationCode": "C", "categoryCode": "37", "address": "BOX 247", "city": "ST MARYS", "province": "ON", "country": "CA", "postalCode": "N4X1B1", "twitter": "None", "instagram": "None", "facebook": "None", "youtube": "None", "website": "None", "summary": "None", "logo": "None", "latitude": 43.25948700000005, "longitude": -81.14143399999993}, "119189678RR0001": {"name": "ST MARYS R C CHURCH", "designationCode": "C", "categoryCode": "38", "address": "BOX 64", "city": "FOSSTON", "province": "SK", "country": "CA", "postalCode": "S0E0V0", "twitter": "None", "instagram": "None", "facebook": "None", "youtube": "None", "website": "None", "summary": "None", "logo": "None", "latitude": 52.200000000000045, "longitude": -103.81769999999995}, "119189751RR0001": {"name": "ST MARYS ROTARY CLUB CHARITABLE TRUST", "designationCode": "C", "categoryCode": "65", "address": "119 WATER ST. S., PO BOX 1779", "city": "ST.MARYS", "province": "ON", "country": "CA", "postalCode": "N4X1C1", "twitter": "None", "instagram": "None", "facebook": "None", "youtube": "None", "website": "None", "summary": "None", "logo": "None", "latitude": 43.256126672485486, "longitude": -81.14317339061708}, "119238210RR0017": {"name": "ST MATHIAS ANGLICAN CHURCH", "designationCode": "C", "categoryCode": "30", "address": "P.O.BOX 176", "city": "CECIL  LAKE", "province": "BC", "country": "CA", "postalCode": "V0C1G0", "twitter": "None", "instagram": "None", "facebook": "None", "youtube": "None", "website": "None", "summary": "None", "logo": "None", "latitude": 56.333726999999996, "longitude": -120.17815440855709}, "119189991RR0001": {"name": "ST MATTHEW MANITOU", "designationCode": "C", "categoryCode": "30", "address": "BOX 375", "city": "MANITOU", "province": "MB", "country": "CA", "postalCode": "R0G1G0", "twitter": "None", "instagram": "None", "facebook": "None", "youtube": "None", "website": "None", "summary": "None", "logo": "None", "latitude": 49.23673000000008, "longitude": -98.53495999999996}, "119190775RR0001": {"name": "ST MATTHEW WESLEY UNITED CHURCH", "designationCode": "C", "categoryCode": "44", "address": "2 PEPPETT STREET", "city": "NORTH SYDNEY", "province": "NS", "country": "CA", "postalCode": "B2A2M7", "twitter": "None", "instagram": "None", "facebook": "None", "youtube": "None", "website": "None", "summary": "None", "logo": "None", "latitude": 46.2065659644528, "longitude": -60.25256492702967}, "119190080RR0002": {"name": "ST MATTHEW'S ANGLICAN CHURCH", "designationCode": "C", "categoryCode": "30", "address": "BOX 781", "city": "VIKING", "province": "AB", "country": "CA", "postalCode": "T0B4N0", "twitter": "None", "instagram": "None", "facebook": "None", "youtube": "None", "website": "None", "summary": "None", "logo": "None", "latitude": 53.10014000000007, "longitude": -111.76843999999994}, "130523665RR0002": {"name": "ST MATTHEW'S ANGLICAN CHURCH", "designationCode": "C", "categoryCode": "30", "address": "125 LAROSE DRIVE", "city": "ST ALBERT", "province": "AB", "country": "CA", "postalCode": "T8N2X7", "twitter": "None", "instagram": "None", "facebook": "None", "youtube": "None", "website": "None", "summary": "None", "logo": "None", "latitude": 53.64717711904912, "longitude": -113.6488900249583}, "132329137RR0002": {"name": "ST MATTHEW'S ANGLICAN CHURCH", "designationCode": "C", "categoryCode": "30", "address": "641 ST MATTHEWS AVE", "city": "WINNIPEG", "province": "MB", "country": "CA", "postalCode": "R3G0G6", "twitter": "None", "instagram": "None", "facebook": "None", "youtube": "None", "website": "None", "summary": "None", "logo": "None", "latitude": 49.88981151875456, "longitude": -97.16073322009349}, "132193830RR0001": {"name": "ST MATTHEW'S CATHEDRAL", "designationCode": "C", "categoryCode": "30", "address": "403 13TH ST", "city": "BRANDON", "province": "MB", "country": "CA", "postalCode": "R7A4P9", "twitter": "None", "instagram": "None", "facebook": "None", "youtube": "None", "website": "None", "summary": "None", "logo": "None", "latitude": 49.84346636081136, "longitude": -99.95551788602945}, "119190197RR0002": {"name": "ST MATTHEW'S CHURCH", "designationCode": "C", "categoryCode": "30", "address": "365 PRINCIPALE", "city": "GRENVILLE", "province": "QC", "country": "CA", "postalCode": "J0V1J0", "twitter": "None", "instagram": "None", "facebook": "None", "youtube": "None", "website": "None", "summary": "None", "logo": "None", "latitude": 45.62404436912124, "longitude": -74.60047824981231}, "119190247RR0001": {"name": "ST MATTHEW'S CHURCH", "designationCode": "C", "categoryCode": "30", "address": "135 FIRST AVE", "city": "TORONTO", "province": "ON", "country": "CA", "postalCode": "M4M1W9", "twitter": "None", "instagram": "None", "facebook": "None", "youtube": "None", "website": "None", "summary": "None", "logo": "None", "latitude": 43.6656697981997, "longitude": -79.34729574534025}, "119190304RR0001": {"name": "ST MATTHEW'S CHURCH", "designationCode": "C", "categoryCode": "30", "address": "BOX 188", "city": "GILBERT PLAINS", "province": "MB", "country": "CA", "postalCode": "R0L0X0", "twitter": "None", "instagram": "None", "facebook": "None", "youtube": "None", "website": "None", "summary": "None", "logo": "None", "latitude": 51.144900000000064, "longitude": -100.48893999999996}, "132003948RR0001": {"name": "ST MATTHEW'S CHURCH", "designationCode": "C", "categoryCode": "44", "address": "BOX 103", "city": "BANCROFT", "province": "ON", "country": "CA", "postalCode": "K0L1C0", "twitter": "None", "instagram": "None", "facebook": "None", "youtube": "None", "website": "None", "summary": "None", "logo": "None", "latitude": 45.03567300000006, "longitude": -77.98000849999994}, "132081787RR0001": {"name": "ST MATTHEW'S CHURCH", "designationCode": "C", "categoryCode": "30", "address": "135 WILSON RD S", "city": "OSHAWA", "province": "ON", "country": "CA", "postalCode": "L1H6B9", "twitter": "None", "instagram": "None", "facebook": "None", "youtube": "None", "website": "None", "summary": "None", "logo": "None", "latitude": 43.898675858757336, "longitude": -78.84216863250245}, "141590661RR0001": {"name": "ST MATTHEW'S CHURCH", "designationCode": "C", "categoryCode": "30", "address": "977 BOUL. FORILLON", "city": "FONTENELLE", "province": "QC", "country": "CA", "postalCode": "G4X6T9", "twitter": "None", "instagram": "None", "facebook": "None", "youtube": "None", "website": "None", "summary": "None", "logo": "None", "latitude": 48.86055449321933, "longitude": -64.43300233236194}, "888172061RR0001": {"name": "ST MATTHEW'S CHURCH", "designationCode": "C", "categoryCode": "30", "address": "BOX 333", "city": "BINSCARTH", "province": "MB", "country": "CA", "postalCode": "R0J0G0", "twitter": "None", "instagram": "None", "facebook": "None", "youtube": "None", "website": "None", "summary": "None", "logo": "None", "latitude": 50.624250000000075, "longitude": -101.28641999999996}, "889693974RR0002": {"name": "ST MATTHEW'S CHURCH", "designationCode": "C", "categoryCode": "30", "address": "822 FLORENCE RD.", "city": "FLORENCE", "province": "ON", "country": "CA", "postalCode": "N0P1R0", "twitter": "None", "instagram": "None", "facebook": "None", "youtube": "None", "website": "None", "summary": "None", "logo": "None", "latitude": 42.67082700728329, "longitude": -82.00606115275738}, "131207318RR0001": {"name": "ST MATTHEW'S CHURCH ISLINGTON", "designationCode": "C", "categoryCode": "30", "address": "3962 BLOOR STREET W", "city": "ETOBICOKE", "province": "ON", "country": "CA", "postalCode": "M9B1M3", "twitter": "None", "instagram": "None", "facebook": "None", "youtube": "None", "website": "None", "summary": "None", "logo": "None", "latitude": 43.638857136880056, "longitude": -79.5486483891452}, "119238210RR0020": {"name": "ST MATTHEW'S CHURCH, TERRACE", "designationCode": "C", "categoryCode": "30", "address": "4514 LAKELSE AVE", "city": "TERRACE", "province": "BC", "country": "CA", "postalCode": "V8G1R4", "twitter": "None", "instagram": "None", "facebook": "None", "youtube": "None", "website": "None", "summary": "None", "logo": "None", "latitude": 54.51625946436588, "longitude": -128.58206931251087}, "129778403RR0001": {"name": "ST MATTHEW'S EVANGELICAL LUTHERAN CHURCH", "designationCode": "C", "categoryCode": "32", "address": "356-9TH STREET", "city": "HANOVER", "province": "ON", "country": "CA", "postalCode": "N4N3L5", "twitter": "None", "instagram": "None", "facebook": "None", "youtube": "None", "website": "None", "summary": "None", "logo": "None", "latitude": 44.1515466936068, "longitude": -81.02463646892143}, "132305384RR0001": {"name": "ST MATTHEW'S EVANGELICAL LUTHERAN CHURCH", "designationCode": "C", "categoryCode": "32", "address": "1509 SECOND ST. WEST", "city": "CORNWALL", "province": "ON", "country": "CA", "postalCode": "K6J1J5", "twitter": "None", "instagram": "None", "facebook": "None", "youtube": "None", "website": "None", "summary": "None", "logo": "None", "latitude": 45.01053534058491, "longitude": -74.76635791064105}, "880116025RR0001": {"name": "ST MATTHEW'S EVANGELICAL LUTHERAN CHURCH", "designationCode": "C", "categoryCode": "32", "address": "P.O. BOX 531", "city": "SMITHVILLE", "province": "ON", "country": "CA", "postalCode": "L0R2A0", "twitter": "None", "instagram": "None", "facebook": "None", "youtube": "None", "website": "None", "summary": "None", "logo": "None", "latitude": 43.09114347619214, "longitude": -79.56149144437846}, "893199273RR0001": {"name": "ST MATTHEW'S EVANGELICAL LUTHERAN CHURCH", "designationCode": "C", "categoryCode": "32", "address": "7607-89 STREET", "city": "EDMONTON", "province": "AB", "country": "CA", "postalCode": "T6C3J9", "twitter": "None", "instagram": "None", "facebook": "None", "youtube": "None", "website": "None", "summary": "None", "logo": "None", "latitude": 53.51256900000001, "longitude": -113.46431576348922}, "119190429RR0001": {"name": "ST MATTHEW'S EVG LUTHERAN CHURCH", "designationCode": "C", "categoryCode": "32", "address": "PO BOX 462", "city": "TAVISTOCK", "province": "ON", "country": "CA", "postalCode": "N0B2R0", "twitter": "None", "instagram": "None", "facebook": "None", "youtube": "None", "website": "None", "summary": "None", "logo": "None", "latitude": 43.32137000000006, "longitude": -80.83615999999995}, "886420199RR0001": {"name": "ST MATTHEW'S HARMONY HOUSE, OTTAWA", "designationCode": "C", "categoryCode": "01", "address": "P.O. BOX 57082                SOMERSET POSTAL OFFICE", "city": "OTTAWA", "province": "ON", "country": "CA", "postalCode": "K1R1A1", "twitter": "None", "instagram": "None", "facebook": "None", "youtube": "None", "website": "None", "summary": "None", "logo": "None", "latitude": 45.410384154918674, "longitude": -75.70851409863155}, "119190494RR0001": {"name": "ST MATTHEW'S LUTHERAN CHURCH", "designationCode": "C", "categoryCode": "32", "address": "968 RANG 5 OUEST", "city": "THURSO", "province": "QC", "country": "CA", "postalCode": "J0X3B0", "twitter": "None", "instagram": "None", "facebook": "None", "youtube": "None", "website": "None", "summary": "None", "logo": "None", "latitude": 45.61847301401127, "longitude": -75.33657670016562}, "132099110RR0001": {"name": "ST MATTHEW'S LUTHERAN CHURCH", "designationCode": "C", "categoryCode": "32", "address": "131 FLAX MILL DR", "city": "CONESTOGO", "province": "ON", "country": "CA", "postalCode": "N0B1N0", "twitter": "None", "instagram": "None", "facebook": "None", "youtube": "None", "website": "None", "summary": "None", "logo": "None", "latitude": 43.54227109772616, "longitude": -80.5065237438397}, "119190601RR0001": {"name": "ST MATTHEW'S PRESBYTERIAN CHURCH", "designationCode": "C", "categoryCode": "37", "address": "329 ENFIELD RD", "city": "ENFIELD", "province": "NS", "country": "CA", "postalCode": "B2T1H5", "twitter": "None", "instagram": "None", "facebook": "None", "youtube": "None", "website": "None", "summary": "None", "logo": "None", "latitude": 44.974462768509554, "longitude": -63.5434147601414}, "119190619RR0001": {"name": "ST MATTHEW'S PRESBYTERIAN CHURCH", "designationCode": "C", "categoryCode": "37", "address": "RR#1", "city": "LAHAVE", "province": "NS", "country": "CA", "postalCode": "B0R1C0", "twitter": "None", "instagram": "None", "facebook": "None", "youtube": "None", "website": "None", "summary": "None", "logo": "None", "latitude": 44.2955633567451, "longitude": -64.36452308474158}, "119190627RR0001": {"name": "ST MATTHEW'S PRESBYTERIAN CHURCH", "designationCode": "C", "categoryCode": "37", "address": "809 ROUTE 11", "city": "BARTIBOGUE BRIDGE", "province": "NB", "country": "CA", "postalCode": "E1V7H8", "twitter": "None", "instagram": "None", "facebook": "None", "youtube": "None", "website": "None", "summary": "None", "logo": "None", "latitude": 47.10316382421832, "longitude": -65.33597513066081}, "119190650RR0001": {"name": "ST MATTHEW'S PRESBYTERIAN CHURCH", "designationCode": "C", "categoryCode": "37", "address": "15 MEMORIAL SQUARE            BOX 520", "city": "INGLESIDE", "province": "ON", "country": "CA", "postalCode": "K0C1M0", "twitter": "None", "instagram": "None", "facebook": "None", "youtube": "None", "website": "None", "summary": "None", "logo": "None", "latitude": 44.99866587425712, "longitude": -74.99197843121327}, "890475775RR0001": {"name": "ST MATTHEW'S PRESBYTERIAN CHURCH", "designationCode": "C", "categoryCode": "37", "address": "93 HARMSWORTH DR", "city": "GRAND FALLS-WINDSOR", "province": "NL", "country": "CA", "postalCode": "A2A2Y7", "twitter": "None", "instagram": "None", "facebook": "None", "youtube": "None", "website": "None", "summary": "None", "logo": "None", "latitude": 48.93369174752885, "longitude": -55.6305050314574}, "119190676RR0001": {"name": "ST MATTHEW'S UNITED CHURCH", "designationCode": "C", "categoryCode": "44", "address": "PO BOX 576", "city": "INVERNESS", "province": "NS", "country": "CA", "postalCode": "B0E1N0", "twitter": "None", "instagram": "None", "facebook": "None", "youtube": "None", "website": "None", "summary": "None", "logo": "None", "latitude": 46.19549400000005, "longitude": -61.28634049999994}, "119190700RR0001": {"name": "ST MATTHEW'S UNITED CHURCH", "designationCode": "C", "categoryCode": "44", "address": "10444 HIGHWAY 103 CLYDE RIVER RR1", "city": "BARRINGTON", "province": "NS", "country": "CA", "postalCode": "B0W1E0", "twitter": "None", "instagram": "None", "facebook": "None", "youtube": "None", "website": "None", "summary": "None", "logo": "None", "latitude": 43.63337307629052, "longitude": -65.47325948384947}, "119190742RR0001": {"name": "ST MATTHEW'S UNITED CHURCH", "designationCode": "C", "categoryCode": "44", "address": "729 ST CLAIR AVENUE WEST", "city": "TORONTO", "province": "ON", "country": "CA", "postalCode": "M6C1B2", "twitter": "None", "instagram": "None", "facebook": "None", "youtube": "None", "website": "None", "summary": "None", "logo": "None", "latitude": 43.68135476545115, "longitude": -79.42687805681192}, "119190767RR0001": {"name": "ST MATTHEW'S UNITED CHURCH", "designationCode": "C", "categoryCode": "44", "address": "2035-26A ST S W", "city": "CALGARY", "province": "AB", "country": "CA", "postalCode": "T3E2B9", "twitter": "None", "instagram": "None", "facebook": "None", "youtube": "None", "website": "None", "summary": "None", "logo": "None", "latitude": 51.03597267255627, "longitude": -114.12533126795276}, "885799155RR0001": {"name": "ST MATTHEW'S UNITED CHURCH", "designationCode": "C", "categoryCode": "44", "address": "25 HOLLOWAY ST.", "city": "BELLEVILLE", "province": "ON", "country": "CA", "postalCode": "K8P1N8", "twitter": "None", "instagram": "None", "facebook": "None", "youtube": "None", "website": "None", "summary": "None", "logo": "None", "latitude": 44.16512913679407, "longitude": -77.39366976591248}, "888358447RR0001": {"name": "ST MATTHEWS (KITCHENER) LUTHERAN CHURCH FOUNDATION INC", "designationCode": "A", "categoryCode": "43", "address": "54 BENTON STREET", "city": "KITCHENER", "province": "ON", "country": "CA", "postalCode": "N2G3H2", "twitter": "None", "instagram": "None", "facebook": "None", "youtube": "None", "website": "None", "summary": "None", "logo": "None", "latitude": 43.44786592841465, "longitude": -80.48889344924666}, "888800190RR0001": {"name": "ST MATTHEWS AND ST PAULS ANGLICAN UNITED CHURCH", "designationCode": "C", "categoryCode": "44", "address": "P.O. BOX 1029", "city": "HEARST", "province": "ON", "country": "CA", "postalCode": "P0L1N0", "twitter": "None", "instagram": "None", "facebook": "None", "youtube": "None", "website": "None", "summary": "None", "logo": "None", "latitude": 49.68503700000005, "longitude": -83.65433749999994}, "119190064RR0001": {"name": "ST MATTHEWS ANGLICAN CHURCH", "designationCode": "C", "categoryCode": "30", "address": "PO BOX 1225", "city": "TISDALE", "province": "SK", "country": "CA", "postalCode": "S0E1T0", "twitter": "None", "instagram": "None", "facebook": "None", "youtube": "None", "website": "None", "summary": "None", "logo": "None", "latitude": 52.84785000000005, "longitude": -104.04749999999996}, "890225972RR0001": {"name": "ST MATTHEWS CEMETERY COMPANY", "designationCode": "A", "categoryCode": "59", "address": "109 SHERBROOKE AVENUE", "city": "BRIDGEWATER", "province": "NS", "country": "CA", "postalCode": "B4V5P1", "twitter": "None", "instagram": "None", "facebook": "None", "youtube": "None", "website": "None", "summary": "None", "logo": "None", "latitude": 44.38765870301239, "longitude": -64.5219004123145}, "129951547RR0001": {"name": "ST MATTHEWS EVANGELICAL CHURCH", "designationCode": "C", "categoryCode": "32", "address": "101 MCLEOD AVE", "city": "SPRUCE GROVE", "province": "AB", "country": "CA", "postalCode": "T7X2H8", "twitter": "None", "instagram": "None", "facebook": "None", "youtube": "None", "website": "None", "summary": "None", "logo": "None", "latitude": 53.542392103673436, "longitude": -113.90995639632655}, "130304538RR0001": {"name": "ST MATTHEWS HOUSE", "designationCode": "C", "categoryCode": "56", "address": "414 BARTON ST E", "city": "HAMILTON", "province": "ON", "country": "CA", "postalCode": "L8L2Y3", "twitter": "None", "instagram": "None", "facebook": "None", "youtube": "None", "website": "None", "summary": "None", "logo": "None", "latitude": 43.25948196583778, "longitude": -79.84741681155857}, "129847679RR0001": {"name": "ST MATTHEWS KIDS KORNER INC", "designationCode": "C", "categoryCode": "01", "address": "669 ST. MATTHEWS AVE", "city": "WINNIPEG", "province": "MB", "country": "CA", "postalCode": "R3G0G9", "twitter": "None", "instagram": "None", "facebook": "None", "youtube": "None", "website": "None", "summary": "None", "logo": "None", "latitude": 49.889900482110846, "longitude": -97.16354122009349}, "119190486RR0001": {"name": "ST MATTHEWS LUTHERAN CHURCH", "designationCode": "C", "categoryCode": "32", "address": "163 VEINOTTE ROAD, RR1, BARSS CORNER", "city": "NEWBURNE", "province": "NS", "country": "CA", "postalCode": "B0R1A0", "twitter": "None", "instagram": "None", "facebook": "None", "youtube": "None", "website": "None", "summary": "None", "logo": "None", "latitude": 44.59875270416621, "longitude": -64.58769712701229}, "119190528RR0001": {"name": "ST MATTHEWS LUTHERAN CHURCH", "designationCode": "C", "categoryCode": "32", "address": "BOX 1481", "city": "ROBLIN", "province": "MB", "country": "CA", "postalCode": "R0L1P0", "twitter": "None", "instagram": "None", "facebook": "None", "youtube": "None", "website": "None", "summary": "None", "logo": "None", "latitude": 51.22816000000006, "longitude": -101.35248999999999}, "119190544RR0001": {"name": "ST MATTHEWS LUTHERAN CONGREGATION", "designationCode": "C", "categoryCode": "32", "address": "P.O.BOX 3", "city": "RIVERPORT", "province": "NS", "country": "CA", "postalCode": "B0J2W0", "twitter": "None", "instagram": "None", "facebook": "None", "youtube": "None", "website": "None", "summary": "None", "logo": "None", "latitude": 44.295003882788244, "longitude": -64.32601862831221}, "119190593RR0001": {"name": "ST MATTHEWS PRESBYTERIAN CHURCH", "designationCode": "C", "categoryCode": "37", "address": "P.O.BOX 188 3863 HIGHWAY 307", "city": "WALLACE", "province": "NS", "country": "CA", "postalCode": "B0K1Y0", "twitter": "None", "instagram": "None", "facebook": "None", "youtube": "None", "website": "None", "summary": "None", "logo": "None", "latitude": 45.81255830871066, "longitude": -63.47306571348386}, "119190684RR0001": {"name": "ST MATTHEWS UNITED CHURCH", "designationCode": "C", "categoryCode": "44", "address": "MARBLE MOUNTAIN               RR#1", "city": "WEST BAY", "province": "NS", "country": "CA", "postalCode": "B0E3K0", "twitter": "None", "instagram": "None", "facebook": "None", "youtube": "None", "website": "None", "summary": "None", "logo": "None", "latitude": 45.77698592675341, "longitude": -61.1235041464932}, "889456398RR0001": {"name": "ST MATTHEWS UNITED CHURCH", "designationCode": "C", "categoryCode": "44", "address": "8140 HIGHWAY 4", "city": "AFTON STATION", "province": "NS", "country": "CA", "postalCode": "B0H1A0", "twitter": "None", "instagram": "None", "facebook": "None", "youtube": "None", "website": "None", "summary": "None", "logo": "None", "latitude": 45.605348563617575, "longitude": -61.727097232726045}, "132071168RR0001": {"name": "ST MATTHIAS CHURCH", "designationCode": "C", "categoryCode": "30", "address": "45 BELLWOODS AVE.", "city": "TORONTO", "province": "ON", "country": "CA", "postalCode": "M6J3N4", "twitter": "None", "instagram": "None", "facebook": "None", "youtube": "None", "website": "None", "summary": "None", "logo": "None", "latitude": 43.64772828005074, "longitude": -79.41147970826384}, "119190825RR0001": {"name": "ST MATTHIAS CHURCH (FITCH BAY QUEBEC)", "designationCode": "C", "categoryCode": "30", "address": "789 SHELDEN ROAD", "city": "MAGOG", "province": "QC", "country": "CA", "postalCode": "J1X3W4", "twitter": "None", "instagram": "None", "facebook": "None", "youtube": "None", "website": "None", "summary": "None", "logo": "None", "latitude": 45.11747797556129, "longitude": -72.18140672274788}, "870004041RR0001": {"name": "ST MATTHIAS' CHURCH", "designationCode": "C", "categoryCode": "30", "address": "10 CHURCH HILL", "city": "WESTMOUNT", "province": "QC", "country": "CA", "postalCode": "H3Y2Z9", "twitter": "None", "instagram": "None", "facebook": "None", "youtube": "None", "website": "None", "summary": "None", "logo": "None", "latitude": 45.485525986669806, "longitude": -73.5995167954584}, "867543761RR0001": {"name": "ST MAURICE CEMETERY MEMORIAL FUND", "designationCode": "C", "categoryCode": "59", "address": "BOX 54", "city": "BELLEGARDE", "province": "SK", "country": "CA", "postalCode": "S0C0J0", "twitter": "None", "instagram": "None", "facebook": "None", "youtube": "None", "website": "None", "summary": "None", "logo": "None", "latitude": 49.53332000000006, "longitude": -101.55092999999994}, "119190908RR0001": {"name": "ST MAURICE PARISH PAROISSE ST MAURICE", "designationCode": "C", "categoryCode": "38", "address": "P.O. BOX 25", "city": "BELLEGARDE", "province": "SK", "country": "CA", "postalCode": "S0C0J0", "twitter": "None", "instagram": "None", "facebook": "None", "youtube": "None", "website": "None", "summary": "None", "logo": "None", "latitude": 49.53332000000006, "longitude": -101.55092999999994}, "128967353RR0004": {"name": "ST MAURICE'S PARISH", "designationCode": "C", "categoryCode": "38", "address": "4 PERRY STREET", "city": "OTTAWA", "province": "ON", "country": "CA", "postalCode": "K2G1K5", "twitter": "None", "instagram": "None", "facebook": "None", "youtube": "None", "website": "None", "summary": "None", "logo": "None", "latitude": 45.34817582511992, "longitude": -75.73861180622019}, "891505745RR0001": {"name": "ST MICHAEL & ALL ANGELS PROTESTANT CHAPEL", "designationCode": "C", "categoryCode": "39", "address": "19 WING COMOX                 PO BOX 1000 STN MAIN", "city": "LAZO", "province": "BC", "country": "CA", "postalCode": "V0R2K0", "twitter": "None", "instagram": "None", "facebook": "None", "youtube": "None", "website": "None", "summary": "None", "logo": "None", "latitude": 49.54184700000006, "longitude": -124.79463349999993}, "119190965RR0003": {"name": "ST MICHAEL AND ALL ANGELS ANGLICAN CHURCH", "designationCode": "C", "categoryCode": "30", "address": "237 FIRST AVE", "city": "STRATHMORE", "province": "AB", "country": "CA", "postalCode": "T1P1B3", "twitter": "None", "instagram": "None", "facebook": "None", "youtube": "None", "website": "None", "summary": "None", "logo": "None", "latitude": 51.043540625769715, "longitude": -113.39752470225493}}