{"889223277RR0001": {"name": "MEDIATION AND RESTORATIVE JUSTICE CENTRE", "designationCode": "C", "categoryCode": "59", "address": "ROOM CE 223A-RALPH KING ATHLE.7128 ADA BLVD.", "city": "EDMONTON", "province": "AB", "country": "CA", "postalCode": "T5B4E4", "twitter": "None", "instagram": "None", "facebook": "None", "youtube": "None", "website": "None", "summary": "None", "logo": "None", "latitude": 53.55944946243265, "longitude": -113.4451323447685}, "889620977RR0001": {"name": "MEDIATION PEI INC", "designationCode": "C", "categoryCode": "59", "address": "17 WEST STREET", "city": "CHARLOTTETOWN", "province": "PE", "country": "CA", "postalCode": "C1A3S3", "twitter": "None", "instagram": "None", "facebook": "None", "youtube": "None", "website": "None", "summary": "None", "logo": "None", "latitude": 46.23188379072656, "longitude": -63.1329828887125}, "128595295RR0001": {"name": "MEDIATION SERVICES: A COMMUNITY RESOURCE FOR CONFLICT RESOLUTION INC", "designationCode": "C", "categoryCode": "09", "address": "302 1200 PORTAGE AVE", "city": "WINNIPEG", "province": "MB", "country": "CA", "postalCode": "R3G0T5", "twitter": "None", "instagram": "None", "facebook": "None", "youtube": "None", "website": "None", "summary": "None", "logo": "None", "latitude": 49.88336259781306, "longitude": -97.18416877531887}, "890660947RR0001": {"name": "MEDIATION YUKON-A Society to Promote Peacemaking", "designationCode": "C", "categoryCode": "59", "address": "P.O. BOX 31102", "city": "WHITHORSE", "province": "YT", "country": "CA", "postalCode": "Y1A5P7", "twitter": "None", "instagram": "None", "facebook": "None", "youtube": "None", "website": "None", "summary": "None", "logo": "None", "latitude": 60.72084600000005, "longitude": -135.05323399999992}, "886421395RR0001": {"name": "MEDICAL AID FOR PALESTINE ASSOCIATION/ASSOCIATION AIDE MEDICALE POUR LA PALESTINE", "designationCode": "C", "categoryCode": "09", "address": "5722 RUE ST-ANDRE", "city": "MONTREAL", "province": "QC", "country": "CA", "postalCode": "H2S1K1", "twitter": "None", "instagram": "None", "facebook": "None", "youtube": "None", "website": "None", "summary": "None", "logo": "None", "latitude": 45.53330781513661, "longitude": -73.59497305219563}, "889894374RR0001": {"name": "MEDICAL AMBASSADORS OF CANADA ASSOCIATION", "designationCode": "C", "categoryCode": "11", "address": "PO BOX 4390", "city": "EDMONTON", "province": "AB", "country": "CA", "postalCode": "T6E4T5", "twitter": "None", "instagram": "None", "facebook": "None", "youtube": "None", "website": "None", "summary": "None", "logo": "None", "latitude": 53.499354000000054, "longitude": -113.46577549999994}, "107687220RR0001": {"name": "MEDICAL COUNCIL OF CANADA - LE CONSEIL MEDICAL DU CANADA", "designationCode": "C", "categoryCode": "11", "address": "1021 THOMAS SPRATT PL", "city": "OTTAWA", "province": "ON", "country": "CA", "postalCode": "K1G5L5", "twitter": "None", "instagram": "None", "facebook": "None", "youtube": "None", "website": "None", "summary": "None", "logo": "None", "latitude": 45.381398267942345, "longitude": -75.61866354522817}, "131771990RR0007": {"name": "MEDICAL FRIENDS OF PERU", "designationCode": "C", "categoryCode": "19", "address": "96 EMPRESS AVE", "city": "OTTAWA", "province": "ON", "country": "CA", "postalCode": "K1R7G3", "twitter": "None", "instagram": "None", "facebook": "None", "youtube": "None", "website": "None", "summary": "None", "logo": "None", "latitude": 45.411189077702204, "longitude": -75.70929188902963}, "889849741RR0001": {"name": "MEDICAL HISTORY SOCIETY OF NOVA SCOTIA", "designationCode": "C", "categoryCode": "50", "address": "1004 - 5885 SPRING GARDEN RD", "city": "HALIFAX", "province": "NS", "country": "CA", "postalCode": "B3H1Y3", "twitter": "None", "instagram": "None", "facebook": "None", "youtube": "None", "website": "None", "summary": "None", "logo": "None", "latitude": 44.64130404692263, "longitude": -63.583383812309556}, "869890541RR0001": {"name": "MEDICAL MERCY CANADA SOCIETY", "designationCode": "C", "categoryCode": "19", "address": "# 6, 1216 - 34TH AVENUE NE", "city": "CALGARY", "province": "AB", "country": "CA", "postalCode": "T2E6L9", "twitter": "None", "instagram": "None", "facebook": "None", "youtube": "None", "website": "None", "summary": "None", "logo": "None", "latitude": 51.08356148211084, "longitude": -114.03307344754457}, "891102741RR0001": {"name": "MEDICAL VARIETY NIGHT FOUNDATION", "designationCode": "A", "categoryCode": "55", "address": "80 BARRIE ST                  QUEEN'S UNIVERSITY", "city": "KINGSTON", "province": "ON", "country": "CA", "postalCode": "K7L3N6", "twitter": "None", "instagram": "None", "facebook": "None", "youtube": "None", "website": "None", "summary": "None", "logo": "None", "latitude": 44.22510653788447, "longitude": -76.4906490399906}, "890022486RR0001": {"name": "MEDICI EDUCATIONAL FOUNDATION OF CANADA", "designationCode": "A", "categoryCode": "21", "address": "100 ALLANHURST DRIVE", "city": "TORONTO", "province": "ON", "country": "CA", "postalCode": "M9A4K4", "twitter": "None", "instagram": "None", "facebook": "None", "youtube": "None", "website": "None", "summary": "None", "logo": "None", "latitude": 43.679697293409596, "longitude": -79.51927654414554}, "886574599RR0001": {"name": "MEDICINE HAT AND DISTRICT FOOD BANK (1992) ASSOCIATION", "designationCode": "C", "categoryCode": "09", "address": "532 SOUTH RAILWAY ST SE", "city": "MEDICINE HAT", "province": "AB", "country": "CA", "postalCode": "T1A2V6", "twitter": "None", "instagram": "None", "facebook": "None", "youtube": "None", "website": "None", "summary": "None", "logo": "None", "latitude": 50.03782673376616, "longitude": -110.67150230135042}, "889620126RR0001": {"name": "MEDICINE HAT AND DISTRICT HEALTH FOUNDATION", "designationCode": "C", "categoryCode": "15", "address": "666 5TH ST SW", "city": "MEDICINE HAT", "province": "AB", "country": "CA", "postalCode": "T1A4H6", "twitter": "None", "instagram": "None", "facebook": "None", "youtube": "None", "website": "None", "summary": "None", "logo": "None", "latitude": 50.03434251875456, "longitude": -110.70231202553522}, "876792821RR0001": {"name": "MEDICINE HAT CATHOLIC SCHOOLS EDUCATION FOUNDATION", "designationCode": "C", "categoryCode": "21", "address": "1251 1ST AVE SW", "city": "MEDICINE HAT", "province": "AB", "country": "CA", "postalCode": "T1A8B4", "twitter": "None", "instagram": "None", "facebook": "None", "youtube": "None", "website": "None", "summary": "None", "logo": "None", "latitude": 50.02731230529751, "longitude": -110.68941729946913}, "107687709RR0001": {"name": "MEDICINE HAT CHINESE ALLIANCE CHURCH", "designationCode": "C", "categoryCode": "39", "address": "870 4 ST SE", "city": "MEDICINE HAT", "province": "AB", "country": "CA", "postalCode": "T1A0L4", "twitter": "None", "instagram": "None", "facebook": "None", "youtube": "None", "website": "None", "summary": "None", "logo": "None", "latitude": 50.041460891482465, "longitude": -110.66780201249348}, "118886241RR0001": {"name": "MEDICINE HAT CHURCH OF GOD (PENTECOSTAL)", "designationCode": "C", "categoryCode": "39", "address": "9-11 STREET SE", "city": "MEDICINE HAT", "province": "AB", "country": "CA", "postalCode": "T1A1S2", "twitter": "None", "instagram": "None", "facebook": "None", "youtube": "None", "website": "None", "summary": "None", "logo": "None", "latitude": 50.02858947792722, "longitude": -110.6868015}, "119036796RR0001": {"name": "MEDICINE HAT COLLEGE", "designationCode": "C", "categoryCode": "20", "address": "299 COLLEGE DR SE", "city": "MEDICINE HAT", "province": "AB", "country": "CA", "postalCode": "T1A3Y6", "twitter": "None", "instagram": "None", "facebook": "None", "youtube": "None", "website": "None", "summary": "None", "logo": "None"}, "868904236RR0001": {"name": "MEDICINE HAT COMMUNITY HOUSING SOCIETY", "designationCode": "C", "categoryCode": "03", "address": "#104, 516-3RD STREET S.E.", "city": "MEDICINE HAT", "province": "AB", "country": "CA", "postalCode": "T1A0H3", "twitter": "None", "instagram": "None", "facebook": "None", "youtube": "None", "website": "None", "summary": "None", "logo": "None", "latitude": 50.03956923111245, "longitude": -110.6762365864609}, "887966844RR0001": {"name": "MEDICINE HAT CONCERT BAND SOCIETY", "designationCode": "C", "categoryCode": "22", "address": "BOX 463", "city": "MEDICINE HAT", "province": "AB", "country": "CA", "postalCode": "T1A7G2", "twitter": "None", "instagram": "None", "facebook": "None", "youtube": "None", "website": "None", "summary": "None", "logo": "None", "latitude": 50.04107700000006, "longitude": -110.67813349999993}, "135216125RR0001": {"name": "MEDICINE HAT FAMILY CHURCH", "designationCode": "C", "categoryCode": "39", "address": "534 18TH STREET SOUTHWEST", "city": "MEDICINE HAT", "province": "AB", "country": "CA", "postalCode": "T1A8A7", "twitter": "None", "instagram": "None", "facebook": "None", "youtube": "None", "website": "None", "summary": "None", "logo": "None", "latitude": 50.02115462891687, "longitude": -110.69867743046346}, "119036820RR0001": {"name": "MEDICINE HAT FAMILY SERVICE", "designationCode": "C", "categoryCode": "09", "address": "477 3RD ST. SE", "city": "MEDICINE HAT", "province": "AB", "country": "CA", "postalCode": "T1A0G8", "twitter": "None", "instagram": "None", "facebook": "None", "youtube": "None", "website": "None", "summary": "None", "logo": "None", "latitude": 50.0389111157309, "longitude": -110.6779840202551}, "889630448RR0001": {"name": "MEDICINE HAT FAMILY YOUNG MEN'S CHRISTIAN ASSOCIATION", "designationCode": "C", "categoryCode": "49", "address": "150 ASH AVENUE SE", "city": "MEDICINE HAT", "province": "AB", "country": "CA", "postalCode": "T1A3A9", "twitter": "None", "instagram": "None", "facebook": "None", "youtube": "None", "website": "None", "summary": "None", "logo": "None", "latitude": 50.04420488620236, "longitude": -110.66987649598929}, "855114880RR0001": {"name": "MEDICINE HAT FOLK MUSIC CLUB", "designationCode": "C", "categoryCode": "22", "address": "PO BOX 20120 RPO KENSINGTON", "city": "MEDICINE HAT", "province": "AB", "country": "CA", "postalCode": "T1A8M4", "twitter": "None", "instagram": "None", "facebook": "None", "youtube": "None", "website": "None", "summary": "None", "logo": "None", "latitude": 50.02488929696173, "longitude": -110.69631887092461}, "129398491RR0001": {"name": "MEDICINE HAT JAZZ SOCIETY", "designationCode": "C", "categoryCode": "22", "address": "MEDICINE HAT COLLEGE          299 COLLEGE DRIVE SOUTHEAST", "city": "MEDICINE HAT", "province": "AB", "country": "CA", "postalCode": "T1A3Y6", "twitter": "None", "instagram": "None", "facebook": "None", "youtube": "None", "website": "None", "summary": "None", "logo": "None", "latitude": 50.016650018321904, "longitude": -110.68401004443398}, "107687881RR0001": {"name": "MEDICINE HAT JOHN HOWARD SOCIETY", "designationCode": "C", "categoryCode": "59", "address": "535-3RD STREET S.E., #208", "city": "MEDICINE HAT", "province": "AB", "country": "CA", "postalCode": "T1A0H2", "twitter": "None", "instagram": "None", "facebook": "None", "youtube": "None", "website": "None", "summary": "None", "logo": "None", "latitude": 50.03611654110011, "longitude": -110.69059020317799}, "107687923RR0001": {"name": "MEDICINE HAT NEWS SANTA CLAUS FUND SOCIETY", "designationCode": "C", "categoryCode": "09", "address": "3257 DUNMORE ROAD SE", "city": "MEDICINE HAT", "province": "AB", "country": "CA", "postalCode": "T1B3R2", "twitter": "None", "instagram": "None", "facebook": "None", "youtube": "None", "website": "None", "summary": "None", "logo": "None", "latitude": 50.00595535720466, "longitude": -110.64415447654224}, "121683767RR0001": {"name": "MEDICINE HAT PREGNANCY SUPPORT SOCIETY", "designationCode": "C", "categoryCode": "09", "address": "321 6 AVE SE", "city": "MEDICINE HAT", "province": "AB", "country": "CA", "postalCode": "T1A2S6", "twitter": "None", "instagram": "None", "facebook": "None", "youtube": "None", "website": "None", "summary": "None", "logo": "None", "latitude": 50.03936739078996, "longitude": -110.67529503246013}, "119036879RR0001": {"name": "MEDICINE HAT PUBLIC LIBRARY BOARD", "designationCode": "C", "categoryCode": "50", "address": "414 1 ST SE", "city": "MEDICINE HAT", "province": "AB", "country": "CA", "postalCode": "T1A0A8", "twitter": "None", "instagram": "None", "facebook": "None", "youtube": "None", "website": "None", "summary": "None", "logo": "None", "latitude": 50.04029900083673, "longitude": -110.68081942284606}, "819463472RR0001": {"name": "MEDICINE HAT REALTORS' CHARITABLE FOUNDATION", "designationCode": "A", "categoryCode": "03", "address": "403 4 ST SE", "city": "MEDICINE HAT", "province": "AB", "country": "CA", "postalCode": "T1A0K5", "twitter": "None", "instagram": "None", "facebook": "None", "youtube": "None", "website": "None", "summary": "None", "logo": "None", "latitude": 50.03764219954992, "longitude": -110.67855149180569}, "889413845RR0001": {"name": "MEDICINE HAT S D A CHURCH", "designationCode": "C", "categoryCode": "41", "address": "5816 HIGHWAY 2A", "city": "LACOMBE", "province": "AB", "country": "CA", "postalCode": "T4L2G5", "twitter": "None", "instagram": "None", "facebook": "None", "youtube": "None", "website": "None", "summary": "None", "logo": "None", "latitude": 52.474063600197404, "longitude": -113.71692568401835}, "119036895RR0001": {"name": "MEDICINE HAT SCHOOL DISTRICT NO. 76", "designationCode": "C", "categoryCode": "20", "address": "601 1ST AVE SW", "city": "MEDICINE HAT", "province": "AB", "country": "CA", "postalCode": "T1A4Y7", "twitter": "None", "instagram": "None", "facebook": "None", "youtube": "None", "website": "None", "summary": "None", "logo": "None", "latitude": 50.032602419095156, "longitude": -110.68944680267177}, "898298252RR0001": {"name": "MEDICINE HAT SPCA", "designationCode": "C", "categoryCode": "54", "address": "55 SOUTHWEST DRIVE SW", "city": "MEDICINE HAT", "province": "AB", "country": "CA", "postalCode": "T1A8E8", "twitter": "None", "instagram": "None", "facebook": "None", "youtube": "None", "website": "None", "summary": "None", "logo": "None", "latitude": 50.01875264556531, "longitude": -110.70514795781635}, "134758572RR0001": {"name": "MEDICINE HAT SYMPHONIC SOCIETY", "designationCode": "C", "categoryCode": "22", "address": "P.O. BOX 1295", "city": "MEDICINE HAT", "province": "AB", "country": "CA", "postalCode": "T1A7N1", "twitter": "None", "instagram": "None", "facebook": "None", "youtube": "None", "website": "None", "summary": "None", "logo": "None", "latitude": 50.04107700000006, "longitude": -110.67813349999993}, "119036929RR0001": {"name": "MEDICINE HAT WOMEN'S SHELTER SOCIETY", "designationCode": "C", "categoryCode": "09", "address": "BOX 2500", "city": "MEDICINE HAT", "province": "AB", "country": "CA", "postalCode": "T1A8G8", "twitter": "None", "instagram": "None", "facebook": "None", "youtube": "None", "website": "None", "summary": "None", "logo": "None", "latitude": 50.04107700000006, "longitude": -110.67813349999993}, "866532682RR0001": {"name": "MEDICINE HAT YOUTH ACTION SOCIETY", "designationCode": "C", "categoryCode": "09", "address": "PO BOX 354 LCD 1", "city": "MEDICINE HAT", "province": "AB", "country": "CA", "postalCode": "T1A7G1", "twitter": "None", "instagram": "None", "facebook": "None", "youtube": "None", "website": "None", "summary": "None", "logo": "None", "latitude": 50.04107700000006, "longitude": -110.67813349999993}, "131357352RR0001": {"name": "MEDICINE RIVER WILDLIFE CENTRE", "designationCode": "C", "categoryCode": "54", "address": "P. O. BOX 115", "city": "SPRUCE VIEW", "province": "AB", "country": "CA", "postalCode": "T0M1V0", "twitter": "None", "instagram": "None", "facebook": "None", "youtube": "None", "website": "None", "summary": "None", "logo": "None", "latitude": 51.98923333840575, "longitude": -114.89338336150753}, "869569418RR0001": {"name": "MEDICOS EN ACCION SOCIETY", "designationCode": "C", "categoryCode": "19", "address": "450 GREENSTONE DRIVE", "city": "KAMLOOPS", "province": "BC", "country": "CA", "postalCode": "V2C1N9", "twitter": "None", "instagram": "None", "facebook": "None", "youtube": "None", "website": "None", "summary": "None", "logo": "None", "latitude": 50.67113705857228, "longitude": -120.35028478085879}, "119036945RR0001": {"name": "MEDINA BAPTIST CHURCH", "designationCode": "C", "categoryCode": "31", "address": "BOX 155 OHSWEKEN POST OFFICE", "city": "OHSWEKEN", "province": "ON", "country": "CA", "postalCode": "N0A1M0", "twitter": "None", "instagram": "None", "facebook": "None", "youtube": "None", "website": "None", "summary": "None", "logo": "None", "latitude": 43.06907000000007, "longitude": -80.11879999999996}, "888920436RR0001": {"name": "MEDITATION CHRETIENNE DU QUEBEC", "designationCode": "C", "categoryCode": "49", "address": "B - 105 CH DU RICHELIEU", "city": "MCMASTERVILLE", "province": "QC", "country": "CA", "postalCode": "J3G1T5", "twitter": "None", "instagram": "None", "facebook": "None", "youtube": "None", "website": "None", "summary": "None", "logo": "None", "latitude": 45.545784975878426, "longitude": -73.21870079964201}, "107688418RR0001": {"name": "MEDUCTIC UNITED BAPTIST CHURCH", "designationCode": "C", "categoryCode": "31", "address": "391 ROUTE 165", "city": "MEDUCTIC", "province": "NB", "country": "CA", "postalCode": "E6H1J6", "twitter": "None", "instagram": "None", "facebook": "None", "youtube": "None", "website": "None", "summary": "None", "logo": "None", "latitude": 45.996431355147706, "longitude": -67.49505093390043}, "874954225RR0001": {"name": "MEDUXNEKEAG RIVER ASSOCIATION INC.", "designationCode": "C", "categoryCode": "52", "address": "733 MAIN ST UNIT 1", "city": "WOODSTOCK", "province": "NB", "country": "CA", "postalCode": "E7M2E6", "twitter": "None", "instagram": "None", "facebook": "None", "youtube": "None", "website": "None", "summary": "None", "logo": "None", "latitude": 46.15473262669518, "longitude": -67.57259983726668}, "888702941RR0001": {"name": "MEDWAY AREA HERITAGE SOCIETY", "designationCode": "C", "categoryCode": "52", "address": "PO BOX 97", "city": "PORT MEDWAY", "province": "NS", "country": "CA", "postalCode": "B0J2T0", "twitter": "None", "instagram": "None", "facebook": "None", "youtube": "None", "website": "None", "summary": "None", "logo": "None", "latitude": 44.12546902661936, "longitude": -64.61699659300588}, "890227192RR0001": {"name": "MEETING CREEK AND DISTRICT ATHLETIC ASSOCIATION", "designationCode": "C", "categoryCode": "59", "address": "BOX 131", "city": "MEETING CREEK", "province": "AB", "country": "CA", "postalCode": "T0B2Z0", "twitter": "None", "instagram": "None", "facebook": "None", "youtube": "None", "website": "None", "summary": "None", "logo": "None", "latitude": 52.684376496964816, "longitude": -112.72999992825802}, "107688475RR0001": {"name": "MEETING CREEK EVANGELICAL FREE CHURCH", "designationCode": "C", "categoryCode": "39", "address": "BOX 61", "city": "MEETING CREEK", "province": "AB", "country": "CA", "postalCode": "T0B2Z0", "twitter": "None", "instagram": "None", "facebook": "None", "youtube": "None", "website": "None", "summary": "None", "logo": "None", "latitude": 52.684376496964816, "longitude": -112.72999992825802}, "119037018RR0001": {"name": "MEETING ROOM HOLDINGS, MAPLE CREEK", "designationCode": "C", "categoryCode": "39", "address": "BOX 1744", "city": "MAPLE CREEK", "province": "SK", "country": "CA", "postalCode": "S0N1N0", "twitter": "None", "instagram": "None", "facebook": "None", "youtube": "None", "website": "None", "summary": "None", "logo": "None", "latitude": 49.91416000000004, "longitude": -109.46959999999996}, "119037026RR0001": {"name": "MEETING-ROOM HOLDINGS (REGINA)", "designationCode": "C", "categoryCode": "39", "address": "3005 SASKATCHEWAN DRIVE", "city": "REGINA", "province": "SK", "country": "CA", "postalCode": "S4T1H5", "twitter": "None", "instagram": "None", "facebook": "None", "youtube": "None", "website": "None", "summary": "None", "logo": "None", "latitude": 50.44990969605884, "longitude": -104.6243954188067}, "119037034RR0001": {"name": "MEEWASIN FOUNDATION INC.", "designationCode": "A", "categoryCode": "53", "address": "402 3RD AVE SOUTH", "city": "SASKATOON", "province": "SK", "country": "CA", "postalCode": "S7K3G5", "twitter": "None", "instagram": "None", "facebook": "None", "youtube": "None", "website": "None", "summary": "None", "logo": "None", "latitude": 52.12329296808814, "longitude": -106.6640957110338}, "119037042RR0001": {"name": "MEEWASIN VALLEY AUTHORITY", "designationCode": "C", "categoryCode": "52", "address": "402 3RD AVE S", "city": "SASKATOON", "province": "SK", "country": "CA", "postalCode": "S7K3G5", "twitter": "None", "instagram": "None", "facebook": "None", "youtube": "None", "website": "None", "summary": "None", "logo": "None", "latitude": 52.12329296808814, "longitude": -106.6640957110338}, "107688483RR0001": {"name": "MEEWASIN VALLEY UNITED CHURCH", "designationCode": "C", "categoryCode": "44", "address": "113-1121 COLLEGE DRIVE", "city": "SASKATOON", "province": "SK", "country": "CA", "postalCode": "S7N0W3", "twitter": "None", "instagram": "None", "facebook": "None", "youtube": "None", "website": "None", "summary": "None", "logo": "None", "latitude": 52.128962474897484, "longitude": -106.64203066763807}, "893185173RR0001": {"name": "MEFM MYALGIC ENCEPHALOMYELITIS AND FIBROMYALGIA SOCIETY OF BC", "designationCode": "C", "categoryCode": "19", "address": "PO BOX 462                    916 WEST BROADWAY AVENUE", "city": "VANCOUVER", "province": "BC", "country": "CA", "postalCode": "V5Z1K7", "twitter": "None", "instagram": "None", "facebook": "None", "youtube": "None", "website": "None", "summary": "None", "logo": "None", "latitude": 49.26336947735031, "longitude": -123.12464238634658}, "855082285RR0001": {"name": "MEGANTIC COMMUNITY FOUNDATION", "designationCode": "C", "categoryCode": "09", "address": "906, MOONEY ST. W.", "city": "THETFORD MINES", "province": "QC", "country": "CA", "postalCode": "G6G6H2", "twitter": "None", "instagram": "None", "facebook": "None", "youtube": "None", "website": "None", "summary": "None", "logo": "None", "latitude": 46.071116510098896, "longitude": -71.29992847293556}, "888423647RR0001": {"name": "MEGINEI CHANA ASSOCIATION OF TORONTO", "designationCode": "C", "categoryCode": "42", "address": "32 STORMONT AVE", "city": "TORONTO", "province": "ON", "country": "CA", "postalCode": "M5N2B9", "twitter": "None", "instagram": "None", "facebook": "None", "youtube": "None", "website": "None", "summary": "None", "logo": "None", "latitude": 43.7194951906918, "longitude": -79.42467637122735}, "107688590RR0001": {"name": "MEGUMI BAPTIST CHURCH", "designationCode": "C", "categoryCode": "31", "address": "3696 SKANA DRIVE", "city": "VANCOUVER", "province": "BC", "country": "CA", "postalCode": "V5S4H6", "twitter": "None", "instagram": "None", "facebook": "None", "youtube": "None", "website": "None", "summary": "None", "logo": "None", "latitude": 49.2087103190481, "longitude": -123.02467238716756}, "888386414RR0001": {"name": "MEHADURAS FRIEDMAN FOUNDATION", "designationCode": "B", "categoryCode": "45", "address": "1810 LAJOIE AVENUE", "city": "OUTREMONT", "province": "QC", "country": "CA", "postalCode": "H2V1S3", "twitter": "None", "instagram": "None", "facebook": "None", "youtube": "None", "website": "None", "summary": "None", "logo": "None", "latitude": 45.513227326937596, "longitude": -73.61741791393061}, "881180418RR0001": {"name": "MEHERET EVANGELICAL CHURCH", "designationCode": "C", "categoryCode": "39", "address": "920 BANFFSHIRE CRT", "city": "KITCHENER", "province": "ON", "country": "CA", "postalCode": "N2R1W7", "twitter": "None", "instagram": "None", "facebook": "None", "youtube": "None", "website": "None", "summary": "None", "logo": "None", "latitude": 43.38507702801673, "longitude": -80.47235414556528}, "891592727RR0001": {"name": "MEKOROT INSTITUTE OF TORAH STUDY FOR WOMEN", "designationCode": "C", "categoryCode": "20", "address": "208 COLDSTREAM AVE", "city": "TORONTO", "province": "ON", "country": "CA", "postalCode": "M5N1Y2", "twitter": "None", "instagram": "None", "facebook": "None", "youtube": "None", "website": "None", "summary": "None", "logo": "None", "latitude": 43.716271241762236, "longitude": -79.42244836831317}, "119037083RR0001": {"name": "MELBOURNE AGRICULTURAL SOCIETY", "designationCode": "C", "categoryCode": "56", "address": "BOX 129", "city": "MELBOURNE", "province": "ON", "country": "CA", "postalCode": "N0L1T0", "twitter": "None", "instagram": "None", "facebook": "None", "youtube": "None", "website": "None", "summary": "None", "logo": "None", "latitude": 42.75470018634429, "longitude": -81.47087207562862}, "889714648RR0001": {"name": "MELBOURNE PASTORAL CHARGE", "designationCode": "C", "categoryCode": "44", "address": "43 WILLIS AVE", "city": "STRATHROY", "province": "ON", "country": "CA", "postalCode": "N7G0B7", "twitter": "None", "instagram": "None", "facebook": "None", "youtube": "None", "website": "None", "summary": "None", "logo": "None", "latitude": 42.95296624472773, "longitude": -81.60783360443224}, "119037109RR0001": {"name": "MELBOURNE RIDGE UNITED CHURCH", "designationCode": "C", "categoryCode": "44", "address": "661 MCLAUGHLIN", "city": "DAVILLE", "province": "QC", "country": "CA", "postalCode": "J0A1A0", "twitter": "None", "instagram": "None", "facebook": "None", "youtube": "None", "website": "None", "summary": "None", "logo": "None", "latitude": 45.75574696171151, "longitude": -72.10851170272392}, "891557340RR0001": {"name": "MELDRUM BAY HISTORICAL SOCIETY", "designationCode": "C", "categoryCode": "50", "address": "16 WATER STREET               BOX 1", "city": "MELDRUM BAY", "province": "ON", "country": "CA", "postalCode": "P0P1R0", "twitter": "None", "instagram": "None", "facebook": "None", "youtube": "None", "website": "None", "summary": "None", "logo": "None", "latitude": 45.55837468615425, "longitude": -82.00993009337556}, "119037208RR0001": {"name": "MELFORT & DISTRICT LEGION HOUSING CORPORATION", "designationCode": "C", "categoryCode": "09", "address": "BOX 489", "city": "MELFORT", "province": "SK", "country": "CA", "postalCode": "S0E1A0", "twitter": "None", "instagram": "None", "facebook": "None", "youtube": "None", "website": "None", "summary": "None", "logo": "None", "latitude": 52.85637, "longitude": -104.63436225000001}, "127233633RR0001": {"name": "MELFORT AGRICULTURAL SOCIETY", "designationCode": "C", "categoryCode": "56", "address": "BOX 816                       WALTER TOEWS", "city": "MELFORT", "province": "SK", "country": "CA", "postalCode": "S0E1A0", "twitter": "None", "instagram": "None", "facebook": "None", "youtube": "None", "website": "None", "summary": "None", "logo": "None", "latitude": 52.85637, "longitude": -104.63436225000001}, "889429973RR0001": {"name": "MELFORT AMATEUR DRAMATICS, INC", "designationCode": "C", "categoryCode": "22", "address": "BOX 2264", "city": "MELFORT", "province": "SK", "country": "CA", "postalCode": "S0E1A0", "twitter": "None", "instagram": "None", "facebook": "None", "youtube": "None", "website": "None", "summary": "None", "logo": "None", "latitude": 52.85637, "longitude": -104.63436225000001}, "119037141RR0001": {"name": "MELFORT AND DISTRICT DONORS CHOICE AGENCY", "designationCode": "C", "categoryCode": "05", "address": "BOX 3793", "city": "MELFORT", "province": "SK", "country": "CA", "postalCode": "S0E1A0", "twitter": "None", "instagram": "None", "facebook": "None", "youtube": "None", "website": "None", "summary": "None", "logo": "None", "latitude": 52.85637, "longitude": -104.63436225000001}, "844934141RR0001": {"name": "MELFORT AND DISTRICT SENIOR CITIZENS CLUB", "designationCode": "C", "categoryCode": "09", "address": "P.O. BOX 1916", "city": "MELFORT", "province": "SK", "country": "CA", "postalCode": "S0E1A0", "twitter": "None", "instagram": "None", "facebook": "None", "youtube": "None", "website": "None", "summary": "None", "logo": "None", "latitude": 52.85637, "longitude": -104.63436225000001}, "129879227RR0001": {"name": "MELFORT DAYCARE CO-OPERATIVE", "designationCode": "C", "categoryCode": "20", "address": "BOX 2632", "city": "MELFORT", "province": "SK", "country": "CA", "postalCode": "S0E1A0", "twitter": "None", "instagram": "None", "facebook": "None", "youtube": "None", "website": "None", "summary": "None", "logo": "None", "latitude": 52.85637, "longitude": -104.63436225000001}, "107689143RR0001": {"name": "MELFORT EVANGELICAL COVENANT CHURCH INC.", "designationCode": "C", "categoryCode": "39", "address": "BOX 367                       MECC", "city": "MELFORT", "province": "SK", "country": "CA", "postalCode": "S0E1A0", "twitter": "None", "instagram": "None", "facebook": "None", "youtube": "None", "website": "None", "summary": "None", "logo": "None", "latitude": 52.85637, "longitude": -104.63436225000001}, "897910261RR0001": {"name": "MELFORT FOOD BANK INC.", "designationCode": "C", "categoryCode": "01", "address": "BOX 3688", "city": "MELFORT", "province": "SK", "country": "CA", "postalCode": "S0E1A0", "twitter": "None", "instagram": "None", "facebook": "None", "youtube": "None", "website": "None", "summary": "None", "logo": "None", "latitude": 52.85637, "longitude": -104.63436225000001}, "888476249RR0001": {"name": "MELFORT FREE METHODIST CHURCH", "designationCode": "C", "categoryCode": "39", "address": "BOX 2361", "city": "TISDALE", "province": "SK", "country": "CA", "postalCode": "S0E1T0", "twitter": "None", "instagram": "None", "facebook": "None", "youtube": "None", "website": "None", "summary": "None", "logo": "None", "latitude": 52.84785000000005, "longitude": -104.04749999999996}, "107689150RR0001": {"name": "MELFORT GROUP HOMES SOCIETY INC.", "designationCode": "C", "categoryCode": "99", "address": "BOX 531", "city": "MELFORT", "province": "SK", "country": "CA", "postalCode": "S0E1A0", "twitter": "None", "instagram": "None", "facebook": "None", "youtube": "None", "website": "None", "summary": "None", "logo": "None", "latitude": 52.85637, "longitude": -104.63436225000001}, "887673994RR0001": {"name": "MELFORT-ETHELTON PASTORAL CHARGE", "designationCode": "C", "categoryCode": "44", "address": "P.O. BOX 1064", "city": "MELFORT", "province": "SK", "country": "CA", "postalCode": "S0E1A0", "twitter": "None", "instagram": "None", "facebook": "None", "youtube": "None", "website": "None", "summary": "None", "logo": "None", "latitude": 52.85637, "longitude": -104.63436225000001}, "895694214RR0001": {"name": "MELISSA MACOR SCHOLASHIP FUND", "designationCode": "B", "categoryCode": "21", "address": "2731 LONGFELLOW AVE", "city": "WINDSOR", "province": "ON", "country": "CA", "postalCode": "N9E2L1", "twitter": "None", "instagram": "None", "facebook": "None", "youtube": "None", "website": "None", "summary": "None", "logo": "None", "latitude": 42.27255955591789, "longitude": -83.02735108814687}, "890443773RR0001": {"name": "MELISSA'S SUNSHINE CAMP", "designationCode": "C", "categoryCode": "56", "address": "24 YORK ST", "city": "HUNTINGDON", "province": "QC", "country": "CA", "postalCode": "J0S1H0", "twitter": "None", "instagram": "None", "facebook": "None", "youtube": "None", "website": "None", "summary": "None", "logo": "None", "latitude": 45.091887482139484, "longitude": -74.17258851295483}, "119419315RR0001": {"name": "MELITA & AREA HANDI-VAN COMMITTEE INC.", "designationCode": "C", "categoryCode": "09", "address": "BOX 613", "city": "MELITA", "province": "MB", "country": "CA", "postalCode": "R0M1L0", "twitter": "None", "instagram": "None", "facebook": "None", "youtube": "None", "website": "None", "summary": "None", "logo": "None", "latitude": 49.26665000000003, "longitude": -100.96985999999998}, "119037257RR0001": {"name": "MELITA CENTENNIAL COMMITTEE INC.", "designationCode": "C", "categoryCode": "50", "address": "BOX 610", "city": "MELITA", "province": "MB", "country": "CA", "postalCode": "R0M1L0", "twitter": "None", "instagram": "None", "facebook": "None", "youtube": "None", "website": "None", "summary": "None", "logo": "None", "latitude": 49.26665000000003, "longitude": -100.96985999999998}, "119288918RR0438": {"name": "MELITA CONGREGATION OF JEHOVAH'S WITNESSES, MANITOBA", "designationCode": "C", "categoryCode": "61", "address": "PO BOX 747", "city": "MELITA", "province": "MB", "country": "CA", "postalCode": "R0M1L0", "twitter": "None", "instagram": "None", "facebook": "None", "youtube": "None", "website": "None", "summary": "None", "logo": "None", "latitude": 49.26665000000003, "longitude": -100.96985999999998}, "877688622RR0001": {"name": "MELITA HEALTH AUXILIARY ASSOCIATION", "designationCode": "C", "categoryCode": "19", "address": "P.O. BOX 881", "city": "MELITA", "province": "MB", "country": "CA", "postalCode": "R0M1L0", "twitter": "None", "instagram": "None", "facebook": "None", "youtube": "None", "website": "None", "summary": "None", "logo": "None", "latitude": 49.26665000000003, "longitude": -100.96985999999998}, "119037281RR0001": {"name": "MELITA PASTORAL CHARGE", "designationCode": "C", "categoryCode": "44", "address": "PO BOX 159", "city": "MELITA", "province": "MB", "country": "CA", "postalCode": "R0M1L0", "twitter": "None", "instagram": "None", "facebook": "None", "youtube": "None", "website": "None", "summary": "None", "logo": "None", "latitude": 49.26665000000003, "longitude": -100.96985999999998}, "861407294RR0001": {"name": "MELITA POOL COMMITTEE INC.", "designationCode": "C", "categoryCode": "56", "address": "BOX 341", "city": "MELITA", "province": "MB", "country": "CA", "postalCode": "R0M1L0", "twitter": "None", "instagram": "None", "facebook": "None", "youtube": "None", "website": "None", "summary": "None", "logo": "None", "latitude": 49.26665000000003, "longitude": -100.96985999999998}, "742017122RR0001": {"name": "MELITA PRESBYTERIAN CHURCH", "designationCode": "C", "categoryCode": "37", "address": "BOX 959", "city": "MELITA", "province": "MB", "country": "CA", "postalCode": "R0M1L0", "twitter": "None", "instagram": "None", "facebook": "None", "youtube": "None", "website": "None", "summary": "None", "logo": "None", "latitude": 49.26665000000003, "longitude": -100.96985999999998}, "131784571RR0001": {"name": "MELKITE CATHOLIC YOUNG-ADULTS ORGANIZATION", "designationCode": "C", "categoryCode": "49", "address": "1161 NORTH RIVER RD", "city": "OTTAWA", "province": "ON", "country": "CA", "postalCode": "K1K3W5", "twitter": "None", "instagram": "None", "facebook": "None", "youtube": "None", "website": "None", "summary": "None", "logo": "None", "latitude": 45.420428615644, "longitude": -75.66394182913156}, "889931119RR0001": {"name": "MELODY FELLOWSHIP CHURCH", "designationCode": "C", "categoryCode": "39", "address": "111 WESTBROOK DRIVE           RR 5", "city": "KOMOKA", "province": "ON", "country": "CA", "postalCode": "N0L1R0", "twitter": "None", "instagram": "None", "facebook": "None", "youtube": "None", "website": "None", "summary": "None", "logo": "None", "latitude": 42.95353889950388, "longitude": -81.40370232122477}, "847416310RR0002": {"name": "MELOS MUSIC SOCIETY INC.", "designationCode": "C", "categoryCode": "22", "address": "103 SEAFORTH RD", "city": "KINGSTON", "province": "ON", "country": "CA", "postalCode": "K7M1E1", "twitter": "None", "instagram": "None", "facebook": "None", "youtube": "None", "website": "None", "summary": "None", "logo": "None", "latitude": 44.2519164676841, "longitude": -76.52141086372554}, "132023284RR0001": {"name": "MELROSE BAPTIST CHURCH", "designationCode": "C", "categoryCode": "31", "address": "375 MELROSE AVE", "city": "TORONTO", "province": "ON", "country": "CA", "postalCode": "M5M1Z6", "twitter": "None", "instagram": "None", "facebook": "None", "youtube": "None", "website": "None", "summary": "None", "logo": "None", "latitude": 43.729618842056816, "longitude": -79.41969684748115}, "834455529RR0001": {"name": "MELROSE CEMETERY BOARD", "designationCode": "C", "categoryCode": "59", "address": "2774 BLESSINGTON RD           R.R. 1", "city": "CORBYVILLE", "province": "ON", "country": "CA", "postalCode": "K0K1V0", "twitter": "None", "instagram": "None", "facebook": "None", "youtube": "None", "website": "None", "summary": "None", "logo": "None", "latitude": 44.26854665941511, "longitude": -77.22727797279134}, "107689598RR0001": {"name": "MELROSE UNITED CHURCH", "designationCode": "C", "categoryCode": "44", "address": "86 HOMEWOOD AVE.", "city": "HAMILTON", "province": "ON", "country": "CA", "postalCode": "L8P2M4", "twitter": "None", "instagram": "None", "facebook": "None", "youtube": "None", "website": "None", "summary": "None", "logo": "None", "latitude": 43.25071907412417, "longitude": -79.8870139582204}, "119037349RR0001": {"name": "MELROSE UNITED CHURCH", "designationCode": "C", "categoryCode": "44", "address": "242 CALLAGHAN ROAD", "city": "MARYSVILLE", "province": "ON", "country": "CA", "postalCode": "K0K2N0", "twitter": "None", "instagram": "None", "facebook": "None", "youtube": "None", "website": "None", "summary": "None", "logo": "None", "latitude": 44.242607684950315, "longitude": -77.14460855661036}, "119037364RR0001": {"name": "MELTON FOUNDATION", "designationCode": "B", "categoryCode": "03", "address": "900-10310 JASPER AVENUE", "city": "EDMONTON", "province": "AB", "country": "CA", "postalCode": "T5J1Y8", "twitter": "None", "instagram": "None", "facebook": "None", "youtube": "None", "website": "None", "summary": "None", "logo": "None", "latitude": 53.54095650764605, "longitude": -113.4977715}, "107689630RR0001": {"name": "MELVERN SQUARE UNITED BAPTIST CHURCH", "designationCode": "C", "categoryCode": "31", "address": "377 STRONACH MTN RD", "city": "MELVERN SQUARE", "province": "NS", "country": "CA", "postalCode": "B0P1R0", "twitter": "None", "instagram": "None", "facebook": "None", "youtube": "None", "website": "None", "summary": "None", "logo": "None", "latitude": 44.98903669080737, "longitude": -64.9865825130704}, "119037372RR0001": {"name": "MELVILLE & DISTRICT AGRI-PARK ASSOCIATION, INC.", "designationCode": "C", "categoryCode": "56", "address": "BOX NO. 2678", "city": "MELVILLE", "province": "SK", "country": "CA", "postalCode": "S0A2P0", "twitter": "None", "instagram": "None", "facebook": "None", "youtube": "None", "website": "None", "summary": "None", "logo": "None", "latitude": 50.87164886256234, "longitude": -103.09293300498788}, "119332880RR0001": {"name": "MELVILLE & DISTRICT QUILTERS GUILD INC", "designationCode": "C", "categoryCode": "22", "address": "BOX 2947", "city": "MELVILLE", "province": "SK", "country": "CA", "postalCode": "S0A2P0", "twitter": "None", "instagram": "None", "facebook": "None", "youtube": "None", "website": "None", "summary": "None", "logo": "None", "latitude": 50.87164886256234, "longitude": -103.09293300498788}, "131789505RR0001": {"name": "MELVILLE AND DISTRICT DONORS CHOICE APPEAL", "designationCode": "A", "categoryCode": "03", "address": "P.O. BOX 365", "city": "MELVILLE", "province": "SK", "country": "CA", "postalCode": "S0A2P0", "twitter": "None", "instagram": "None", "facebook": "None", "youtube": "None", "website": "None", "summary": "None", "logo": "None", "latitude": 50.87164886256234, "longitude": -103.09293300498788}, "896384351RR0001": {"name": "MELVILLE AND DISTRICT FOOD BANK INC.", "designationCode": "C", "categoryCode": "09", "address": "PO BOX 2342", "city": "MELVILLE", "province": "SK", "country": "CA", "postalCode": "S0A2P0", "twitter": "None", "instagram": "None", "facebook": "None", "youtube": "None", "website": "None", "summary": "None", "logo": "None", "latitude": 50.87164886256234, "longitude": -103.09293300498788}, "119037406RR0001": {"name": "MELVILLE ARTS COUNCIL INC.", "designationCode": "C", "categoryCode": "22", "address": "BOX 309", "city": "MELVILLE", "province": "SK", "country": "CA", "postalCode": "S0A2P0", "twitter": "None", "instagram": "None", "facebook": "None", "youtube": "None", "website": "None", "summary": "None", "logo": "None", "latitude": 50.87164886256234, "longitude": -103.09293300498788}, "119037414RR0001": {"name": "MELVILLE BAPTIST CHURCH INC.", "designationCode": "C", "categoryCode": "31", "address": "BOX 855", "city": "MELVILLE", "province": "SK", "country": "CA", "postalCode": "S0A2P0", "twitter": "None", "instagram": "None", "facebook": "None", "youtube": "None", "website": "None", "summary": "None", "logo": "None", "latitude": 50.87164886256234, "longitude": -103.09293300498788}, "107689762RR0001": {"name": "MELVILLE HERITAGE MUSEUM INC.", "designationCode": "C", "categoryCode": "50", "address": "BOX 2528", "city": "MELVILLE", "province": "SK", "country": "CA", "postalCode": "S0A2P0", "twitter": "None", "instagram": "None", "facebook": "None", "youtube": "None", "website": "None", "summary": "None", "logo": "None", "latitude": 50.87164886256234, "longitude": -103.09293300498788}, "863927422RR0001": {"name": "MELVILLE NORTH CEMETERY", "designationCode": "C", "categoryCode": "59", "address": "BOX 363                       319-5TH AVE E", "city": "MELVILLE", "province": "SK", "country": "CA", "postalCode": "S0A2P0", "twitter": "None", "instagram": "None", "facebook": "None", "youtube": "None", "website": "None", "summary": "None", "logo": "None", "latitude": 50.928942805805605, "longitude": -102.79963226453218}, "875392623RR0001": {"name": "MELVILLE PENTECOSTAL CHURCH", "designationCode": "C", "categoryCode": "36", "address": "BOX 33", "city": "MELVILLE", "province": "SK", "country": "CA", "postalCode": "S0A2P0", "twitter": "None", "instagram": "None", "facebook": "None", "youtube": "None", "website": "None", "summary": "None", "logo": "None", "latitude": 50.87164886256234, "longitude": -103.09293300498788}, "119037471RR0001": {"name": "MELVILLE PRESBYTERIAN CHURCH", "designationCode": "C", "categoryCode": "37", "address": "PO BOX 239", "city": "BRUSSELS", "province": "ON", "country": "CA", "postalCode": "N0G1H0", "twitter": "None", "instagram": "None", "facebook": "None", "youtube": "None", "website": "None", "summary": "None", "logo": "None", "latitude": 43.714084384656786, "longitude": -81.27334948961246}}