{"108227497RR0001": {"name": "THE CALGARY YMCA FOUNDATION", "designationCode": "A", "categoryCode": "43", "address": "101 3RD STREET SW", "city": "CALGARY", "province": "AB", "country": "CA", "postalCode": "T2P4G6", "twitter": "None", "instagram": "None", "facebook": "None", "youtube": "None", "website": "None", "summary": "None", "logo": "None", "latitude": 51.05140965334387, "longitude": -114.07007316366689}, "887377190RR0001": {"name": "THE CALGARY YOUTH ORCHESTRA SOCIETY", "designationCode": "C", "categoryCode": "22", "address": "4825 MOUNT ROYAL GATE SW", "city": "CALGARY", "province": "AB", "country": "CA", "postalCode": "T3E6K6", "twitter": "None", "instagram": "None", "facebook": "None", "youtube": "None", "website": "None", "summary": "None", "logo": "None", "latitude": 51.01023541326677, "longitude": -114.13256418140095}, "897123139RR0001": {"name": "THE CALGARY ZOO FOUNDATION", "designationCode": "A", "categoryCode": "53", "address": "1300 ZOO RD NE", "city": "CALGARY", "province": "AB", "country": "CA", "postalCode": "T2E7V6", "twitter": "None", "instagram": "None", "facebook": "None", "youtube": "None", "website": "None", "summary": "None", "logo": "None", "latitude": 51.044334575732805, "longitude": -114.03201359959027}, "119218162RR0001": {"name": "THE CALL OF THE POOR INC /L'APPEL DU PAUVRE INC", "designationCode": "B", "categoryCode": "03", "address": "PO BOX 117", "city": "ST-NORBERT", "province": "MB", "country": "CA", "postalCode": "R3V1L5", "twitter": "None", "instagram": "None", "facebook": "None", "youtube": "None", "website": "None", "summary": "None", "logo": "None", "latitude": 49.765360077182656, "longitude": -97.15356999826922}, "858821515RR0001": {"name": "THE CALLAN FOUNDATION", "designationCode": "C", "categoryCode": "43", "address": "120B MARKET ST", "city": "BRANTFORD", "province": "ON", "country": "CA", "postalCode": "N3T3A1", "twitter": "None", "instagram": "None", "facebook": "None", "youtube": "None", "website": "None", "summary": "None", "logo": "None", "latitude": 43.14232236556222, "longitude": -80.26403481952842}, "886381300RR0001": {"name": "THE CALLING CHURCH", "designationCode": "C", "categoryCode": "37", "address": "254 - 585 AUSTIN AVE", "city": "COQUITLAM", "province": "BC", "country": "CA", "postalCode": "V3K2N2", "twitter": "None", "instagram": "None", "facebook": "None", "youtube": "None", "website": "None", "summary": "None", "logo": "None", "latitude": 49.24907551485941, "longitude": -122.88633274854291}, "106831522RR0001": {"name": "THE CALMAR AND DISTRICT AGRICULTURAL SOCIETY", "designationCode": "C", "categoryCode": "56", "address": "BOX 690", "city": "CALMAR", "province": "AB", "country": "CA", "postalCode": "T0C0V0", "twitter": "None", "instagram": "None", "facebook": "None", "youtube": "None", "website": "None", "summary": "None", "logo": "None", "latitude": 53.265040000000056, "longitude": -113.80454999999995}, "119218188RR0001": {"name": "THE CALMAR AND DISTRICT SENIOR CITIZENS CLUB", "designationCode": "C", "categoryCode": "56", "address": "PO BOX 505", "city": "CALMAR", "province": "AB", "country": "CA", "postalCode": "T0C0V0", "twitter": "None", "instagram": "None", "facebook": "None", "youtube": "None", "website": "None", "summary": "None", "logo": "None", "latitude": 53.265040000000056, "longitude": -113.80454999999995}, "890724214RR0001": {"name": "THE CALP FOUNDATION/LA FONDATION CALP", "designationCode": "B", "categoryCode": "03", "address": "1501 MCGILL COLLEGE AVENUE    SUITE 2900", "city": "MONTREAL", "province": "QC", "country": "CA", "postalCode": "H3A3M8", "twitter": "None", "instagram": "None", "facebook": "None", "youtube": "None", "website": "None", "summary": "None", "logo": "None", "latitude": 45.50235907550915, "longitude": -73.57178011252824}, "892006644RR0001": {"name": "THE CALUMET CEMETERY COMPANY", "designationCode": "C", "categoryCode": "59", "address": "RR 1 SITE 10 BOX 3", "city": "PONOKA", "province": "AB", "country": "CA", "postalCode": "T4J1R1", "twitter": "None", "instagram": "None", "facebook": "None", "youtube": "None", "website": "None", "summary": "None", "logo": "None", "latitude": 52.67526900000006, "longitude": -113.58076399999993}, "892357369RR0001": {"name": "THE CAMBODIAN EVANGELICAL FELLOWSHIP OF OTTAWA", "designationCode": "C", "categoryCode": "39", "address": "15 CROSSPOINTE AVENUE", "city": "OTTAWA", "province": "ON", "country": "CA", "postalCode": "K2G6N2", "twitter": "None", "instagram": "None", "facebook": "None", "youtube": "None", "website": "None", "summary": "None", "logo": "None", "latitude": 45.27816676048812, "longitude": -75.7193208887125}, "891580045RR0001": {"name": "THE CAMBRIDGE COMMUNITY CENTRE", "designationCode": "C", "categoryCode": "56", "address": "5961 HIGHWAY 1", "city": "CAMBRIDGE STN", "province": "NS", "country": "CA", "postalCode": "B0P1G0", "twitter": "None", "instagram": "None", "facebook": "None", "youtube": "None", "website": "None", "summary": "None", "logo": "None", "latitude": 45.056094795047926, "longitude": -64.64281897365605}, "105200588RR0001": {"name": "THE CAMERON ORTHOPEDIC RESEARCH FOUNDATION", "designationCode": "B", "categoryCode": "23", "address": "43 WELLESLEY ST E             SUITE 318", "city": "TORONTO", "province": "ON", "country": "CA", "postalCode": "M4Y1H1", "twitter": "None", "instagram": "None", "facebook": "None", "youtube": "None", "website": "None", "summary": "None", "logo": "None", "latitude": 43.664874746061415, "longitude": -79.3821057623058}, "867410011RR0001": {"name": "THE CAMP GRAFTON SOCIETY", "designationCode": "C", "categoryCode": "49", "address": "BOX 602, STN MAIN", "city": "KAMLOOPS", "province": "BC", "country": "CA", "postalCode": "V2C5L7", "twitter": "None", "instagram": "None", "facebook": "None", "youtube": "None", "website": "None", "summary": "None", "logo": "None"}, "118977644RR0001": {"name": "THE CAMP KANNAWIN COMMITTEE, THE SYNOD OF ALBERTA, THE PRESBYTERIAN CHURCH IN CANADA", "designationCode": "C", "categoryCode": "56", "address": "PO BOX 9240 STN MAIN", "city": "SYLVAN LAKE", "province": "AB", "country": "CA", "postalCode": "T4S1S8", "twitter": "None", "instagram": "None", "facebook": "None", "youtube": "None", "website": "None", "summary": "None", "logo": "None", "latitude": 52.31122800000006, "longitude": -114.09405199999993}, "870125150RR0001": {"name": "THE CAMP TANAMAKOON CHARITABLE FOUNDATION INC.", "designationCode": "B", "categoryCode": "03", "address": "132 REYNOLDS STREET", "city": "OAKVILLE", "province": "ON", "country": "CA", "postalCode": "L6J3K5", "twitter": "None", "instagram": "None", "facebook": "None", "youtube": "None", "website": "None", "summary": "None", "logo": "None", "latitude": 43.44881651511922, "longitude": -79.66684677866574}, "119218279RR0001": {"name": "THE CAMPBELL FOUNDATION", "designationCode": "B", "categoryCode": "25", "address": "7-8100 YONGE STREET", "city": "THORNHILL", "province": "ON", "country": "CA", "postalCode": "L4J6W6", "twitter": "None", "instagram": "None", "facebook": "None", "youtube": "None", "website": "None", "summary": "None", "logo": "None", "latitude": 43.82453827892555, "longitude": -79.42642809166664}, "890524846RR0001": {"name": "THE CAMPBELL MCLAURIN FOUNDATION FOR HEARING DEFICIENCIES", "designationCode": "C", "categoryCode": "11", "address": "CENTENNIAL PLACE, EAST TOWER  1900, 520 - 3 AVENUE SW", "city": "CALGARY", "province": "AB", "country": "CA", "postalCode": "T2P0R3", "twitter": "None", "instagram": "None", "facebook": "None", "youtube": "None", "website": "None", "summary": "None", "logo": "None", "latitude": 51.05066125846953, "longitude": -114.07192277332256}, "898171202RR0001": {"name": "THE CAMPBELL RIVER ALANO CLUB", "designationCode": "C", "categoryCode": "57", "address": "301 - 10TH AVENUE", "city": "CAMPBELL RIVER", "province": "BC", "country": "CA", "postalCode": "V9W4E4", "twitter": "None", "instagram": "None", "facebook": "None", "youtube": "None", "website": "None", "summary": "None", "logo": "None", "latitude": 50.025121703272184, "longitude": -125.24573720009818}, "106835374RR0001": {"name": "THE CAMPBELL RIVER AND DISTRICT MUSEUM AND ARCHIVES SOCIETY", "designationCode": "C", "categoryCode": "50", "address": "470 ISLAND HWY, BOX 70, STN A", "city": "CAMPBELL RIVER", "province": "BC", "country": "CA", "postalCode": "V9W4Z9", "twitter": "None", "instagram": "None", "facebook": "None", "youtube": "None", "website": "None", "summary": "None", "logo": "None", "latitude": 50.01556896873914, "longitude": -125.2354528767083}, "870435161RR0001": {"name": "THE CAMPBELL RIVER COMMUNITY FOUNDATION", "designationCode": "A", "categoryCode": "53", "address": "P.O. BOX 734", "city": "CAMPBELL RIVER", "province": "BC", "country": "CA", "postalCode": "V9W6J3", "twitter": "None", "instagram": "None", "facebook": "None", "youtube": "None", "website": "None", "summary": "None", "logo": "None", "latitude": 50.024643000000054, "longitude": -125.24819299999993}, "868164005RR0001": {"name": "THE CAMPUS CHURCH", "designationCode": "C", "categoryCode": "39", "address": "PO BOX 367  STN MAIN          14430 BATHURST STREET", "city": "AURORA", "province": "ON", "country": "CA", "postalCode": "L4G3L5", "twitter": "None", "instagram": "None", "facebook": "None", "youtube": "None", "website": "None", "summary": "None", "logo": "None", "latitude": 43.97343665722206, "longitude": -79.48961795224685}, "892414566RR0001": {"name": "THE CAMPUS FOOD BANK", "designationCode": "C", "categoryCode": "09", "address": "1-81 STUDENTS UNION BLDG      UNIVERSITY OF ALBERTA", "city": "EDMONTON", "province": "AB", "country": "CA", "postalCode": "T6G2J7", "twitter": "None", "instagram": "None", "facebook": "None", "youtube": "None", "website": "None", "summary": "None", "logo": "None", "latitude": 53.525330000000054, "longitude": -113.52806999999996}, "106836414RR0001": {"name": "THE CAMROSE ASSOCIATION FOR COMMUNITY LIVING", "designationCode": "C", "categoryCode": "11", "address": "4604-57 STREET", "city": "CAMROSE", "province": "AB", "country": "CA", "postalCode": "T4V2E7", "twitter": "None", "instagram": "None", "facebook": "None", "youtube": "None", "website": "None", "summary": "None", "logo": "None", "latitude": 53.01447686404322, "longitude": -112.8377461081346}, "835199951RR0001": {"name": "THE CANADA BODHI DHARMA SOCIETY", "designationCode": "C", "categoryCode": "35", "address": "150-7740 ALDERBRIDGE WAY", "city": "RICHMOND", "province": "BC", "country": "CA", "postalCode": "V6X2A3", "twitter": "None", "instagram": "None", "facebook": "None", "youtube": "None", "website": "None", "summary": "None", "logo": "None", "latitude": 49.175480694673844, "longitude": -123.14220830901975}, "816145114RR0001": {"name": "THE CANADA EASTERN PRESBYTERY, THE KOREAN PRESBYTERIAN CHURCH ABROAD", "designationCode": "C", "categoryCode": "39", "address": "405 GORDON BAKER ROAD", "city": "TORONTO", "province": "ON", "country": "CA", "postalCode": "M2H2S6", "twitter": "None", "instagram": "None", "facebook": "None", "youtube": "None", "website": "None", "summary": "None", "logo": "None", "latitude": 43.80749485457894, "longitude": -79.34553741456577}, "888865136RR0001": {"name": "THE CANADA EQUIPMENT DEALERS FOUNDATION/LA FONDATION DES MARCHANDS D'EQUIPEMENT DU CANADA", "designationCode": "C", "categoryCode": "23", "address": "2435 PEGASUS ROAD N.E.", "city": "CALGARY", "province": "AB", "country": "CA", "postalCode": "T2E8C3", "twitter": "None", "instagram": "None", "facebook": "None", "youtube": "None", "website": "None", "summary": "None", "logo": "None", "latitude": 51.095115126002675, "longitude": -114.0036718524728}, "850452087RR0001": {"name": "THE CANADA GIVES HOPE FOUNDATION", "designationCode": "B", "categoryCode": "03", "address": "7750 GOVERNMENT ROAD", "city": "BURNABY", "province": "BC", "country": "CA", "postalCode": "V5A2C8", "twitter": "None", "instagram": "None", "facebook": "None", "youtube": "None", "website": "None", "summary": "None", "logo": "None", "latitude": 49.25087451341712, "longitude": -122.93864019317328}, "870436540RR0001": {"name": "THE CANADA HOUSE ARTS TRUST", "designationCode": "C", "categoryCode": "25", "address": "ATTN MAXWELL ROTSTEIN         40 HOLLY ST STE 202", "city": "TORONTO", "province": "ON", "country": "CA", "postalCode": "M4S3C3", "twitter": "None", "instagram": "None", "facebook": "None", "youtube": "None", "website": "None", "summary": "None", "logo": "None", "latitude": 43.705516222863466, "longitude": -79.39627620361796}, "896123775RR0001": {"name": "THE CANADA PRIZE AWARDS FOUNDATION", "designationCode": "C", "categoryCode": "21", "address": "1430 - 9TH STREET", "city": "WEST VANCOUVER", "province": "BC", "country": "CA", "postalCode": "V7T2K6", "twitter": "None", "instagram": "None", "facebook": "None", "youtube": "None", "website": "None", "summary": "None", "logo": "None", "latitude": 49.336805153439535, "longitude": -123.13950337998762}, "896123973RR0001": {"name": "THE CANADA PRIZE FOUNDATION", "designationCode": "C", "categoryCode": "21", "address": "1430-9TH STREET", "city": "WEST VANCOUVER", "province": "BC", "country": "CA", "postalCode": "V7T2K6", "twitter": "None", "instagram": "None", "facebook": "None", "youtube": "None", "website": "None", "summary": "None", "logo": "None", "latitude": 49.336805153439535, "longitude": -123.13950337998762}, "890392566RR0001": {"name": "THE CANADA-INTERNATIONAL SCIENTIFIC EXCHANGE PROGRAM (CISEPO)", "designationCode": "C", "categoryCode": "21", "address": "MT. SINAI HOSPITAL            SUITE 401 600 UNIVERSITY AVE.", "city": "TORONTO", "province": "ON", "country": "CA", "postalCode": "M5G1X5", "twitter": "None", "instagram": "None", "facebook": "None", "youtube": "None", "website": "None", "summary": "None", "logo": "None", "latitude": 43.65754994892962, "longitude": -79.38964001283921}, "126081140RR0001": {"name": "THE CANADIAN ABILITIES FOUNDATION", "designationCode": "C", "categoryCode": "59", "address": "803-255 DUNCAN MILL RD", "city": "TORONTO", "province": "ON", "country": "CA", "postalCode": "M3B3H9", "twitter": "None", "instagram": "None", "facebook": "None", "youtube": "None", "website": "None", "summary": "None", "logo": "None", "latitude": 43.761636736020755, "longitude": -79.35163791355524}, "134994375RR0001": {"name": "THE CANADIAN ACADEMY OF ENGINEERING/L'ACADEMIE CANADIENNE DU GENIE", "designationCode": "C", "categoryCode": "21", "address": "300 - 55 METCALFE ST", "city": "OTTAWA", "province": "ON", "country": "CA", "postalCode": "K1P6L5", "twitter": "None", "instagram": "None", "facebook": "None", "youtube": "None", "website": "None", "summary": "None", "logo": "None", "latitude": 45.42200567112917, "longitude": -75.69674417868924}, "872485511RR0001": {"name": "THE CANADIAN ADDISON SOCIETY/LA SOCIETE CANADIENNE D'ADDISON", "designationCode": "C", "categoryCode": "11", "address": "2 PALACE ARCH DR", "city": "ETOBICOKE", "province": "ON", "country": "CA", "postalCode": "M9A2S1", "twitter": "None", "instagram": "None", "facebook": "None", "youtube": "None", "website": "None", "summary": "None", "logo": "None", "latitude": 43.67256151289751, "longitude": -79.5378562213629}, "886059799RR0001": {"name": "THE CANADIAN AGRICULTURAL HALL OF FAME ASSOCIATION", "designationCode": "C", "categoryCode": "50", "address": "9102 FIFTH LINE, RR#3", "city": "GEORGETOWN", "province": "ON", "country": "CA", "postalCode": "L7G4S6", "twitter": "None", "instagram": "None", "facebook": "None", "youtube": "None", "website": "None", "summary": "None", "logo": "None", "latitude": 43.5711897223058, "longitude": -79.8925579220615}, "885189829RR0001": {"name": "THE CANADIAN AIR LAND SEA MUSEUM", "designationCode": "C", "categoryCode": "50", "address": "MARKHAM AIRPORT               PO BOX 518", "city": "MARKHAM", "province": "ON", "country": "CA", "postalCode": "L3P3R1", "twitter": "None", "instagram": "None", "facebook": "None", "youtube": "None", "website": "None", "summary": "None", "logo": "None", "latitude": 43.85650200000005, "longitude": -79.33982299999994}, "886114792RR0001": {"name": "THE CANADIAN ALUMNI OF BAIS HATALMUD, JERUSALEM", "designationCode": "C", "categoryCode": "20", "address": "3199 BATHURST ST #215", "city": "TORONTO", "province": "ON", "country": "CA", "postalCode": "M6A2B2", "twitter": "None", "instagram": "None", "facebook": "None", "youtube": "None", "website": "None", "summary": "None", "logo": "None"}, "886990993RR0001": {"name": "THE CANADIAN AMBASSADORS OF THE SACRED HEARTS OF JESUS AND MARY/LES AMBASSADEURS CANADIEN DES COEURS SACRE DE JESUS ET M", "designationCode": "C", "categoryCode": "47", "address": "173 ALLEN COURT", "city": "KINGSVILLE", "province": "ON", "country": "CA", "postalCode": "N9Y2H8", "twitter": "None", "instagram": "None", "facebook": "None", "youtube": "None", "website": "None", "summary": "None", "logo": "None", "latitude": 42.0281072961509, "longitude": -82.74826579228441}, "891555377RR0001": {"name": "THE CANADIAN ANAESTHESIA RESEARCH FOUNDATION/LA FONDATION", "designationCode": "C", "categoryCode": "11", "address": "208-1 EGLINTON AVE E", "city": "TORONTO", "province": "ON", "country": "CA", "postalCode": "M4P3A1", "twitter": "None", "instagram": "None", "facebook": "None", "youtube": "None", "website": "None", "summary": "None", "logo": "None", "latitude": 43.7089009100495, "longitude": -79.38780176683875}, "133205021RR0001": {"name": "THE CANADIAN ARCHAEOLOGICAL ASSOCIATION/L'ASSOCIATION CANADIENNE D'ARCHEOLOGIE", "designationCode": "C", "categoryCode": "21", "address": "PO BOX 15075 RPO ASPENWOODS", "city": "CALGARY", "province": "AB", "country": "CA", "postalCode": "T3H0N8", "twitter": "None", "instagram": "None", "facebook": "None", "youtube": "None", "website": "None", "summary": "None", "logo": "None", "latitude": 51.04672800000006, "longitude": -114.19906399999994}, "119218535RR0001": {"name": "THE CANADIAN ARM OF THE CAMPS FARTHEST OUT AND THE FOUNDATION FARTHEST OUT", "designationCode": "C", "categoryCode": "49", "address": "1239 ZADOW ST", "city": "PEMBROKE", "province": "ON", "country": "CA", "postalCode": "K8A0K3", "twitter": "None", "instagram": "None", "facebook": "None", "youtube": "None", "website": "None", "summary": "None", "logo": "None", "latitude": 45.80846543158864, "longitude": -77.1508641330718}, "132945908RR0001": {"name": "THE CANADIAN ART FOUNDATION", "designationCode": "C", "categoryCode": "22", "address": "215 SPADINA AVE SUITE 320", "city": "TORONTO", "province": "ON", "country": "CA", "postalCode": "M5T2C7", "twitter": "None", "instagram": "None", "facebook": "None", "youtube": "None", "website": "None", "summary": "None", "logo": "None", "latitude": 43.65063316348313, "longitude": -79.39697013165816}, "106821705RR0001": {"name": "THE CANADIAN ASSOCIATION FOR CO-OPERATIVE EDUCATION/L'ASSOCIATION CANADIENNE DE L'ENSEIGNEMENT COOP\u00c9RATIF", "designationCode": "C", "categoryCode": "21", "address": "200 - 411 RICHMOND ST E", "city": "TORONTO", "province": "ON", "country": "CA", "postalCode": "M5A3S5", "twitter": "None", "instagram": "None", "facebook": "None", "youtube": "None", "website": "None", "summary": "None", "logo": "None", "latitude": 43.6538198892321, "longitude": -79.36691630070987}, "119212884RR0001": {"name": "THE CANADIAN ASSOCIATION FOR COMMUNITY LIVING - ANTIGONISH BRANCH", "designationCode": "C", "categoryCode": "11", "address": "83 KIRK ST", "city": "ANTIGONISH", "province": "NS", "country": "CA", "postalCode": "B2G1Y7", "twitter": "None", "instagram": "None", "facebook": "None", "youtube": "None", "website": "None", "summary": "None", "logo": "None", "latitude": 45.61982925590049, "longitude": -61.98986092065302}, "861006534RR0001": {"name": "THE CANADIAN ASSOCIATION FOR PARISH NURSING MINISTRY (CAPNM)", "designationCode": "C", "categoryCode": "11", "address": "8 TAMARACK PL", "city": "INGERSOLL", "province": "ON", "country": "CA", "postalCode": "N5C3Z3", "twitter": "None", "instagram": "None", "facebook": "None", "youtube": "None", "website": "None", "summary": "None", "logo": "None"}, "879205516RR0001": {"name": "THE CANADIAN ASSOCIATION FOR WILLIAMS SYNDROME", "designationCode": "C", "categoryCode": "11", "address": "PO BOX 2115  STN TERMINAL", "city": "VANCOUVER", "province": "BC", "country": "CA", "postalCode": "V6B3T5", "twitter": "None", "instagram": "None", "facebook": "None", "youtube": "None", "website": "None", "summary": "None", "logo": "None", "latitude": 49.28024400000005, "longitude": -123.11294749999993}, "893040642RR0001": {"name": "THE CANADIAN ASSOCIATION OF CHINESE LANGUAGE SCHOOLS INC", "designationCode": "C", "categoryCode": "21", "address": "1414 MALONE GREEN", "city": "EDMONTON", "province": "AB", "country": "CA", "postalCode": "T6R0G7", "twitter": "None", "instagram": "None", "facebook": "None", "youtube": "None", "website": "None", "summary": "None", "logo": "None", "latitude": 53.44893296283668, "longitude": -113.56131586482206}, "867210452RR0001": {"name": "THE CANADIAN ASSOCIATION OF PETROLEUM LANDMEN'S SCHOLARSHIP", "designationCode": "C", "categoryCode": "21", "address": "1600 - 520 5 AVE SW", "city": "CALGARY", "province": "AB", "country": "CA", "postalCode": "T2P3R7", "twitter": "None", "instagram": "None", "facebook": "None", "youtube": "None", "website": "None", "summary": "None", "logo": "None", "latitude": 51.049102357620384, "longitude": -114.08736691042554}, "119218584RR0001": {"name": "THE CANADIAN ASSOCIATION OF SLAVISTS/ASSOCIATION CANADIENNE DES SLAVISTES", "designationCode": "C", "categoryCode": "21", "address": "UNIVERSITY OF NORTHERN BC     333 UNIVERSITY WAY", "city": "PRINCE GEORGE", "province": "BC", "country": "CA", "postalCode": "V2N4Z9", "twitter": "None", "instagram": "None", "facebook": "None", "youtube": "None", "website": "None", "summary": "None", "logo": "None", "latitude": 53.891050000000064, "longitude": -122.81377999999995}, "118829589RR0001": {"name": "THE CANADIAN AVIATION HISTORICAL SOCIETY", "designationCode": "C", "categoryCode": "52", "address": "156 ST PIERRE ROAD", "city": "VARS", "province": "ON", "country": "CA", "postalCode": "K0A3H0", "twitter": "None", "instagram": "None", "facebook": "None", "youtube": "None", "website": "None", "summary": "None", "logo": "None", "latitude": 45.335336316219994, "longitude": -75.3283462623489}, "123875189RR0001": {"name": "THE CANADIAN BAR FOUNDATION-LA FONDATION DU BARREAU CANADIEN", "designationCode": "C", "categoryCode": "21", "address": "865 CARLING AVE STE 500", "city": "OTTAWA", "province": "ON", "country": "CA", "postalCode": "K1S5S8", "twitter": "None", "instagram": "None", "facebook": "None", "youtube": "None", "website": "None", "summary": "None", "logo": "None", "latitude": 45.39637326983628, "longitude": -75.71068406486201}, "139741177RR0001": {"name": "THE CANADIAN BATTLEFIELDS FOUNDATION / LA FONDATION CANADIENNE DES CHAMPS DE BATAILLE", "designationCode": "C", "categoryCode": "29", "address": "1 VIMY PLACE", "city": "OTTAWA", "province": "ON", "country": "CA", "postalCode": "K1A0M8", "twitter": "None", "instagram": "None", "facebook": "None", "youtube": "None", "website": "None", "summary": "None", "logo": "None", "latitude": 45.41680713962133, "longitude": -75.71601007798971}, "896156171RR0001": {"name": "THE CANADIAN BIODIVERSITY INSTITUTE", "designationCode": "C", "categoryCode": "52", "address": "3351 BLANCHFIELD RD", "city": "OSGOODE", "province": "ON", "country": "CA", "postalCode": "K0A2W0", "twitter": "None", "instagram": "None", "facebook": "None", "youtube": "None", "website": "None", "summary": "None", "logo": "None", "latitude": 45.1563953928092, "longitude": -75.56677374104295}, "895436103RR0001": {"name": "THE CANADIAN BREASTFEEDING FOUNDATION / LA FONDATION CANADIENNE DE L'ALLAITEMENT", "designationCode": "A", "categoryCode": "11", "address": "5764 MONKLAND AVENUE          SUITE 424", "city": "MONTREAL", "province": "QC", "country": "CA", "postalCode": "H4A1E9", "twitter": "None", "instagram": "None", "facebook": "None", "youtube": "None", "website": "None", "summary": "None", "logo": "None", "latitude": 45.47369581681004, "longitude": -73.62450737258368}, "889679643RR0001": {"name": "THE CANADIAN BRIDGE FEDERATION CHARITABLE FUND", "designationCode": "B", "categoryCode": "05", "address": "1 PIETRO DRIVE", "city": "MAPLE", "province": "ON", "country": "CA", "postalCode": "L6A3J4", "twitter": "None", "instagram": "None", "facebook": "None", "youtube": "None", "website": "None", "summary": "None", "logo": "None", "latitude": 43.853822088262426, "longitude": -79.5418862757229}, "133781039RR0001": {"name": "THE CANADIAN CANOE MUSEUM", "designationCode": "C", "categoryCode": "50", "address": "910 MONAGHAN RD", "city": "PETERBOROUGH", "province": "ON", "country": "CA", "postalCode": "K9J5K4", "twitter": "None", "instagram": "None", "facebook": "None", "youtube": "None", "website": "None", "summary": "None", "logo": "None", "latitude": 44.28833638802002, "longitude": -78.33077074724483}, "887892446RR0001": {"name": "THE CANADIAN CARIBBEAN ASSOCIATION OF HALTON", "designationCode": "C", "categoryCode": "29", "address": "2260 TOWNE BOULEVARD", "city": "OAKVILLE", "province": "ON", "country": "CA", "postalCode": "L6H5J8", "twitter": "None", "instagram": "None", "facebook": "None", "youtube": "None", "website": "None", "summary": "None", "logo": "None", "latitude": 43.46833038022972, "longitude": -79.729443826822}, "862235769RR0001": {"name": "THE CANADIAN CATHOLIC SCHOOL TRUSTEE CHARITABLE FOUNDATION", "designationCode": "C", "categoryCode": "25", "address": "570 WEST HUNT CLUB ROAD", "city": "OTTAWA", "province": "ON", "country": "CA", "postalCode": "K2G3R4", "twitter": "None", "instagram": "None", "facebook": "None", "youtube": "None", "website": "None", "summary": "None", "logo": "None", "latitude": 45.33298800579972, "longitude": -75.72819528377299}, "890217193RR0001": {"name": "THE CANADIAN CAVE CONSERVANCY", "designationCode": "C", "categoryCode": "52", "address": "101-560 STEWART AVE.", "city": "NANAIMO", "province": "BC", "country": "CA", "postalCode": "V9S5T5", "twitter": "None", "instagram": "None", "facebook": "None", "youtube": "None", "website": "None", "summary": "None", "logo": "None", "latitude": 49.1790035162444, "longitude": -123.94507988020106}, "118829944RR0001": {"name": "THE CANADIAN CELIAC ASSOCIATION (MANITOBA CHAPTER) INC.", "designationCode": "C", "categoryCode": "11", "address": "204 - 825 SHERBROOK ST", "city": "WINNIPEG", "province": "MB", "country": "CA", "postalCode": "R3A1M5", "twitter": "None", "instagram": "None", "facebook": "None", "youtube": "None", "website": "None", "summary": "None", "logo": "None", "latitude": 49.905053935370574, "longitude": -97.15499593846792}, "136875697RR0001": {"name": "THE CANADIAN CELIAC ASSOCIATION / L'ASSOCIATION CANADIENNE DE LA MALADIE COELIAQUE - MONCTON CHAPTER", "designationCode": "C", "categoryCode": "11", "address": "P.O. BOX 1576", "city": "MONCTON", "province": "NB", "country": "CA", "postalCode": "E1C9X4", "twitter": "None", "instagram": "None", "facebook": "None", "youtube": "None", "website": "None", "summary": "None", "logo": "None", "latitude": 46.08834900000005, "longitude": -64.77824149999994}, "119218725RR0001": {"name": "THE CANADIAN CELIAC ASSOCIATION KITCHENER WATERLOO CHAPTER", "designationCode": "C", "categoryCode": "11", "address": "901 - 20 BARREL YARDS BLVD", "city": "WATERLOO", "province": "ON", "country": "CA", "postalCode": "N2L0C3", "twitter": "None", "instagram": "None", "facebook": "None", "youtube": "None", "website": "None", "summary": "None", "logo": "None", "latitude": 43.46461937301636, "longitude": -80.52989280763477}, "118829993RR0001": {"name": "THE CANADIAN CENTENNIAL CHOIR - LE CHOEUR DU CENTENAIRE CANADIEN", "designationCode": "C", "categoryCode": "22", "address": "571 DEVONWOOD CIRCLE          PO BOX 1275, STATION B", "city": "OTTAWA", "province": "ON", "country": "CA", "postalCode": "K1T4E6", "twitter": "None", "instagram": "None", "facebook": "None", "youtube": "None", "website": "None", "summary": "None", "logo": "None"}, "135731917RR0001": {"name": "THE CANADIAN CENTRE FOR LANGUAGE & CULTURAL STUDIES, INC.", "designationCode": "C", "categoryCode": "20", "address": "2ND FLOOR                     635 MARKHAM ST.", "city": "TORONTO", "province": "ON", "country": "CA", "postalCode": "M6G2M1", "twitter": "None", "instagram": "None", "facebook": "None", "youtube": "None", "website": "None", "summary": "None", "logo": "None", "latitude": 43.665201010271794, "longitude": -79.41249896459702}, "133180596RR0001": {"name": "THE CANADIAN CEREBRAL PALSY SPORTS ASSOCIATION", "designationCode": "C", "categoryCode": "56", "address": "2451 RIVERSIDE DR", "city": "OTTAWA", "province": "ON", "country": "CA", "postalCode": "K1H7X7", "twitter": "None", "instagram": "None", "facebook": "None", "youtube": "None", "website": "None", "summary": "None", "logo": "None", "latitude": 45.38458002856498, "longitude": -75.68371770910055}, "124389164RR0001": {"name": "THE CANADIAN CHILDREN'S BOOK CENTRE", "designationCode": "C", "categoryCode": "50", "address": "217 - 40 ORCHARD VIEW BLVD", "city": "TORONTO", "province": "ON", "country": "CA", "postalCode": "M4R1B9", "twitter": "None", "instagram": "None", "facebook": "None", "youtube": "None", "website": "None", "summary": "None", "logo": "None", "latitude": 43.707983110767906, "longitude": -79.39988647336826}, "119218816RR0001": {"name": "THE CANADIAN CHILDREN'S DANCE THEATRE INC.", "designationCode": "C", "categoryCode": "22", "address": "509 PARLIAMENT ST", "city": "TORONTO", "province": "ON", "country": "CA", "postalCode": "M4X1P3", "twitter": "None", "instagram": "None", "facebook": "None", "youtube": "None", "website": "None", "summary": "None", "logo": "None", "latitude": 43.66507158396327, "longitude": -79.36825969092293}, "887658599RR0001": {"name": "THE CANADIAN CHINESE ALLIANCE CHURCHES ASSOCIATION", "designationCode": "C", "categoryCode": "39", "address": "80 NASHDENE ROAD,UNITS 223-228", "city": "SCARBOROUGH", "province": "ON", "country": "CA", "postalCode": "M1V5E4", "twitter": "None", "instagram": "None", "facebook": "None", "youtube": "None", "website": "None", "summary": "None", "logo": "None", "latitude": 43.818864187950496, "longitude": -79.25283970027107}, "879016525RR0001": {"name": "THE CANADIAN CLOCK MUSEUM", "designationCode": "C", "categoryCode": "50", "address": "20 LECARON ST PO BOX 1684", "city": "DEEP RIVER", "province": "ON", "country": "CA", "postalCode": "K0J1P0", "twitter": "None", "instagram": "None", "facebook": "None", "youtube": "None", "website": "None", "summary": "None", "logo": "None", "latitude": 46.09592259615906, "longitude": -77.48158260597418}, "890767544RR0001": {"name": "THE CANADIAN COMMITTEE FOR THE HAIFA FOUNDATION", "designationCode": "C", "categoryCode": "21", "address": "201 BRIDGELAND AVE", "city": "NORTH YORK", "province": "ON", "country": "CA", "postalCode": "M6A1Y7", "twitter": "None", "instagram": "None", "facebook": "None", "youtube": "None", "website": "None", "summary": "None", "logo": "None", "latitude": 43.724679896445465, "longitude": -79.46720435899367}, "119218857RR0002": {"name": "THE CANADIAN COMMITTEE FOR THE TEL AVIV FOUNDATION", "designationCode": "C", "categoryCode": "09", "address": "411 - 7250 KEELE ST", "city": "CONCORD", "province": "ON", "country": "CA", "postalCode": "L4K1Z8", "twitter": "None", "instagram": "None", "facebook": "None", "youtube": "None", "website": "None", "summary": "None", "logo": "None", "latitude": 43.78741661169152, "longitude": -79.49624979144676}, "890044746RR0001": {"name": "THE CANADIAN CONTINENCE FOUNDATION/FONDATION D'AIDE AUX P ERSONNES INCONTINENTES (CANADA)", "designationCode": "C", "categoryCode": "09", "address": "PO BOX 417 STN MAIN", "city": "PETERBOROUGH", "province": "ON", "country": "CA", "postalCode": "K9J6Z3", "twitter": "None", "instagram": "None", "facebook": "None", "youtube": "None", "website": "None", "summary": "None", "logo": "None"}, "118830512RR0001": {"name": "THE CANADIAN COUNCIL OF CHURCHES / LE CONSEIL CANADIEN DES EGLISES", "designationCode": "C", "categoryCode": "39", "address": "47 QUEEN'S PARK CRESCENT EAST", "city": "TORONTO", "province": "ON", "country": "CA", "postalCode": "M5S2C3", "twitter": "None", "instagram": "None", "facebook": "None", "youtube": "None", "website": "None", "summary": "None", "logo": "None", "latitude": 43.66464755704306, "longitude": -79.3910169669343}, "119218899RR0001": {"name": "THE CANADIAN COUNCIL OF THE BLIND", "designationCode": "C", "categoryCode": "11", "address": "100-20 JAMES ST", "city": "OTTAWA", "province": "ON", "country": "CA", "postalCode": "K2P0T6", "twitter": "None", "instagram": "None", "facebook": "None", "youtube": "None", "website": "None", "summary": "None", "logo": "None", "latitude": 45.413055724104204, "longitude": -75.69544052732422}, "119218907RR0001": {"name": "THE CANADIAN COUNCIL OF THE BLIND", "designationCode": "C", "categoryCode": "11", "address": "100 CARDINAL CR.", "city": "REGINA", "province": "SK", "country": "CA", "postalCode": "S4S4Y7", "twitter": "None", "instagram": "None", "facebook": "None", "youtube": "None", "website": "None", "summary": "None", "logo": "None", "latitude": 50.40590517346644, "longitude": -104.60488353638392}, "119218915RR0001": {"name": "THE CANADIAN COUNCIL OF THE BLIND B.C. - YUKON DIVISION", "designationCode": "C", "categoryCode": "11", "address": "PO BOX 531                    CHILLIWACK MAIN STATION", "city": "CHILLIWACK", "province": "BC", "country": "CA", "postalCode": "V2P7V5", "twitter": "None", "instagram": "None", "facebook": "None", "youtube": "None", "website": "None", "summary": "None", "logo": "None", "latitude": 49.15747500000006, "longitude": -121.95172249999993}, "119218881RR0001": {"name": "THE CANADIAN COUNCIL OF THE BLIND-ONTARIO DIVISION", "designationCode": "C", "categoryCode": "11", "address": "4 DYANA DRIVE", "city": "LINDSAY", "province": "ON", "country": "CA", "postalCode": "K9V5A3", "twitter": "None", "instagram": "None", "facebook": "None", "youtube": "None", "website": "None", "summary": "None", "logo": "None", "latitude": 44.36636914043559, "longitude": -78.74083764320483}, "140709866RR0001": {"name": "THE CANADIAN COUNCIL ON ECOLOGICAL AREAS - LE CONSEIL CANADIEN DES AIRES \u00c9COLOGIQUES", "designationCode": "C", "categoryCode": "59", "address": "35 HYLAND CRES", "city": "WHITEHORSE", "province": "YT", "country": "CA", "postalCode": "Y1A4P6", "twitter": "None", "instagram": "None", "facebook": "None", "youtube": "None", "website": "None", "summary": "None", "logo": "None", "latitude": 60.701883181516536, "longitude": -135.01405901664842}, "119218923RR0001": {"name": "THE CANADIAN COUNCIL ON SOCIAL DEVELOPMENT-LE CONSEIL CANADIEN DE DEVELOPPEMENT SOCIAL", "designationCode": "C", "categoryCode": "03", "address": "P.O. BOX 13713", "city": "KANATA", "province": "ON", "country": "CA", "postalCode": "K2K1X6", "twitter": "None", "instagram": "None", "facebook": "None", "youtube": "None", "website": "None", "summary": "None", "logo": "None", "latitude": 45.36639600000005, "longitude": -75.89211649999993}, "118830652RR0001": {"name": "THE CANADIAN CREDIT INSTITUTE EDUCATIONAL FOUNDATION LA FONDATION SCOLAIRE DE L'INSTITUT CANADIEN DU CREDIT", "designationCode": "C", "categoryCode": "23", "address": "219 DUFFERIN STREET           STE 216C", "city": "TORONTO", "province": "ON", "country": "CA", "postalCode": "M6K3J1", "twitter": "None", "instagram": "None", "facebook": "None", "youtube": "None", "website": "None", "summary": "None", "logo": "None", "latitude": 43.636677757429695, "longitude": -79.42644065678935}, "892249970RR0001": {"name": "THE CANADIAN DAVIDIAN SEVENTH-DAY ADVENTIST ASSOCIATION", "designationCode": "C", "categoryCode": "39", "address": "PO BOX 54013 RPO GOLDEN GATE", "city": "BRAMPTON", "province": "ON", "country": "CA", "postalCode": "L6Y5Y9", "twitter": "None", "instagram": "None", "facebook": "None", "youtube": "None", "website": "None", "summary": "None", "logo": "None", "latitude": 43.73851500000001, "longitude": -79.72361325}, "118860899RR0001": {"name": "THE CANADIAN DISTRICT CHURCH OF GOD (SEVENTH DAY)", "designationCode": "C", "categoryCode": "41", "address": "GARNEAU PO BOX 52117", "city": "EDMONTON", "province": "AB", "country": "CA", "postalCode": "T6G1C8", "twitter": "None", "instagram": "None", "facebook": "None", "youtube": "None", "website": "None", "summary": "None", "logo": "None", "latitude": 53.520970000000034, "longitude": -113.51247999999998}, "888880267RR0001": {"name": "THE CANADIAN DITCHLEY FOUNDATION", "designationCode": "C", "categoryCode": "21", "address": "3383 SAWMILL VALLEY DRIVE", "city": "MISSISSAUGA", "province": "ON", "country": "CA", "postalCode": "L5L2Z8", "twitter": "None", "instagram": "None", "facebook": "None", "youtube": "None", "website": "None", "summary": "None", "logo": "None", "latitude": 43.55004561226846, "longitude": -79.67430093063635}, "868879685RR0001": {"name": "THE CANADIAN DON'T DO DRUGS SOCIETY", "designationCode": "C", "categoryCode": "59", "address": "7-B PLEASANT BLVD             P.O. BOX 1053", "city": "TORONTO", "province": "ON", "country": "CA", "postalCode": "M4T1K2", "twitter": "None", "instagram": "None", "facebook": "None", "youtube": "None", "website": "None", "summary": "None", "logo": "None", "latitude": 43.68765402994129, "longitude": -79.39131028857149}, "867503963RR0001": {"name": "THE CANADIAN ECOLOGY CENTRE EDUCATIONAL FOUNDATION", "designationCode": "C", "categoryCode": "20", "address": "P.O. BOX 430 HIGHWAY 17 WEST", "city": "MATTAWA", "province": "ON", "country": "CA", "postalCode": "P0H1V0", "twitter": "None", "instagram": "None", "facebook": "None", "youtube": "None", "website": "None", "summary": "None", "logo": "None", "latitude": 46.317394636924334, "longitude": -78.70211068378357}, "889747440RR0001": {"name": "THE CANADIAN FEDERATION OF UNIVERSITY WOMEN-OTTAWA SCHOLARSHIP TRUST FUND", "designationCode": "A", "categoryCode": "25", "address": "PO BOX 8392, STATION T", "city": "OTTAWA", "province": "ON", "country": "CA", "postalCode": "K1G3H8", "twitter": "None", "instagram": "None", "facebook": "None", "youtube": "None", "website": "None", "summary": "None", "logo": "None", "latitude": 45.4075526747762, "longitude": -75.65114751410245}, "890389372RR0001": {"name": "THE CANADIAN FEDERATION UNIVERSITY WOMEN (C.F.U.W.) BURLINGTON FOUNDATION SCHOLARSHIP FUND", "designationCode": "A", "categoryCode": "25", "address": "24 WESTVIEW CRES", "city": "WATERDOWN", "province": "ON", "country": "CA", "postalCode": "L8B0E4", "twitter": "None", "instagram": "None", "facebook": "None", "youtube": "None", "website": "None", "summary": "None", "logo": "None", "latitude": 43.3400716008715, "longitude": -79.90450598845881}, "856896303RR0001": {"name": "THE CANADIAN FLYING MACHINE MUSEUM", "designationCode": "C", "categoryCode": "50", "address": "230 ALBERT LANE               BOX 1330", "city": "CAMPBELLFORD", "province": "ON", "country": "CA", "postalCode": "K0L1L0", "twitter": "None", "instagram": "None", "facebook": "None", "youtube": "None", "website": "None", "summary": "None", "logo": "None", "latitude": 44.301855285097346, "longitude": -77.80481997013158}, "888559994RR0001": {"name": "THE CANADIAN FOREST PRODUCTS LTD SCHOLARSHIP TRUST FUND", "designationCode": "C", "categoryCode": "21", "address": "10018-101 STREET", "city": "PEACE RIVER", "province": "AB", "country": "CA", "postalCode": "T8S2A5", "twitter": "None", "instagram": "None", "facebook": "None", "youtube": "None", "website": "None", "summary": "None", "logo": "None", "latitude": 56.233106245628704, "longitude": -117.28879340273518}, "870159043RR0001": {"name": "THE CANADIAN FOUNDATION FOR ANIMAL-ASSISTED SUPPORT SERVICES / LA FONDATION CANADIENNE DES SERVICES DE SOUTIEN ASSIST\u00c9S PAR ANIMAUX", "designationCode": "A", "categoryCode": "03", "address": "14-1010 POLYTEK ST", "city": "OTTAWA", "province": "ON", "country": "CA", "postalCode": "K1J9H9", "twitter": "None", "instagram": "None", "facebook": "None", "youtube": "None", "website": "None", "summary": "None", "logo": "None", "latitude": 45.45644500911796, "longitude": -75.5849551816321}, "872974647RR0001": {"name": "THE CANADIAN FOUNDATION FOR CONTROL OF NEURODEGENERATIVE DISEASE", "designationCode": "A", "categoryCode": "13", "address": "400-505 CONSUMERS ROAD", "city": "TORONTO", "province": "ON", "country": "CA", "postalCode": "M2J4V8", "twitter": "None", "instagram": "None", "facebook": "None", "youtube": "None", "website": "None", "summary": "None", "logo": "None", "latitude": 43.77121033498767, "longitude": -79.3243361956548}, "849309547RR0001": {"name": "THE CANADIAN FOUNDATION FOR COOPERATION AND DEVELOPMENT/LA FONDATION CANADIENNE POUR LA COOPERATION ET LE DEVELOPPEMENT", "designationCode": "A", "categoryCode": "43", "address": "630 SHERBROOKE ST W           BUREAU 400", "city": "MONTREAL", "province": "QC", "country": "CA", "postalCode": "H3A1E4", "twitter": "None", "instagram": "None", "facebook": "None", "youtube": "None", "website": "None", "summary": "None", "logo": "None", "latitude": 45.50531513237934, "longitude": -73.5731159379366}, "119218998RR0001": {"name": "THE CANADIAN FOUNDATION FOR ECONOMIC EDUCATION / LA FONDATION CANADIENNE D'EDUCATION ECONOMIQUE", "designationCode": "C", "categoryCode": "21", "address": "201-110 EGLINTON AVE W", "city": "TORONTO", "province": "ON", "country": "CA", "postalCode": "M4R1A3", "twitter": "None", "instagram": "None", "facebook": "None", "youtube": "None", "website": "None", "summary": "None", "logo": "None", "latitude": 43.706071150729855, "longitude": -79.40168884139297}, "891558793RR0001": {"name": "THE CANADIAN FOUNDATION FOR GEOTECHNIQUE/LA FONDATION CANADIENNE DE GEOTECHNIQUE", "designationCode": "C", "categoryCode": "21", "address": "1125 COLONEL BY DR", "city": "OTTAWA", "province": "ON", "country": "CA", "postalCode": "K1S5B6", "twitter": "None", "instagram": "None", "facebook": "None", "youtube": "None", "website": "None", "summary": "None", "logo": "None", "latitude": 45.38847501361867, "longitude": -75.70004668749007}, "888102399RR0001": {"name": "THE CANADIAN FOUNDATION FOR PHARMACY/LA FONDATION CANADIENNE", "designationCode": "C", "categoryCode": "23", "address": "5809 FIELDON ROAD", "city": "MISSISSAUGA", "province": "ON", "country": "CA", "postalCode": "L5M5K1", "twitter": "None", "instagram": "None", "facebook": "None", "youtube": "None", "website": "None", "summary": "None", "logo": "None", "latitude": 43.57135354567477, "longitude": -79.73210349610486}, "132960691RR0001": {"name": "THE CANADIAN FOUNDATION FOR PROFESSIONAL ADMINISTRATION, FONDATION CANADIENNE POUR L'ADMINISTRATION PROFESSIONNELLE", "designationCode": "C", "categoryCode": "21", "address": "202-300 MARCH RD.", "city": "KANATA", "province": "ON", "country": "CA", "postalCode": "K2K2E2", "twitter": "None", "instagram": "None", "facebook": "None", "youtube": "None", "website": "None", "summary": "None", "logo": "None", "latitude": 45.33503610998849, "longitude": -75.90681120572502}, "128877677RR0001": {"name": "THE CANADIAN FOUNDATION FOR THE ADVANCEMENT OF ORTHODONTICS", "designationCode": "A", "categoryCode": "13", "address": "2175 SHEPPARD AVE E           SUITE 310", "city": "NORTH YORK", "province": "ON", "country": "CA", "postalCode": "M2J1W8", "twitter": "None", "instagram": "None", "facebook": "None", "youtube": "None", "website": "None", "summary": "None", "logo": "None", "latitude": 43.77428715070117, "longitude": -79.33141706073665}, "890004591RR0001": {"name": "THE CANADIAN FOUNDATION FOR THE CHILDREN OF HAITI", "designationCode": "C", "categoryCode": "09", "address": "6093-145A STREET", "city": "SURREY", "province": "BC", "country": "CA", "postalCode": "V3S4R6", "twitter": "None", "instagram": "None", "facebook": "None", "youtube": "None", "website": "None", "summary": "None", "logo": "None", "latitude": 49.113684922009355, "longitude": -122.81965293173286}, "886884089RR0001": {"name": "THE CANADIAN FOUNDATION FOR WOMEN'S HEALTH", "designationCode": "C", "categoryCode": "21", "address": "200 - 2781 LANCASTER RD", "city": "OTTAWA", "province": "ON", "country": "CA", "postalCode": "K1B1A7", "twitter": "None", "instagram": "None", "facebook": "None", "youtube": "None", "website": "None", "summary": "None", "logo": "None", "latitude": 45.39466753707643, "longitude": -75.6050298228409}}