{"892404088RR0001": {"name": "BASES DE PLEIN AIR DES SCOUTS DU MONTR\u00c9AL M\u00c9TROPOLITAIN", "designationCode": "C", "categoryCode": "56", "address": "101 - 1215 BOUL SAINT-JOSEPH E", "city": "MONTREAL", "province": "QC", "country": "CA", "postalCode": "H2J1L7", "twitter": "None", "instagram": "None", "facebook": "None", "youtube": "None", "website": "None", "summary": "None", "logo": "None", "latitude": 45.53132509947534, "longitude": -73.58327109424187}, "858667710RR0001": {"name": "BASHAW & DISTRICT FOOD BANK", "designationCode": "C", "categoryCode": "09", "address": "P.O. BOX 568                  4915 50TH STREET", "city": "BASHAW", "province": "AB", "country": "CA", "postalCode": "T0B0H0", "twitter": "None", "instagram": "None", "facebook": "None", "youtube": "None", "website": "None", "summary": "None", "logo": "None", "latitude": 52.58301358782976, "longitude": -112.97193319605881}, "898918537RR0001": {"name": "BASHAW & DISTRICT SUPPORT SERVICES ASSOCIATION", "designationCode": "C", "categoryCode": "03", "address": "4915 - 50 STREET              P. O. BOX 568", "city": "BASHAW", "province": "AB", "country": "CA", "postalCode": "T0B0H0", "twitter": "None", "instagram": "None", "facebook": "None", "youtube": "None", "website": "None", "summary": "None", "logo": "None", "latitude": 52.58301358782976, "longitude": -112.97193319605881}, "871591632RR0001": {"name": "BASHAW BUS SOCIETY", "designationCode": "C", "categoryCode": "09", "address": "BAG 2000", "city": "BASHAW", "province": "AB", "country": "CA", "postalCode": "T0B0H0", "twitter": "None", "instagram": "None", "facebook": "None", "youtube": "None", "website": "None", "summary": "None", "logo": "None", "latitude": 52.58377500000006, "longitude": -112.97088349999993}, "118799931RR0001": {"name": "BASHAW UNITED CHURCH", "designationCode": "C", "categoryCode": "44", "address": "BOX 457", "city": "BASHAW", "province": "AB", "country": "CA", "postalCode": "T0B0H0", "twitter": "None", "instagram": "None", "facebook": "None", "youtube": "None", "website": "None", "summary": "None", "logo": "None", "latitude": 52.58378000000005, "longitude": -112.97087999999997}, "892687807RR0001": {"name": "BASHAW YOUTH DROP-IN FOUNDATION", "designationCode": "C", "categoryCode": "09", "address": "P.O. BOX 255", "city": "BASHAW", "province": "AB", "country": "CA", "postalCode": "T0B0H0", "twitter": "None", "instagram": "None", "facebook": "None", "youtube": "None", "website": "None", "summary": "None", "logo": "None", "latitude": 52.58378000000005, "longitude": -112.97087999999997}, "892912668RR0001": {"name": "BASIC CHRISTIAN COMMUNITY ASSOCIATION", "designationCode": "C", "categoryCode": "47", "address": "2371 ARBOT RD", "city": "NANAIMO", "province": "BC", "country": "CA", "postalCode": "V9R6S9", "twitter": "None", "instagram": "None", "facebook": "None", "youtube": "None", "website": "None", "summary": "None", "logo": "None", "latitude": 49.16670441532496, "longitude": -124.0082229036585}, "876115908RR0001": {"name": "BASIC HEALTH INTERNATIONAL FOUNDATION (BHIF)", "designationCode": "B", "categoryCode": "02", "address": "BOX 1198", "city": "COCHRANE", "province": "AB", "country": "CA", "postalCode": "T4C1B2", "twitter": "None", "instagram": "None", "facebook": "None", "youtube": "None", "website": "None", "summary": "None", "logo": "None", "latitude": 51.19089900000006, "longitude": -114.46804249999994}, "870344157RR0001": {"name": "BASIC LIFE PRINCIPLES INTERNATIONAL", "designationCode": "C", "categoryCode": "47", "address": "45 COMMERCIAL ROAD", "city": "BOLTON", "province": "ON", "country": "CA", "postalCode": "L7E1R6", "twitter": "None", "instagram": "None", "facebook": "None", "youtube": "None", "website": "None", "summary": "None", "logo": "None", "latitude": 43.86123437748844, "longitude": -79.70634438242277}, "865288476RR0001": {"name": "BASICALLY BABIES LTD.", "designationCode": "C", "categoryCode": "09", "address": "14839 118 AVE NW", "city": "EDMONTON", "province": "AB", "country": "CA", "postalCode": "T5L2M7", "twitter": "None", "instagram": "None", "facebook": "None", "youtube": "None", "website": "None", "summary": "None", "logo": "None", "latitude": 53.57030683261344, "longitude": -113.57600380985988}, "752991695RR0001": {"name": "BASICS OF SIKHI SOCIETY", "designationCode": "C", "categoryCode": "62", "address": "200 - 7404 KING GEORGE BLVD", "city": "SURREY", "province": "BC", "country": "CA", "postalCode": "V3W1N6", "twitter": "None", "instagram": "None", "facebook": "None", "youtube": "None", "website": "None", "summary": "None", "logo": "None", "latitude": 49.13762400000002, "longitude": -122.8455095205149}, "118799956RR0001": {"name": "BASILIAN FATHERS MONASTERY", "designationCode": "C", "categoryCode": "46", "address": "BOX 379", "city": "MUNDARE", "province": "AB", "country": "CA", "postalCode": "T0B3H0", "twitter": "None", "instagram": "None", "facebook": "None", "youtube": "None", "website": "None", "summary": "None", "logo": "None", "latitude": 53.594760000000065, "longitude": -112.33641999999998}, "118799972RR0001": {"name": "BASILIAN FATHERS MONASTERY", "designationCode": "C", "categoryCode": "46", "address": "7007 109 ST NW", "city": "EDMONTON", "province": "AB", "country": "CA", "postalCode": "T6H3B9", "twitter": "None", "instagram": "None", "facebook": "None", "youtube": "None", "website": "None", "summary": "None", "logo": "None", "latitude": 53.507033528449426, "longitude": -113.51198628008034}, "131963563RR0001": {"name": "BASILIAN FATHERS MONASTERY", "designationCode": "C", "categoryCode": "46", "address": "5705-51 ST", "city": "VEGREVILLE", "province": "AB", "country": "CA", "postalCode": "T9C1H8", "twitter": "None", "instagram": "None", "facebook": "None", "youtube": "None", "website": "None", "summary": "None", "logo": "None", "latitude": 53.50093267055226, "longitude": -112.05116628902445}, "118800069RR0001": {"name": "BASILIAN FATHERS OF THE UNIVERSITY OF ST. MICHAEL'S COLLEGE", "designationCode": "C", "categoryCode": "46", "address": "81 ST MARY ST", "city": "TORONTO", "province": "ON", "country": "CA", "postalCode": "M5S1J4", "twitter": "None", "instagram": "None", "facebook": "None", "youtube": "None", "website": "None", "summary": "None", "logo": "None", "latitude": 43.66710080094103, "longitude": -79.38988605118602}, "871522991RR0001": {"name": "BASILICA FOUNDATION, INC", "designationCode": "A", "categoryCode": "43", "address": "PO BOX 23168 RPO CHURCHILL SQ.", "city": "ST. JOHN'S", "province": "NL", "country": "CA", "postalCode": "A1B4J9", "twitter": "None", "instagram": "None", "facebook": "None", "youtube": "None", "website": "None", "summary": "None", "logo": "None", "latitude": 47.57470538694076, "longitude": -52.7226658486743}, "107910176RR0019": {"name": "BASILICA PARISH OF ST. JOHN THE BAPTIST", "designationCode": "C", "categoryCode": "38", "address": "PO BOX 1363 STN C", "city": "ST. JOHN'S", "province": "NL", "country": "CA", "postalCode": "A1C5N5", "twitter": "None", "instagram": "None", "facebook": "None", "youtube": "None", "website": "None", "summary": "None", "logo": "None", "latitude": 47.56082100000006, "longitude": -52.71219349999993}, "892869165RR0001": {"name": "BASILIQUE SAINTE-ANNE-DE-BEAUPRE", "designationCode": "C", "categoryCode": "38", "address": "10018,RUE ROYALE", "city": "SAINTE-ANNE-DE-BEAUPRE", "province": "QC", "country": "CA", "postalCode": "G0A3C0", "twitter": "None", "instagram": "None", "facebook": "None", "youtube": "None", "website": "None", "summary": "None", "logo": "None", "latitude": 47.025011014946315, "longitude": -70.92776782093631}, "891721573RR0001": {"name": "BASIN RIVER INHABITANTS HISTORICAL SOCIETY", "designationCode": "C", "categoryCode": "50", "address": "1668 WHITESIDE ROAD           POST OFFICE BOX 31", "city": "CLEVELAND", "province": "NS", "country": "CA", "postalCode": "B0E1J0", "twitter": "None", "instagram": "None", "facebook": "None", "youtube": "None", "website": "None", "summary": "None", "logo": "None", "latitude": 45.603639630561645, "longitude": -61.187755253130526}, "119288918RR1292": {"name": "BASS LAKE CONGREGATION OF JEHOVAH'S WITNESSES, ORILLIA, ONTARIO", "designationCode": "C", "categoryCode": "61", "address": "57 FITTONS RD E", "city": "ORILLIA", "province": "ON", "country": "CA", "postalCode": "L3V2J2", "twitter": "None", "instagram": "None", "facebook": "None", "youtube": "None", "website": "None", "summary": "None", "logo": "None", "latitude": 44.625175671448744, "longitude": -79.42501468452885}, "118800143RR0001": {"name": "BASS RIVER BAPTIST CHURCH", "designationCode": "C", "categoryCode": "31", "address": "5847 HWY                      RR1", "city": "BASS RIVER", "province": "NS", "country": "CA", "postalCode": "B0M1B0", "twitter": "None", "instagram": "None", "facebook": "None", "youtube": "None", "website": "None", "summary": "None", "logo": "None", "latitude": 45.414330000000064, "longitude": -63.78035999999997}, "869203133RR0001": {"name": "BASS RIVER HERITAGE SOCIETY", "designationCode": "C", "categoryCode": "50", "address": "98 PARK ST", "city": "TRURO", "province": "NS", "country": "CA", "postalCode": "B2N3J3", "twitter": "None", "instagram": "None", "facebook": "None", "youtube": "None", "website": "None", "summary": "None", "logo": "None", "latitude": 45.368627374689815, "longitude": -63.285188300046045}, "894393784RR0001": {"name": "BASSANO AGRICULTURAL SOCIETY", "designationCode": "C", "categoryCode": "56", "address": "P.O. BOX 597", "city": "BASSANO", "province": "AB", "country": "CA", "postalCode": "T0J0B0", "twitter": "None", "instagram": "None", "facebook": "None", "youtube": "None", "website": "None", "summary": "None", "logo": "None", "latitude": 50.783420000000035, "longitude": -112.46853999999996}, "890033996RR0001": {"name": "BASSANO AND DISTRICT HEALTH FOUNDATION", "designationCode": "C", "categoryCode": "15", "address": "608 5 AVENUE", "city": "BASSANO", "province": "AB", "country": "CA", "postalCode": "T0J0B0", "twitter": "None", "instagram": "None", "facebook": "None", "youtube": "None", "website": "None", "summary": "None", "logo": "None", "latitude": 50.78947229340961, "longitude": -112.46213591199738}, "886197599RR0001": {"name": "BASSANO PLAY GROUP SOCIETY", "designationCode": "C", "categoryCode": "01", "address": "P. O. BOX 175", "city": "BASSANO", "province": "AB", "country": "CA", "postalCode": "T0J0B0", "twitter": "None", "instagram": "None", "facebook": "None", "youtube": "None", "website": "None", "summary": "None", "logo": "None", "latitude": 50.783420000000035, "longitude": -112.46853999999996}, "857181135RR0001": {"name": "BASSET HOUND RESCUE OF ONTARIO", "designationCode": "C", "categoryCode": "54", "address": "160 FIRST AVE", "city": "TORONTO", "province": "ON", "country": "CA", "postalCode": "M4M1X1", "twitter": "None", "instagram": "None", "facebook": "None", "youtube": "None", "website": "None", "summary": "None", "logo": "None", "latitude": 43.66591916515655, "longitude": -79.34637768096827}, "898886940RR0001": {"name": "BASSIN VERSANT SAINT-MAURICE (BVSM)", "designationCode": "C", "categoryCode": "52", "address": "1395 CH PRINCIPAL", "city": "SHAWINIGAN", "province": "QC", "country": "CA", "postalCode": "G9R1E5", "twitter": "None", "instagram": "None", "facebook": "None", "youtube": "None", "website": "None", "summary": "None", "logo": "None", "latitude": 46.602013200675124, "longitude": -72.81345534670174}, "890095177RR0001": {"name": "BASTARD & SOUTH BURGESS HERITAGE SOCIETY", "designationCode": "C", "categoryCode": "52", "address": "RR1", "city": "PORTLAND", "province": "ON", "country": "CA", "postalCode": "K0G1V0", "twitter": "None", "instagram": "None", "facebook": "None", "youtube": "None", "website": "None", "summary": "None", "logo": "None", "latitude": 44.660028778519745, "longitude": -76.17629154423646}, "898151907RR0001": {"name": "BASTIDE DES A\u00ceN\u00c9S", "designationCode": "C", "categoryCode": "09", "address": "6916 BOUL. T\u00c9MISCAMINGUE", "city": "ROUYN-NORANDA", "province": "QC", "country": "CA", "postalCode": "J9Y0K8", "twitter": "None", "instagram": "None", "facebook": "None", "youtube": "None", "website": "None", "summary": "None", "logo": "None", "latitude": 48.110022555369625, "longitude": -79.15095466365507}, "134662519RR0001": {"name": "BATAY REENA", "designationCode": "A", "categoryCode": "03", "address": "927 CLARK AVE W.", "city": "THORNHILL", "province": "ON", "country": "CA", "postalCode": "L4J8G6", "twitter": "None", "instagram": "None", "facebook": "None", "youtube": "None", "website": "None", "summary": "None", "logo": "None", "latitude": 43.80245980483617, "longitude": -79.45339757380705}, "119288918RR1162": {"name": "BATCHELOR HILLS CONGREGATION OF JEHOVAH'S WITNESSES", "designationCode": "C", "categoryCode": "61", "address": "910 NORVIEW ROAD", "city": "KAMLOOPS", "province": "BC", "country": "CA", "postalCode": "V2B8L8", "twitter": "None", "instagram": "None", "facebook": "None", "youtube": "None", "website": "None", "summary": "None", "logo": "None", "latitude": 50.71857247489748, "longitude": -120.3639462814357}, "118800192RR0001": {"name": "BATH BAPTIST CHURCH", "designationCode": "C", "categoryCode": "31", "address": "15 MCELROY ROAD", "city": "BEECHWOOD", "province": "NB", "country": "CA", "postalCode": "E7J1Y8", "twitter": "None", "instagram": "None", "facebook": "None", "youtube": "None", "website": "None", "summary": "None", "logo": "None", "latitude": 46.526530881499156, "longitude": -67.61455202807404}, "107409765RR0001": {"name": "BATH ROAD BAPTIST CHURCH", "designationCode": "C", "categoryCode": "31", "address": "193 BATH ROAD", "city": "KINGSTON", "province": "ON", "country": "CA", "postalCode": "K7M2X6", "twitter": "None", "instagram": "None", "facebook": "None", "youtube": "None", "website": "None", "summary": "None", "logo": "None", "latitude": 44.240339438830674, "longitude": -76.52110574868713}, "118800200RR0001": {"name": "BATH UNITED CHURCH", "designationCode": "C", "categoryCode": "44", "address": "129 MAIN ST. RR#3", "city": "BATH", "province": "ON", "country": "CA", "postalCode": "K0H1G0", "twitter": "None", "instagram": "None", "facebook": "None", "youtube": "None", "website": "None", "summary": "None", "logo": "None", "latitude": 44.18405049120011, "longitude": -76.76031485221301}, "890458979RR0001": {"name": "BATHURST HERITAGE TRUST COMMISSION INC", "designationCode": "C", "categoryCode": "50", "address": "360 DOUGLAS AVE", "city": "BATHURST", "province": "NB", "country": "CA", "postalCode": "E2A4S6", "twitter": "None", "instagram": "None", "facebook": "None", "youtube": "None", "website": "None", "summary": "None", "logo": "None", "latitude": 47.61808917645437, "longitude": -65.65593676458725}, "118800234RR0001": {"name": "BATHURST MUSIC FESTIVAL", "designationCode": "C", "categoryCode": "22", "address": "900 WESTMOUNT CT.", "city": "BATHURST", "province": "NB", "country": "CA", "postalCode": "E2A4V9", "twitter": "None", "instagram": "None", "facebook": "None", "youtube": "None", "website": "None", "summary": "None", "logo": "None", "latitude": 47.64563007908718, "longitude": -65.69208960159263}, "106775729RR0001": {"name": "BATHURST PASTORAL CHARGE", "designationCode": "C", "categoryCode": "44", "address": "364 CAMERON SIDE ROAD         RR#7", "city": "PERTH", "province": "ON", "country": "CA", "postalCode": "K7H3C9", "twitter": "None", "instagram": "None", "facebook": "None", "youtube": "None", "website": "None", "summary": "None", "logo": "None", "latitude": 44.85344789621432, "longitude": -76.37552279375632}, "107388050RR0001": {"name": "BATHURST PASTORAL CHARGE", "designationCode": "C", "categoryCode": "44", "address": "309 ST PATRICK STREET", "city": "BATHURST", "province": "NB", "country": "CA", "postalCode": "E2A1E2", "twitter": "None", "instagram": "None", "facebook": "None", "youtube": "None", "website": "None", "summary": "None", "logo": "None", "latitude": 47.617499271192614, "longitude": -65.64878571899698}, "106775778RR0001": {"name": "BATHURST STREET UNITED CHURCH", "designationCode": "C", "categoryCode": "44", "address": "427 BLOOR ST W                PO BOX 4", "city": "TORONTO", "province": "ON", "country": "CA", "postalCode": "M5S1X7", "twitter": "None", "instagram": "None", "facebook": "None", "youtube": "None", "website": "None", "summary": "None", "logo": "None", "latitude": 43.66625081652159, "longitude": -79.40573662155927}, "870087483RR0001": {"name": "BATHURST YOUTH CENTRE DES JEUNES INC.", "designationCode": "C", "categoryCode": "09", "address": "895 ST ANNE STREET            PO BOX 42", "city": "BATHURST", "province": "NB", "country": "CA", "postalCode": "E2A3Z1", "twitter": "None", "instagram": "None", "facebook": "None", "youtube": "None", "website": "None", "summary": "None", "logo": "None", "latitude": 47.62686856059243, "longitude": -65.68167914917197}, "118800283RR0001": {"name": "BATTERSEA UNITED CHURCH", "designationCode": "C", "categoryCode": "44", "address": "2217 WELLINGTON ST", "city": "BATTERSEA", "province": "ON", "country": "CA", "postalCode": "K0H1H0", "twitter": "None", "instagram": "None", "facebook": "None", "youtube": "None", "website": "None", "summary": "None", "logo": "None", "latitude": 44.43169847013696, "longitude": -76.38148294463038}, "888370731RR0001": {"name": "BATTERY OPERA PERFORMING ARTS SOCIETY", "designationCode": "C", "categoryCode": "23", "address": "703-1088 QUEBEC ST", "city": "VANCOUVER", "province": "BC", "country": "CA", "postalCode": "V6A4H2", "twitter": "None", "instagram": "None", "facebook": "None", "youtube": "None", "website": "None", "summary": "None", "logo": "None", "latitude": 49.27517403802871, "longitude": -123.1018627680482}, "877620427RR0001": {"name": "BATTLE HARBOUR ASSISTED LIVING CORPORATION", "designationCode": "C", "categoryCode": "09", "address": "PO BOX 153", "city": "MARYS HARBOUR", "province": "NL", "country": "CA", "postalCode": "A0K3P0", "twitter": "None", "instagram": "None", "facebook": "None", "youtube": "None", "website": "None", "summary": "None", "logo": "None", "latitude": 52.305150000000026, "longitude": -55.83598999999998}, "131701492RR0001": {"name": "BATTLE HARBOUR HISTORIC TRUST INC", "designationCode": "C", "categoryCode": "52", "address": "200 - 53 BOND ST              PO BOX 8505", "city": "ST. JOHN'S", "province": "NL", "country": "CA", "postalCode": "A1B3N9", "twitter": "None", "instagram": "None", "facebook": "None", "youtube": "None", "website": "None", "summary": "None", "logo": "None", "latitude": 47.56938900000006, "longitude": -52.78609699999993}, "808803472RR0001": {"name": "BATTLE LAKE COMMUNITY BAPTIST CHURCH SOCIETY", "designationCode": "C", "categoryCode": "31", "address": "BOX 20 SITE 12 RR 1", "city": "WESTEROSE", "province": "AB", "country": "CA", "postalCode": "T0C2V0", "twitter": "None", "instagram": "None", "facebook": "None", "youtube": "None", "website": "None", "summary": "None", "logo": "None", "latitude": 52.96148700000006, "longitude": -114.02746099999993}, "889032264RR0001": {"name": "BATTLE OF BRITAIN MEMORIAL FUND", "designationCode": "C", "categoryCode": "51", "address": "1998 OGDEN AVENUE", "city": "VANCOUVER", "province": "BC", "country": "CA", "postalCode": "V6J1A2", "twitter": "None", "instagram": "None", "facebook": "None", "youtube": "None", "website": "None", "summary": "None", "logo": "None", "latitude": 49.2771148200841, "longitude": -123.14993123814614}, "892118688RR0001": {"name": "BATTLE RIVER COMMUNITY FOUNDATION", "designationCode": "A", "categoryCode": "53", "address": "P.O. BOX 1122", "city": "CAMROSE", "province": "AB", "country": "CA", "postalCode": "T4V4E7", "twitter": "None", "instagram": "None", "facebook": "None", "youtube": "None", "website": "None", "summary": "None", "logo": "None", "latitude": 53.02423500000006, "longitude": -112.82978149999994}, "106776230RR0001": {"name": "BATTLE RIVER FOUNDATION", "designationCode": "C", "categoryCode": "01", "address": "429-5 AVE", "city": "WAINWRIGHT", "province": "AB", "country": "CA", "postalCode": "T9W2R1", "twitter": "None", "instagram": "None", "facebook": "None", "youtube": "None", "website": "None", "summary": "None", "logo": "None", "latitude": 52.84015921633362, "longitude": -110.8686294778801}, "118800473RR0001": {"name": "BATTLE RIVER HISTORICAL SOCIETY", "designationCode": "C", "categoryCode": "50", "address": "PO BOX 2994", "city": "WAINWRIGHT", "province": "AB", "country": "CA", "postalCode": "T9W1S9", "twitter": "None", "instagram": "None", "facebook": "None", "youtube": "None", "website": "None", "summary": "None", "logo": "None", "latitude": 52.84339800000005, "longitude": -110.85204049999993}, "886317791RR0001": {"name": "BATTLE RIVER LUTHERAN CHURCH", "designationCode": "C", "categoryCode": "32", "address": "BOX 369", "city": "MAIDSTONE", "province": "SK", "country": "CA", "postalCode": "S0M1M0", "twitter": "None", "instagram": "None", "facebook": "None", "youtube": "None", "website": "None", "summary": "None", "logo": "None", "latitude": 53.087690000000066, "longitude": -109.29660999999999}, "118800481RR0001": {"name": "BATTLE RIVER PIONEER MUSEUM ASSOCIATION", "designationCode": "C", "categoryCode": "50", "address": "BOX 574", "city": "MANNING", "province": "AB", "country": "CA", "postalCode": "T0H2M0", "twitter": "None", "instagram": "None", "facebook": "None", "youtube": "None", "website": "None", "summary": "None", "logo": "None", "latitude": 56.92804794843537, "longitude": -117.62848367126821}, "139825228RR0001": {"name": "BATTLE RIVER REGIONAL DIVISION NO 31", "designationCode": "C", "categoryCode": "20", "address": "5402 48A AVE", "city": "CAMROSE", "province": "AB", "country": "CA", "postalCode": "T4V0L3", "twitter": "None", "instagram": "None", "facebook": "None", "youtube": "None", "website": "None", "summary": "None", "logo": "None", "latitude": 53.0196955037509, "longitude": -112.83445277699232}, "898259072RR0001": {"name": "BATTLE RIVER VICTIM ASSISTANCE SOCIETY", "designationCode": "C", "categoryCode": "59", "address": "826 3RD AVE", "city": "WAINWRIGHT", "province": "AB", "country": "CA", "postalCode": "T9W1C5", "twitter": "None", "instagram": "None", "facebook": "None", "youtube": "None", "website": "None", "summary": "None", "logo": "None", "latitude": 52.835959905216285, "longitude": -110.86386620727602}, "118932433RR0001": {"name": "BATTLEFIELD HOUSE HISTORICAL SOCIETY", "designationCode": "C", "categoryCode": "52", "address": "PO BOX 66561", "city": "STONEY CREEK", "province": "ON", "country": "CA", "postalCode": "L8G5E5", "twitter": "None", "instagram": "None", "facebook": "None", "youtube": "None", "website": "None", "summary": "None", "logo": "None", "latitude": 43.20879000000005, "longitude": -79.65669049999994}, "130514722RR0001": {"name": "BATTLEFORD EARLY CHILDHOOD INTERVENTION PROGRAM INC", "designationCode": "C", "categoryCode": "09", "address": "BOX 1297", "city": "NORTH BATTLEFORD", "province": "SK", "country": "CA", "postalCode": "S9A3L8", "twitter": "None", "instagram": "None", "facebook": "None", "youtube": "None", "website": "None", "summary": "None", "logo": "None", "latitude": 52.77640200000006, "longitude": -108.29903299999994}, "118800325RR0001": {"name": "BATTLEFORD PASTORAL CHARGE", "designationCode": "C", "categoryCode": "44", "address": "PO BOX 418", "city": "BATTLEFORD", "province": "SK", "country": "CA", "postalCode": "S0M0E0", "twitter": "None", "instagram": "None", "facebook": "None", "youtube": "None", "website": "None", "summary": "None", "logo": "None", "latitude": 52.736037700209145, "longitude": -108.26411792034625}, "840453153RR0001": {"name": "BATTLEFORDS AGRICULTURAL SOCIETY INC.", "designationCode": "C", "categoryCode": "56", "address": "BOX 668", "city": "NORTH BATTLEFORD", "province": "SK", "country": "CA", "postalCode": "S9A2Y9", "twitter": "None", "instagram": "None", "facebook": "None", "youtube": "None", "website": "None", "summary": "None", "logo": "None", "latitude": 52.77640200000006, "longitude": -108.29903299999994}, "827628272RR0001": {"name": "BATTLEFORDS AND DISTRICT COMMUNITY FOUNDATION INC.", "designationCode": "A", "categoryCode": "03", "address": "P.O. BOX 1302", "city": "NORTH BATTLEFORD", "province": "SK", "country": "CA", "postalCode": "S9A3L8", "twitter": "None", "instagram": "None", "facebook": "None", "youtube": "None", "website": "None", "summary": "None", "logo": "None", "latitude": 52.77640200000006, "longitude": -108.29903299999994}, "890565864RR0001": {"name": "BATTLEFORDS BOYS AND GIRLS CLUB INCORPORATED", "designationCode": "C", "categoryCode": "09", "address": "1301 104TH ST", "city": "NORTH BATTLEFORD", "province": "SK", "country": "CA", "postalCode": "S9A1N9", "twitter": "None", "instagram": "None", "facebook": "None", "youtube": "None", "website": "None", "summary": "None", "logo": "None", "latitude": 52.77681874854292, "longitude": -108.29313791274717}, "118800390RR0001": {"name": "BATTLEFORDS COMMUNITY PLAYERS", "designationCode": "C", "categoryCode": "22", "address": "BOX 1445", "city": "NORTH BATTLEFORD", "province": "SK", "country": "CA", "postalCode": "S9A3M1", "twitter": "None", "instagram": "None", "facebook": "None", "youtube": "None", "website": "None", "summary": "None", "logo": "None", "latitude": 52.77640200000006, "longitude": -108.29903299999994}, "886943497RR0001": {"name": "BATTLEFORDS CONCERN FOR YOUTH INC.", "designationCode": "C", "categoryCode": "09", "address": "BOX 10002", "city": "NORTH BATTLEFORD", "province": "SK", "country": "CA", "postalCode": "S9A3G8", "twitter": "None", "instagram": "None", "facebook": "None", "youtube": "None", "website": "None", "summary": "None", "logo": "None", "latitude": 52.76098500000006, "longitude": -108.27663649999994}, "875978819RR0001": {"name": "BATTLEFORDS FOOD BANK INC.", "designationCode": "C", "categoryCode": "09", "address": "960-103RD STREET", "city": "NORTH BATTLEFORD", "province": "SK", "country": "CA", "postalCode": "S9A1K2", "twitter": "None", "instagram": "None", "facebook": "None", "youtube": "None", "website": "None", "summary": "None", "logo": "None", "latitude": 52.770842717179306, "longitude": -108.29461760167955}, "891433591RR0001": {"name": "BATTLEFORDS NORTH WEST HISTORICAL SOCIETY INC", "designationCode": "C", "categoryCode": "52", "address": "BOX 2065", "city": "BATTLEFORD", "province": "SK", "country": "CA", "postalCode": "S0M0E0", "twitter": "None", "instagram": "None", "facebook": "None", "youtube": "None", "website": "None", "summary": "None", "logo": "None", "latitude": 52.736037700209145, "longitude": -108.26411792034625}, "106776131RR0001": {"name": "BATTLEFORDS RESIDENTIAL SERVICES INC.", "designationCode": "C", "categoryCode": "59", "address": "PO BOX 751", "city": "NORTH BATTLEFORD", "province": "SK", "country": "CA", "postalCode": "S9A2Y9", "twitter": "None", "instagram": "None", "facebook": "None", "youtube": "None", "website": "None", "summary": "None", "logo": "None", "latitude": 52.77640200000006, "longitude": -108.29903299999994}, "106776149RR0001": {"name": "BATTLEFORDS RIGHT TO LIFE CORPORATION", "designationCode": "C", "categoryCode": "09", "address": "PO BOX 282", "city": "NORTH BATTLEFORD", "province": "SK", "country": "CA", "postalCode": "S9A2Y3", "twitter": "None", "instagram": "None", "facebook": "None", "youtube": "None", "website": "None", "summary": "None", "logo": "None", "latitude": 52.77640200000006, "longitude": -108.29903299999994}, "897703138RR0001": {"name": "BATTLEFORDS SOCIETY FOR AUTISM, INC.", "designationCode": "C", "categoryCode": "01", "address": "1462-95TH STREET", "city": "NORTH BATTLEFORD", "province": "SK", "country": "CA", "postalCode": "S9A0G6", "twitter": "None", "instagram": "None", "facebook": "None", "youtube": "None", "website": "None", "summary": "None", "logo": "None", "latitude": 52.779076826533554, "longitude": -108.30634661278805}, "119215226RR0001": {"name": "BATTLEFORDS TRADE & EDUCATION CENTRE INC", "designationCode": "C", "categoryCode": "01", "address": "801 105TH ST", "city": "NORTH BATTLEFORD", "province": "SK", "country": "CA", "postalCode": "S9A1R3", "twitter": "None", "instagram": "None", "facebook": "None", "youtube": "None", "website": "None", "summary": "None", "logo": "None", "latitude": 52.76883207057797, "longitude": -108.29178590986609}, "139363626RR0001": {"name": "BATTLEFORDS UNION HOSPITAL FOUNDATION INC", "designationCode": "A", "categoryCode": "13", "address": "BOX 1358", "city": "NORTH BATTLEFORD", "province": "SK", "country": "CA", "postalCode": "S9A3L8", "twitter": "None", "instagram": "None", "facebook": "None", "youtube": "None", "website": "None", "summary": "None", "logo": "None", "latitude": 52.77640200000006, "longitude": -108.29903299999994}, "118800432RR0001": {"name": "BATTLEFORDS UNITED WAY INC.", "designationCode": "C", "categoryCode": "03", "address": "PO BOX 904", "city": "NORTH BATTLEFORD", "province": "SK", "country": "CA", "postalCode": "S9A2Z3", "twitter": "None", "instagram": "None", "facebook": "None", "youtube": "None", "website": "None", "summary": "None", "logo": "None", "latitude": 52.77640200000006, "longitude": -108.29903299999994}, "138620521RR0001": {"name": "BATTLEFORDS VICTIM SERVICES INC.", "designationCode": "C", "categoryCode": "59", "address": "1052 - 101ST STREET", "city": "NORTH BATTLEFORD", "province": "SK", "country": "CA", "postalCode": "S9A0Z3", "twitter": "None", "instagram": "None", "facebook": "None", "youtube": "None", "website": "None", "summary": "None", "logo": "None", "latitude": 52.77276900000001, "longitude": -108.29752758725282}, "106776164RR0001": {"name": "BATTLEFORDS WILDLIFE FEDERATION", "designationCode": "C", "categoryCode": "54", "address": "BOX 35", "city": "NORTH BATTLEFORD", "province": "SK", "country": "CA", "postalCode": "S9A2X6", "twitter": "None", "instagram": "None", "facebook": "None", "youtube": "None", "website": "None", "summary": "None", "logo": "None", "latitude": 52.77640200000006, "longitude": -108.29903299999994}, "118800358RR0001": {"name": "BATTLEFORDS' & AREA SEXUAL ASSAULT CENTRE INC.", "designationCode": "C", "categoryCode": "09", "address": "1211 - 98TH STREET", "city": "NORTH BATTLEFORD", "province": "SK", "country": "CA", "postalCode": "S9A0L8", "twitter": "None", "instagram": "None", "facebook": "None", "youtube": "None", "website": "None", "summary": "None", "logo": "None", "latitude": 52.7753067485429, "longitude": -108.30205541996052}, "888540440RR0001": {"name": "BAWA MUHAIYADDEEN FELLOWSHIP OF CANADA", "designationCode": "C", "categoryCode": "39", "address": "22 FALLINGBROOKE CT", "city": "THORNHILL", "province": "ON", "country": "CA", "postalCode": "L3T7A1", "twitter": "None", "instagram": "None", "facebook": "None", "youtube": "None", "website": "None", "summary": "None", "logo": "None", "latitude": 43.83161872271921, "longitude": -79.37926804414553}, "118800531RR0001": {"name": "BAWLF LUTHERAN CHURCH", "designationCode": "C", "categoryCode": "32", "address": "PO BOX 26", "city": "BAWLF", "province": "AB", "country": "CA", "postalCode": "T0B0J0", "twitter": "None", "instagram": "None", "facebook": "None", "youtube": "None", "website": "None", "summary": "None", "logo": "None", "latitude": 52.92010000000005, "longitude": -112.46667999999994}, "893209569RR0001": {"name": "BAWLF SENIOR CITIZENS SOCIETY", "designationCode": "C", "categoryCode": "56", "address": "RR#1", "city": "BAWLF", "province": "AB", "country": "CA", "postalCode": "T0B0J0", "twitter": "None", "instagram": "None", "facebook": "None", "youtube": "None", "website": "None", "summary": "None", "logo": "None", "latitude": 52.92010000000005, "longitude": -112.46667999999994}, "118800572RR0001": {"name": "BAXTER'S HARBOUR PENTECOSTAL HOLINESS CHURCH", "designationCode": "C", "categoryCode": "39", "address": "276 HERRING COVE RD           CITY CHURCH", "city": "HALIFAX", "province": "NS", "country": "CA", "postalCode": "B3P1M1", "twitter": "None", "instagram": "None", "facebook": "None", "youtube": "None", "website": "None", "summary": "None", "logo": "None", "latitude": 44.6173031729182, "longitude": -63.61452454088557}, "892936584RR0001": {"name": "BAY AREA RESTORATION COUNCIL OF HAMILTON AND HALTON INC.", "designationCode": "C", "categoryCode": "52", "address": "1280 MAIN ST W - LSB-B130F", "city": "HAMILTON", "province": "ON", "country": "CA", "postalCode": "L8S4K1", "twitter": "None", "instagram": "None", "facebook": "None", "youtube": "None", "website": "None", "summary": "None", "logo": "None", "latitude": 43.25797708006465, "longitude": -79.91932472220606}, "118951565RR0001": {"name": "BAY AREA SCIENCE AND ENGINEERING FAIR", "designationCode": "C", "categoryCode": "21", "address": "F175 - 135 FENNELL AVE W", "city": "HAMILTON", "province": "ON", "country": "CA", "postalCode": "L9C0E5", "twitter": "None", "instagram": "None", "facebook": "None", "youtube": "None", "website": "None", "summary": "None", "logo": "None", "latitude": 43.23945609683212, "longitude": -79.88503155150313}, "848819744RR0001": {"name": "BAY BULLS CEMETERY COMMITTEE", "designationCode": "C", "categoryCode": "39", "address": "P. O. BOX 16", "city": "BAY BULLS", "province": "NL", "country": "CA", "postalCode": "A0A1C0", "twitter": "None", "instagram": "None", "facebook": "None", "youtube": "None", "website": "None", "summary": "None", "logo": "None", "latitude": 47.31701000000004, "longitude": -52.81860999999998}, "131635948RR0001": {"name": "BAY CHALEUR MANOR INC", "designationCode": "C", "categoryCode": "01", "address": "149 RTE 340", "city": "JANEVILLE", "province": "NB", "country": "CA", "postalCode": "E2A5C5", "twitter": "None", "instagram": "None", "facebook": "None", "youtube": "None", "website": "None", "summary": "None", "logo": "None", "latitude": 47.688531172031986, "longitude": -65.4373101925574}, "881671960RR0001": {"name": "BAY CITY RAILWAY HISTORICAL FOUNDATION", "designationCode": "C", "categoryCode": "50", "address": "14 GUMWOOD PLACE", "city": "STONEY CREEK", "province": "ON", "country": "CA", "postalCode": "L8J2K8", "twitter": "None", "instagram": "None", "facebook": "None", "youtube": "None", "website": "None", "summary": "None", "logo": "None", "latitude": 43.20072017900637, "longitude": -79.80442043531089}, "136390762RR0001": {"name": "BAY COMMUNITY CHURCH", "designationCode": "C", "categoryCode": "39", "address": "1105 PRITCHARD RD", "city": "COMOX", "province": "BC", "country": "CA", "postalCode": "V9M3S8", "twitter": "None", "instagram": "None", "facebook": "None", "youtube": "None", "website": "None", "summary": "None", "logo": "None", "latitude": 49.70010734110451, "longitude": -124.91660544907377}, "860198464RR0001": {"name": "BAY OF FUNDY DISCOVERY CENTRE ASSOCIATION", "designationCode": "C", "categoryCode": "50", "address": "PO BOX 66                     15 LOVER'S LANE", "city": "FREEPORT", "province": "NS", "country": "CA", "postalCode": "B0V1B0", "twitter": "None", "instagram": "None", "facebook": "None", "youtube": "None", "website": "None", "summary": "None", "logo": "None", "latitude": 44.280481957239445, "longitude": -66.3198023802584}, "118800762RR0001": {"name": "BAY OF QUINTE BENEVOLENT CHARITABLE FUND", "designationCode": "A", "categoryCode": "65", "address": "30 HUBNER DR", "city": "RICHMOND HILL", "province": "ON", "country": "CA", "postalCode": "L4E4W7", "twitter": "None", "instagram": "None", "facebook": "None", "youtube": "None", "website": "None", "summary": "None", "logo": "None", "latitude": 43.93380439716663, "longitude": -79.47274163806347}, "135322907RR0001": {"name": "BAY OF QUINTE CONFERENCE OF THE UNITED CHURCH OF CANADA CHARITABLE TRUST", "designationCode": "A", "categoryCode": "45", "address": "25 HOLLOWAY ST", "city": "BELLEVILLE", "province": "ON", "country": "CA", "postalCode": "K8P1N8", "twitter": "None", "instagram": "None", "facebook": "None", "youtube": "None", "website": "None", "summary": "None", "logo": "None", "latitude": 44.16512913679407, "longitude": -77.39366976591248}, "118800788RR0001": {"name": "BAY PARK BAPTIST CHURCH", "designationCode": "C", "categoryCode": "31", "address": "775 PROGRESS AVE", "city": "KINGSTON", "province": "ON", "country": "CA", "postalCode": "K7M6R8", "twitter": "None", "instagram": "None", "facebook": "None", "youtube": "None", "website": "None", "summary": "None", "logo": "None", "latitude": 44.247478078510255, "longitude": -76.57765954720396}, "131896490RR0001": {"name": "BAY PARK BAPTIST CHURCH,", "designationCode": "C", "categoryCode": "31", "address": "1419 33RD ST. WEST", "city": "SASKATOON", "province": "SK", "country": "CA", "postalCode": "S7L0X1", "twitter": "None", "instagram": "None", "facebook": "None", "youtube": "None", "website": "None", "summary": "None", "logo": "None", "latitude": 52.143821488458826, "longitude": -106.69344244463038}, "119288918RR0260": {"name": "BAY RIDGES,ONTARIO, CONGREGATION OF JEHOVAH'S WITNESSES", "designationCode": "C", "categoryCode": "61", "address": "1687 PICKERING PKY", "city": "PICKERING", "province": "ON", "country": "CA", "postalCode": "L1V5L8", "twitter": "None", "instagram": "None", "facebook": "None", "youtube": "None", "website": "None", "summary": "None", "logo": "None", "latitude": 43.84253482070517, "longitude": -79.07382447596532}, "895042786RR0001": {"name": "BAY ROBERTS HERITAGE SOCIETY INC.", "designationCode": "C", "categoryCode": "50", "address": "PO BOX 760", "city": "BAY ROBERTS", "province": "NL", "country": "CA", "postalCode": "A0A1G0", "twitter": "None", "instagram": "None", "facebook": "None", "youtube": "None", "website": "None", "summary": "None", "logo": "None", "latitude": 47.58335663598053, "longitude": -53.28220018500299}, "106777014RR0001": {"name": "BAY ROBERTS PASTORAL CHARGE", "designationCode": "C", "categoryCode": "44", "address": "PO BOX 29", "city": "BAY ROBERTS", "province": "NL", "country": "CA", "postalCode": "A0A1G0", "twitter": "None", "instagram": "None", "facebook": "None", "youtube": "None", "website": "None", "summary": "None", "logo": "None", "latitude": 47.58335663598053, "longitude": -53.28220018500299}, "134330224RR0001": {"name": "BAY SHORE SENIOR CITIZENS ASSOCIATION", "designationCode": "C", "categoryCode": "09", "address": "2000 TINY BEACHES RD S", "city": "TINY", "province": "ON", "country": "CA", "postalCode": "L0L1P1", "twitter": "None", "instagram": "None", "facebook": "None", "youtube": "None", "website": "None", "summary": "None", "logo": "None", "latitude": 44.584454093831006, "longitude": -79.98915627090413}, "894439082RR0001": {"name": "BAY SIDE HOME VAN AUXILIARY", "designationCode": "C", "categoryCode": "09", "address": "P.O. 238", "city": "BARRINGTON", "province": "NS", "country": "CA", "postalCode": "B0W1E0", "twitter": "None", "instagram": "None", "facebook": "None", "youtube": "None", "website": "None", "summary": "None", "logo": "None", "latitude": 44.102259728595044, "longitude": -66.064694729178}, "895470938RR0001": {"name": "BAY ST GEORGE SICK CHILDREN'S FOUNDATION INC.", "designationCode": "C", "categoryCode": "19", "address": "PO BOX 492", "city": "STEPHENVILLE", "province": "NL", "country": "CA", "postalCode": "A2N3A3", "twitter": "None", "instagram": "None", "facebook": "None", "youtube": "None", "website": "None", "summary": "None", "logo": "None", "latitude": 48.549003000000056, "longitude": -58.57539199999994}, "889773487RR0001": {"name": "BAY ST GEORGE SOCIETY FOR THE PREVENTION OF CRUELTY TO ANIMALS", "designationCode": "C", "categoryCode": "54", "address": "P.O.BOX 222", "city": "STEPHENVILLE", "province": "NL", "country": "CA", "postalCode": "A2N2Z4", "twitter": "None", "instagram": "None", "facebook": "None", "youtube": "None", "website": "None", "summary": "None", "logo": "None", "latitude": 48.549003000000056, "longitude": -58.57539199999994}, "893769869RR0001": {"name": "BAY ST LAWRENCE VOLUNTEER FIRE DEPARTMENT", "designationCode": "C", "categoryCode": "59", "address": "BAY ST-LAWRENCE", "city": "BAY ST.LAWRENCE VICTORIA COUNT", "province": "NS", "country": "CA", "postalCode": "B0C1G0", "twitter": "None", "instagram": "None", "facebook": "None", "youtube": "None", "website": "None", "summary": "None", "logo": "None", "latitude": 46.993309955566026, "longitude": -60.46556991834532}, "865805246RR0001": {"name": "BAY ST. GEORGE LITERACY COUNCIL INC.", "designationCode": "C", "categoryCode": "21", "address": "PO BOX 458", "city": "ST GEORGES", "province": "NL", "country": "CA", "postalCode": "A0N1Z0", "twitter": "None", "instagram": "None", "facebook": "None", "youtube": "None", "website": "None", "summary": "None", "logo": "None", "latitude": 47.584008, "longitude": -59.174471249999996}, "895705416RR0001": {"name": "BAY ST. LAWRENCE COMMUNITY CENTRE", "designationCode": "C", "categoryCode": "56", "address": "3160 BAY ST.LAWRENCE RD.      PO BOX 60", "city": "ST.MARGARET VILLAGE", "province": "NS", "country": "CA", "postalCode": "B0C1R0", "twitter": "None", "instagram": "None", "facebook": "None", "youtube": "None", "website": "None", "summary": "None", "logo": "None", "latitude": 46.993299938080845, "longitude": -60.46557157432665}, "890620792RR0001": {"name": "BAY VIEW CEMETERY CO", "designationCode": "C", "categoryCode": "59", "address": "100 SEAMAN ST", "city": "MARGARETVILLE", "province": "NS", "country": "CA", "postalCode": "B0S1N0", "twitter": "None", "instagram": "None", "facebook": "None", "youtube": "None", "website": "None", "summary": "None", "logo": "None", "latitude": 45.047573430149235, "longitude": -65.05814797171475}, "889780516RR0001": {"name": "BAYANIHAN CULTURAL AND HOUSING SOCIETY", "designationCode": "C", "categoryCode": "56", "address": "1709 BLANSHARD STREET", "city": "VICTORIA", "province": "BC", "country": "CA", "postalCode": "V8W2J8", "twitter": "None", "instagram": "None", "facebook": "None", "youtube": "None", "website": "None", "summary": "None", "logo": "None", "latitude": 48.42967200360667, "longitude": -123.36183179944047}, "106776495RR0002": {"name": "BAYCREST CENTRE FOR GERIATRIC CARE", "designationCode": "C", "categoryCode": "03", "address": "3560 BATHURST STREET", "city": "TORONTO", "province": "ON", "country": "CA", "postalCode": "M6A2E1", "twitter": "None", "instagram": "None", "facebook": "None", "youtube": "None", "website": "None", "summary": "None", "logo": "None", "latitude": 43.730265584771324, "longitude": -79.43232918168847}}