{"825932601RR0001": {"name": "Fondation pour le developpement de l'orthop\u00e9die au Burundi (FDOB) / Foundation for the Development of Orthopedics in Burundi (FDOB)", "designationCode": "B", "categoryCode": "11", "address": "19, RUE DE L'\u00c9BOULIS", "city": "GATINEAU", "province": "QC", "country": "CA", "postalCode": "J8Z2V2", "twitter": "None", "instagram": "None", "facebook": "None", "youtube": "None", "website": "None", "summary": "None", "logo": "None", "latitude": 45.47555451875454, "longitude": -75.76869295224776}, "853332617RR0001": {"name": "Fondation pour les \u00e9l\u00e8ves de la Commission scolaire de la R\u00e9gion-de-Sherbrooke", "designationCode": "A", "categoryCode": "23", "address": "2955, BOUL. DE L'UNIVERSIT\u00c9", "city": "SHERBROOKE", "province": "QC", "country": "CA", "postalCode": "J1K2Y3", "twitter": "None", "instagram": "None", "facebook": "None", "youtube": "None", "website": "None", "summary": "None", "logo": "None", "latitude": 45.37969036246552, "longitude": -71.9451167385164}, "891010472RR0001": {"name": "Fondation pour les a\u00een\u00e9s et l'innovation sociale", "designationCode": "A", "categoryCode": "03", "address": "1 AVENUE DU SACRE-COEUR", "city": "QUEBEC", "province": "QC", "country": "CA", "postalCode": "G1N2W1", "twitter": "None", "instagram": "None", "facebook": "None", "youtube": "None", "website": "None", "summary": "None", "logo": "None", "latitude": 46.81227418068815, "longitude": -71.24531467548842}, "896540226RR0001": {"name": "Fondation pour les consommateurs", "designationCode": "C", "categoryCode": "09", "address": "411B - 7000 AV DU PARC", "city": "MONTREAL", "province": "QC", "country": "CA", "postalCode": "H3N1X1", "twitter": "None", "instagram": "None", "facebook": "None", "youtube": "None", "website": "None", "summary": "None", "logo": "None", "latitude": 45.52974575434264, "longitude": -73.62027633265039}, "135943397RR0001": {"name": "Fondation pr\u00e9vention suicide les Deux Rives", "designationCode": "A", "categoryCode": "03", "address": "492 RUE NIVERVILLE", "city": "TROIS-RIVIERES", "province": "QC", "country": "CA", "postalCode": "G9A2A2", "twitter": "None", "instagram": "None", "facebook": "None", "youtube": "None", "website": "None", "summary": "None", "logo": "None", "latitude": 46.34505504858895, "longitude": -72.54442373659768}, "833437684RR0001": {"name": "Fondation pro \u00e9tudes", "designationCode": "C", "categoryCode": "21", "address": "300-500 RUE DESJARDINS", "city": "MARIEVILLE", "province": "QC", "country": "CA", "postalCode": "J3M1E1", "twitter": "None", "instagram": "None", "facebook": "None", "youtube": "None", "website": "None", "summary": "None", "logo": "None", "latitude": 45.43386964279532, "longitude": -73.15048041191046}, "892057001RR0001": {"name": "Fondation prot\u00e9gez-vous", "designationCode": "C", "categoryCode": "21", "address": "2120, RUE SHERBROOKE EST      BUREAU 305", "city": "MONTR\u00c9AL", "province": "QC", "country": "CA", "postalCode": "H2K1C3", "twitter": "None", "instagram": "None", "facebook": "None", "youtube": "None", "website": "None", "summary": "None", "logo": "None", "latitude": 45.531030615038404, "longitude": -73.56290721922811}, "776868291RR0001": {"name": "Fondation qu\u00e9b\u00e9coise de la maladie d'Alzheimer et des maladies apparent\u00e9es", "designationCode": "C", "categoryCode": "11", "address": "166 RUE DE MUSSET", "city": "SAINT-JEAN-SUR-RICHELIEU", "province": "QC", "country": "CA", "postalCode": "J2W1S6", "twitter": "None", "instagram": "None", "facebook": "None", "youtube": "None", "website": "None", "summary": "None", "logo": "None", "latitude": 45.34952948124546, "longitude": -73.28203294310117}, "899267546RR0001": {"name": "Fondation qu\u00e9b\u00e9coise de la recherche sur l'environnement", "designationCode": "A", "categoryCode": "23", "address": "750 - 255 BOUL CREMAZIE E", "city": "MONTREAL", "province": "QC", "country": "CA", "postalCode": "H2M1L5", "twitter": "None", "instagram": "None", "facebook": "None", "youtube": "None", "website": "None", "summary": "None", "logo": "None", "latitude": 45.555082780141284, "longitude": -73.62114985816339}, "871084190RR0001": {"name": "Fondation qu\u00e9b\u00e9coise des V\u00e9t\u00e9rans/Quebec Veterans Foundation", "designationCode": "A", "categoryCode": "13", "address": "305 DES ANCIENS-COMBATTANTS", "city": "STE-ANNE-DE-BELLEVUE", "province": "QC", "country": "CA", "postalCode": "H9X1Y9", "twitter": "None", "instagram": "None", "facebook": "None", "youtube": "None", "website": "None", "summary": "None", "logo": "None", "latitude": 45.41136111988779, "longitude": -73.950986561564}, "140607490RR0001": {"name": "Fondation qu\u00e9b\u00e9coise du SIDA", "designationCode": "A", "categoryCode": "11", "address": "1, RUE SHERBROOKE EST", "city": "MONTR\u00c9AL", "province": "QC", "country": "CA", "postalCode": "H2X3V8", "twitter": "None", "instagram": "None", "facebook": "None", "youtube": "None", "website": "None", "summary": "None", "logo": "None", "latitude": 45.512765014715185, "longitude": -73.5693838615325}, "855151205RR0001": {"name": "Fondation rel\u00e8ve entrepreneuriale du Qu\u00e9bec", "designationCode": "C", "categoryCode": "21", "address": "505, BOUL. RENE-LEVESQUE OUESTBUREAU 510", "city": "MONTREAL", "province": "QC", "country": "CA", "postalCode": "H2Z1Y7", "twitter": "None", "instagram": "None", "facebook": "None", "youtube": "None", "website": "None", "summary": "None", "logo": "None", "latitude": 45.50392864891217, "longitude": -73.56588739344436}, "826444069RR0001": {"name": "Fondation relais d'esp\u00e9rance", "designationCode": "A", "categoryCode": "03", "address": "1001, 4E AVENUE", "city": "QU\u00c9BEC", "province": "QC", "country": "CA", "postalCode": "G1J3B1", "twitter": "None", "instagram": "None", "facebook": "None", "youtube": "None", "website": "None", "summary": "None", "logo": "None", "latitude": 46.827485875093856, "longitude": -71.22815390010946}, "120510904RR0001": {"name": "Fondation sant\u00e9 et mieux-\u00eatre Jeanne-Mance", "designationCode": "A", "categoryCode": "03", "address": "1440 RUE DUFRESNE", "city": "MONTREAL", "province": "QC", "country": "CA", "postalCode": "H2K3J3", "twitter": "None", "instagram": "None", "facebook": "None", "youtube": "None", "website": "None", "summary": "None", "logo": "None", "latitude": 45.52865564360338, "longitude": -73.54788189275187}, "863668554RR0001": {"name": "Fondation sant\u00e9 globale", "designationCode": "C", "categoryCode": "21", "address": "2955, BOUL DE L'UNIVERSITE", "city": "SHERBROOKE", "province": "QC", "country": "CA", "postalCode": "J1K2Y3", "twitter": "None", "instagram": "None", "facebook": "None", "youtube": "None", "website": "None", "summary": "None", "logo": "None", "latitude": 45.37969036246552, "longitude": -71.9451167385164}, "829790989RR0001": {"name": "Fondation sauvegarde \u00c9glise historique de Saint-Eustache", "designationCode": "C", "categoryCode": "52", "address": "184, RUE ST-EUSTACHE", "city": "SAINT-EUSTACHE", "province": "QC", "country": "CA", "postalCode": "J7P2L7", "twitter": "None", "instagram": "None", "facebook": "None", "youtube": "None", "website": "None", "summary": "None", "logo": "None", "latitude": 45.55838582763008, "longitude": -73.89393387010217}, "814996930RR0001": {"name": "Fondation scolaire de l'Agora", "designationCode": "C", "categoryCode": "21", "address": "482, RUE DE SPRINGFIELD", "city": "GREENFIELD PARK", "province": "QC", "country": "CA", "postalCode": "J4V1Y1", "twitter": "None", "instagram": "None", "facebook": "None", "youtube": "None", "website": "None", "summary": "None", "logo": "None", "latitude": 45.48818362505039, "longitude": -73.48003343738836}, "854420064RR0001": {"name": "Fondation sur les leucodystrophies", "designationCode": "A", "categoryCode": "13", "address": "1713 RUE DES EPINETTES-ROUGES", "city": "QUEBEC", "province": "QC", "country": "CA", "postalCode": "G3G2L2", "twitter": "None", "instagram": "None", "facebook": "None", "youtube": "None", "website": "None", "summary": "None", "logo": "None", "latitude": 46.923462712187636, "longitude": -71.37697133744051}, "890119654RR0001": {"name": "Fondation tourisme jeunesse hostelling international / Hostelling International Youth Travel Foundation", "designationCode": "C", "categoryCode": "29", "address": "3514 AVENUE LACOMBE", "city": "MONTR\u00c9AL", "province": "QC", "country": "CA", "postalCode": "H3T1M1", "twitter": "None", "instagram": "None", "facebook": "None", "youtube": "None", "website": "None", "summary": "None", "logo": "None", "latitude": 45.49736517762138, "longitude": -73.62285766928285}, "861579696RR0001": {"name": "Fondation un to\u00eet pour nous", "designationCode": "A", "categoryCode": "03", "address": "2639, RUE LECLERC", "city": "VAUDREUIL-DORION", "province": "QC", "country": "CA", "postalCode": "J7V8K5", "twitter": "None", "instagram": "None", "facebook": "None", "youtube": "None", "website": "None", "summary": "None", "logo": "None", "latitude": 45.39681853817294, "longitude": -74.03691490302364}, "833305899RR0001": {"name": "Fondation un No\u00ebl pour tous", "designationCode": "C", "categoryCode": "09", "address": "17, BOUL DE LA CIT\u00c9-DES-JEUNESSUITE 200", "city": "VAUDREUIL-DORION", "province": "QC", "country": "CA", "postalCode": "J7V0N3", "twitter": "None", "instagram": "None", "facebook": "None", "youtube": "None", "website": "None", "summary": "None", "logo": "None", "latitude": 45.40632260565211, "longitude": -74.03692970788835}, "857630511RR0001": {"name": "Fondation v\u00e9t\u00e9rans UN/NATO Canada - Veterans UN/NATO Canada Foundation", "designationCode": "C", "categoryCode": "11", "address": "580 RUE SAINT-LAURENT", "city": "SAINT-JEAN-SUR-RICHELIEU", "province": "QC", "country": "CA", "postalCode": "J3B7C7", "twitter": "None", "instagram": "None", "facebook": "None", "youtube": "None", "website": "None", "summary": "None", "logo": "None", "latitude": 45.322101525102546, "longitude": -73.28298086081135}, "842336430RR0001": {"name": "Fondation villa de la paix", "designationCode": "A", "categoryCode": "13", "address": "350-9880 RUE CLARK", "city": "MONTR\u00c9AL", "province": "QC", "country": "CA", "postalCode": "H3L2R3", "twitter": "None", "instagram": "None", "facebook": "None", "youtube": "None", "website": "None", "summary": "None", "logo": "None", "latitude": 45.54593812626248, "longitude": -73.65993067819831}, "833892441RR0001": {"name": "Fondation village - soutien aux a\u00een\u00e9s", "designationCode": "C", "categoryCode": "09", "address": "1335 CHEMIN BORD-DU-LAC       LAKESHORE", "city": "DORVAL", "province": "QC", "country": "CA", "postalCode": "H9S2E5", "twitter": "None", "instagram": "None", "facebook": "None", "youtube": "None", "website": "None", "summary": "None", "logo": "None", "latitude": 45.43913244719786, "longitude": -73.75453064348783}, "807558135RR0001": {"name": "Fondation vivre \u00e0 domicile", "designationCode": "C", "categoryCode": "09", "address": "7, RUE SAINT-BAPTISTE EST", "city": "MONTMAGNY", "province": "QC", "country": "CA", "postalCode": "G5V1J6", "twitter": "None", "instagram": "None", "facebook": "None", "youtube": "None", "website": "None", "summary": "None", "logo": "None", "latitude": 46.97955633668976, "longitude": -70.56220433403539}, "813017415RR0001": {"name": "Fondation A. & S. L\u00e9vesque", "designationCode": "B", "categoryCode": "03", "address": "430, RUE COUTURE", "city": "STE-H\u00c9L\u00c8NE-DE-BAGOT", "province": "QC", "country": "CA", "postalCode": "J0H1M0", "twitter": "None", "instagram": "None", "facebook": "None", "youtube": "None", "website": "None", "summary": "None", "logo": "None", "latitude": 45.73068150960797, "longitude": -72.74098101185831}, "834682031RR0001": {"name": "Fondation A.R.E.E", "designationCode": "B", "categoryCode": "43", "address": "5380 BOURRET", "city": "MONTREAL", "province": "QC", "country": "CA", "postalCode": "H3X1J2", "twitter": "None", "instagram": "None", "facebook": "None", "youtube": "None", "website": "None", "summary": "None", "logo": "None", "latitude": 45.48666735247281, "longitude": -73.64036932289822}, "848090601RR0001": {"name": "Fondation Acad\u00e9-Kicks", "designationCode": "B", "categoryCode": "21", "address": "201-9850 RUE TOLHURST", "city": "MONTR\u00c9AL", "province": "QC", "country": "CA", "postalCode": "H3L2Z8", "twitter": "None", "instagram": "None", "facebook": "None", "youtube": "None", "website": "None", "summary": "None", "logo": "None", "latitude": 45.54256505355196, "longitude": -73.66226965696224}, "136530342RR0001": {"name": "Fondation Acad\u00e9mie des Sacr\u00e9s-Coeurs", "designationCode": "C", "categoryCode": "20", "address": "1575 CH. DES VINGT", "city": "SAINT-BRUNO", "province": "QC", "country": "CA", "postalCode": "J3V4P6", "twitter": "None", "instagram": "None", "facebook": "None", "youtube": "None", "website": "None", "summary": "None", "logo": "None", "latitude": 45.54100101863899, "longitude": -73.29389448551503}, "850799081RR0001": {"name": "Fondation Accueil Bonneau / Accueil Bonneau Foundation", "designationCode": "A", "categoryCode": "03", "address": "427 RUE DE LA COMMUNE EST", "city": "MONTREAL", "province": "QC", "country": "CA", "postalCode": "H2Y1J4", "twitter": "None", "instagram": "None", "facebook": "None", "youtube": "None", "website": "None", "summary": "None", "logo": "None", "latitude": 45.51012854899297, "longitude": -73.55057289275187}, "790777924RR0001": {"name": "Fondation Adapte-Toit", "designationCode": "C", "categoryCode": "09", "address": "867 RUE BEAUCHEMIN", "city": "SAINT-BRUNO", "province": "QC", "country": "CA", "postalCode": "J3V5A4", "twitter": "None", "instagram": "None", "facebook": "None", "youtube": "None", "website": "None", "summary": "None", "logo": "None", "latitude": 45.53654216734961, "longitude": -73.3532107460614}, "851695817RR0001": {"name": "Fondation Aetas / Aetas Foundation", "designationCode": "B", "categoryCode": "03", "address": "685 GROSVENOR AVENUE", "city": "WESTMOUNT", "province": "QC", "country": "CA", "postalCode": "H3Y2T1", "twitter": "None", "instagram": "None", "facebook": "None", "youtube": "None", "website": "None", "summary": "None", "logo": "None", "latitude": 45.48488213379297, "longitude": -73.61414769634727}, "829936434RR0001": {"name": "Fondation Aide V\u00e9t\u00e9rinaire Internationale (F.A.V.I.) Foundation for Veterinary Aid International (F.A.V.I.)", "designationCode": "C", "categoryCode": "54", "address": "102 - 700 RUE RICHELIEU", "city": "BELOEIL", "province": "QC", "country": "CA", "postalCode": "J3G5E8", "twitter": "None", "instagram": "None", "facebook": "None", "youtube": "None", "website": "None", "summary": "None", "logo": "None", "latitude": 45.56290983876724, "longitude": -73.20354960649738}, "831577283RR0001": {"name": "Fondation Air Canada - Air Canada Foundation", "designationCode": "A", "categoryCode": "03", "address": "(ZIP 1235)                    7373 COTE VERTU BOUL WEST", "city": "DORVAL", "province": "QC", "country": "CA", "postalCode": "H4Y1H4", "twitter": "None", "instagram": "None", "facebook": "None", "youtube": "None", "website": "None", "summary": "None", "logo": "None", "latitude": 45.473943356044714, "longitude": -73.73365491605368}, "809179922RR0001": {"name": "Fondation Alaya Alaya Foundation", "designationCode": "C", "categoryCode": "09", "address": "2 - 762 BOUL DESAULNIERS", "city": "SAINT-LAMBERT", "province": "QC", "country": "CA", "postalCode": "J4P1R1", "twitter": "None", "instagram": "None", "facebook": "None", "youtube": "None", "website": "None", "summary": "None", "logo": "None", "latitude": 45.512146288100816, "longitude": -73.5065590057128}, "850771882RR0001": {"name": "Fondation Alecxange", "designationCode": "B", "categoryCode": "11", "address": "2480 RUE GUINDON", "city": "LAVAL", "province": "QC", "country": "CA", "postalCode": "H7A4B1", "twitter": "None", "instagram": "None", "facebook": "None", "youtube": "None", "website": "None", "summary": "None", "logo": "None", "latitude": 45.68629447489746, "longitude": -73.592541}, "787312495RR0001": {"name": "Fondation Alexei Emelin pour les Enfants", "designationCode": "A", "categoryCode": "23", "address": "5104 - 1751 RUE RICHARDSON", "city": "MONTREAL", "province": "QC", "country": "CA", "postalCode": "H3K1G6", "twitter": "None", "instagram": "None", "facebook": "None", "youtube": "None", "website": "None", "summary": "None", "logo": "None", "latitude": 45.48405242659698, "longitude": -73.56187541646942}, "831185020RR0001": {"name": "Fondation Alicia / Alicia Foundation", "designationCode": "A", "categoryCode": "03", "address": "81 BEAUPR\u00c9", "city": "MERCIER", "province": "QC", "country": "CA", "postalCode": "J6R2R7", "twitter": "None", "instagram": "None", "facebook": "None", "youtube": "None", "website": "None", "summary": "None", "logo": "None", "latitude": 45.34154093617627, "longitude": -73.74140117681331}, "833559198RR0001": {"name": "Fondation Alicia Mercier", "designationCode": "A", "categoryCode": "13", "address": "34 RUE DE LA COLLINE", "city": "SAINT-DAMIEN-DE-BUCKLAND", "province": "QC", "country": "CA", "postalCode": "G0R2Y0", "twitter": "None", "instagram": "None", "facebook": "None", "youtube": "None", "website": "None", "summary": "None", "logo": "None", "latitude": 46.62205631559142, "longitude": -70.65847150495365}, "831817465RR0001": {"name": "Fondation Alzheimer de Qu\u00e9bec", "designationCode": "A", "categoryCode": "03", "address": "1040 AVE BELV\u00c9D\u00c8RE BUR.201", "city": "QU\u00c9BEC", "province": "QC", "country": "CA", "postalCode": "G1S3G3", "twitter": "None", "instagram": "None", "facebook": "None", "youtube": "None", "website": "None", "summary": "None", "logo": "None", "latitude": 46.79633028585047, "longitude": -71.23855425261092}, "808364517RR0001": {"name": "Fondation Amelia & Lino Saputo Jr. / Amelia & Lino Saputo Jr. Foundation", "designationCode": "B", "categoryCode": "03", "address": "BUREAU 800                    8000,BOULEVARD LANGELIER", "city": "MONTR\u00c9AL", "province": "QC", "country": "CA", "postalCode": "H1P3K2", "twitter": "None", "instagram": "None", "facebook": "None", "youtube": "None", "website": "None", "summary": "None", "logo": "None", "latitude": 45.59449782177304, "longitude": -73.58091260384299}, "849210406RR0001": {"name": "Fondation Andr\u00e9 Trudeau", "designationCode": "A", "categoryCode": "05", "address": "540-1002 SHERBROOKE OUEST", "city": "MONTR\u00c9AL", "province": "QC", "country": "CA", "postalCode": "H3A3L6", "twitter": "None", "instagram": "None", "facebook": "None", "youtube": "None", "website": "None", "summary": "None", "logo": "None", "latitude": 45.502789852876845, "longitude": -73.57558716772498}, "806531299RR0001": {"name": "Fondation Andr\u00e9-C\u00f4t\u00e9", "designationCode": "C", "categoryCode": "03", "address": "BUREAU 180                    100, 4E AVENUE", "city": "LA POCATI\u00c8RE", "province": "QC", "country": "CA", "postalCode": "G0R1Z0", "twitter": "None", "instagram": "None", "facebook": "None", "youtube": "None", "website": "None", "summary": "None", "logo": "None", "latitude": 47.36699289757065, "longitude": -70.03980789130864}, "717404693RR0001": {"name": "Fondation Archim\u00e8de", "designationCode": "C", "categoryCode": "57", "address": "933 BOUL RENE-LEVESQUE E", "city": "MONTREAL", "province": "QC", "country": "CA", "postalCode": "H2L4S4", "twitter": "None", "instagram": "None", "facebook": "None", "youtube": "None", "website": "None", "summary": "None", "logo": "None", "latitude": 45.51560580795191, "longitude": -73.55571544396655}, "820470243RR0001": {"name": "Fondation Ariane Riou & R\u00e9al Plourde", "designationCode": "B", "categoryCode": "03", "address": "200 - 1130 RUE SHERBROOKE O", "city": "MONTREAL", "province": "QC", "country": "CA", "postalCode": "H3A2M8", "twitter": "None", "instagram": "None", "facebook": "None", "youtube": "None", "website": "None", "summary": "None", "logo": "None", "latitude": 45.50420051526984, "longitude": -73.57425178965626}, "101835007RR0001": {"name": "Fondation Armand-Frappier", "designationCode": "A", "categoryCode": "11", "address": "531 BOUL. DES PRAIRIES", "city": "LAVAL DES RAPIDES", "province": "QC", "country": "CA", "postalCode": "H7V1B7", "twitter": "None", "instagram": "None", "facebook": "None", "youtube": "None", "website": "None", "summary": "None", "logo": "None", "latitude": 45.540713149659794, "longitude": -73.71863892453574}, "841876501RR0001": {"name": "Fondation Arts-\u00c9tudes / Arts Study Foundation", "designationCode": "B", "categoryCode": "03", "address": "168 AV. SAURIOL", "city": "LAVAL", "province": "QC", "country": "CA", "postalCode": "H7N3B6", "twitter": "None", "instagram": "None", "facebook": "None", "youtube": "None", "website": "None", "summary": "None", "logo": "None", "latitude": 45.55112370745579, "longitude": -73.71989695977825}, "835304924RR0001": {"name": "Fondation Artur Quialunda (FAQ) / Funda\u00e7ao Artur Quialunda (FAQ)", "designationCode": "C", "categoryCode": "09", "address": "280 WILLIAMSTOWN CLOSE NW     APT 1003", "city": "AIRDRIE", "province": "AB", "country": "CA", "postalCode": "T4B4B6", "twitter": "None", "instagram": "None", "facebook": "None", "youtube": "None", "website": "None", "summary": "None", "logo": "None", "latitude": 51.30127154169363, "longitude": -114.03385042339433}, "825241532RR0001": {"name": "Fondation Ashugun/ Ashugun Foundation", "designationCode": "A", "categoryCode": "23", "address": "410 - 407 RUE MCGILL", "city": "MONTREAL", "province": "QC", "country": "CA", "postalCode": "H2Y2G3", "twitter": "None", "instagram": "None", "facebook": "None", "youtube": "None", "website": "None", "summary": "None", "logo": "None", "latitude": 45.50028941078527, "longitude": -73.55749111405744}, "817846132RR0001": {"name": "Fondation Asista / Asista Foundation", "designationCode": "C", "categoryCode": "09", "address": "3200 SUD LAVAL (A-440) O", "city": "LAVAL", "province": "QC", "country": "CA", "postalCode": "H7T2H6", "twitter": "None", "instagram": "None", "facebook": "None", "youtube": "None", "website": "None", "summary": "None", "logo": "None", "latitude": 45.56923053618238, "longitude": -73.76049708627187}, "831021183RR0001": {"name": "Fondation Athos", "designationCode": "A", "categoryCode": "03", "address": "2026 BOUL RENE-LEVESQUE O", "city": "QUEBEC", "province": "QC", "country": "CA", "postalCode": "G1V2K8", "twitter": "None", "instagram": "None", "facebook": "None", "youtube": "None", "website": "None", "summary": "None", "logo": "None", "latitude": 46.785719080248676, "longitude": -71.25901854085981}, "821331758RR0001": {"name": "Fondation Auberge Madeleine", "designationCode": "A", "categoryCode": "03", "address": "5035, RUE DE LA ROCHE", "city": "MONTREAL", "province": "QC", "country": "CA", "postalCode": "H2J3K1", "twitter": "None", "instagram": "None", "facebook": "None", "youtube": "None", "website": "None", "summary": "None", "logo": "None", "latitude": 45.53139519207678, "longitude": -73.584179440591}, "833541998RR0001": {"name": "Fondation Aventure Nature pour la Jeunesse", "designationCode": "C", "categoryCode": "09", "address": "209 - 4150 BOUL SAINT-MARTIN O", "city": "LAVAL", "province": "QC", "country": "CA", "postalCode": "H7T1C1", "twitter": "None", "instagram": "None", "facebook": "None", "youtube": "None", "website": "None", "summary": "None", "logo": "None", "latitude": 45.55329613627719, "longitude": -73.75636769337632}, "808263206RR0001": {"name": "Fondation ACTIV / ACTIV Foundation", "designationCode": "C", "categoryCode": "11", "address": "167 AVENUE MOZART OUEST", "city": "MONTREAL", "province": "QC", "country": "CA", "postalCode": "H2S1C6", "twitter": "None", "instagram": "None", "facebook": "None", "youtube": "None", "website": "None", "summary": "None", "logo": "None", "latitude": 45.53139679545842, "longitude": -73.61716201223368}, "888101839RR0001": {"name": "Fondation AMJ-JS", "designationCode": "C", "categoryCode": "09", "address": "42-1901, GILFORD", "city": "MONTREAL", "province": "QC", "country": "CA", "postalCode": "H2H1G8", "twitter": "None", "instagram": "None", "facebook": "None", "youtube": "None", "website": "None", "summary": "None", "logo": "None", "latitude": 45.535442227047064, "longitude": -73.57716513131145}, "850203514RR0001": {"name": "Fondation Baitul Ma'Moor / Baitul Ma'Moor Foundation", "designationCode": "C", "categoryCode": "60", "address": "2833 RUE ONTARIO E", "city": "MONTREAL", "province": "QC", "country": "CA", "postalCode": "H2K1X5", "twitter": "None", "instagram": "None", "facebook": "None", "youtube": "None", "website": "None", "summary": "None", "logo": "None", "latitude": 45.536274030815356, "longitude": -73.55035880976956}, "854604758RR0001": {"name": "Fondation Baluchon Alzheimer", "designationCode": "A", "categoryCode": "03", "address": "200 - 10138 RUE LAJEUNESSE", "city": "MONTREAL", "province": "QC", "country": "CA", "postalCode": "H3L2E2", "twitter": "None", "instagram": "None", "facebook": "None", "youtube": "None", "website": "None", "summary": "None", "logo": "None", "latitude": 45.55276506076531, "longitude": -73.65985782460031}, "808993265RR0001": {"name": "Fondation Barbara Zap / Barbara Zap Foundation", "designationCode": "C", "categoryCode": "54", "address": "278 RUE FRENCH HORN", "city": "SUTTON", "province": "QC", "country": "CA", "postalCode": "J0E2K0", "twitter": "None", "instagram": "None", "facebook": "None", "youtube": "None", "website": "None", "summary": "None", "logo": "None", "latitude": 45.15415200000001, "longitude": -72.64594248868902}, "859185290RR0001": {"name": "Fondation Beaulieu-Saucier / Beaulieu-Saucier Foundation", "designationCode": "B", "categoryCode": "03", "address": "44, RUE DU CH\u00caNE", "city": "VAUDREUIL-SUR-LE-LAC", "province": "QC", "country": "CA", "postalCode": "J7V8P3", "twitter": "None", "instagram": "None", "facebook": "None", "youtube": "None", "website": "None", "summary": "None", "logo": "None", "latitude": 45.42505996924199, "longitude": -74.0326464190665}, "839775830RR0001": {"name": "Fondation Benjamin Joseph Pelletier / Benjamin Joseph Pelletier Foundation", "designationCode": "C", "categoryCode": "56", "address": "4767 RUE VILLERET", "city": "MONTR\u00c9AL", "province": "QC", "country": "CA", "postalCode": "H9K1P7", "twitter": "None", "instagram": "None", "facebook": "None", "youtube": "None", "website": "None", "summary": "None", "logo": "None", "latitude": 45.45539265583709, "longitude": -73.89655342273049}, "808425730RR0001": {"name": "Fondation Benny & Co. / Benny & Co. Foundation", "designationCode": "B", "categoryCode": "03", "address": "179, RUE HENRY-BESSENER", "city": "BOIS-DES-FILION", "province": "QC", "country": "CA", "postalCode": "J6Z4S9", "twitter": "None", "instagram": "None", "facebook": "None", "youtube": "None", "website": "None", "summary": "None", "logo": "None", "latitude": 45.68189395781635, "longitude": -73.76173092651007}, "805904646RR0001": {"name": "Fondation Bernard Cain inc. /Bernard Cain Foundation Inc.", "designationCode": "C", "categoryCode": "11", "address": "215, CHEMIN DAVIS", "city": "GATINEAU", "province": "QC", "country": "CA", "postalCode": "J0X2G0", "twitter": "None", "instagram": "None", "facebook": "None", "youtube": "None", "website": "None", "summary": "None", "logo": "None", "latitude": 45.440360308904175, "longitude": -75.9076079462169}, "830104105RR0001": {"name": "Fondation Blain-Favreau", "designationCode": "B", "categoryCode": "05", "address": "600 RUE DE LA GAUCHETI\u00c8RE O.  28E \u00c9TAGE,SUITE 1766", "city": "MONTR\u00c9AL", "province": "QC", "country": "CA", "postalCode": "H3B4L2", "twitter": "None", "instagram": "None", "facebook": "None", "youtube": "None", "website": "None", "summary": "None", "logo": "None", "latitude": 45.499289747528294, "longitude": -73.56632550990393}, "811300466RR0001": {"name": "Fondation Boivin-Daigneault", "designationCode": "B", "categoryCode": "21", "address": "1295 DES CASCADES OUEST", "city": "SAINT-HYACINTHE", "province": "QC", "country": "CA", "postalCode": "J2S3H2", "twitter": "None", "instagram": "None", "facebook": "None", "youtube": "None", "website": "None", "summary": "None", "logo": "None"}, "138647003RR0001": {"name": "Fondation Bon D\u00e9part de Canadian Tire du Qu\u00e9bec inc.", "designationCode": "A", "categoryCode": "03", "address": "601-189 BOUL HYMUS", "city": "POINTE-CLAIRE", "province": "QC", "country": "CA", "postalCode": "H9R1E9", "twitter": "None", "instagram": "None", "facebook": "None", "youtube": "None", "website": "None", "summary": "None", "logo": "None", "latitude": 45.46160587122737, "longitude": -73.81720488219163}, "784994295RR0001": {"name": "Fondation Bonheur", "designationCode": "C", "categoryCode": "01", "address": "286 RUE MAYRAND", "city": "SAINT-JEAN-SUR-RICHELIEU", "province": "QC", "country": "CA", "postalCode": "J3B3L6", "twitter": "None", "instagram": "None", "facebook": "None", "youtube": "None", "website": "None", "summary": "None", "logo": "None", "latitude": 45.29889149956732, "longitude": -73.26617408381902}, "848140570RR0001": {"name": "Fondation Bourassa Savaria / Bourassa Savaria Foundation", "designationCode": "B", "categoryCode": "03", "address": "4350 CHOMEDEY (A-13) O", "city": "LAVAL", "province": "QC", "country": "CA", "postalCode": "H7R6E9", "twitter": "None", "instagram": "None", "facebook": "None", "youtube": "None", "website": "None", "summary": "None", "logo": "None", "latitude": 45.56432682483146, "longitude": -73.82040310970002}, "841225915RR0001": {"name": "Fondation C.E.D. Inc.", "designationCode": "C", "categoryCode": "09", "address": "650 RUE LAPIERRE", "city": "THETFORD MINES", "province": "QC", "country": "CA", "postalCode": "G6G7P1", "twitter": "None", "instagram": "None", "facebook": "None", "youtube": "None", "website": "None", "summary": "None", "logo": "None", "latitude": 46.089516688037406, "longitude": -71.28691003511452}, "832882724RR0001": {"name": "Fondation C.H. Saint-Vincent-Marie", "designationCode": "C", "categoryCode": "19", "address": "4410, BOUL.SAINT-MARTIN OUEST", "city": "LAVAL", "province": "QC", "country": "CA", "postalCode": "H7T1C3", "twitter": "None", "instagram": "None", "facebook": "None", "youtube": "None", "website": "None", "summary": "None", "logo": "None", "latitude": 45.54842602278177, "longitude": -73.76916282852395}, "811459056RR0001": {"name": "Fondation C\u00e9drika Provencher", "designationCode": "C", "categoryCode": "59", "address": "C.P. 1213", "city": "TROIS-RIVI\u00c8RES", "province": "QC", "country": "CA", "postalCode": "G9A5K8", "twitter": "None", "instagram": "None", "facebook": "None", "youtube": "None", "website": "None", "summary": "None", "logo": "None", "latitude": 46.34016900000006, "longitude": -72.54503449999993}, "818978645RR0001": {"name": "Fondation Cal\u00e8che", "designationCode": "C", "categoryCode": "09", "address": "12 CHEMIN DU PASSAGE", "city": "TROIS-RIVIERE", "province": "QC", "country": "CA", "postalCode": "G8T2M1", "twitter": "None", "instagram": "None", "facebook": "None", "youtube": "None", "website": "None", "summary": "None", "logo": "None", "latitude": 46.370040463788975, "longitude": -72.536391}, "816734776RR0001": {"name": "Fondation Camille Villeneuve", "designationCode": "B", "categoryCode": "03", "address": "200 MONTCALM", "city": "GATINEAU", "province": "QC", "country": "CA", "postalCode": "J8Y3B5", "twitter": "None", "instagram": "None", "facebook": "None", "youtube": "None", "website": "None", "summary": "None", "logo": "None", "latitude": 45.43065987763266, "longitude": -75.73033355923609}, "861001857RR0001": {"name": "Fondation Camp-de-la-Salle", "designationCode": "C", "categoryCode": "09", "address": "130 1RE RUE DU LAC-ROUGE N", "city": "SAINT-ALPHONSE-RODRIGUEZ", "province": "QC", "country": "CA", "postalCode": "J0K1W0", "twitter": "None", "instagram": "None", "facebook": "None", "youtube": "None", "website": "None", "summary": "None", "logo": "None", "latitude": 46.18927435304974, "longitude": -73.70080445458504}, "806494027RR0001": {"name": "Fondation Campus Charlevoix", "designationCode": "A", "categoryCode": "23", "address": "807 RUE RICHELIEU", "city": "LA MALBAIE", "province": "QC", "country": "CA", "postalCode": "G5A2X5", "twitter": "None", "instagram": "None", "facebook": "None", "youtube": "None", "website": "None", "summary": "None", "logo": "None", "latitude": 47.633052185123205, "longitude": -70.14284999376758}, "848325320RR0001": {"name": "Fondation Canaan", "designationCode": "C", "categoryCode": "31", "address": "999 RUE VALIQUETTE", "city": "SAINT-AD\u00c8LE", "province": "QC", "country": "CA", "postalCode": "J8B2M4", "twitter": "None", "instagram": "None", "facebook": "None", "youtube": "None", "website": "None", "summary": "None", "logo": "None", "latitude": 45.950180583963274, "longitude": -74.134347879393}, "833518574RR0001": {"name": "Fondation Canadienne de la Douleur Chronique / Canadian Foundation for Chronic Pain", "designationCode": "A", "categoryCode": "13", "address": "2898 RUE DES ONYX", "city": "SHERBROOKE", "province": "QC", "country": "CA", "postalCode": "J1G4K7", "twitter": "None", "instagram": "None", "facebook": "None", "youtube": "None", "website": "None", "summary": "None", "logo": "None", "latitude": 45.40701555063777, "longitude": -71.82800467208146}, "828395780RR0001": {"name": "Fondation Canadienne Pour la Sant\u00e9 Vasculaire Canadian Foundation for Vascular Health", "designationCode": "C", "categoryCode": "11", "address": "2353 AV HINGSTON", "city": "MONTREAL", "province": "QC", "country": "CA", "postalCode": "H4A2J3", "twitter": "None", "instagram": "None", "facebook": "None", "youtube": "None", "website": "None", "summary": "None", "logo": "None", "latitude": 45.467295159328174, "longitude": -73.6204784733396}, "845724996RR0001": {"name": "Fondation Caramel", "designationCode": "C", "categoryCode": "54", "address": "1449, RANG 11", "city": "ST-VAL\u00c9RIEN", "province": "QC", "country": "CA", "postalCode": "J0H2B0", "twitter": "None", "instagram": "None", "facebook": "None", "youtube": "None", "website": "None", "summary": "None", "logo": "None", "latitude": 45.59182450100962, "longitude": -72.69208247155058}, "843795105RR0001": {"name": "Fondation Carmie & Joey Saputo /Carmie & Joey Saputo Foundation", "designationCode": "B", "categoryCode": "13", "address": "200 - 8000 BOUL LANGELIER", "city": "SAINT-LEONARD", "province": "QC", "country": "CA", "postalCode": "H1P3K2", "twitter": "None", "instagram": "None", "facebook": "None", "youtube": "None", "website": "None", "summary": "None", "logo": "None", "latitude": 45.59449782177304, "longitude": -73.58091260384299}, "820624005RR0001": {"name": "Fondation Carol Raynault", "designationCode": "B", "categoryCode": "03", "address": "2 COMPLEXE DESJARDINS,TOUR EST27E ETAGE,CP 34,SUCC DESJARDIN", "city": "MONTREAL", "province": "QC", "country": "CA", "postalCode": "H5B1E4", "twitter": "None", "instagram": "None", "facebook": "None", "youtube": "None", "website": "None", "summary": "None", "logo": "None", "latitude": 45.51239400000006, "longitude": -73.55469049999994}, "841374531RR0001": {"name": "Fondation Casse-T\u00eate", "designationCode": "A", "categoryCode": "13", "address": "200 - 38 PLACE DU COMMERCE", "city": "VERDUN", "province": "QC", "country": "CA", "postalCode": "H3E1T8", "twitter": "None", "instagram": "None", "facebook": "None", "youtube": "None", "website": "None", "summary": "None", "logo": "None", "latitude": 45.468083005222816, "longitude": -73.54167319605882}, "810981795RR0001": {"name": "Fondation Celine Daniel et Laurent", "designationCode": "C", "categoryCode": "01", "address": "542 RUE PIERRE-LAVIOLETTE", "city": "NICOLET", "province": "QC", "country": "CA", "postalCode": "J3T1J3", "twitter": "None", "instagram": "None", "facebook": "None", "youtube": "None", "website": "None", "summary": "None", "logo": "None", "latitude": 46.22961344434193, "longitude": -72.60492941952785}, "815998729RR0001": {"name": "Fondation Centre Philou", "designationCode": "A", "categoryCode": "13", "address": "3165 RUE JEAN-BRILLANT", "city": "MONTREAL", "province": "QC", "country": "CA", "postalCode": "H3T1N7", "twitter": "None", "instagram": "None", "facebook": "None", "youtube": "None", "website": "None", "summary": "None", "logo": "None", "latitude": 45.49914964891219, "longitude": -73.61876847005004}, "131043507RR0001": {"name": "Fondation Champlain et Manoir-de-Verdun", "designationCode": "C", "categoryCode": "09", "address": "1325, RUE CRAWFORD", "city": "VERDUN", "province": "QC", "country": "CA", "postalCode": "H4H2N6", "twitter": "None", "instagram": "None", "facebook": "None", "youtube": "None", "website": "None", "summary": "None", "logo": "None", "latitude": 45.43885635443471, "longitude": -73.58746806480467}, "816591697RR0001": {"name": "Fondation Charles Gagnon", "designationCode": "C", "categoryCode": "22", "address": "5748 RUE WAVERLY", "city": "MONTREAL", "province": "QC", "country": "CA", "postalCode": "H2T2Y1", "twitter": "None", "instagram": "None", "facebook": "None", "youtube": "None", "website": "None", "summary": "None", "logo": "None", "latitude": 45.52531581513661, "longitude": -73.60334207773084}, "717941322RR0001": {"name": "Fondation Chaussures Pop", "designationCode": "B", "categoryCode": "03", "address": "100 12E AV", "city": "DESCHAILLONS-SUR-SAINT-LAURENT", "province": "QC", "country": "CA", "postalCode": "G0S1G0", "twitter": "None", "instagram": "None", "facebook": "None", "youtube": "None", "website": "None", "summary": "None", "logo": "None", "latitude": 46.557036985284824, "longitude": -72.11348751624439}, "867748469RR0001": {"name": "Fondation Chelsea", "designationCode": "C", "categoryCode": "56", "address": "23 CHEMIN CECIL", "city": "CHELSEA", "province": "QC", "country": "CA", "postalCode": "J9B0A5", "twitter": "None", "instagram": "None", "facebook": "None", "youtube": "None", "website": "None", "summary": "None", "logo": "None", "latitude": 45.505715489324196, "longitude": -75.78961164363206}, "810993444RR0001": {"name": "Fondation Chr\u00e9tienne \u00c9vang\u00e9lique d'Entraide (FONCEE)", "designationCode": "C", "categoryCode": "09", "address": "2110, RUE DE LA TUQUE", "city": "LAVAL", "province": "QC", "country": "CA", "postalCode": "H7A1B1", "twitter": "None", "instagram": "None", "facebook": "None", "youtube": "None", "website": "None", "summary": "None", "logo": "None", "latitude": 45.59162433637264, "longitude": -73.68482743614761}, "802385633RR0001": {"name": "Fondation Christ le Lib\u00e9rateur des Captifs / Christ the Liberator of Captives Foundation", "designationCode": "C", "categoryCode": "47", "address": "5787 BOUL MONK", "city": "MONTREAL", "province": "QC", "country": "CA", "postalCode": "H4E3H2", "twitter": "None", "instagram": "None", "facebook": "None", "youtube": "None", "website": "None", "summary": "None", "logo": "None", "latitude": 45.46045862891686, "longitude": -73.59682780088275}, "840018782RR0001": {"name": "Fondation Christal de roche", "designationCode": "B", "categoryCode": "03", "address": "755, RUE PERCE-NEIGE", "city": "STE-AD\u00c8LE", "province": "QC", "country": "CA", "postalCode": "J8B3A7", "twitter": "None", "instagram": "None", "facebook": "None", "youtube": "None", "website": "None", "summary": "None", "logo": "None", "latitude": 45.941785270615675, "longitude": -74.1607958716314}, "844588806RR0001": {"name": "Fondation Christian Vachon", "designationCode": "C", "categoryCode": "23", "address": "149,RUE LIZOTTE", "city": "MAGOG", "province": "QC", "country": "CA", "postalCode": "J1X7H7", "twitter": "None", "instagram": "None", "facebook": "None", "youtube": "None", "website": "None", "summary": "None", "logo": "None", "latitude": 45.28812344214889, "longitude": -72.1098217245369}, "736021692RR0001": {"name": "Fondation Cl\u00e9ment Paill\u00e9", "designationCode": "B", "categoryCode": "15", "address": "681 RUE MASSICOTTE", "city": "SAINT-NARCISSE", "province": "QC", "country": "CA", "postalCode": "G0X2Y0", "twitter": "None", "instagram": "None", "facebook": "None", "youtube": "None", "website": "None", "summary": "None", "logo": "None", "latitude": 46.5594204770905, "longitude": -72.47544242004744}, "803998665RR0001": {"name": "Fondation Claude-Durocher", "designationCode": "C", "categoryCode": "11", "address": "4650 BOUL DE PORTLAND", "city": "SHERBROOKE", "province": "QC", "country": "CA", "postalCode": "J1L0H6", "twitter": "None", "instagram": "None", "facebook": "None", "youtube": "None", "website": "None", "summary": "None", "logo": "None", "latitude": 45.403814626945106, "longitude": -71.93811229334403}, "849710157RR0001": {"name": "Fondation Club Avenir", "designationCode": "A", "categoryCode": "03", "address": "269 ALICE CARRI\u00c8RE", "city": "BEACONSFIELD", "province": "QC", "country": "CA", "postalCode": "H9W6E6", "twitter": "None", "instagram": "None", "facebook": "None", "youtube": "None", "website": "None", "summary": "None", "logo": "None", "latitude": 45.432167416325214, "longitude": -73.8823570429917}, "828827360RR0001": {"name": "Fondation Club Rotary d'Alma", "designationCode": "A", "categoryCode": "63", "address": "CP:337, SUCCURSALE BUREAU-CHEF", "city": "ALMA", "province": "QC", "country": "CA", "postalCode": "G8B5B8", "twitter": "None", "instagram": "None", "facebook": "None", "youtube": "None", "website": "None", "summary": "None", "logo": "None", "latitude": 48.563367000000056, "longitude": -71.63607049999993}, "839886421RR0001": {"name": "Fondation Club St-Ephrem", "designationCode": "A", "categoryCode": "43", "address": "351, RUE MGR DESMARAIS", "city": "UPTON", "province": "QC", "country": "CA", "postalCode": "J0H2E0", "twitter": "None", "instagram": "None", "facebook": "None", "youtube": "None", "website": "None", "summary": "None", "logo": "None", "latitude": 45.65162170904314, "longitude": -72.69200132377267}, "800459950RR0001": {"name": "Fondation Coeur d'or", "designationCode": "B", "categoryCode": "03", "address": "2828 BOULEVARD LAURIER        BUREAU #1500", "city": "QU\u00c9BEC", "province": "QC", "country": "CA", "postalCode": "G1V0B9", "twitter": "None", "instagram": "None", "facebook": "None", "youtube": "None", "website": "None", "summary": "None", "logo": "None", "latitude": 46.76745081020227, "longitude": -71.28815594454348}, "808542815RR0001": {"name": "Fondation Colette Lefort", "designationCode": "B", "categoryCode": "20", "address": "28 SAURIOL", "city": "LAVAL", "province": "QC", "country": "CA", "postalCode": "H7N3A4", "twitter": "None", "instagram": "None", "facebook": "None", "youtube": "None", "website": "None", "summary": "None", "logo": "None", "latitude": 45.54442099166147, "longitude": -73.71332611590378}, "119001105RR0001": {"name": "Fondation Coll\u00e8ge des Hauts Sommets", "designationCode": "C", "categoryCode": "21", "address": "97, AVENUE DE LA MONTAGNE", "city": "SAINTE-TITE-DES-CAPS", "province": "QC", "country": "CA", "postalCode": "G0A4J0", "twitter": "None", "instagram": "None", "facebook": "None", "youtube": "None", "website": "None", "summary": "None", "logo": "None", "latitude": 47.11014986037865, "longitude": -70.79636240570763}, "854905411RR0001": {"name": "Fondation Coll\u00e8ge Notre-Dame des Servites", "designationCode": "A", "categoryCode": "23", "address": "470, RUE MAIN", "city": "AYER'S CLIFF", "province": "QC", "country": "CA", "postalCode": "J0B1C0", "twitter": "None", "instagram": "None", "facebook": "None", "youtube": "None", "website": "None", "summary": "None", "logo": "None", "latitude": 45.179547425646454, "longitude": -72.07096378411849}}