{"119285831RR0001": {"name": "VIETNAMESE CANADIAN BUDDHIST ASSOCIATION", "designationCode": "C", "categoryCode": "35", "address": "3591 ALBION RD", "city": "OTTAWA", "province": "ON", "country": "CA", "postalCode": "K1T1A2", "twitter": "None", "instagram": "None", "facebook": "None", "youtube": "None", "website": "None", "summary": "None", "logo": "None", "latitude": 45.351755642535544, "longitude": -75.6417519366672}, "119285849RR0001": {"name": "VIETNAMESE CANADIAN CENTRE (CENTRE VIETNAMIEN DU CANADA)", "designationCode": "C", "categoryCode": "59", "address": "1-885 SOMERSET ST W", "city": "OTTAWA", "province": "ON", "country": "CA", "postalCode": "K1R6R6", "twitter": "None", "instagram": "None", "facebook": "None", "youtube": "None", "website": "None", "summary": "None", "logo": "None", "latitude": 45.408579913699455, "longitude": -75.71362985013553}, "119288918RR1176": {"name": "VIETNAMESE CONGREGATION OF JEHOVAH'S WITNESSES TORONTO, ONTARIO", "designationCode": "C", "categoryCode": "61", "address": "5 MAPLE LEAF DRIVE (KINGDOM   HALL OF JEHOVAH'S WITNESSES)", "city": "TORONTO", "province": "ON", "country": "CA", "postalCode": "M6L1N4", "twitter": "None", "instagram": "None", "facebook": "None", "youtube": "None", "website": "None", "summary": "None", "logo": "None", "latitude": 43.70940867773697, "longitude": -79.50452675116864}, "893224162RR0001": {"name": "VIETNAMESE DOMINICAN VICARIATE OF ALBERTA SOCIETY", "designationCode": "C", "categoryCode": "46", "address": "2815 - 26TH AVE., S.E.", "city": "CALGARY", "province": "AB", "country": "CA", "postalCode": "T2B0R3", "twitter": "None", "instagram": "None", "facebook": "None", "youtube": "None", "website": "None", "summary": "None", "logo": "None", "latitude": 51.0293322524733, "longitude": -113.9949735132395}, "119285864RR0001": {"name": "VIETNAMESE MENNONITE CHURCH", "designationCode": "C", "categoryCode": "34", "address": "333 ALEXANDER AVE", "city": "WINNIPEG", "province": "MB", "country": "CA", "postalCode": "R3A0N1", "twitter": "None", "instagram": "None", "facebook": "None", "youtube": "None", "website": "None", "summary": "None", "logo": "None", "latitude": 49.902988902590984, "longitude": -97.14074544656361}, "846209146RR0001": {"name": "VIETNAMESE UNIFIED BUDDHIST (HOA-NGHIEM) CONGREGATION OF B.C.", "designationCode": "C", "categoryCode": "35", "address": "300 - 1060 AUSTIN AVE", "city": "COQUITLAM", "province": "BC", "country": "CA", "postalCode": "V3K3P3", "twitter": "None", "instagram": "None", "facebook": "None", "youtube": "None", "website": "None", "summary": "None", "logo": "None", "latitude": 49.24891035301975, "longitude": -122.86277467058787}, "892726969RR0001": {"name": "VIETNAMESE UNIFIED BUDDHIST CONGREGATION OF CANADA IN ALBERTA", "designationCode": "C", "categoryCode": "35", "address": "11328 97 ST NW", "city": "EDMONTON", "province": "AB", "country": "CA", "postalCode": "T5G1X4", "twitter": "None", "instagram": "None", "facebook": "None", "youtube": "None", "website": "None", "summary": "None", "logo": "None", "latitude": 53.56373332944776, "longitude": -113.49192971097554}, "138784897RR0001": {"name": "VIETNAMESE UNIFIED BUDDHIST CONGREGATION OF OTTAWA-CARLETON", "designationCode": "C", "categoryCode": "35", "address": "1002 SOMERSET ST. WEST", "city": "OTTAWA", "province": "ON", "country": "CA", "postalCode": "K1R6R9", "twitter": "None", "instagram": "None", "facebook": "None", "youtube": "None", "website": "None", "summary": "None", "logo": "None", "latitude": 45.40789311904912, "longitude": -75.71570437287214}, "860615848RR0001": {"name": "VIETNAMESE WOMEN'S ASSOCIATION OF TORONTO", "designationCode": "C", "categoryCode": "59", "address": "1756 ST. CLAIR AVE. W.", "city": "TORONTO", "province": "ON", "country": "CA", "postalCode": "M6N1J3", "twitter": "None", "instagram": "None", "facebook": "None", "youtube": "None", "website": "None", "summary": "None", "logo": "None", "latitude": 43.674105121299476, "longitude": -79.46078804899298}, "859152431RR0001": {"name": "VIETNAMESE ZEN BUDDHIST MEDITATION CENTRE", "designationCode": "C", "categoryCode": "35", "address": "22093 HIGHWAY 48", "city": "MOUNT ALBERT", "province": "ON", "country": "CA", "postalCode": "L0G1M0", "twitter": "None", "instagram": "None", "facebook": "None", "youtube": "None", "website": "None", "summary": "None", "logo": "None", "latitude": 44.20444337256356, "longitude": -79.33750066094814}, "108174442RR0001": {"name": "VIEW THE PERFORMING ARTS SOCIETY", "designationCode": "C", "categoryCode": "22", "address": "1885 VENABLES ST", "city": "VANCOUVER", "province": "BC", "country": "CA", "postalCode": "V5L2H6", "twitter": "None", "instagram": "None", "facebook": "None", "youtube": "None", "website": "None", "summary": "None", "logo": "None", "latitude": 49.27669050043268, "longitude": -123.06622402553523}, "864470331RR0001": {"name": "VIEW WEST FOUNDATION", "designationCode": "B", "categoryCode": "05", "address": "PO BOX 2554, STN M", "city": "CALGARY", "province": "AB", "country": "CA", "postalCode": "T2P2M7", "twitter": "None", "instagram": "None", "facebook": "None", "youtube": "None", "website": "None", "summary": "None", "logo": "None", "latitude": 51.04531500000006, "longitude": -114.06301099999993}, "868741653RR0001": {"name": "VIEWPOINT FOUNDATION", "designationCode": "B", "categoryCode": "05", "address": "4301 - 400 3 AVE SW", "city": "CALGARY", "province": "AB", "country": "CA", "postalCode": "T2P4H2", "twitter": "None", "instagram": "None", "facebook": "None", "youtube": "None", "website": "None", "summary": "None", "logo": "None", "latitude": 51.050585259196545, "longitude": -114.07240492388776}, "119285872RR0001": {"name": "VIEWS-FOR THE VISUALLY IMPAIRED", "designationCode": "C", "categoryCode": "01", "address": "2568 ELIZABETH STREET         PO BOX 298", "city": "OIL SPRINGS", "province": "ON", "country": "CA", "postalCode": "N0N1P0", "twitter": "None", "instagram": "None", "facebook": "None", "youtube": "None", "website": "None", "summary": "None", "logo": "None", "latitude": 42.78230354411234, "longitude": -82.12210466008841}, "894576958RR0001": {"name": "VIJAY/ANAND FOUNDATION", "designationCode": "B", "categoryCode": "09", "address": "2 - 2590 SHERIDAN GARDEN DR", "city": "OAKVILLE", "province": "ON", "country": "CA", "postalCode": "L6J7R2", "twitter": "None", "instagram": "None", "facebook": "None", "youtube": "None", "website": "None", "summary": "None", "logo": "None", "latitude": 43.49514147486881, "longitude": -79.65226535703177}, "139026785RR0001": {"name": "VIKING CHARITABLE TRUST", "designationCode": "B", "categoryCode": "39", "address": "3425 2 AVE S", "city": "LETHBRIDGE", "province": "AB", "country": "CA", "postalCode": "T1J4V1", "twitter": "None", "instagram": "None", "facebook": "None", "youtube": "None", "website": "None", "summary": "None", "logo": "None", "latitude": 49.696839530439966, "longitude": -112.78914308381903}, "811934942RR0001": {"name": "VIKING COMMUNITY FOUNDATION", "designationCode": "A", "categoryCode": "53", "address": "BOX 932", "city": "VIKING", "province": "AB", "country": "CA", "postalCode": "T0B4N0", "twitter": "None", "instagram": "None", "facebook": "None", "youtube": "None", "website": "None", "summary": "None", "logo": "None", "latitude": 53.10014000000007, "longitude": -111.76843999999994}, "844214742RR0001": {"name": "VIKING FOOD BANK", "designationCode": "C", "categoryCode": "09", "address": "BOX 411", "city": "VIKING", "province": "AB", "country": "CA", "postalCode": "T0B4N0", "twitter": "None", "instagram": "None", "facebook": "None", "youtube": "None", "website": "None", "summary": "None", "logo": "None", "latitude": 53.10014000000007, "longitude": -111.76843999999994}, "119285914RR0001": {"name": "VIKING HANDI-VAN SOCIETY", "designationCode": "C", "categoryCode": "09", "address": "BOX 151", "city": "VIKING", "province": "AB", "country": "CA", "postalCode": "T0B4N0", "twitter": "None", "instagram": "None", "facebook": "None", "youtube": "None", "website": "None", "summary": "None", "logo": "None", "latitude": 53.10014000000007, "longitude": -111.76843999999994}, "870832169RR0001": {"name": "VIKING HEALTH FOUNDATION", "designationCode": "C", "categoryCode": "15", "address": "5110 - 57 AVENUE", "city": "VIKING", "province": "AB", "country": "CA", "postalCode": "T0B4N0", "twitter": "None", "instagram": "None", "facebook": "None", "youtube": "None", "website": "None", "summary": "None", "logo": "None", "latitude": 53.099723682845784, "longitude": -111.7764593907953}, "119285948RR0001": {"name": "VIKING SENIOR CITIZENS' CLUB", "designationCode": "C", "categoryCode": "56", "address": "BOX 825", "city": "VIKING", "province": "AB", "country": "CA", "postalCode": "T0B4N0", "twitter": "None", "instagram": "None", "facebook": "None", "youtube": "None", "website": "None", "summary": "None", "logo": "None", "latitude": 53.10014000000007, "longitude": -111.76843999999994}, "898260070RR0001": {"name": "VIKING STATION GALLERY & ARTS CENTRE GUILD", "designationCode": "C", "categoryCode": "22", "address": "BOX 997", "city": "VIKING", "province": "AB", "country": "CA", "postalCode": "T0B4N0", "twitter": "None", "instagram": "None", "facebook": "None", "youtube": "None", "website": "None", "summary": "None", "logo": "None", "latitude": 53.10014000000007, "longitude": -111.76843999999994}, "886774355RR0001": {"name": "VILL'AGAPE SAINTE-FAMILLE", "designationCode": "C", "categoryCode": "57", "address": "76 ROUTE 275 NORD", "city": "FRAMPTON", "province": "QC", "country": "CA", "postalCode": "G0R1M0", "twitter": "None", "instagram": "None", "facebook": "None", "youtube": "None", "website": "None", "summary": "None", "logo": "None", "latitude": 46.47121359376204, "longitude": -70.81993689561847}, "129205001RR0001": {"name": "VILLA \"EXPRES POUR TOI\"", "designationCode": "C", "categoryCode": "01", "address": "4655 EUCLIDE-BRIEN APP 1", "city": "MONTREAL", "province": "QC", "country": "CA", "postalCode": "H1X3K4", "twitter": "None", "instagram": "None", "facebook": "None", "youtube": "None", "website": "None", "summary": "None", "logo": "None", "latitude": 45.54995749711448, "longitude": -73.56672356607409}, "119285955RR0001": {"name": "VILLA ACADIENNE", "designationCode": "C", "categoryCode": "01", "address": "P O BOX 248", "city": "METEGHAN", "province": "NS", "country": "CA", "postalCode": "B0W2J0", "twitter": "None", "instagram": "None", "facebook": "None", "youtube": "None", "website": "None", "summary": "None", "logo": "None", "latitude": 44.16554193781324, "longitude": -66.14924273516925}, "108174723RR0001": {"name": "VILLA BEAUSEJOUR INC.", "designationCode": "C", "categoryCode": "01", "address": "CP 5608", "city": "CARAQUET", "province": "NB", "country": "CA", "postalCode": "E1W1B7", "twitter": "None", "instagram": "None", "facebook": "None", "youtube": "None", "website": "None", "summary": "None", "logo": "None", "latitude": 47.791365000000056, "longitude": -64.95053299999994}, "105536395RR0001": {"name": "VILLA CABRINI INC.", "designationCode": "C", "categoryCode": "01", "address": "757 HENDERSON HIGHWAY", "city": "WINNIPEG", "province": "MB", "country": "CA", "postalCode": "R2K2K7", "twitter": "None", "instagram": "None", "facebook": "None", "youtube": "None", "website": "None", "summary": "None", "logo": "None", "latitude": 49.928452397714885, "longitude": -97.10303615526016}, "119285971RR0001": {"name": "VILLA CATHAY CARE HOME SOCIETY", "designationCode": "C", "categoryCode": "09", "address": "970 UNION STREET", "city": "VANCOUVER", "province": "BC", "country": "CA", "postalCode": "V6A3V1", "twitter": "None", "instagram": "None", "facebook": "None", "youtube": "None", "website": "None", "summary": "None", "logo": "None", "latitude": 49.277354481245446, "longitude": -123.08353119317329}, "121989107RR0001": {"name": "VILLA CHALEUR INC.", "designationCode": "C", "categoryCode": "09", "address": "35 ATLANTIC BAPTIST AVE.", "city": "MONCTON", "province": "NB", "country": "CA", "postalCode": "E1E4N3", "twitter": "None", "instagram": "None", "facebook": "None", "youtube": "None", "website": "None", "summary": "None", "logo": "None", "latitude": 46.05999327145241, "longitude": -64.85879860263182}, "893370767RR0001": {"name": "VILLA CHARITIES FOUNDATION", "designationCode": "A", "categoryCode": "23", "address": "901 LAWRENCE AVE W", "city": "TORONTO", "province": "ON", "country": "CA", "postalCode": "M6A1C3", "twitter": "None", "instagram": "None", "facebook": "None", "youtube": "None", "website": "None", "summary": "None", "logo": "None", "latitude": 43.713601768192426, "longitude": -79.45694700011556}, "123646374RR0001": {"name": "VILLA CHARITIES INC", "designationCode": "C", "categoryCode": "01", "address": "901 LAWRENCE AVE WEST", "city": "TORONTO", "province": "ON", "country": "CA", "postalCode": "M6A1C3", "twitter": "None", "instagram": "None", "facebook": "None", "youtube": "None", "website": "None", "summary": "None", "logo": "None", "latitude": 43.713601768192426, "longitude": -79.45694700011556}, "119285989RR0001": {"name": "VILLA CHATEAUNEUF INC", "designationCode": "C", "categoryCode": "49", "address": "83, RUE PRINCIPALE NORD", "city": "SUTTON", "province": "QC", "country": "CA", "postalCode": "J0E2K0", "twitter": "None", "instagram": "None", "facebook": "None", "youtube": "None", "website": "None", "summary": "None", "logo": "None", "latitude": 45.113274920327235, "longitude": -72.62143316739439}, "129880985RR0001": {"name": "VILLA COLOMBO HOMES FOR THE AGED INC", "designationCode": "C", "categoryCode": "01", "address": "40 PLAYFAIR AV", "city": "TORONTO", "province": "ON", "country": "CA", "postalCode": "M6B2P9", "twitter": "None", "instagram": "None", "facebook": "None", "youtube": "None", "website": "None", "summary": "None", "logo": "None", "latitude": 43.71037512129948, "longitude": -79.45604021371685}, "119285997RR0001": {"name": "VILLA COLOMBO LADIES' AUXILIARY", "designationCode": "A", "categoryCode": "03", "address": "40 PLAYFAIR AVENUE", "city": "TORONTO", "province": "ON", "country": "CA", "postalCode": "M6B2P9", "twitter": "None", "instagram": "None", "facebook": "None", "youtube": "None", "website": "None", "summary": "None", "logo": "None", "latitude": 43.71037512129948, "longitude": -79.45604021371685}, "108181645RR0001": {"name": "VILLA DE BROME", "designationCode": "C", "categoryCode": "49", "address": "57 PAPINEAU", "city": "LAC BROME", "province": "QC", "country": "CA", "postalCode": "J0E1S0", "twitter": "None", "instagram": "None", "facebook": "None", "youtube": "None", "website": "None", "summary": "None", "logo": "None", "latitude": 45.25703994754457, "longitude": -72.55550901754246}, "868345455RR0001": {"name": "VILLA DE LA PAIX II", "designationCode": "B", "categoryCode": "57", "address": "9880 RUE CLARK                BUREAU 350", "city": "MONTR\u00c9AL", "province": "QC", "country": "CA", "postalCode": "H3L2R3", "twitter": "None", "instagram": "None", "facebook": "None", "youtube": "None", "website": "None", "summary": "None", "logo": "None", "latitude": 45.54593812626248, "longitude": -73.65993067819831}, "889362414RR0001": {"name": "VILLA DES COEURS UNIS", "designationCode": "C", "categoryCode": "09", "address": "3, RUE STEVENS", "city": "STANDSTEAD", "province": "QC", "country": "CA", "postalCode": "J0B3E2", "twitter": "None", "instagram": "None", "facebook": "None", "youtube": "None", "website": "None", "summary": "None", "logo": "None", "latitude": 45.00927375993986, "longitude": -72.09806089595452}, "865928048RR0001": {"name": "VILLA DES JEUNES", "designationCode": "C", "categoryCode": "09", "address": "4860 ST FELIX", "city": "ST-AUGUSTIN", "province": "QC", "country": "CA", "postalCode": "G3A0L5", "twitter": "None", "instagram": "None", "facebook": "None", "youtube": "None", "website": "None", "summary": "None", "logo": "None", "latitude": 46.735960037267944, "longitude": -71.3865392040892}, "141220657RR0001": {"name": "VILLA DU CARMEL", "designationCode": "C", "categoryCode": "39", "address": "595 HOUDE", "city": "ST-CELESTIN", "province": "QC", "country": "CA", "postalCode": "J0C1G0", "twitter": "None", "instagram": "None", "facebook": "None", "youtube": "None", "website": "None", "summary": "None", "logo": "None", "latitude": 46.212374149027745, "longitude": -72.43406354244345}, "108174947RR0001": {"name": "VILLA DU REPOS INC.", "designationCode": "C", "categoryCode": "10", "address": "403 RUE MAIN", "city": "SHEDIAC", "province": "NB", "country": "CA", "postalCode": "E4P2B9", "twitter": "None", "instagram": "None", "facebook": "None", "youtube": "None", "website": "None", "summary": "None", "logo": "None", "latitude": 46.219689040431696, "longitude": -64.53812234927874}, "130952674RR0001": {"name": "VILLA FORESTVILLE", "designationCode": "C", "categoryCode": "01", "address": "4, 10E RUE                    BP 9", "city": "FORESTVILLE", "province": "QC", "country": "CA", "postalCode": "G0T1E0", "twitter": "None", "instagram": "None", "facebook": "None", "youtube": "None", "website": "None", "summary": "None", "logo": "None", "latitude": 48.74002715624111, "longitude": -69.08101355825515}, "105538672RR0001": {"name": "VILLA IGNATIA INC.", "designationCode": "C", "categoryCode": "57", "address": "2480, CHEMIN STE-FOY          BUREAU 165", "city": "QU\u00c9BEC", "province": "QC", "country": "CA", "postalCode": "G1V1T6", "twitter": "None", "instagram": "None", "facebook": "None", "youtube": "None", "website": "None", "summary": "None", "logo": "None", "latitude": 46.78397219126872, "longitude": -71.28824731975288}, "890852320RR0001": {"name": "VILLA L'ASSOMPTION", "designationCode": "C", "categoryCode": "09", "address": "72B, RUE ST-\u00c9TIENNE", "city": "SAINT-GERVAIS", "province": "QC", "country": "CA", "postalCode": "G0R3C0", "twitter": "None", "instagram": "None", "facebook": "None", "youtube": "None", "website": "None", "summary": "None", "logo": "None", "latitude": 46.71244393293923, "longitude": -70.89336568073449}, "107020331RR0060": {"name": "VILLA MADONNA RETREAT HOUSE", "designationCode": "C", "categoryCode": "38", "address": "115 VILLA MADONNA ROAD", "city": "ROTHESAY", "province": "NB", "country": "CA", "postalCode": "E2H2X4", "twitter": "None", "instagram": "None", "facebook": "None", "youtube": "None", "website": "None", "summary": "None", "logo": "None", "latitude": 45.355580442215114, "longitude": -66.01816762416773}, "140677626RR0001": {"name": "VILLA MARCONI LONG TERM CARE CENTRE", "designationCode": "C", "categoryCode": "01", "address": "1026 BASELINE ROAD", "city": "OTTAWA", "province": "ON", "country": "CA", "postalCode": "K2C0A6", "twitter": "None", "instagram": "None", "facebook": "None", "youtube": "None", "website": "None", "summary": "None", "logo": "None", "latitude": 45.36656873737708, "longitude": -75.72766946788659}, "119286219RR0001": {"name": "VILLA NOVA BAPTIST CHURCH", "designationCode": "A", "categoryCode": "31", "address": "290 WOODLEY RD RR #4", "city": "WATERFORD", "province": "ON", "country": "CA", "postalCode": "N0E1Y0", "twitter": "None", "instagram": "None", "facebook": "None", "youtube": "None", "website": "None", "summary": "None", "logo": "None", "latitude": 42.947009718275815, "longitude": -80.2686371230885}, "889762779RR0001": {"name": "VILLA PORT-CARTIER INC", "designationCode": "C", "categoryCode": "01", "address": "2 RUE LE MOYNE", "city": "PORT-CARTIER", "province": "QC", "country": "CA", "postalCode": "G5B0A3", "twitter": "None", "instagram": "None", "facebook": "None", "youtube": "None", "website": "None", "summary": "None", "logo": "None", "latitude": 50.02776268495032, "longitude": -66.85881607397994}, "119286235RR0001": {"name": "VILLA PROVIDENCE SHEDIAC INC", "designationCode": "C", "categoryCode": "01", "address": "403 RUE MAIN", "city": "SHEDIAC", "province": "NB", "country": "CA", "postalCode": "E4P2B9", "twitter": "None", "instagram": "None", "facebook": "None", "youtube": "None", "website": "None", "summary": "None", "logo": "None", "latitude": 46.219689040431696, "longitude": -64.53812234927874}, "119286250RR0001": {"name": "VILLA ROSA INC.", "designationCode": "C", "categoryCode": "01", "address": "784 WOLSELEY AVENUE", "city": "WINNIPEG", "province": "MB", "country": "CA", "postalCode": "R3G1C6", "twitter": "None", "instagram": "None", "facebook": "None", "youtube": "None", "website": "None", "summary": "None", "logo": "None", "latitude": 49.87991803075804, "longitude": -97.16396507698104}, "108181710RR0001": {"name": "VILLA SAINT-JOSEPH INC.", "designationCode": "C", "categoryCode": "10", "address": "585 RUE SAULNIER OUEST", "city": "TRACADIE-SHEILA", "province": "NB", "country": "CA", "postalCode": "E1X1B5", "twitter": "None", "instagram": "None", "facebook": "None", "youtube": "None", "website": "None", "summary": "None", "logo": "None", "latitude": 47.50586151647677, "longitude": -64.91587306199123}, "898461512RR0001": {"name": "VILLA SAINT-JOSEPH-DU-LAC FOUNDATION", "designationCode": "A", "categoryCode": "03", "address": "455 HIGHWAY 1                 RR1, BOX 810", "city": "YARMOUTH", "province": "NS", "country": "CA", "postalCode": "B5A4A5", "twitter": "None", "instagram": "None", "facebook": "None", "youtube": "None", "website": "None", "summary": "None", "logo": "None", "latitude": 43.840613682204626, "longitude": -66.11898837923871}, "120843537RR0001": {"name": "VILLA ST-HONOR\u00c9 INC.", "designationCode": "C", "categoryCode": "01", "address": "4 RUE DE L'EGLISE", "city": "ST-HONORE", "province": "QC", "country": "CA", "postalCode": "G0L3K0", "twitter": "None", "instagram": "None", "facebook": "None", "youtube": "None", "website": "None", "summary": "None", "logo": "None", "latitude": 48.20269808021237, "longitude": -69.04532410851753}, "108181694RR0001": {"name": "VILLA ST-JOSEPH DU LAC", "designationCode": "C", "categoryCode": "10", "address": "255 HWY 1", "city": "DAYTON", "province": "NS", "country": "CA", "postalCode": "B5A5A1", "twitter": "None", "instagram": "None", "facebook": "None", "youtube": "None", "website": "None", "summary": "None", "logo": "None", "latitude": 43.86807486345164, "longitude": -66.1086405018387}, "119286284RR0001": {"name": "VILLA STE-MARCELLINE", "designationCode": "C", "categoryCode": "20", "address": "815, UPPER-BELMONT", "city": "WESTMOUNT", "province": "QC", "country": "CA", "postalCode": "H3Y1K5", "twitter": "None", "instagram": "None", "facebook": "None", "youtube": "None", "website": "None", "summary": "None", "logo": "None", "latitude": 45.48931432364803, "longitude": -73.61772286591858}, "127922433RR0001": {"name": "VILLA UKRAINIENNE INC - UKRAINIAN VILLA INC", "designationCode": "C", "categoryCode": "01", "address": "6400 AV 8E", "city": "MONTREAL", "province": "QC", "country": "CA", "postalCode": "H1Y3H4", "twitter": "None", "instagram": "None", "facebook": "None", "youtube": "None", "website": "None", "summary": "None", "logo": "None", "latitude": 45.552829140689205, "longitude": -73.58648138969345}, "119286193RR0001": {"name": "VILLA-MARIA", "designationCode": "C", "categoryCode": "20", "address": "4245 BOUL. DECARIE", "city": "MONTREAL", "province": "QC", "country": "CA", "postalCode": "H4A3K4", "twitter": "None", "instagram": "None", "facebook": "None", "youtube": "None", "website": "None", "summary": "None", "logo": "None", "latitude": 45.47928588390119, "longitude": -73.61966197420027}, "818372286RR0001": {"name": "VILLAGE BIBLE CHURCH INC.", "designationCode": "C", "categoryCode": "39", "address": "736 YORK RD SS4", "city": "NIAGARA-ON-THE-LAKE", "province": "ON", "country": "CA", "postalCode": "L0S1J0", "twitter": "None", "instagram": "None", "facebook": "None", "youtube": "None", "website": "None", "summary": "None", "logo": "None", "latitude": 43.15689349711447, "longitude": -79.1467322216227}, "119286045RR0001": {"name": "VILLAGE CHILD CARE INCORPORATED", "designationCode": "C", "categoryCode": "01", "address": "1-730 RIVER ROAD", "city": "WINNIPEG", "province": "MB", "country": "CA", "postalCode": "R2M5A4", "twitter": "None", "instagram": "None", "facebook": "None", "youtube": "None", "website": "None", "summary": "None", "logo": "None", "latitude": 49.818467210110164, "longitude": -97.11611594751591}, "100709708RR0001": {"name": "VILLAGE CO-OPERATIVE PRESCHOOL INC.", "designationCode": "C", "categoryCode": "01", "address": "P.0. 745                      LAMBETH STATION", "city": "LONDON", "province": "ON", "country": "CA", "postalCode": "N6P1R2", "twitter": "None", "instagram": "None", "facebook": "None", "youtube": "None", "website": "None", "summary": "None", "logo": "None", "latitude": 42.91244761023706, "longitude": -81.30148110402438}, "845073410RR0001": {"name": "VILLAGE COMMUNITY SCHOOLS", "designationCode": "C", "categoryCode": "09", "address": "390 BAY STREET                SUITE 1202", "city": "TORONTO", "province": "ON", "country": "CA", "postalCode": "M5H2Y2", "twitter": "None", "instagram": "None", "facebook": "None", "youtube": "None", "website": "None", "summary": "None", "logo": "None", "latitude": 43.65110410687275, "longitude": -79.38169965834723}, "105537088RR0001": {"name": "VILLAGE DES ANCIENS COMBATTANTS INC/WAR VETERANS VILLAGE INC.", "designationCode": "C", "categoryCode": "01", "address": "9155 BOUL MATHIEU", "city": "QU\u00c9BEC", "province": "QC", "country": "CA", "postalCode": "G1G6J9", "twitter": "None", "instagram": "None", "facebook": "None", "youtube": "None", "website": "None", "summary": "None", "logo": "None", "latitude": 46.868859169282835, "longitude": -71.27390393334899}, "872728001RR0001": {"name": "VILLAGE DES SOURCES EN ACADIE INC.", "designationCode": "C", "categoryCode": "09", "address": "22, CHEMIN QUEEN'S WHARF", "city": "SHEDIAC CAPE", "province": "NB", "country": "CA", "postalCode": "E4P3C7", "twitter": "None", "instagram": "None", "facebook": "None", "youtube": "None", "website": "None", "summary": "None", "logo": "None", "latitude": 46.23896787239006, "longitude": -64.56603245176777}, "854492121RR0001": {"name": "VILLAGE DES SOURCES RESMAVIC INC.", "designationCode": "C", "categoryCode": "49", "address": "13, RUE DES CHALETS", "city": "ST-BASILE", "province": "NB", "country": "CA", "postalCode": "E7C1Y4", "twitter": "None", "instagram": "None", "facebook": "None", "youtube": "None", "website": "None", "summary": "None", "logo": "None", "latitude": 47.38056635001996, "longitude": -68.28654345666158}, "865481113RR0001": {"name": "VILLAGE EDUCATION AND DEVELOPMENT SOCIETY (CANADA)", "designationCode": "C", "categoryCode": "09", "address": "505 BLUE JAY DRIVE UNIT 57", "city": "LONDON", "province": "ON", "country": "CA", "postalCode": "N5X4K7", "twitter": "None", "instagram": "None", "facebook": "None", "youtube": "None", "website": "None", "summary": "None", "logo": "None", "latitude": 43.04127504128961, "longitude": -81.26945254284747}, "118840222RR0001": {"name": "VILLAGE GASPESIEN DE L'HERITAGE BRITANNIQUE/GASPESIAN BRITISH HERITAGE VILLAGE", "designationCode": "C", "categoryCode": "52", "address": "351 PERRON OUEST", "city": "NEW-RICHMOND", "province": "QC", "country": "CA", "postalCode": "G0C2B0", "twitter": "None", "instagram": "None", "facebook": "None", "youtube": "None", "website": "None", "summary": "None", "logo": "None", "latitude": 48.11478243161731, "longitude": -65.73135805952457}, "860260660RR0001": {"name": "VILLAGE GREEN COMMUNITY CHURCH", "designationCode": "C", "categoryCode": "31", "address": "505 VILLAGE GREEN AV", "city": "LONDON", "province": "ON", "country": "CA", "postalCode": "N6J4G4", "twitter": "None", "instagram": "None", "facebook": "None", "youtube": "None", "website": "None", "summary": "None", "logo": "None", "latitude": 42.951285419149194, "longitude": -81.28877661664363}, "887263838RR0001": {"name": "VILLAGE GREEN RECREATION SOCIETY", "designationCode": "C", "categoryCode": "56", "address": "351 WHISTLER'S COVE RD", "city": "EAST DOVER", "province": "NS", "country": "CA", "postalCode": "B3Z3W5", "twitter": "None", "instagram": "None", "facebook": "None", "youtube": "None", "website": "None", "summary": "None", "logo": "None", "latitude": 44.494148338305905, "longitude": -63.84757745423833}, "839365368RR0001": {"name": "VILLAGE KITTEN RESCUE", "designationCode": "C", "categoryCode": "54", "address": "P.O. BOX 430", "city": "NORTH GOWER", "province": "ON", "country": "CA", "postalCode": "K0A2T0", "twitter": "None", "instagram": "None", "facebook": "None", "youtube": "None", "website": "None", "summary": "None", "logo": "None", "latitude": 45.3567173236206, "longitude": -75.0434798516718}, "880953468RR0001": {"name": "VILLAGE LIGHTHOUSE, INC.", "designationCode": "C", "categoryCode": "39", "address": "930 BENTON ROAD", "city": "BENTON", "province": "NB", "country": "CA", "postalCode": "E7N2X1", "twitter": "None", "instagram": "None", "facebook": "None", "youtube": "None", "website": "None", "summary": "None", "logo": "None", "latitude": 45.98259035134763, "longitude": -67.6032727381842}, "855552097RR0001": {"name": "VILLAGE LITERACY PROJECT SOCIETY", "designationCode": "C", "categoryCode": "21", "address": "6523 DUNNEDIN ST", "city": "BURNABY", "province": "BC", "country": "CA", "postalCode": "V5A1Y7", "twitter": "None", "instagram": "None", "facebook": "None", "youtube": "None", "website": "None", "summary": "None", "logo": "None", "latitude": 49.276123557803835, "longitude": -122.96918662980411}, "840032668RR0001": {"name": "VILLAGE MEDICAL PROJECT FOR SIERRA LEONE SOCIETY", "designationCode": "C", "categoryCode": "19", "address": "358 WESLEY STREET", "city": "NANAIMO", "province": "BC", "country": "CA", "postalCode": "V9R2T6", "twitter": "None", "instagram": "None", "facebook": "None", "youtube": "None", "website": "None", "summary": "None", "logo": "None", "latitude": 49.16458218602019, "longitude": -123.94058250331162}, "886642792RR0001": {"name": "VILLAGE MISSIONS OF CANADA", "designationCode": "C", "categoryCode": "47", "address": "PO BOX 3400 STN MAIN", "city": "MISSION", "province": "BC", "country": "CA", "postalCode": "V2V4J5", "twitter": "None", "instagram": "None", "facebook": "None", "youtube": "None", "website": "None", "summary": "None", "logo": "None", "latitude": 49.13294100000006, "longitude": -122.32108249999993}, "839270873RR0001": {"name": "VILLAGE OUTREACH SOCIETY", "designationCode": "C", "categoryCode": "09", "address": "1500 GEORGIA ST W, SUITE 1250 BOX 62", "city": "VANCOUVER", "province": "BC", "country": "CA", "postalCode": "V6G2Z6", "twitter": "None", "instagram": "None", "facebook": "None", "youtube": "None", "website": "None", "summary": "None", "logo": "None", "latitude": 49.2900638104334, "longitude": -123.12989899362336}, "891628067RR0001": {"name": "VILLAGE THEATRE (WATERDOWN) INC.", "designationCode": "C", "categoryCode": "22", "address": "P.O. BOX 1330", "city": "WATERDOWN", "province": "ON", "country": "CA", "postalCode": "L0R2H0", "twitter": "None", "instagram": "None", "facebook": "None", "youtube": "None", "website": "None", "summary": "None", "logo": "None", "latitude": 43.329109500000015, "longitude": -79.8842655}, "847190766RR0001": {"name": "VILLAGE VINEYARD WINNIPEG INC.", "designationCode": "C", "categoryCode": "39", "address": "234 MORLEY AVE", "city": "WINNIPEG", "province": "MB", "country": "CA", "postalCode": "R3L0Y3", "twitter": "None", "instagram": "None", "facebook": "None", "youtube": "None", "website": "None", "summary": "None", "logo": "None", "latitude": 49.86574205355195, "longitude": -97.13252326060369}, "891738866RR0001": {"name": "VILLAGE VOICES", "designationCode": "C", "categoryCode": "22", "address": "4261-A14 HIGHWAY #7           P.O. BOX 356", "city": "UNIONVILLE", "province": "ON", "country": "CA", "postalCode": "L3R9W6", "twitter": "None", "instagram": "None", "facebook": "None", "youtube": "None", "website": "None", "summary": "None", "logo": "None", "latitude": 43.86113750791736, "longitude": -79.3109068836777}, "137711461RR0001": {"name": "VILLAGES DES JEUNES NOTRE-DAME DE TOUTE JOIE", "designationCode": "C", "categoryCode": "20", "address": "1500-7 IEME RANG", "city": "ST COME", "province": "QC", "country": "CA", "postalCode": "J0K2B0", "twitter": "None", "instagram": "None", "facebook": "None", "youtube": "None", "website": "None", "summary": "None", "logo": "None", "latitude": 46.31086500000005, "longitude": -73.81672999999994}, "892838327RR0001": {"name": "VILLE MARIE ONCOLOGY FOUNDATION/FONDATION D'ONCOLOGIE VILLE MARIE", "designationCode": "C", "categoryCode": "11", "address": "1538 SHERBROOKE OUEST         SUITE 209", "city": "MONTREAL", "province": "QC", "country": "CA", "postalCode": "H3G1L5", "twitter": "None", "instagram": "None", "facebook": "None", "youtube": "None", "website": "None", "summary": "None", "logo": "None", "latitude": 45.49675286398535, "longitude": -73.58153021547719}, "118782630RR0023": {"name": "VILLE ST-LAURENT CHINESE ALLIANCE CHURCH", "designationCode": "C", "categoryCode": "39", "address": "1650 RUE DECELLES", "city": "ST-LAURENT", "province": "QC", "country": "CA", "postalCode": "H4L2E6", "twitter": "None", "instagram": "None", "facebook": "None", "youtube": "None", "website": "None", "summary": "None", "logo": "None", "latitude": 45.51111881236665, "longitude": -73.682594807779}, "895169092RR0001": {"name": "VILNA SCHOOL PARENTS' ADVISORY COUNCIL ASSOCIATION", "designationCode": "C", "categoryCode": "21", "address": "PO BOX 25", "city": "VILNA", "province": "AB", "country": "CA", "postalCode": "T0A3L0", "twitter": "None", "instagram": "None", "facebook": "None", "youtube": "None", "website": "None", "summary": "None", "logo": "None", "latitude": 54.11403000000007, "longitude": -111.91908999999998}, "130299308RR0001": {"name": "VINCENT GRAVES GREENE PHILATELIC RESEARCH FOUNDATION", "designationCode": "C", "categoryCode": "22", "address": "10 SUMMERHILL AVENUE", "city": "TORONTO", "province": "ON", "country": "CA", "postalCode": "M4T1A8", "twitter": "None", "instagram": "None", "facebook": "None", "youtube": "None", "website": "None", "summary": "None", "logo": "None", "latitude": 43.683237219545234, "longitude": -79.39151607591317}, "898766324RR0001": {"name": "VINCENT MASSEY MUSIC ASSOCIATION", "designationCode": "C", "categoryCode": "22", "address": "715 MCDIARMID DRIVE", "city": "BRANDON", "province": "MB", "country": "CA", "postalCode": "R7B2H7", "twitter": "None", "instagram": "None", "facebook": "None", "youtube": "None", "website": "None", "summary": "None", "logo": "None", "latitude": 49.83812446999178, "longitude": -99.97841520110781}, "877285106RR0001": {"name": "VINCENT PLACE INC. MEN'S SHELTER", "designationCode": "C", "categoryCode": "09", "address": "222 ALBERT STREET EAST", "city": "SAULT STE MARIE", "province": "ON", "country": "CA", "postalCode": "P6A2J4", "twitter": "None", "instagram": "None", "facebook": "None", "youtube": "None", "website": "None", "summary": "None", "logo": "None", "latitude": 46.515600522909494, "longitude": -84.33578581790655}, "108184268RR0001": {"name": "VINELAND FREE REFORMED CHURCH", "designationCode": "C", "categoryCode": "39", "address": "3685 REGIONAL ROAD 81", "city": "VINELAND", "province": "ON", "country": "CA", "postalCode": "L0R2C0", "twitter": "None", "instagram": "None", "facebook": "None", "youtube": "None", "website": "None", "summary": "None", "logo": "None", "latitude": 43.15703831556741, "longitude": -79.40979069268421}, "756164125RR0001": {"name": "VINELAND MISSIONARY CHURCH", "designationCode": "C", "categoryCode": "39", "address": "3874 VICTORIA AVENUE", "city": "VINELAND", "province": "ON", "country": "CA", "postalCode": "L0R2C0", "twitter": "None", "instagram": "None", "facebook": "None", "youtube": "None", "website": "None", "summary": "None", "logo": "None", "latitude": 43.14977976963474, "longitude": -79.39273907487397}, "119286433RR0001": {"name": "VINELAND STATION PASTORAL CHARGE", "designationCode": "C", "categoryCode": "44", "address": "4402 VICTORIA AVE. NORTH", "city": "VINELAND STATION", "province": "ON", "country": "CA", "postalCode": "L0R2E0", "twitter": "None", "instagram": "None", "facebook": "None", "youtube": "None", "website": "None", "summary": "None", "logo": "None", "latitude": 43.17383604662706, "longitude": -79.39425107761528}, "119286441RR0001": {"name": "VINELAND UNITED MENNONITE CHURCH", "designationCode": "C", "categoryCode": "34", "address": "3327 MENNO ST                 PO 305", "city": "VINELAND", "province": "ON", "country": "CA", "postalCode": "L0R2C0", "twitter": "None", "instagram": "None", "facebook": "None", "youtube": "None", "website": "None", "summary": "None", "logo": "None", "latitude": 43.155710512695045, "longitude": -79.38929126839398}, "129893319RR0001": {"name": "VINEYARD CANADIAN REFORMED CHURCH OF LINCOLN", "designationCode": "C", "categoryCode": "39", "address": "3765 FROST RD", "city": "BEAMSVILLE", "province": "ON", "country": "CA", "postalCode": "L0R1B2", "twitter": "None", "instagram": "None", "facebook": "None", "youtube": "None", "website": "None", "summary": "None", "logo": "None", "latitude": 43.139361328724796, "longitude": -79.47424175786473}, "108184367RR0001": {"name": "VINEYARD CHRISTIAN FELLOWSHIP", "designationCode": "C", "categoryCode": "39", "address": "1129 SACKVILLE DRIVE", "city": "SACKVILLE", "province": "NS", "country": "CA", "postalCode": "B4E3C8", "twitter": "None", "instagram": "None", "facebook": "None", "youtube": "None", "website": "None", "summary": "None", "logo": "None", "latitude": 44.781451457152514, "longitude": -63.70750949847079}, "119286482RR0001": {"name": "VINEYARD CHRISTIAN FELLOWSHIP", "designationCode": "C", "categoryCode": "39", "address": "5708 GLOVER RD", "city": "LANGLEY", "province": "BC", "country": "CA", "postalCode": "V3A4H8", "twitter": "None", "instagram": "None", "facebook": "None", "youtube": "None", "website": "None", "summary": "None", "logo": "None", "latitude": 49.106379440920534, "longitude": -122.6529615029595}, "899807457RR0001": {"name": "VINEYARD CHRISTIAN FELLOWSHIP - WINNIPEG CENTRE INC.", "designationCode": "C", "categoryCode": "39", "address": "782 MAIN ST", "city": "WINNIPEG", "province": "MB", "country": "CA", "postalCode": "R2W3N4", "twitter": "None", "instagram": "None", "facebook": "None", "youtube": "None", "website": "None", "summary": "None", "logo": "None", "latitude": 49.90639749293087, "longitude": -97.13422899007399}, "893198150RR0001": {"name": "VINEYARD CHRISTIAN FELLOWSHIP ABBOTSFORD", "designationCode": "C", "categoryCode": "39", "address": "2-2650 PROGRESSIVE WAY", "city": "ABBOTSFORD", "province": "BC", "country": "CA", "postalCode": "V2T6H9", "twitter": "None", "instagram": "None", "facebook": "None", "youtube": "None", "website": "None", "summary": "None", "logo": "None", "latitude": 49.05068413627447, "longitude": -122.3759920920716}, "893200758RR0001": {"name": "VINEYARD CHRISTIAN FELLOWSHIP ALDERGROVE", "designationCode": "C", "categoryCode": "39", "address": "22311 - 50TH AVENUE", "city": "LANGLEY", "province": "BC", "country": "CA", "postalCode": "V2Y2V4", "twitter": "None", "instagram": "None", "facebook": "None", "youtube": "None", "website": "None", "summary": "None", "logo": "None", "latitude": 49.093050478215694, "longitude": -122.60638277699232}, "894585231RR0001": {"name": "VINEYARD CHRISTIAN FELLOWSHIP CHILLIWACK", "designationCode": "C", "categoryCode": "39", "address": "45873 WELLINGTON AVENUE", "city": "CHILLIWACK", "province": "BC", "country": "CA", "postalCode": "V2P2C8", "twitter": "None", "instagram": "None", "facebook": "None", "youtube": "None", "website": "None", "summary": "None", "logo": "None", "latitude": 49.17196184820231, "longitude": -121.95538271383242}, "897876223RR0001": {"name": "VINEYARD CHRISTIAN FELLOWSHIP NORTH CALGARY", "designationCode": "C", "categoryCode": "39", "address": "155 MACEWAN GLEN PLACE NW", "city": "CALGARY", "province": "AB", "country": "CA", "postalCode": "T3K2C7", "twitter": "None", "instagram": "None", "facebook": "None", "youtube": "None", "website": "None", "summary": "None", "logo": "None", "latitude": 51.13330238773156, "longitude": -114.11090340856357}, "895910255RR0001": {"name": "VINEYARD CHRISTIAN FELLOWSHIP-VANCOUVER SOUTH", "designationCode": "C", "categoryCode": "39", "address": "2475 FRANKLIN ST", "city": "VANCOUVER", "province": "BC", "country": "CA", "postalCode": "V5K1X3", "twitter": "None", "instagram": "None", "facebook": "None", "youtube": "None", "website": "None", "summary": "None", "logo": "None", "latitude": 49.28211449321933, "longitude": -123.05503252553522}, "135286805RR0001": {"name": "VINEYARD CHRISTIAN FELLOWSHIPS OF EDMONTON (EDMONTON VINEYARDS)", "designationCode": "C", "categoryCode": "31", "address": "PO BOX 20032", "city": "EDMONTON", "province": "AB", "country": "CA", "postalCode": "T5W0Z9", "twitter": "None", "instagram": "None", "facebook": "None", "youtube": "None", "website": "None", "summary": "None", "logo": "None", "latitude": 53.57041800000006, "longitude": -113.40225349999994}, "810105676RR0001": {"name": "VINEYARD HARVESTER COVENANT MINISTRIES OF SLAVE LAKE", "designationCode": "C", "categoryCode": "39", "address": "1615 WESTERRA AVE", "city": "STONY PLAIN", "province": "AB", "country": "CA", "postalCode": "T7Z0H2", "twitter": "None", "instagram": "None", "facebook": "None", "youtube": "None", "website": "None", "summary": "None", "logo": "None", "latitude": 53.506837784219975, "longitude": -113.99652454865763}, "130197296RR0001": {"name": "VINEYARD MINISTRIES CANADA", "designationCode": "C", "categoryCode": "47", "address": "P O BOX 333", "city": "ST. STEPHEN", "province": "NB", "country": "CA", "postalCode": "E3L2X2", "twitter": "None", "instagram": "None", "facebook": "None", "youtube": "None", "website": "None", "summary": "None", "logo": "None", "latitude": 45.19456800000006, "longitude": -67.27532299999993}, "730265097RR0001": {"name": "VINEYARD OTTAWA CHURCH", "designationCode": "C", "categoryCode": "31", "address": "51 GREENBANK ROAD", "city": "NEPEAN", "province": "ON", "country": "CA", "postalCode": "K2H8K4", "twitter": "None", "instagram": "None", "facebook": "None", "youtube": "None", "website": "None", "summary": "None", "logo": "None", "latitude": 45.338062157943206, "longitude": -75.78627339321416}}