{"888913514RR0001": {"name": "CICS Foundation", "designationCode": "A", "categoryCode": "53", "address": "2330 MIDLAND AVENUE", "city": "TORONTO", "province": "ON", "country": "CA", "postalCode": "M1S5G5", "twitter": "None", "instagram": "None", "facebook": "None", "youtube": "None", "website": "None", "summary": "None", "logo": "None", "latitude": 43.77850231528083, "longitude": -79.27531652642925}, "118864115RR0001": {"name": "CIEL OUVERT EVANGELISATION", "designationCode": "C", "categoryCode": "49", "address": "3203, ADRIEN DUFRESNE", "city": "QUEBEC", "province": "QC", "country": "CA", "postalCode": "G1C7M2", "twitter": "None", "instagram": "None", "facebook": "None", "youtube": "None", "website": "None", "summary": "None", "logo": "None", "latitude": 46.872505066910804, "longitude": -71.21784781155857}, "804193555RR0001": {"name": "CIF Charitable Foundation", "designationCode": "A", "categoryCode": "03", "address": "2939 PORTLAND DRIVE, SUITE 300", "city": "OAKVILLE", "province": "ON", "country": "CA", "postalCode": "L6H5S4", "twitter": "None", "instagram": "None", "facebook": "None", "youtube": "None", "website": "None", "summary": "None", "logo": "None", "latitude": 43.51811894477463, "longitude": -79.67970396976158}, "118834480RR0001": {"name": "CIM Foundation / Fondation CIM", "designationCode": "A", "categoryCode": "23", "address": "3500 DE MAISONNEUVE W.        SUITE 1250", "city": "MONTREAL", "province": "QC", "country": "CA", "postalCode": "H3Z3C1", "twitter": "None", "instagram": "None", "facebook": "None", "youtube": "None", "website": "None", "summary": "None", "logo": "None", "latitude": 45.486532048012016, "longitude": -73.58985195461369}, "896893492RR0001": {"name": "CIM\u00c8TIERE SAINT-MICHEL DE SHAWINIGAN", "designationCode": "C", "categoryCode": "59", "address": "4670, BOUL. DE SHAWINIGAN-SUD", "city": "SHAWINIGAN", "province": "QC", "country": "CA", "postalCode": "G9N6T5", "twitter": "None", "instagram": "None", "facebook": "None", "youtube": "None", "website": "None", "summary": "None", "logo": "None", "latitude": 46.495013367707585, "longitude": -72.71634367730333}, "871881694RR0001": {"name": "CIME MUSIQUE", "designationCode": "C", "categoryCode": "20", "address": "867 BOUL JEAN-PAUL-VINCENT", "city": "LONGUEUIL", "province": "QC", "country": "CA", "postalCode": "J4G1R3", "twitter": "None", "instagram": "None", "facebook": "None", "youtube": "None", "website": "None", "summary": "None", "logo": "None", "latitude": 45.559419220958866, "longitude": -73.4722114126612}, "133412072RR0001": {"name": "CIMETI\u00c8RE CATHOLIQUE ROMAIN DE DRUMMONDVILLE", "designationCode": "C", "categoryCode": "59", "address": "880 RUE SAINT-PIERRE", "city": "DRUMMONDVILLE", "province": "QC", "country": "CA", "postalCode": "J2C3X3", "twitter": "None", "instagram": "None", "facebook": "None", "youtube": "None", "website": "None", "summary": "None", "logo": "None", "latitude": 45.87824350124077, "longitude": -72.50888000761739}, "122016413RR0001": {"name": "CIMETI\u00c8RE SAINT-JOSEPH DE MANICOUAGAN", "designationCode": "C", "categoryCode": "59", "address": "36, AVENUE MARQUETTE", "city": "BAIE-COMEAU", "province": "QC", "country": "CA", "postalCode": "G4Z1K7", "twitter": "None", "instagram": "None", "facebook": "None", "youtube": "None", "website": "None", "summary": "None", "logo": "None", "latitude": 49.21918316483945, "longitude": -68.14804748704516}, "894561984RR0001": {"name": "CIMETIERE BETH ISRAEL DE QUEBEC INC.", "designationCode": "C", "categoryCode": "59", "address": "1269 AVE JAMES-LEMOINE", "city": "SILLERY", "province": "QC", "country": "CA", "postalCode": "G1S1A1", "twitter": "None", "instagram": "None", "facebook": "None", "youtube": "None", "website": "None", "summary": "None", "logo": "None", "latitude": 46.78686255785111, "longitude": -71.24387894018697}, "118864149RR0001": {"name": "CIMETIERE CATHOLIQUE D'ALMA", "designationCode": "C", "categoryCode": "59", "address": "70 RUE ST-JOSEPH S            LOCAL 11", "city": "ALMA", "province": "QC", "country": "CA", "postalCode": "G8B3E4", "twitter": "None", "instagram": "None", "facebook": "None", "youtube": "None", "website": "None", "summary": "None", "logo": "None", "latitude": 48.55041613933288, "longitude": -71.65166813226375}, "118864156RR0001": {"name": "CIMETIERE DE MONT-JOLI", "designationCode": "C", "categoryCode": "59", "address": "C.P. 773", "city": "MONT-JOLI", "province": "QC", "country": "CA", "postalCode": "G5H3Z2", "twitter": "None", "instagram": "None", "facebook": "None", "youtube": "None", "website": "None", "summary": "None", "logo": "None", "latitude": 48.58792800000006, "longitude": -68.19108199999994}, "892231242RR0001": {"name": "CIMETIERE PROTESTANT DE LA GRANDE LIGNE INC/GRANDE LIGNE PROTESTANT CEMETERY INC", "designationCode": "C", "categoryCode": "59", "address": "1011 RUE PRINCIPALE", "city": "ST. BLAISE", "province": "QC", "country": "CA", "postalCode": "J0J1W0", "twitter": "None", "instagram": "None", "facebook": "None", "youtube": "None", "website": "None", "summary": "None", "logo": "None", "latitude": 45.21519515624111, "longitude": -73.29324822442132}, "889350195RR0001": {"name": "CIMETIERE REGIONAL DE TERREBONNE", "designationCode": "C", "categoryCode": "59", "address": "825 RUE SAINT-LOUIS", "city": "TERREBONNE", "province": "QC", "country": "CA", "postalCode": "J6W1J7", "twitter": "None", "instagram": "None", "facebook": "None", "youtube": "None", "website": "None", "summary": "None", "logo": "None", "latitude": 45.6948694205088, "longitude": -73.63657497169481}, "122664642RR0001": {"name": "CIMETIERE SAINT-JEAN-SUR-RICHELIEU INC", "designationCode": "C", "categoryCode": "59", "address": "563, RUE SAINT-JACQUES", "city": "SAINT-JEAN-SUR-RICHELIEU", "province": "QC", "country": "CA", "postalCode": "J3B7N7", "twitter": "None", "instagram": "None", "facebook": "None", "youtube": "None", "website": "None", "summary": "None", "logo": "None", "latitude": 45.30628823608814, "longitude": -73.27335930145841}, "887190601RR0001": {"name": "CINDERELLA'S CLOSET FOUNDATION", "designationCode": "C", "categoryCode": "20", "address": "11111 - 35 A AVENUE", "city": "EDMONTON", "province": "AB", "country": "CA", "postalCode": "T6J0A4", "twitter": "None", "instagram": "None", "facebook": "None", "youtube": "None", "website": "None", "summary": "None", "logo": "None", "latitude": 53.468031063936834, "longitude": -113.51838021549385}, "872263975RR0001": {"name": "CINE FRANCO", "designationCode": "C", "categoryCode": "22", "address": "25 GEORGE ST                  SUITE 401", "city": "TORONTO", "province": "ON", "country": "CA", "postalCode": "M5A4L8", "twitter": "None", "instagram": "None", "facebook": "None", "youtube": "None", "website": "None", "summary": "None", "logo": "None", "latitude": 43.65016875742971, "longitude": -79.37043913125413}, "125487744RR0001": {"name": "CINEFEST: THE SUDBURY FILM FESTIVAL INC.", "designationCode": "C", "categoryCode": "22", "address": "40 LARCH ST                   UNIT 103", "city": "SUDBURY", "province": "ON", "country": "CA", "postalCode": "P3E3M2", "twitter": "None", "instagram": "None", "facebook": "None", "youtube": "None", "website": "None", "summary": "None", "logo": "None", "latitude": 46.49139901659816, "longitude": -80.99533187633749}, "856801758RR0001": {"name": "CINEMATHEQUE CALGARY SOCIETY", "designationCode": "C", "categoryCode": "22", "address": "212 223 12 AVE SW", "city": "CALGARY", "province": "AB", "country": "CA", "postalCode": "T2R0G9", "twitter": "None", "instagram": "None", "facebook": "None", "youtube": "None", "website": "None", "summary": "None", "logo": "None", "latitude": 51.04147448845882, "longitude": -114.0671642216227}, "118864198RR0001": {"name": "CINEWORKS INDEPENDENT FILMMAKERS SOCIETY", "designationCode": "C", "categoryCode": "22", "address": "STE 300 - 1131 HOWE ST", "city": "VANCOUVER", "province": "BC", "country": "CA", "postalCode": "V6Z2L7", "twitter": "None", "instagram": "None", "facebook": "None", "youtube": "None", "website": "None", "summary": "None", "logo": "None", "latitude": 49.27865077243116, "longitude": -123.12606403598599}, "889709499RR0001": {"name": "CIP/ICU PLANNING STUDENT TRUST FUND/FONDS EN FID\u00c9ICOMMIS POUR \u00c9TUDIANTS EN URBANISME ET AM\u00c9NAGEMENT CIP/ICU", "designationCode": "C", "categoryCode": "21", "address": "1112-141 LAURIER AVENUE WEST", "city": "OTTAWA", "province": "ON", "country": "CA", "postalCode": "K1P5J3", "twitter": "None", "instagram": "None", "facebook": "None", "youtube": "None", "website": "None", "summary": "None", "logo": "None", "latitude": 45.42069040357192, "longitude": -75.69391146254821}, "897716494RR0001": {"name": "CIRCA art actuel", "designationCode": "C", "categoryCode": "22", "address": "372 RUE SAINTE-CATHERINE O", "city": "MONTREAL", "province": "QC", "country": "CA", "postalCode": "H3B1A2", "twitter": "None", "instagram": "None", "facebook": "None", "youtube": "None", "website": "None", "summary": "None", "logo": "None", "latitude": 45.505710294189015, "longitude": -73.56737639950389}, "106929110RR0001": {"name": "CIRCLE DRIVE ALLIANCE CHURCH", "designationCode": "C", "categoryCode": "39", "address": "3035 PRESTON AVE SOUTH", "city": "SASKATOON", "province": "SK", "country": "CA", "postalCode": "S7T1C2", "twitter": "None", "instagram": "None", "facebook": "None", "youtube": "None", "website": "None", "summary": "None", "logo": "None", "latitude": 52.08700174236118, "longitude": -106.62258274236117}, "106929128RR0001": {"name": "CIRCLE DRIVE SPECIAL CARE HOME INC.", "designationCode": "C", "categoryCode": "10", "address": "3055 PRESTON AVE S", "city": "SASKATOON", "province": "SK", "country": "CA", "postalCode": "S7T1C3", "twitter": "None", "instagram": "None", "facebook": "None", "youtube": "None", "website": "None", "summary": "None", "logo": "None", "latitude": 52.08629400000001, "longitude": -106.62259775939255}, "870673548RR0001": {"name": "CIRCLE F HORSE RESCUE SOCIETY", "designationCode": "C", "categoryCode": "54", "address": "PO BOX 73; MAIN STATION", "city": "ABBOTSFORD", "province": "BC", "country": "CA", "postalCode": "V2T6Z4", "twitter": "None", "instagram": "None", "facebook": "None", "youtube": "None", "website": "None", "summary": "None", "logo": "None", "latitude": 49.05161700000005, "longitude": -122.32930399999994}, "119145084RR0001": {"name": "CIRCLE OF CARE FOUNDATION (TORONTO)", "designationCode": "B", "categoryCode": "03", "address": "4211 YONGE STREET             SUITE 401", "city": "TORONTO", "province": "ON", "country": "CA", "postalCode": "M2P2A9", "twitter": "None", "instagram": "None", "facebook": "None", "youtube": "None", "website": "None", "summary": "None", "logo": "None", "latitude": 43.748057231202, "longitude": -79.40760520422447}, "118782861RR0001": {"name": "CIRCLE OF EAGLES LODGE SOCIETY", "designationCode": "C", "categoryCode": "59", "address": "1470 EAST BROADWAY", "city": "VANCOUVER", "province": "BC", "country": "CA", "postalCode": "V5N1V6", "twitter": "None", "instagram": "None", "facebook": "None", "youtube": "None", "website": "None", "summary": "None", "logo": "None", "latitude": 49.26232247013696, "longitude": -123.07411155107044}, "106929169RR0001": {"name": "CIRCLE OF FRIENDS DAY CARE INC.", "designationCode": "C", "categoryCode": "01", "address": "30 LYONS ST", "city": "KINGSTON", "province": "ON", "country": "CA", "postalCode": "K7K0J5", "twitter": "None", "instagram": "None", "facebook": "None", "youtube": "None", "website": "None", "summary": "None", "logo": "None", "latitude": 44.25401685885426, "longitude": -76.49950891855548}, "890807746RR0001": {"name": "CIRCLE OF FRIENDS FOR NEWCOMERS (HAMILTON)", "designationCode": "C", "categoryCode": "09", "address": "155 QUEEN ST. N.", "city": "HAMILTON", "province": "ON", "country": "CA", "postalCode": "L8R2V7", "twitter": "None", "instagram": "None", "facebook": "None", "youtube": "None", "website": "None", "summary": "None", "logo": "None", "latitude": 43.264192473224035, "longitude": -79.8767444309248}, "870737707RR0001": {"name": "CIRCLE OF HARMONY CHORUS", "designationCode": "C", "categoryCode": "22", "address": "23-2031 AMHERST HTS. CT", "city": "BURLINGTON", "province": "ON", "country": "CA", "postalCode": "L7P3R2", "twitter": "None", "instagram": "None", "facebook": "None", "youtube": "None", "website": "None", "summary": "None", "logo": "None", "latitude": 43.352127103814325, "longitude": -79.83399207995255}, "874169105RR0001": {"name": "CIRCLE OF HEARTS FAMILY SUPPORT NETWORK", "designationCode": "C", "categoryCode": "11", "address": "64 LAKE VILLAGE RD", "city": "WINNIPEG", "province": "MB", "country": "CA", "postalCode": "R3T4M8", "twitter": "None", "instagram": "None", "facebook": "None", "youtube": "None", "website": "None", "summary": "None", "logo": "None", "latitude": 49.81495886759201, "longitude": -97.15900327226045}, "118871169RR0001": {"name": "CIRCLE OF HOME CARE SERVICES (TORONTO)", "designationCode": "C", "categoryCode": "09", "address": "4211 YONGE ST, SUITE 401", "city": "TORONTO", "province": "ON", "country": "CA", "postalCode": "M2P2A9", "twitter": "None", "instagram": "None", "facebook": "None", "youtube": "None", "website": "None", "summary": "None", "logo": "None", "latitude": 43.748057231202, "longitude": -79.40760520422447}, "888674041RR0001": {"name": "CIRCLE OF RED DEER SENIORS SOCIETY", "designationCode": "C", "categoryCode": "56", "address": "4620 47A AVE", "city": "RED DEER", "province": "AB", "country": "CA", "postalCode": "T4N3R4", "twitter": "None", "instagram": "None", "facebook": "None", "youtube": "None", "website": "None", "summary": "None", "logo": "None", "latitude": 52.26553791485792, "longitude": -113.80753723882576}, "890937998RR0001": {"name": "CIRCLE 62 CHARITABLE FOUNDATION", "designationCode": "B", "categoryCode": "03", "address": "BOX 1240", "city": "BROOKS", "province": "AB", "country": "CA", "postalCode": "T1R1C1", "twitter": "None", "instagram": "None", "facebook": "None", "youtube": "None", "website": "None", "summary": "None", "logo": "None", "latitude": 50.56584900000006, "longitude": -111.89848399999994}, "868808866RR0001": {"name": "CIRCLES OF FAITH COMMUNITY CHURCH", "designationCode": "C", "categoryCode": "39", "address": "PO BOX 547", "city": "VANKLEEK HILL", "province": "ON", "country": "CA", "postalCode": "K0B1R0", "twitter": "None", "instagram": "None", "facebook": "None", "youtube": "None", "website": "None", "summary": "None", "logo": "None", "latitude": 45.526948915276186, "longitude": -74.68129408071073}, "119288918RR0923": {"name": "CIRCONSCRIPTION DES TEMOINS DE JEHOVAH DU NO 12 (QUEBEC)", "designationCode": "C", "categoryCode": "61", "address": "1639 RUE LAURENT PARADIS", "city": "TROIS-RIVIERES", "province": "QC", "country": "CA", "postalCode": "G8Y6B9", "twitter": "None", "instagram": "None", "facebook": "None", "youtube": "None", "website": "None", "summary": "None", "logo": "None", "latitude": 46.37372515292289, "longitude": -72.61475334595194}, "119288918RR0978": {"name": "CIRCONSCRIPTION DES TEMOINS DE JEHOVAH DU QUEBEC NO 1-A", "designationCode": "C", "categoryCode": "61", "address": "985 AVENUE GILLES-RICARD", "city": "ROUYN-NORANDA", "province": "QC", "country": "CA", "postalCode": "J9Y6X6", "twitter": "None", "instagram": "None", "facebook": "None", "youtube": "None", "website": "None", "summary": "None", "logo": "None", "latitude": 48.22039397778301, "longitude": -79.06179923374081}, "119288918RR1283": {"name": "CIRCONSCRIPTION DES TEMOINS DE JEHOVAH DU QUEBEC NO 1-B", "designationCode": "C", "categoryCode": "61", "address": "234 PLACE DES SORBIERS", "city": "GATINEAU", "province": "QC", "country": "CA", "postalCode": "J8Y6P9", "twitter": "None", "instagram": "None", "facebook": "None", "youtube": "None", "website": "None", "summary": "None", "logo": "None", "latitude": 45.4594210932541, "longitude": -75.76435277993517}, "119288918RR0929": {"name": "CIRCONSCRIPTION DES TEMOINS DE JEHOVAH DU QUEBEC NO 11", "designationCode": "C", "categoryCode": "61", "address": "149 RUE PICARD", "city": "ST-EUSTACHE", "province": "QC", "country": "CA", "postalCode": "J7R4L5", "twitter": "None", "instagram": "None", "facebook": "None", "youtube": "None", "website": "None", "summary": "None", "logo": "None", "latitude": 45.56047618318997, "longitude": -73.90722870494562}, "119288918RR0941": {"name": "CIRCONSCRIPTION DES TEMOINS DE JEHOVAH DU QUEBEC NO 3A", "designationCode": "C", "categoryCode": "61", "address": "8127 RUE ALVERNE", "city": "ST-LEONARD", "province": "QC", "country": "CA", "postalCode": "H1R2R6", "twitter": "None", "instagram": "None", "facebook": "None", "youtube": "None", "website": "None", "summary": "None", "logo": "None", "latitude": 45.580638603670096, "longitude": -73.59651686637993}, "119288918RR0904": {"name": "CIRCONSCRIPTION DES TEMOINS DE JEHOVAH DU QUEBEC NO 7", "designationCode": "C", "categoryCode": "61", "address": "9 RUE J.-T.-LAROCHELLE", "city": "LEVIS", "province": "QC", "country": "CA", "postalCode": "G6V5X8", "twitter": "None", "instagram": "None", "facebook": "None", "youtube": "None", "website": "None", "summary": "None", "logo": "None", "latitude": 46.80494952954592, "longitude": -71.1852756534998}, "119288918RR1187": {"name": "CIRCONSCRIPTION DES TEMOINS DE JEHOVAH DU QUEBEC NO 9", "designationCode": "C", "categoryCode": "61", "address": "317 RUE ST-THOMAS", "city": "JOLIETTE", "province": "QC", "country": "CA", "postalCode": "J6E3P8", "twitter": "None", "instagram": "None", "facebook": "None", "youtube": "None", "website": "None", "summary": "None", "logo": "None", "latitude": 46.022124227306854, "longitude": -73.43395379430457}, "128441953RR0001": {"name": "CIRCUIT-EST", "designationCode": "C", "categoryCode": "22", "address": "2022 SHERBROOKE EST", "city": "MONTREAL", "province": "QC", "country": "CA", "postalCode": "H2K1B9", "twitter": "None", "instagram": "None", "facebook": "None", "youtube": "None", "website": "None", "summary": "None", "logo": "None", "latitude": 45.53036469885744, "longitude": -73.56310573754998}, "119281426RR0001": {"name": "CIRCUSWEST PERFORMING ARTS SOCIETY", "designationCode": "C", "categoryCode": "22", "address": "2901 HASTINGS ST E", "city": "VANCOUVER", "province": "BC", "country": "CA", "postalCode": "V5K5J1", "twitter": "None", "instagram": "None", "facebook": "None", "youtube": "None", "website": "None", "summary": "None", "logo": "None", "latitude": 49.28110153173897, "longitude": -123.03750052553522}, "843091893RR0001": {"name": "CIRO (Canadian International Rescue Organization)", "designationCode": "C", "categoryCode": "59", "address": "POST OFFICE BOX 1 SITE 17     RR3", "city": "PONOKA", "province": "AB", "country": "CA", "postalCode": "T4J1R3", "twitter": "None", "instagram": "None", "facebook": "None", "youtube": "None", "website": "None", "summary": "None", "logo": "None", "latitude": 52.67526900000006, "longitude": -113.58076399999993}, "846931913RR0001": {"name": "CISV Halifax", "designationCode": "C", "categoryCode": "29", "address": "1760 CONNAUGHT AVE", "city": "HALIFAX", "province": "NS", "country": "CA", "postalCode": "B3H4C8", "twitter": "None", "instagram": "None", "facebook": "None", "youtube": "None", "website": "None", "summary": "None", "logo": "None", "latitude": 44.64077742740504, "longitude": -63.60294616599328}, "862061900RR0001": {"name": "CIT\u00c9 J\u00c9RUSALEM CENTRE CHR\u00c9TIEN D'\u00c9VANG\u00c9LISATION", "designationCode": "C", "categoryCode": "39", "address": "2126 BLVD DES OISEAUX", "city": "LAVAL", "province": "QC", "country": "CA", "postalCode": "H7L0B5", "twitter": "None", "instagram": "None", "facebook": "None", "youtube": "None", "website": "None", "summary": "None", "logo": "None", "latitude": 45.59792090034062, "longitude": -73.76455423951187}, "129471546RR0001": {"name": "CITADEL FOUNDATION / FONDATION CITADEL", "designationCode": "A", "categoryCode": "03", "address": "2000 - 1270 CH SAINTE-FOY", "city": "QUEBEC", "province": "QC", "country": "CA", "postalCode": "G1S2M4", "twitter": "None", "instagram": "None", "facebook": "None", "youtube": "None", "website": "None", "summary": "None", "logo": "None", "latitude": 46.795915761948145, "longitude": -71.251954217053}, "858860562RR0001": {"name": "CITADELLE DE L'ESPOIR", "designationCode": "C", "categoryCode": "09", "address": "17144 BOUL. GOUIN OUEST", "city": "PIERREFONDS", "province": "QC", "country": "CA", "postalCode": "H9J1A3", "twitter": "None", "instagram": "None", "facebook": "None", "youtube": "None", "website": "None", "summary": "None", "logo": "None", "latitude": 45.47069244711188, "longitude": -73.87902391949919}, "104324017RR0001": {"name": "CITE DES RETRAITES, N.D.F. INC.", "designationCode": "C", "categoryCode": "10", "address": "6555 RUE DE PONTOISE", "city": "MONTREAL", "province": "QC", "country": "CA", "postalCode": "H1T3S9", "twitter": "None", "instagram": "None", "facebook": "None", "youtube": "None", "website": "None", "summary": "None", "logo": "None", "latitude": 45.57988074663833, "longitude": -73.56784343585915}, "858394372RR0001": {"name": "CITE DU REVEIL ASSEMBLEE CHRETIENNE A CALGARY/CITY OF REVIVAL CHRISTIAN FELLOWSHIP IN CALGARY", "designationCode": "C", "categoryCode": "39", "address": "63 SAGE BLUFF GREEN NW", "city": "CALGARY", "province": "AB", "country": "CA", "postalCode": "T3R0X8", "twitter": "None", "instagram": "None", "facebook": "None", "youtube": "None", "website": "None", "summary": "None", "logo": "None", "latitude": 51.18135249653754, "longitude": -114.13687091909516}, "832874572RR0001": {"name": "CITI BC RESEARCH SOCIETY", "designationCode": "C", "categoryCode": "11", "address": "1100 - 1631 DICKSON AVE", "city": "KELOWNA", "province": "BC", "country": "CA", "postalCode": "V1Y0B5", "twitter": "None", "instagram": "None", "facebook": "None", "youtube": "None", "website": "None", "summary": "None", "logo": "None", "latitude": 49.88064051067581, "longitude": -119.46192316763806}, "865618375RR0001": {"name": "CITIE BALLET SOCIETY", "designationCode": "C", "categoryCode": "22", "address": "10221 123 ST NW", "city": "EDMONTON", "province": "AB", "country": "CA", "postalCode": "T5N1N3", "twitter": "None", "instagram": "None", "facebook": "None", "youtube": "None", "website": "None", "summary": "None", "logo": "None", "latitude": 53.54375374854291, "longitude": -113.53407625627587}, "869253526RR0001": {"name": "CITIES FOR CHRIST (CANADA)", "designationCode": "C", "categoryCode": "09", "address": "1199 HAMILTON RD UNIT 51", "city": "LONDON", "province": "ON", "country": "CA", "postalCode": "N5W5Z9", "twitter": "None", "instagram": "None", "facebook": "None", "youtube": "None", "website": "None", "summary": "None", "logo": "None", "latitude": 42.974826021842674, "longitude": -81.17446233538298}, "130958259RR0001": {"name": "CITIZEN ACTION GROUP HAMILTON", "designationCode": "C", "categoryCode": "59", "address": "67 VICTORIA AVENUE SOUTH", "city": "HAMILTON", "province": "ON", "country": "CA", "postalCode": "L8N2S8", "twitter": "None", "instagram": "None", "facebook": "None", "youtube": "None", "website": "None", "summary": "None", "logo": "None", "latitude": 43.25099752094759, "longitude": -79.8576909072655}, "118864438RR0001": {"name": "CITIZEN'S PET POPULATION CONTROL SOCIETY", "designationCode": "C", "categoryCode": "54", "address": "7600 ROYAL OAK AVENUE         BOX 50038", "city": "BURNABY", "province": "BC", "country": "CA", "postalCode": "V5J4K3", "twitter": "None", "instagram": "None", "facebook": "None", "youtube": "None", "website": "None", "summary": "None", "logo": "None", "latitude": 49.214537580904846, "longitude": -122.98844046944444}, "106929607RR0001": {"name": "CITIZENS ALL ASSOCIATION", "designationCode": "C", "categoryCode": "01", "address": "410 HOCHELAGA ST E", "city": "MOOSE JAW", "province": "SK", "country": "CA", "postalCode": "S6H0P3", "twitter": "None", "instagram": "None", "facebook": "None", "youtube": "None", "website": "None", "summary": "None", "logo": "None", "latitude": 50.39614058186145, "longitude": -105.52439956143408}, "899837850RR0001": {"name": "CITIZENS ENVIRONMENT ALLIANCE OF SOUTHWESTERN ONTARIO", "designationCode": "C", "categoryCode": "52", "address": "1950 OTTAWA ST.", "city": "WINDSOR", "province": "ON", "country": "CA", "postalCode": "N8Y1R7", "twitter": "None", "instagram": "None", "facebook": "None", "youtube": "None", "website": "None", "summary": "None", "logo": "None", "latitude": 42.31219353124803, "longitude": -83.00570370526273}, "866071749RR0001": {"name": "CITIZENS FOR FORT LATOUR", "designationCode": "C", "categoryCode": "52", "address": "80 GLENVIEW DRIVE", "city": "SAINT JOHN", "province": "NB", "country": "CA", "postalCode": "E2H2R7", "twitter": "None", "instagram": "None", "facebook": "None", "youtube": "None", "website": "None", "summary": "None", "logo": "None", "latitude": 45.32575223397197, "longitude": -66.00910459686078}, "890480775RR0001": {"name": "CITIZENS FOR ORIGINS RESEARCH AND EDUCATION", "designationCode": "C", "categoryCode": "39", "address": "16 MOE ROBILLARD ST", "city": "ARNPRIOR", "province": "ON", "country": "CA", "postalCode": "K7S0C2", "twitter": "None", "instagram": "None", "facebook": "None", "youtube": "None", "website": "None", "summary": "None", "logo": "None", "latitude": 45.43059900519418, "longitude": -76.34713766828882}, "139696942RR0001": {"name": "CITIZENS' CLEARINGHOUSE ON WASTE MANAGEMENT IN ONTARIO", "designationCode": "C", "categoryCode": "21", "address": "17 MAJOR STREET", "city": "KITCHENER", "province": "ON", "country": "CA", "postalCode": "N2H4R1", "twitter": "None", "instagram": "None", "facebook": "None", "youtube": "None", "website": "None", "summary": "None", "logo": "None", "latitude": 43.45990740660168, "longitude": -80.48425939399262}, "835319823RR0001": {"name": "CITY ART CENTRE (LONDON)", "designationCode": "C", "categoryCode": "11", "address": "652 ELIZABETH ST.", "city": "LONDON", "province": "ON", "country": "CA", "postalCode": "N5Y4T7", "twitter": "None", "instagram": "None", "facebook": "None", "youtube": "None", "website": "None", "summary": "None", "logo": "None", "latitude": 42.997184588272, "longitude": -81.23272882449061}, "896091147RR0001": {"name": "CITY BIBLE CHURCH, INC.", "designationCode": "C", "categoryCode": "39", "address": "1100 QUEEN ST E", "city": "SAULT STE. MARIE", "province": "ON", "country": "CA", "postalCode": "P6A2C9", "twitter": "None", "instagram": "None", "facebook": "None", "youtube": "None", "website": "None", "summary": "None", "logo": "None", "latitude": 46.50499146047074, "longitude": -84.31062899847078}, "118864487RR0001": {"name": "CITY CENTRE BAPTIST CHURCH", "designationCode": "C", "categoryCode": "31", "address": "1075 EGLINTON AVE W", "city": "MISSISSAUGA", "province": "ON", "country": "CA", "postalCode": "L5V2W3", "twitter": "None", "instagram": "None", "facebook": "None", "youtube": "None", "website": "None", "summary": "None", "logo": "None", "latitude": 43.58383495256489, "longitude": -79.67872182491742}, "871524765RR0001": {"name": "CITY CENTRE CARE SOCIETY", "designationCode": "C", "categoryCode": "09", "address": "415 WEST PENDER STREET", "city": "VANCOUVER", "province": "BC", "country": "CA", "postalCode": "V6B1V2", "twitter": "None", "instagram": "None", "facebook": "None", "youtube": "None", "website": "None", "summary": "None", "logo": "None", "latitude": 49.282973328351225, "longitude": -123.1121777129957}, "848196325RR0001": {"name": "CITY CENTRE CHURCH", "designationCode": "C", "categoryCode": "36", "address": "201 - 10316 111 ST NW", "city": "EDMONTON", "province": "AB", "country": "CA", "postalCode": "T5K1L2", "twitter": "None", "instagram": "None", "facebook": "None", "youtube": "None", "website": "None", "summary": "None", "logo": "None", "latitude": 53.54514070191587, "longitude": -113.51215615269174}, "854860046RR0001": {"name": "CITY CENTRE COMMUNITY RENEWAL INITIATIVES INC.", "designationCode": "C", "categoryCode": "09", "address": "701-20TH ST W", "city": "SASKATOON", "province": "SK", "country": "CA", "postalCode": "S7M0X9", "twitter": "None", "instagram": "None", "facebook": "None", "youtube": "None", "website": "None", "summary": "None", "logo": "None", "latitude": 52.12615749567218, "longitude": -106.6801328068267}, "118864495RR0001": {"name": "CITY CENTRE MINISTRY", "designationCode": "C", "categoryCode": "39", "address": "216-5251 DUKE ST              SCOTIA SQUARE RPO", "city": "HALIFAX", "province": "NS", "country": "CA", "postalCode": "B3J1P3", "twitter": "None", "instagram": "None", "facebook": "None", "youtube": "None", "website": "None", "summary": "None", "logo": "None", "latitude": 44.64914004501099, "longitude": -63.57538007718255}, "869183764RR0001": {"name": "CITY CENTRE MUSICAL PRODUCTIONS ASSOCIATION INC.", "designationCode": "C", "categoryCode": "22", "address": "6122 MILLER'S GROVE", "city": "MISSISSAUGA", "province": "ON", "country": "CA", "postalCode": "L5N3C7", "twitter": "None", "instagram": "None", "facebook": "None", "youtube": "None", "website": "None", "summary": "None", "logo": "None", "latitude": 43.56818023426041, "longitude": -79.75304230754786}, "118864511RR0001": {"name": "CITY CHRISTIAN CENTER", "designationCode": "C", "categoryCode": "36", "address": "1287 WOODBINE RD", "city": "KINGSTON", "province": "ON", "country": "CA", "postalCode": "K7P2X6", "twitter": "None", "instagram": "None", "facebook": "None", "youtube": "None", "website": "None", "summary": "None", "logo": "None", "latitude": 44.25692597166616, "longitude": -76.61052812695496}, "796985687RR0001": {"name": "CITY CHURCH FOR ALL NATIONS SHERWOOD PARK", "designationCode": "C", "categoryCode": "39", "address": "2313 ASPEN TRAIL", "city": "SHERWOOD PARK", "province": "AB", "country": "CA", "postalCode": "T8H0G3", "twitter": "None", "instagram": "None", "facebook": "None", "youtube": "None", "website": "None", "summary": "None", "logo": "None", "latitude": 53.56139287091025, "longitude": -113.27690008814686}, "118857952RR0001": {"name": "CITY CHURCH HALIFAX", "designationCode": "C", "categoryCode": "36", "address": "276 HERRING COVE RD", "city": "HALIFAX", "province": "NS", "country": "CA", "postalCode": "B3P1M1", "twitter": "None", "instagram": "None", "facebook": "None", "youtube": "None", "website": "None", "summary": "None", "logo": "None", "latitude": 44.6173031729182, "longitude": -63.61452454088557}, "130783681RR0001": {"name": "CITY FARMER SOCIETY", "designationCode": "C", "categoryCode": "59", "address": "PO BOX 74567                  KITSILANO RPO", "city": "VANCOUVER", "province": "BC", "country": "CA", "postalCode": "V6K4P4", "twitter": "None", "instagram": "None", "facebook": "None", "youtube": "None", "website": "None", "summary": "None", "logo": "None", "latitude": 49.26220854333842, "longitude": -123.16811099612045}, "893018358RR0001": {"name": "CITY GATE CHURCH", "designationCode": "C", "categoryCode": "39", "address": "1-123 STATION ST.", "city": "DUNCAN", "province": "BC", "country": "CA", "postalCode": "V9L1M8", "twitter": "None", "instagram": "None", "facebook": "None", "youtube": "None", "website": "None", "summary": "None", "logo": "None", "latitude": 48.77768048211084, "longitude": -123.70878411226845}, "892312836RR0001": {"name": "CITY GATES CHURCH (DURHAM) INC.", "designationCode": "C", "categoryCode": "39", "address": "71 OLD KINGSTON RD, UNIT 158", "city": "AJAX", "province": "ON", "country": "CA", "postalCode": "L1T3A6", "twitter": "None", "instagram": "None", "facebook": "None", "youtube": "None", "website": "None", "summary": "None", "logo": "None", "latitude": 43.85425049666126, "longitude": -79.05850734745756}, "129734158RR0001": {"name": "CITY HALL CHILD CARE SOCIETY", "designationCode": "C", "categoryCode": "20", "address": "200 2000 WEST 12 AVE.", "city": "VANCOUVER", "province": "BC", "country": "CA", "postalCode": "V6J2G2", "twitter": "None", "instagram": "None", "facebook": "None", "youtube": "None", "website": "None", "summary": "None", "logo": "None", "latitude": 49.26094449567217, "longitude": -123.1510214701656}, "139999536RR0001": {"name": "CITY HEIGHTS CHURCH ASSOCIATION", "designationCode": "C", "categoryCode": "39", "address": "6 REGAL RD", "city": "DARTMOUTH", "province": "NS", "country": "CA", "postalCode": "B2W4Z7", "twitter": "None", "instagram": "None", "facebook": "None", "youtube": "None", "website": "None", "summary": "None", "logo": "None", "latitude": 44.67120884569213, "longitude": -63.50828091739306}, "118864529RR0001": {"name": "CITY HOMEMAKERS SERVICE SOCIETY", "designationCode": "C", "categoryCode": "09", "address": "43 COSSITT HEIGHTS DRIVE      UNIT 3", "city": "SYDNEY", "province": "NS", "country": "CA", "postalCode": "B1P7B4", "twitter": "None", "instagram": "None", "facebook": "None", "youtube": "None", "website": "None", "summary": "None", "logo": "None", "latitude": 46.137565571469786, "longitude": -60.15595034502831}, "854064169RR0001": {"name": "CITY HOPE EDUCATIONAL CENTRE (TORONTO)", "designationCode": "C", "categoryCode": "59", "address": "BOX 72597, 345 BLOOR ST EAST", "city": "TORONTO", "province": "ON", "country": "CA", "postalCode": "M4W3S9", "twitter": "None", "instagram": "None", "facebook": "None", "youtube": "None", "website": "None", "summary": "None", "logo": "None", "latitude": 43.67207081204951, "longitude": -79.37813779251556}, "892670241RR0001": {"name": "CITY HOUSE FOUNDATION-LA FONDATION CITY HOUSE", "designationCode": "A", "categoryCode": "23", "address": "3635 ATWATER AVE", "city": "MONTREAL", "province": "QC", "country": "CA", "postalCode": "H3H1Y4", "twitter": "None", "instagram": "None", "facebook": "None", "youtube": "None", "website": "None", "summary": "None", "logo": "None", "latitude": 45.49481900389515, "longitude": -73.58839280039275}, "817386410RR0001": {"name": "CITY IMPACT CHURCH", "designationCode": "C", "categoryCode": "39", "address": "PO BOX 933 STN MAIN", "city": "MONCTON", "province": "NB", "country": "CA", "postalCode": "E1C8N8", "twitter": "None", "instagram": "None", "facebook": "None", "youtube": "None", "website": "None", "summary": "None", "logo": "None", "latitude": 46.08872243840578, "longitude": -64.77642630797114}, "891636573RR0001": {"name": "CITY IN FOCUS FOUNDATION", "designationCode": "C", "categoryCode": "47", "address": "2ND FL-107-3RD AVE E", "city": "VANCOUVER", "province": "BC", "country": "CA", "postalCode": "V5T1C7", "twitter": "None", "instagram": "None", "facebook": "None", "youtube": "None", "website": "None", "summary": "None", "logo": "None", "latitude": 49.268249999999995, "longitude": -123.10170975}, "894982479RR0001": {"name": "CITY KIDZ MINISTRY", "designationCode": "C", "categoryCode": "49", "address": "601 BURLINGTON ST E, UNIT A", "city": "HAMILTON", "province": "ON", "country": "CA", "postalCode": "L8L4J5", "twitter": "None", "instagram": "None", "facebook": "None", "youtube": "None", "website": "None", "summary": "None", "logo": "None", "latitude": 43.266061415603104, "longitude": -79.83485480163164}, "886643295RR0001": {"name": "CITY LIFE CHRISTIAN CENTRE - CHURCH & MINISTRIES ALBERTA", "designationCode": "C", "categoryCode": "39", "address": "1-5216 50AVE", "city": "LEDUC", "province": "AB", "country": "CA", "postalCode": "T9E6V2", "twitter": "None", "instagram": "None", "facebook": "None", "youtube": "None", "website": "None", "summary": "None", "logo": "None", "latitude": 53.26480500000005, "longitude": -113.55829099999994}, "855978870RR0001": {"name": "CITY LIGHT CHURCH", "designationCode": "C", "categoryCode": "39", "address": "124 - 16080 82 AVE", "city": "SURREY", "province": "BC", "country": "CA", "postalCode": "V4N0N6", "twitter": "None", "instagram": "None", "facebook": "None", "youtube": "None", "website": "None", "summary": "None", "logo": "None", "latitude": 49.15183552510255, "longitude": -122.77616302553523}, "706497492RR0001": {"name": "CITY NEW LIFE CHURCH IN CALGARY", "designationCode": "C", "categoryCode": "39", "address": "56 - 2727 RUNDLESON RD NE", "city": "CALGARY", "province": "AB", "country": "CA", "postalCode": "T1Y3Z3", "twitter": "None", "instagram": "None", "facebook": "None", "youtube": "None", "website": "None", "summary": "None", "logo": "None", "latitude": 51.07925334387447, "longitude": -113.9797829109295}, "107396905RR0061": {"name": "CITY OASIS FOURSQUARE CHURCH OF MOOSE JAW", "designationCode": "C", "categoryCode": "39", "address": "1291 GORDON ROAD", "city": "MOOSE JAW", "province": "SK", "country": "CA", "postalCode": "S6H3E3", "twitter": "None", "instagram": "None", "facebook": "None", "youtube": "None", "website": "None", "summary": "None", "logo": "None", "latitude": 50.403138185203446, "longitude": -105.5720921126157}, "890882665RR0001": {"name": "CITY OF BROCKVILLE PIPE BAND", "designationCode": "C", "categoryCode": "22", "address": "2269 PARKDALE AVENUE", "city": "BROCKVILLE", "province": "ON", "country": "CA", "postalCode": "K6V3G9", "twitter": "None", "instagram": "None", "facebook": "None", "youtube": "None", "website": "None", "summary": "None", "logo": "None", "latitude": 44.60750118119942, "longitude": -75.6947954642799}, "887330868RR0001": {"name": "CITY OF DAVID MESSIANIC SYNAGOGUE", "designationCode": "C", "categoryCode": "42", "address": "7775 YONGE STREET", "city": "THORNHILL", "province": "ON", "country": "CA", "postalCode": "L3T2C4", "twitter": "None", "instagram": "None", "facebook": "None", "youtube": "None", "website": "None", "summary": "None", "logo": "None", "latitude": 43.816855484044076, "longitude": -79.4245767712795}, "140822925RR0001": {"name": "CITY OF GARDENS CHORUS OF SWEET ADELINES INTERNATIONAL SOCIETY", "designationCode": "C", "categoryCode": "22", "address": "390B PIONEER CRES.", "city": "PARKSVILLE", "province": "BC", "country": "CA", "postalCode": "V9P1V3", "twitter": "None", "instagram": "None", "facebook": "None", "youtube": "None", "website": "None", "summary": "None", "logo": "None", "latitude": 49.319760321629005, "longitude": -124.30099275415942}, "885210815RR0001": {"name": "CITY OF GOD CHRISTIAN MINISTRY", "designationCode": "C", "categoryCode": "39", "address": "117 MIDWEST RD", "city": "SCARBOROUGH", "province": "ON", "country": "CA", "postalCode": "M1P3A6", "twitter": "None", "instagram": "None", "facebook": "None", "youtube": "None", "website": "None", "summary": "None", "logo": "None", "latitude": 43.754893207888486, "longitude": -79.268450271972}, "118864578RR0001": {"name": "CITY OF LONDON CITY HALL CHARITIES' CHEST FUND", "designationCode": "C", "categoryCode": "05", "address": "1010 - 300 DUFFERIN AVE", "city": "LONDON", "province": "ON", "country": "CA", "postalCode": "N6B1Z2", "twitter": "None", "instagram": "None", "facebook": "None", "youtube": "None", "website": "None", "summary": "None", "logo": "None", "latitude": 42.98777204527074, "longitude": -81.2459274975185}, "118864602RR0001": {"name": "CITY OF PENTICTON PIPE BAND", "designationCode": "C", "categoryCode": "22", "address": "PO BOX 24104 RPO GOVERNMENT ST", "city": "PENTICTON", "province": "BC", "country": "CA", "postalCode": "V2A8L9", "twitter": "None", "instagram": "None", "facebook": "None", "youtube": "None", "website": "None", "summary": "None", "logo": "None", "latitude": 49.48497470177906, "longitude": -119.57800221455852}, "891712374RR0001": {"name": "CITY OF PICKERING EMPLOYEES CHARITY TRUST", "designationCode": "B", "categoryCode": "75", "address": "ONE THE ESPLANADE", "city": "PICKERING", "province": "ON", "country": "CA", "postalCode": "L1V6K7", "twitter": "None", "instagram": "None", "facebook": "None", "youtube": "None", "website": "None", "summary": "None", "logo": "None", "latitude": 43.83715050000001, "longitude": -79.0832385}, "889834990RR0001": {"name": "CITY OF SASKATOON TRANSIT DEPARTMENT & UNION AGAINST DRINKING AND DRIVING FUND", "designationCode": "C", "categoryCode": "59", "address": "57 VALLEY RD", "city": "SASKATOON", "province": "SK", "country": "CA", "postalCode": "S7M5Y1", "twitter": "None", "instagram": "None", "facebook": "None", "youtube": "None", "website": "None", "summary": "None", "logo": "None", "latitude": 52.101321877313104, "longitude": -106.71783716373203}, "891229940RR0001": {"name": "CITY OF WETASKIWIN LIBRARY BOARD", "designationCode": "C", "categoryCode": "50", "address": "5002 - 51 AVE", "city": "WETASKIWIN", "province": "AB", "country": "CA", "postalCode": "T9A0V1", "twitter": "None", "instagram": "None", "facebook": "None", "youtube": "None", "website": "None", "summary": "None", "logo": "None", "latitude": 52.9706214676841, "longitude": -113.37505974839867}, "118864636RR0001": {"name": "CITY OF WINDSOR EMPLOYEES CHARITY TRUST", "designationCode": "B", "categoryCode": "75", "address": "PO BOX 1607 STN A", "city": "WINDSOR", "province": "ON", "country": "CA", "postalCode": "N9A6S1", "twitter": "None", "instagram": "None", "facebook": "None", "youtube": "None", "website": "None", "summary": "None", "logo": "None", "latitude": 42.31784400000005, "longitude": -83.03387299999993}, "880771019RR0001": {"name": "CITY ON A HILL", "designationCode": "C", "categoryCode": "39", "address": "P.O. BOX 7711                 9812-100 AVE", "city": "PEACE RIVER", "province": "AB", "country": "CA", "postalCode": "T8S1R7", "twitter": "None", "instagram": "None", "facebook": "None", "youtube": "None", "website": "None", "summary": "None", "logo": "None", "latitude": 56.23394907022902, "longitude": -117.29277517678466}, "871028734RR0001": {"name": "CITY ON A HILL MINISTRIES CANADA", "designationCode": "C", "categoryCode": "49", "address": "14 MATHER ST", "city": "PERTH", "province": "ON", "country": "CA", "postalCode": "K7H3K6", "twitter": "None", "instagram": "None", "facebook": "None", "youtube": "None", "website": "None", "summary": "None", "logo": "None", "latitude": 44.90556868997063, "longitude": -76.26447517164877}, "898549332RR0001": {"name": "CITY VIEW CENTRE FOR CHILD & FAMILY SERVICES", "designationCode": "C", "categoryCode": "01", "address": "1099 LONGFIELDS DR", "city": "NEPEAN", "province": "ON", "country": "CA", "postalCode": "K2J5L2", "twitter": "None", "instagram": "None", "facebook": "None", "youtube": "None", "website": "None", "summary": "None", "logo": "None", "latitude": 45.27431398557327, "longitude": -75.73881073336544}, "118864693RR0001": {"name": "CITY VIEW UNITED CHURCH", "designationCode": "C", "categoryCode": "44", "address": "6 EPWORTH AVENUE", "city": "NEPEAN", "province": "ON", "country": "CA", "postalCode": "K2G2L5", "twitter": "None", "instagram": "None", "facebook": "None", "youtube": "None", "website": "None", "summary": "None", "logo": "None", "latitude": 45.35199758863781, "longitude": -75.74027324837002}}