{"130397680RR0001": {"name": "BIG BROTHERS/BIG SISTERS ASSOCIATION OF MEDICINE HAT AND DISTRICT", "designationCode": "C", "categoryCode": "09", "address": "201,665 KINGSWAY AVE SE", "city": "MEDICINE HAT", "province": "AB", "country": "CA", "postalCode": "T1A2W8", "twitter": "None", "instagram": "None", "facebook": "None", "youtube": "None", "website": "None", "summary": "None", "logo": "None", "latitude": 50.030091056803364, "longitude": -110.66913}, "118968478RR0001": {"name": "BIG BROTHERS/BIG SISTERS OF INGERSOLL, TILLSONBURG & AREA INC.", "designationCode": "C", "categoryCode": "09", "address": "58 THAMES ST.S.", "city": "INGERSOLL", "province": "ON", "country": "CA", "postalCode": "N5C2T1", "twitter": "None", "instagram": "None", "facebook": "None", "youtube": "None", "website": "None", "summary": "None", "logo": "None", "latitude": 43.03993882334158, "longitude": -80.88442131984493}, "134473842RR0001": {"name": "BIG BROTHERS/BIG SISTERS OF LANARK COUNTY", "designationCode": "C", "categoryCode": "09", "address": "18 WILLIAM ST E", "city": "SMITHS FALLS", "province": "ON", "country": "CA", "postalCode": "K7A1C2", "twitter": "None", "instagram": "None", "facebook": "None", "youtube": "None", "website": "None", "summary": "None", "logo": "None", "latitude": 44.90062722411692, "longitude": -76.02023880603639}, "106793417RR0001": {"name": "BIG BROTHERS/BIG SISTERS OF MORDEN/WINKLER AND DISTRICT INC.", "designationCode": "C", "categoryCode": "09", "address": "BOX 450", "city": "WINKLER", "province": "MB", "country": "CA", "postalCode": "R6W4A6", "twitter": "None", "instagram": "None", "facebook": "None", "youtube": "None", "website": "None", "summary": "None", "logo": "None", "latitude": 49.17773400000006, "longitude": -97.93841299999994}, "118808666RR0001": {"name": "BIG BROTHERS/BIG SISTERS OF QUESNEL", "designationCode": "C", "categoryCode": "09", "address": "PO BOX 4364 STN MAIN", "city": "QUESNEL", "province": "BC", "country": "CA", "postalCode": "V2J3J4", "twitter": "None", "instagram": "None", "facebook": "None", "youtube": "None", "website": "None", "summary": "None", "logo": "None", "latitude": 52.978128000000055, "longitude": -122.49828349999993}, "118808682RR0001": {"name": "BIG BROTHERS/BIG SISTERS OF ST. THOMAS - ELGIN", "designationCode": "C", "categoryCode": "09", "address": "146 CENTRE ST", "city": "ST THOMAS", "province": "ON", "country": "CA", "postalCode": "N5R3A3", "twitter": "None", "instagram": "None", "facebook": "None", "youtube": "None", "website": "None", "summary": "None", "logo": "None", "latitude": 42.77774353663307, "longitude": -81.19685802281317}, "119215895RR0001": {"name": "BIG BROTHERS/BIG SISTERS-GRIMSBY-LINCOLN- WEST LINCOLN INC.", "designationCode": "C", "categoryCode": "09", "address": "18 ONTARIO STREET             P.O. BOX 232", "city": "GRIMSBY", "province": "ON", "country": "CA", "postalCode": "L3M3G8", "twitter": "None", "instagram": "None", "facebook": "None", "youtube": "None", "website": "None", "summary": "None", "logo": "None", "latitude": 43.19400512072255, "longitude": -79.55967257020036}, "106793185RR0001": {"name": "BIG BROTHERS, BIG SISTERS OF FORT ST. JOHN", "designationCode": "C", "categoryCode": "09", "address": "9915 104 STREET", "city": "FORT ST. JOHN", "province": "BC", "country": "CA", "postalCode": "V1J6B9", "twitter": "None", "instagram": "None", "facebook": "None", "youtube": "None", "website": "None", "summary": "None", "logo": "None", "latitude": 56.24576999999999, "longitude": -120.85420158615631}, "893788075RR0001": {"name": "BIG BROTHERS, BIG SISTERS OF NORTH HURON", "designationCode": "C", "categoryCode": "09", "address": "35A EAST STREET               PO BOX 182", "city": "GODERICH", "province": "ON", "country": "CA", "postalCode": "N7A3Z2", "twitter": "None", "instagram": "None", "facebook": "None", "youtube": "None", "website": "None", "summary": "None", "logo": "None", "latitude": 43.74316716466984, "longitude": -81.7090844898619}, "888598455RR0001": {"name": "BIG CHURCH", "designationCode": "C", "categoryCode": "39", "address": "POST OFFICE BOX 28089", "city": "BARRIE", "province": "ON", "country": "CA", "postalCode": "L4N7W1", "twitter": "None", "instagram": "None", "facebook": "None", "youtube": "None", "website": "None", "summary": "None", "logo": "None", "latitude": 44.38929300000005, "longitude": -79.68626449999994}, "106793987RR0001": {"name": "BIG COUNTRY PARISH COUNCIL", "designationCode": "C", "categoryCode": "30", "address": "BOX 1765", "city": "KINDERSLEY", "province": "SK", "country": "CA", "postalCode": "S0L1S0", "twitter": "None", "instagram": "None", "facebook": "None", "youtube": "None", "website": "None", "summary": "None", "logo": "None", "latitude": 51.46791900000005, "longitude": -109.15522999999993}, "899509269RR0001": {"name": "BIG COUNTRY VICTIM SERVICES ASSOCIATION", "designationCode": "C", "categoryCode": "09", "address": "P.O. BOX 1030", "city": "DRUMHELLER", "province": "AB", "country": "CA", "postalCode": "T0J0Y0", "twitter": "None", "instagram": "None", "facebook": "None", "youtube": "None", "website": "None", "summary": "None", "logo": "None", "latitude": 51.46154700000005, "longitude": -112.70878099999993}, "869234989RR0001": {"name": "BIG COVE FIRST NATION WELLNESS COMMITTEE INC.", "designationCode": "C", "categoryCode": "59", "address": "205-2 BIG COVE RD", "city": "ELSIPOGTOG", "province": "NB", "country": "CA", "postalCode": "E4W2S1", "twitter": "None", "instagram": "None", "facebook": "None", "youtube": "None", "website": "None", "summary": "None", "logo": "None", "latitude": 46.592370939450525, "longitude": -64.9919349952642}, "854708476RR0001": {"name": "BIG GRASS COMMUNITY FOUNDATION INC.", "designationCode": "A", "categoryCode": "03", "address": "P.O. BOX 497", "city": "GLADSTONE", "province": "MB", "country": "CA", "postalCode": "R0J0T0", "twitter": "None", "instagram": "None", "facebook": "None", "youtube": "None", "website": "None", "summary": "None", "logo": "None", "latitude": 50.22542000000004, "longitude": -98.95074999999997}, "118809128RR0001": {"name": "BIG LAKE CHAPEL", "designationCode": "C", "categoryCode": "39", "address": "PO BOX 225", "city": "HIXON", "province": "BC", "country": "CA", "postalCode": "V0K1S0", "twitter": "None", "instagram": "None", "facebook": "None", "youtube": "None", "website": "None", "summary": "None", "logo": "None", "latitude": 53.42845024316912, "longitude": -122.57878615885444}, "875385726RR0001": {"name": "BIG LAKE CHRISTIAN FELLOWSHIP", "designationCode": "C", "categoryCode": "39", "address": "BOX 122", "city": "BIG LAKE", "province": "BC", "country": "CA", "postalCode": "V0L1G0", "twitter": "None", "instagram": "None", "facebook": "None", "youtube": "None", "website": "None", "summary": "None", "logo": "None", "latitude": 52.39778498932967, "longitude": -121.86380058385663}, "897955233RR0001": {"name": "BIG LAKE ENVIRONMENT SUPPORT SOCIETY", "designationCode": "C", "categoryCode": "52", "address": "PO BOX 65053                  MISSION HILL PLAZA", "city": "ST. ALBERT", "province": "AB", "country": "CA", "postalCode": "T8N5Y3", "twitter": "None", "instagram": "None", "facebook": "None", "youtube": "None", "website": "None", "summary": "None", "logo": "None"}, "867969289RR0001": {"name": "BIG LAKE-SANDFIELD COMMUNITY ASSOCIATION", "designationCode": "C", "categoryCode": "56", "address": "PO BOX 377                    113 KETCHANKONKEN TR  RR 1", "city": "MINDEMOYA", "province": "ON", "country": "CA", "postalCode": "P0P1S0", "twitter": "None", "instagram": "None", "facebook": "None", "youtube": "None", "website": "None", "summary": "None", "logo": "None", "latitude": 45.74930100000006, "longitude": -82.14163099999993}, "856680640RR0001": {"name": "BIG LITTLE SCIENCE CENTRE SOCIETY", "designationCode": "C", "categoryCode": "50", "address": "BOX 882 STN MAIN", "city": "KAMLOOPS", "province": "BC", "country": "CA", "postalCode": "V2C5M8", "twitter": "None", "instagram": "None", "facebook": "None", "youtube": "None", "website": "None", "summary": "None", "logo": "None", "latitude": 50.675883000000056, "longitude": -120.33898099999993}, "890348774RR0001": {"name": "BIG POINT CEMETERY COMMITTEE", "designationCode": "C", "categoryCode": "59", "address": "BOX 46", "city": "LANGRUTH", "province": "MB", "country": "CA", "postalCode": "R0H0N0", "twitter": "None", "instagram": "None", "facebook": "None", "youtube": "None", "website": "None", "summary": "None", "logo": "None", "latitude": 50.38602000000003, "longitude": -98.67416999999995}, "118809144RR0001": {"name": "BIG POND VOLUNTEER FIRE DEPT", "designationCode": "C", "categoryCode": "59", "address": "7193 HIGHWAY 4", "city": "BIG POND", "province": "NS", "country": "CA", "postalCode": "B1J1V2", "twitter": "None", "instagram": "None", "facebook": "None", "youtube": "None", "website": "None", "summary": "None", "logo": "None", "latitude": 45.91243160453572, "longitude": -60.5325292041823}, "118809177RR0001": {"name": "BIG RIVER & DISTRICT RECREATION IMPROVEMENT ASSOCIATION INC.", "designationCode": "C", "categoryCode": "56", "address": "BOX 85", "city": "BIG RIVER", "province": "SK", "country": "CA", "postalCode": "S0J0E0", "twitter": "None", "instagram": "None", "facebook": "None", "youtube": "None", "website": "None", "summary": "None", "logo": "None", "latitude": 53.83341000000007, "longitude": -107.01782999999995}, "860106434RR0001": {"name": "BIG ROCK BAPTIST FELLOWSHIP", "designationCode": "C", "categoryCode": "31", "address": "PO BOX 1327", "city": "OKOTOKS", "province": "AB", "country": "CA", "postalCode": "T1S1B3", "twitter": "None", "instagram": "None", "facebook": "None", "youtube": "None", "website": "None", "summary": "None", "logo": "None", "latitude": 50.72589600000006, "longitude": -113.97494149999994}, "892502162RR0001": {"name": "BIG ROSE CHARITABLE TRUST", "designationCode": "B", "categoryCode": "39", "address": "200-157 2ND AVENUE NORTH", "city": "SASKATOON", "province": "SK", "country": "CA", "postalCode": "S7K2A9", "twitter": "None", "instagram": "None", "facebook": "None", "youtube": "None", "website": "None", "summary": "None", "logo": "None", "latitude": 52.1295255, "longitude": -106.663464}, "118809409RR0001": {"name": "BIG SISTERS OF B.C. LOWER MAINLAND", "designationCode": "C", "categoryCode": "09", "address": "34 EAST 12TH AVENUE", "city": "VANCOUVER", "province": "BC", "country": "CA", "postalCode": "V5T2G5", "twitter": "None", "instagram": "None", "facebook": "None", "youtube": "None", "website": "None", "summary": "None", "logo": "None", "latitude": 49.26021151399405, "longitude": -123.10412255398464}, "869979021RR0001": {"name": "BIG SKY ASTRONOMICAL SOCIETY", "designationCode": "C", "categoryCode": "23", "address": "PO BOX 5735", "city": "HIGH RIVER", "province": "AB", "country": "CA", "postalCode": "T1V1P3", "twitter": "None", "instagram": "None", "facebook": "None", "youtube": "None", "website": "None", "summary": "None", "logo": "None", "latitude": 50.57803500000006, "longitude": -113.85914299999993}, "118809524RR0001": {"name": "BIG SKY PARISH", "designationCode": "C", "categoryCode": "30", "address": "422 3RD AVE. E                BOX 176", "city": "OYEN", "province": "AB", "country": "CA", "postalCode": "T0J2J0", "twitter": "None", "instagram": "None", "facebook": "None", "youtube": "None", "website": "None", "summary": "None", "logo": "None", "latitude": 51.35109622675861, "longitude": -110.4752677790698}, "805086543RR0001": {"name": "BIG SKY RANCH ANIMAL SANCTUARY", "designationCode": "C", "categoryCode": "54", "address": "810 PELTON ROAD", "city": "KEMPTVILLE", "province": "ON", "country": "CA", "postalCode": "K0G1J0", "twitter": "None", "instagram": "None", "facebook": "None", "youtube": "None", "website": "None", "summary": "None", "logo": "None", "latitude": 44.991492055110754, "longitude": -75.55991564735524}, "118809532RR0001": {"name": "BIG STONE COMMUNITY BUILDING FUND ASSOCIATION", "designationCode": "C", "categoryCode": "56", "address": "PO BOX 115", "city": "YOUNGSTOWN", "province": "AB", "country": "CA", "postalCode": "T0J3P0", "twitter": "None", "instagram": "None", "facebook": "None", "youtube": "None", "website": "None", "summary": "None", "logo": "None", "latitude": 51.525090000000034, "longitude": -111.20099999999996}, "868188962RR0001": {"name": "BIG TANCOOK ISLAND EMERGENCY RESPONSE ASSOCIATION", "designationCode": "C", "categoryCode": "59", "address": "39 SCHOOL ROAD                P.O. BOX 73", "city": "BIG TANKCOOK ISLAND", "province": "NS", "country": "CA", "postalCode": "B0J3G0", "twitter": "None", "instagram": "None", "facebook": "None", "youtube": "None", "website": "None", "summary": "None", "logo": "None"}, "118809540RR0001": {"name": "BIG VALLEY DROP-IN CENTRE", "designationCode": "C", "categoryCode": "56", "address": "BOX 13", "city": "BIG VALLEY", "province": "AB", "country": "CA", "postalCode": "T0J0G0", "twitter": "None", "instagram": "None", "facebook": "None", "youtube": "None", "website": "None", "summary": "None", "logo": "None", "latitude": 52.03473900000006, "longitude": -112.75278199999994}, "880836515RR0001": {"name": "BIG VALLEY EVANGELICAL FREE CHURCH", "designationCode": "C", "categoryCode": "39", "address": "BOX 307", "city": "BIG VALLEY", "province": "AB", "country": "CA", "postalCode": "T0J0G0", "twitter": "None", "instagram": "None", "facebook": "None", "youtube": "None", "website": "None", "summary": "None", "logo": "None", "latitude": 52.03473900000006, "longitude": -112.75278199999994}, "118809557RR0001": {"name": "BIG VALLEY HISTORICAL SOCIETY", "designationCode": "C", "categoryCode": "50", "address": "PO BOX 342", "city": "BIG VALLEY", "province": "AB", "country": "CA", "postalCode": "T0J0G0", "twitter": "None", "instagram": "None", "facebook": "None", "youtube": "None", "website": "None", "summary": "None", "logo": "None", "latitude": 52.033420000000035, "longitude": -112.76858999999996}, "118809565RR0001": {"name": "BIG VALLEY UNITED CHURCH", "designationCode": "C", "categoryCode": "44", "address": "BOX 241", "city": "BIG VALLEY", "province": "AB", "country": "CA", "postalCode": "T0J0G0", "twitter": "None", "instagram": "None", "facebook": "None", "youtube": "None", "website": "None", "summary": "None", "logo": "None", "latitude": 52.03473900000006, "longitude": -112.75278199999994}, "877945923RR0001": {"name": "BIG WATER SOCIETY", "designationCode": "C", "categoryCode": "59", "address": "BOX 432", "city": "ATLIN", "province": "BC", "country": "CA", "postalCode": "V0W1A0", "twitter": "None", "instagram": "None", "facebook": "None", "youtube": "None", "website": "None", "summary": "None", "logo": "None", "latitude": 59.57494800000006, "longitude": -133.70343199999994}, "866966575RR0001": {"name": "BIG WHITE COMMUNITY POLICING SOCIETY", "designationCode": "C", "categoryCode": "59", "address": "BOX 45077", "city": "KELOWNA", "province": "BC", "country": "CA", "postalCode": "V1P1P3", "twitter": "None", "instagram": "None", "facebook": "None", "youtube": "None", "website": "None", "summary": "None", "logo": "None", "latitude": 49.86895200000005, "longitude": -119.15251549999994}, "118809052RR0001": {"name": "BIGGAR & DISTRICT ARTS COUNCIL INC.", "designationCode": "C", "categoryCode": "22", "address": "SECRETARY                     BOX 1598", "city": "BIGGAR", "province": "SK", "country": "CA", "postalCode": "S0K0M0", "twitter": "None", "instagram": "None", "facebook": "None", "youtube": "None", "website": "None", "summary": "None", "logo": "None", "latitude": 52.05420600000005, "longitude": -107.98625599999994}, "859736803RR0001": {"name": "BIGGAR & DISTRICT DAYCARE PROJECT INC.", "designationCode": "C", "categoryCode": "01", "address": "BOX 128", "city": "BIGGAR", "province": "SK", "country": "CA", "postalCode": "S0K0M0", "twitter": "None", "instagram": "None", "facebook": "None", "youtube": "None", "website": "None", "summary": "None", "logo": "None", "latitude": 52.065150000000074, "longitude": -107.99375999999995}, "802610949RR0001": {"name": "BIGGAR & DISTRICT FAMILY CENTRE, INC.", "designationCode": "C", "categoryCode": "56", "address": "PO BOX 667", "city": "BIGGAR", "province": "SK", "country": "CA", "postalCode": "S0K0M0", "twitter": "None", "instagram": "None", "facebook": "None", "youtube": "None", "website": "None", "summary": "None", "logo": "None", "latitude": 52.065150000000074, "longitude": -107.99375999999995}, "884086703RR0001": {"name": "BIGGAR AND DISTRICT COMMUNITY FOUNDATION INC.", "designationCode": "A", "categoryCode": "03", "address": "BOX 489", "city": "BIGGAR", "province": "SK", "country": "CA", "postalCode": "S0K0M0", "twitter": "None", "instagram": "None", "facebook": "None", "youtube": "None", "website": "None", "summary": "None", "logo": "None", "latitude": 52.065150000000074, "longitude": -107.99375999999995}, "118809011RR0001": {"name": "BIGGAR AND DISTRICT DONORS CHOICE", "designationCode": "C", "categoryCode": "05", "address": "BOX 1131", "city": "BIGGAR", "province": "SK", "country": "CA", "postalCode": "S0K0M0", "twitter": "None", "instagram": "None", "facebook": "None", "youtube": "None", "website": "None", "summary": "None", "logo": "None", "latitude": 52.065150000000074, "longitude": -107.99375999999995}, "891278384RR0001": {"name": "BIGGAR AND DISTRICT FOOD FOR THOUGHT INC", "designationCode": "C", "categoryCode": "01", "address": "BOX 121", "city": "BIGGAR", "province": "SK", "country": "CA", "postalCode": "S0K0M0", "twitter": "None", "instagram": "None", "facebook": "None", "youtube": "None", "website": "None", "summary": "None", "logo": "None", "latitude": 52.065150000000074, "longitude": -107.99375999999995}, "118809037RR0001": {"name": "BIGGAR AND DISTRICT MUSIC FESTIVAL ASSOCIATION", "designationCode": "B", "categoryCode": "22", "address": "BOX 880", "city": "BIGGAR", "province": "SK", "country": "CA", "postalCode": "S0K0M0", "twitter": "None", "instagram": "None", "facebook": "None", "youtube": "None", "website": "None", "summary": "None", "logo": "None", "latitude": 52.065150000000074, "longitude": -107.99375999999995}, "129383709RR0001": {"name": "BIGGAR AND DISTRICT THEATRE PROJECT INC", "designationCode": "C", "categoryCode": "56", "address": "322 MAIN STREET               PO BOX 384", "city": "BIGGAR", "province": "SK", "country": "CA", "postalCode": "S0K0M0", "twitter": "None", "instagram": "None", "facebook": "None", "youtube": "None", "website": "None", "summary": "None", "logo": "None", "latitude": 52.056059199877524, "longitude": -107.98497053993135}, "106794050RR0001": {"name": "BIGGAR ASSOCIATED GOSPEL CHURCH", "designationCode": "C", "categoryCode": "39", "address": "PO BOX 880", "city": "BIGGAR", "province": "SK", "country": "CA", "postalCode": "S0K0M0", "twitter": "None", "instagram": "None", "facebook": "None", "youtube": "None", "website": "None", "summary": "None", "logo": "None", "latitude": 52.065150000000074, "longitude": -107.99375999999995}, "106794084RR0001": {"name": "BIGGAR MUSEUM AND GALLERY", "designationCode": "C", "categoryCode": "50", "address": "BOX 1598", "city": "BIGGAR", "province": "SK", "country": "CA", "postalCode": "S0K0M0", "twitter": "None", "instagram": "None", "facebook": "None", "youtube": "None", "website": "None", "summary": "None", "logo": "None", "latitude": 52.065150000000074, "longitude": -107.99375999999995}, "118809078RR0001": {"name": "BIGGAR NEW HORIZONS PROJECT", "designationCode": "C", "categoryCode": "09", "address": "PO BOX 631", "city": "BIGGAR", "province": "SK", "country": "CA", "postalCode": "S0K0M0", "twitter": "None", "instagram": "None", "facebook": "None", "youtube": "None", "website": "None", "summary": "None", "logo": "None", "latitude": 52.065150000000074, "longitude": -107.99375999999995}, "118809086RR0001": {"name": "BIGGAR PASTORAL CHARGE", "designationCode": "C", "categoryCode": "44", "address": "PO BOX 1702", "city": "BIGGAR", "province": "SK", "country": "CA", "postalCode": "S0K0M0", "twitter": "None", "instagram": "None", "facebook": "None", "youtube": "None", "website": "None", "summary": "None", "logo": "None", "latitude": 52.065150000000074, "longitude": -107.99375999999995}, "883704611RR0001": {"name": "BIGHEAD RIVER HERITAGE ASSOCIATION", "designationCode": "C", "categoryCode": "52", "address": "89 IRON WOOD DR", "city": "MEAFORD", "province": "ON", "country": "CA", "postalCode": "N4L0A6", "twitter": "None", "instagram": "None", "facebook": "None", "youtube": "None", "website": "None", "summary": "None", "logo": "None", "latitude": 44.607278983769895, "longitude": -80.6057845673454}, "860106038RR0001": {"name": "BIGS AND LITTLES THEATRE SOCIETY", "designationCode": "C", "categoryCode": "22", "address": "1908 PALLISER DRIVE SW", "city": "CALGARY", "province": "AB", "country": "CA", "postalCode": "T2V4C5", "twitter": "None", "instagram": "None", "facebook": "None", "youtube": "None", "website": "None", "summary": "None", "logo": "None", "latitude": 50.96656964392051, "longitude": -114.10442161405744}, "861541217RR0001": {"name": "BIGSTONE COMMUNITY HEALTH SOCIETY", "designationCode": "C", "categoryCode": "11", "address": "BOX 1020", "city": "WABASCA", "province": "AB", "country": "CA", "postalCode": "T0G2K0", "twitter": "None", "instagram": "None", "facebook": "None", "youtube": "None", "website": "None", "summary": "None", "logo": "None", "latitude": 55.987460000000056, "longitude": -113.91912999999994}, "869030346RR0001": {"name": "BIKE FOR YOUR LIFE SOCIETY", "designationCode": "C", "categoryCode": "11", "address": "P O BOX 2019", "city": "SALMON ARM", "province": "BC", "country": "CA", "postalCode": "V1E4R1", "twitter": "None", "instagram": "None", "facebook": "None", "youtube": "None", "website": "None", "summary": "None", "logo": "None", "latitude": 50.70318000000006, "longitude": -119.26884049999992}, "860278662RR0001": {"name": "BIKES FOR KIDS (TORONTO) CHARITABLE ORGANIZATION", "designationCode": "C", "categoryCode": "09", "address": "97 BOWRING WALK", "city": "TORONTO", "province": "ON", "country": "CA", "postalCode": "M3H5Z6", "twitter": "None", "instagram": "None", "facebook": "None", "youtube": "None", "website": "None", "summary": "None", "logo": "None", "latitude": 43.74741880930823, "longitude": -79.4523662082925}, "133048645RR0001": {"name": "BIKUR CHOLIM", "designationCode": "C", "categoryCode": "09", "address": "506 COLDSTREAM AVE", "city": "NORTH YORK", "province": "ON", "country": "CA", "postalCode": "M6B2K6", "twitter": "None", "instagram": "None", "facebook": "None", "youtube": "None", "website": "None", "summary": "None", "logo": "None"}, "890753841RR0001": {"name": "BIKUR CHOLIM LADIES ASSOCIATION", "designationCode": "C", "categoryCode": "09", "address": "6040 WILDERTON AVE", "city": "MONTREAL", "province": "QC", "country": "CA", "postalCode": "H3S2L1", "twitter": "None", "instagram": "None", "facebook": "None", "youtube": "None", "website": "None", "summary": "None", "logo": "None", "latitude": 45.50936285899368, "longitude": -73.62302200833854}, "131123374RR0001": {"name": "BILBERRY CREEK BAPTIST CHURCH", "designationCode": "C", "categoryCode": "31", "address": "480 CHARLEMAGNE BLVD", "city": "ORLEANS", "province": "ON", "country": "CA", "postalCode": "K4A1S2", "twitter": "None", "instagram": "None", "facebook": "None", "youtube": "None", "website": "None", "summary": "None", "logo": "None", "latitude": 45.46831666994667, "longitude": -75.48892732387917}, "118823608RR0001": {"name": "BILD CALGARY REGION FOUNDATION", "designationCode": "A", "categoryCode": "21", "address": "100, 7326 - 10TH ST NE", "city": "CALGARY", "province": "AB", "country": "CA", "postalCode": "T2E8W1", "twitter": "None", "instagram": "None", "facebook": "None", "youtube": "None", "website": "None", "summary": "None", "logo": "None", "latitude": 51.11860580996467, "longitude": -114.04023575842677}, "880672621RR0001": {"name": "BILINGUAL BUDDHIST ASSOCIATION", "designationCode": "C", "categoryCode": "35", "address": "2721 LOUGHEED HIGHWAY", "city": "AGASSIZ", "province": "BC", "country": "CA", "postalCode": "V0M1A1", "twitter": "None", "instagram": "None", "facebook": "None", "youtube": "None", "website": "None", "summary": "None", "logo": "None", "latitude": 49.231105230076814, "longitude": -121.88396836251064}, "118809623RR0001": {"name": "BILL HARKINS-EUGENE RICARD SANTA CLAUS FUND", "designationCode": "C", "categoryCode": "09", "address": "P.O. BOX 279", "city": "IROQUOIS FALLS", "province": "ON", "country": "CA", "postalCode": "P0K1E0", "twitter": "None", "instagram": "None", "facebook": "None", "youtube": "None", "website": "None", "summary": "None", "logo": "None", "latitude": 48.75883001500371, "longitude": -80.69020006996918}, "867858755RR0001": {"name": "BILL REID FOUNDATION", "designationCode": "C", "categoryCode": "50", "address": "639 HORNBY ST", "city": "VANCOUVER", "province": "BC", "country": "CA", "postalCode": "V6C2G3", "twitter": "None", "instagram": "None", "facebook": "None", "youtube": "None", "website": "None", "summary": "None", "logo": "None", "latitude": 49.28416010242935, "longitude": -123.11953922733551}, "119119816RR0001": {"name": "BILL RIGBY MEMORIAL SOCIETY", "designationCode": "C", "categoryCode": "09", "address": "1 FLR-326 12 ST", "city": "NEW WESTMINSTER", "province": "BC", "country": "CA", "postalCode": "V3M4H6", "twitter": "None", "instagram": "None", "facebook": "None", "youtube": "None", "website": "None", "summary": "None", "logo": "None", "latitude": 49.2035036258298, "longitude": -122.92542247717648}, "118809631RR0001": {"name": "BILLINGS & EAST ALLAN PUBLIC LIBRARY", "designationCode": "C", "categoryCode": "50", "address": "18 UPPER STREET", "city": "KAGAWONG", "province": "ON", "country": "CA", "postalCode": "P0P1J0", "twitter": "None", "instagram": "None", "facebook": "None", "youtube": "None", "website": "None", "summary": "None", "logo": "None", "latitude": 45.90733209769749, "longitude": -82.25866271481337}, "106795297RR0001": {"name": "BILLTOWN UNITED BAPTIST CHURCH", "designationCode": "C", "categoryCode": "31", "address": "6490 HIGHWAY 221", "city": "LAKEVILLE", "province": "NS", "country": "CA", "postalCode": "B0P1G0", "twitter": "None", "instagram": "None", "facebook": "None", "youtube": "None", "website": "None", "summary": "None", "logo": "None", "latitude": 45.108634385760034, "longitude": -64.61009114647253}, "125680009RR0001": {"name": "BILLY BUFFET'S HOUSE OF WELCOME INC", "designationCode": "C", "categoryCode": "57", "address": "243 GRANVILLE STREET", "city": "VANIER", "province": "ON", "country": "CA", "postalCode": "K1L6Z3", "twitter": "None", "instagram": "None", "facebook": "None", "youtube": "None", "website": "None", "summary": "None", "logo": "None", "latitude": 45.43900511157596, "longitude": -75.65656481401142}, "118945088RR0001": {"name": "BILLY GRAHAM EVANGELISTIC ASSOCIATION OF CANADA", "designationCode": "C", "categoryCode": "47", "address": "20 HOPEWELL WAY NE", "city": "CALGARY", "province": "AB", "country": "CA", "postalCode": "T3J5H5", "twitter": "None", "instagram": "None", "facebook": "None", "youtube": "None", "website": "None", "summary": "None", "logo": "None", "latitude": 51.095259754371284, "longitude": -113.99848973867516}, "831067418RR0001": {"name": "BILLYE BRIM MINISTRIES CANADA", "designationCode": "C", "categoryCode": "47", "address": "P O  BOX 20085", "city": "KELOWNA", "province": "BC", "country": "CA", "postalCode": "V1Y9H2", "twitter": "None", "instagram": "None", "facebook": "None", "youtube": "None", "website": "None", "summary": "None", "logo": "None", "latitude": 49.88697900000005, "longitude": -119.49661249999994}, "866090178RR0001": {"name": "BIN ABBAS MOSQUE", "designationCode": "A", "categoryCode": "60", "address": "1822 WESTON ROAD", "city": "TORONTO", "province": "ON", "country": "CA", "postalCode": "M9N1V8", "twitter": "None", "instagram": "None", "facebook": "None", "youtube": "None", "website": "None", "summary": "None", "logo": "None", "latitude": 43.69920548649693, "longitude": -79.5137123951178}, "118809698RR0001": {"name": "BINA CONGREGATION", "designationCode": "C", "categoryCode": "42", "address": "PO/CP 92127 2900 WARDEN AVE", "city": "SCARBOROUGH", "province": "ON", "country": "CA", "postalCode": "M1W3Y8", "twitter": "None", "instagram": "None", "facebook": "None", "youtube": "None", "website": "None", "summary": "None", "logo": "None", "latitude": 43.79846671998633, "longitude": -79.31660975219654}, "131462871RR0001": {"name": "BINAH CHARITABLE FOUNDATION", "designationCode": "B", "categoryCode": "03", "address": "602-1 YORKDALE RD", "city": "TORONTO", "province": "ON", "country": "CA", "postalCode": "M6A3A1", "twitter": "None", "instagram": "None", "facebook": "None", "youtube": "None", "website": "None", "summary": "None", "logo": "None", "latitude": 43.72823883758475, "longitude": -79.45371698998802}, "118809706RR0001": {"name": "BINBROOK BAPTIST CHURCH,", "designationCode": "C", "categoryCode": "31", "address": "BOX 117", "city": "BINBROOK", "province": "ON", "country": "CA", "postalCode": "L0R1C0", "twitter": "None", "instagram": "None", "facebook": "None", "youtube": "None", "website": "None", "summary": "None", "logo": "None", "latitude": 43.102827000000005, "longitude": -79.73206875}, "118809714RR0001": {"name": "BINBROOK LITTLE THEATRE INC.", "designationCode": "C", "categoryCode": "22", "address": "P.O. BOX 74", "city": "BINBROOK", "province": "ON", "country": "CA", "postalCode": "L0R1C0", "twitter": "None", "instagram": "None", "facebook": "None", "youtube": "None", "website": "None", "summary": "None", "logo": "None", "latitude": 43.102827000000005, "longitude": -79.73206875}, "118809722RR0001": {"name": "BINBROOK UNITED CHURCH", "designationCode": "C", "categoryCode": "44", "address": "PO BOX 46", "city": "BINBROOK", "province": "ON", "country": "CA", "postalCode": "L0R1C0", "twitter": "None", "instagram": "None", "facebook": "None", "youtube": "None", "website": "None", "summary": "None", "logo": "None", "latitude": 43.102827000000005, "longitude": -79.73206875}, "123880619RR0001": {"name": "BINGHAM MEMORIAL HOSPITAL", "designationCode": "C", "categoryCode": "10", "address": "BOX 70", "city": "MATHESON", "province": "ON", "country": "CA", "postalCode": "P0K1N0", "twitter": "None", "instagram": "None", "facebook": "None", "youtube": "None", "website": "None", "summary": "None", "logo": "None", "latitude": 47.9392718793635, "longitude": -80.64669271189717}, "133079467RR0001": {"name": "BINKLEY UNITED CHURCH,", "designationCode": "C", "categoryCode": "44", "address": "1570 MAIN ST W", "city": "HAMILTON", "province": "ON", "country": "CA", "postalCode": "L8S1E8", "twitter": "None", "instagram": "None", "facebook": "None", "youtube": "None", "website": "None", "summary": "None", "logo": "None", "latitude": 43.257613454736465, "longitude": -79.92706437549218}, "892001389RR0001": {"name": "BINSCARTH & DISTRICT GORDON ORR MEMORIAL MUSEUM", "designationCode": "C", "categoryCode": "50", "address": "PO BOX 73", "city": "BINSCARTH", "province": "MB", "country": "CA", "postalCode": "R0J0G0", "twitter": "None", "instagram": "None", "facebook": "None", "youtube": "None", "website": "None", "summary": "None", "logo": "None", "latitude": 50.624250000000075, "longitude": -101.28641999999996}, "873353445RR0001": {"name": "BINSCARTH CHRISTIAN ASSEMBLY", "designationCode": "C", "categoryCode": "39", "address": "PO BOX 309", "city": "BINSCARTH", "province": "MB", "country": "CA", "postalCode": "R0J0G0", "twitter": "None", "instagram": "None", "facebook": "None", "youtube": "None", "website": "None", "summary": "None", "logo": "None", "latitude": 50.624250000000075, "longitude": -101.28641999999996}, "100523653RR0001": {"name": "BINSCARTH CURLING CLUB INC.", "designationCode": "C", "categoryCode": "56", "address": "GENERAL DELIVERY", "city": "BINSCARTH", "province": "MB", "country": "CA", "postalCode": "R0J0G0", "twitter": "None", "instagram": "None", "facebook": "None", "youtube": "None", "website": "None", "summary": "None", "logo": "None", "latitude": 50.62367400000005, "longitude": -101.27755249999993}, "118809789RR0001": {"name": "BINSCARTH DROP IN CENTER INC.", "designationCode": "C", "categoryCode": "56", "address": "PO BOX 118", "city": "BINSCARTH", "province": "MB", "country": "CA", "postalCode": "R0J0G0", "twitter": "None", "instagram": "None", "facebook": "None", "youtube": "None", "website": "None", "summary": "None", "logo": "None", "latitude": 50.624250000000075, "longitude": -101.28641999999996}, "889028791RR0001": {"name": "BIO - DYNAMIC AGRICULTURE SOCIETY OF BRITISH COLUMBIA", "designationCode": "C", "categoryCode": "56", "address": "8358 PEMBERTON MEADOWS RD", "city": "PEMBERTON", "province": "BC", "country": "CA", "postalCode": "V0N2L2", "twitter": "None", "instagram": "None", "facebook": "None", "youtube": "None", "website": "None", "summary": "None", "logo": "None", "latitude": 50.407561021947544, "longitude": -122.89137376989949}, "849508478RR0001": {"name": "BIODIVERSITY CENTRE FOR WILDLIFE STUDIES", "designationCode": "C", "categoryCode": "50", "address": "PO BOX 55053                  3825 CADBORO BAY ROAD", "city": "VICTORIA", "province": "BC", "country": "CA", "postalCode": "V8N6L8", "twitter": "None", "instagram": "None", "facebook": "None", "youtube": "None", "website": "None", "summary": "None", "logo": "None", "latitude": 48.461264361907865, "longitude": -123.29718859074393}, "895298727RR0001": {"name": "BIOREGIONAL EDUCATION ASSOCIATION", "designationCode": "C", "categoryCode": "23", "address": "2738 HIGGINS ST", "city": "VICTORIA", "province": "BC", "country": "CA", "postalCode": "V8T3N1", "twitter": "None", "instagram": "None", "facebook": "None", "youtube": "None", "website": "None", "summary": "None", "logo": "None", "latitude": 48.44177263474524, "longitude": -123.34948949420028}, "889128625RR0001": {"name": "BIOSPHERE INSTITUTE OF THE BOW VALLEY", "designationCode": "C", "categoryCode": "21", "address": "201-600A 9TH ST", "city": "CANMORE", "province": "AB", "country": "CA", "postalCode": "T1W2T2", "twitter": "None", "instagram": "None", "facebook": "None", "youtube": "None", "website": "None", "summary": "None", "logo": "None", "latitude": 51.08992047655096, "longitude": -115.35710433483281}, "106795891RR0001": {"name": "BIRCH BAY RANCH ASSOCIATION", "designationCode": "C", "categoryCode": "56", "address": "51505 RANGE RD 215", "city": "SHERWOOD PARK", "province": "AB", "country": "CA", "postalCode": "T8E1H1", "twitter": "None", "instagram": "None", "facebook": "None", "youtube": "None", "website": "None", "summary": "None", "logo": "None", "latitude": 53.439723366639726, "longitude": -113.07422796214512}, "828389676RR0001": {"name": "BIRCH COVE BAPTIST CHURCH LIMITED", "designationCode": "C", "categoryCode": "31", "address": "241 INDIAN POINT ROAD", "city": "GLEN HAVEN", "province": "NS", "country": "CA", "postalCode": "B3Z2S2", "twitter": "None", "instagram": "None", "facebook": "None", "youtube": "None", "website": "None", "summary": "None", "logo": "None", "latitude": 44.64577898309179, "longitude": -63.92214660170819}, "118809870RR0001": {"name": "BIRCH GROVE CEMETERY COMPANY", "designationCode": "C", "categoryCode": "59", "address": "PO BOX 718", "city": "OXFORD", "province": "NS", "country": "CA", "postalCode": "B0M1P0", "twitter": "None", "instagram": "None", "facebook": "None", "youtube": "None", "website": "None", "summary": "None", "logo": "None", "latitude": 45.73593000000005, "longitude": -63.86782999999997}, "118809904RR0001": {"name": "BIRCH HILL CEMETARY LTD.", "designationCode": "C", "categoryCode": "59", "address": "21 CRYSTAL DR. APT 409", "city": "RIVERVIEW", "province": "NB", "country": "CA", "postalCode": "E1B3Y3", "twitter": "None", "instagram": "None", "facebook": "None", "youtube": "None", "website": "None", "summary": "None", "logo": "None", "latitude": 46.06415679214018, "longitude": -64.80930660672853}, "853882934RR0001": {"name": "BIRCH HILLS COMMUNITY CHURCH INC.", "designationCode": "C", "categoryCode": "32", "address": "75 BELLAMY AVE                BOX 282", "city": "BIRCH HILLS", "province": "SK", "country": "CA", "postalCode": "S0J0G0", "twitter": "None", "instagram": "None", "facebook": "None", "youtube": "None", "website": "None", "summary": "None", "logo": "None", "latitude": 52.98410822705212, "longitude": -105.43677412482675}, "118809920RR0001": {"name": "BIRCH HILLS HISTORICAL SOCIETY INC.", "designationCode": "C", "categoryCode": "50", "address": "BOX 693", "city": "BIRCH HILLS", "province": "SK", "country": "CA", "postalCode": "S0J0G0", "twitter": "None", "instagram": "None", "facebook": "None", "youtube": "None", "website": "None", "summary": "None", "logo": "None", "latitude": 56.325968466910076, "longitude": -103.2432009425047}, "118809938RR0001": {"name": "BIRCH HILLS LUTHERAN CHURCH", "designationCode": "C", "categoryCode": "32", "address": "BOX 97", "city": "BIRCH HILLS", "province": "SK", "country": "CA", "postalCode": "S0J0G0", "twitter": "None", "instagram": "None", "facebook": "None", "youtube": "None", "website": "None", "summary": "None", "logo": "None", "latitude": 56.325968466910076, "longitude": -103.2432009425047}, "130180128RR0001": {"name": "BIRCH HILLS UNITED CHURCH,", "designationCode": "C", "categoryCode": "44", "address": "BOX 126", "city": "BIRCH HILLS", "province": "SK", "country": "CA", "postalCode": "S0J0G0", "twitter": "None", "instagram": "None", "facebook": "None", "youtube": "None", "website": "None", "summary": "None", "logo": "None", "latitude": 56.325968466910076, "longitude": -103.2432009425047}, "860817741RR0001": {"name": "BIRCH RIVER NURSERY SCHOOL INC.", "designationCode": "C", "categoryCode": "01", "address": "210 DRURY AVENUE              P. O. BOX 148", "city": "BIRCH RIVER", "province": "MB", "country": "CA", "postalCode": "R0L0E0", "twitter": "None", "instagram": "None", "facebook": "None", "youtube": "None", "website": "None", "summary": "None", "logo": "None", "latitude": 52.39021529281874, "longitude": -101.10108815095724}, "887053197RR0001": {"name": "BIRCHCLIFF BLUFFS UNITED CHURCH", "designationCode": "C", "categoryCode": "44", "address": "33 EAST ROAD", "city": "TORONTO", "province": "ON", "country": "CA", "postalCode": "M1N1Z9", "twitter": "None", "instagram": "None", "facebook": "None", "youtube": "None", "website": "None", "summary": "None", "logo": "None", "latitude": 43.68816928391723, "longitude": -79.2716467539386}, "107842452RR0001": {"name": "BIRCHMOUNT BLUFFS NEIGHBOURHOOD CENTRE", "designationCode": "C", "categoryCode": "56", "address": "93 BIRCHMOUNT ROAD", "city": "SCARBOROUGH", "province": "ON", "country": "CA", "postalCode": "M1N3J7", "twitter": "None", "instagram": "None", "facebook": "None", "youtube": "None", "website": "None", "summary": "None", "logo": "None", "latitude": 43.695498616804606, "longitude": -79.26328247659283}, "119288918RR0099": {"name": "BIRCHMOUNT CONGREGATION OF JEHOVAH'S WITNESSES, TORONTO, ONT", "designationCode": "C", "categoryCode": "61", "address": "459 BIRCHMOUNT RD", "city": "TORONTO", "province": "ON", "country": "CA", "postalCode": "M1K1N3", "twitter": "None", "instagram": "None", "facebook": "None", "youtube": "None", "website": "None", "summary": "None", "logo": "None", "latitude": 43.70529049875925, "longitude": -79.2673968647934}, "867250722RR0001": {"name": "BIRCHTON, BULWER, COOKSHIRE, ISLAND BROOK UNITED CHURCH", "designationCode": "C", "categoryCode": "44", "address": "210 EASTVIEW STREET", "city": "COOKSHIRE", "province": "QC", "country": "CA", "postalCode": "J0B1M0", "twitter": "None", "instagram": "None", "facebook": "None", "youtube": "None", "website": "None", "summary": "None", "logo": "None", "latitude": 45.411932936407425, "longitude": -71.63355099030514}, "890029069RR0001": {"name": "BIRCHTOWN COMMUNITY CENTRE ASSOCIATION", "designationCode": "C", "categoryCode": "56", "address": "942 BIRCHTOWN ROAD", "city": "BIRCHTOWN", "province": "NS", "country": "CA", "postalCode": "B0T1W0", "twitter": "None", "instagram": "None", "facebook": "None", "youtube": "None", "website": "None", "summary": "None", "logo": "None", "latitude": 43.74448361242719, "longitude": -65.38314741677651}, "890224579RR0001": {"name": "BIRCHVIEW HOME AUXILIARY", "designationCode": "C", "categoryCode": "01", "address": "BOX 55", "city": "BIRCH HILLS", "province": "SK", "country": "CA", "postalCode": "S0J0G0", "twitter": "None", "instagram": "None", "facebook": "None", "youtube": "None", "website": "None", "summary": "None", "logo": "None", "latitude": 56.325968466910076, "longitude": -103.2432009425047}, "119024313RR0001": {"name": "BIRD STUDIES CANADA/ETUDES D'OISEAUX CANADA", "designationCode": "C", "categoryCode": "29", "address": "PO BOX 160", "city": "PORT ROWAN", "province": "ON", "country": "CA", "postalCode": "N0E1M0", "twitter": "None", "instagram": "None", "facebook": "None", "youtube": "None", "website": "None", "summary": "None", "logo": "None", "latitude": 42.62403000000006, "longitude": -80.45044999999999}, "118810001RR0001": {"name": "BIRDS HILL UNITED CHURCH", "designationCode": "C", "categoryCode": "44", "address": "2105 BURTON AVE", "city": "EAST ST PAUL", "province": "MB", "country": "CA", "postalCode": "R2E0J8", "twitter": "None", "instagram": "None", "facebook": "None", "youtube": "None", "website": "None", "summary": "None", "logo": "None", "latitude": 49.972763512926186, "longitude": -97.00244932595663}, "120185533RR0001": {"name": "BIRDTAIL COUNTRY MUSEUM INC", "designationCode": "C", "categoryCode": "50", "address": "BOX 508", "city": "BIRTLE", "province": "MB", "country": "CA", "postalCode": "R0M0C0", "twitter": "None", "instagram": "None", "facebook": "None", "youtube": "None", "website": "None", "summary": "None", "logo": "None", "latitude": 50.422120000000064, "longitude": -101.04440999999997}}