{"863607933RR0001": {"name": "OAK LAKE & DISTRICT MUSEUM INC.", "designationCode": "C", "categoryCode": "50", "address": "BOX 411", "city": "OAK LAKE", "province": "MB", "country": "CA", "postalCode": "R0M1P0", "twitter": "None", "instagram": "None", "facebook": "None", "youtube": "None", "website": "None", "summary": "None", "logo": "None", "latitude": 49.76430756929151, "longitude": -100.63254783087561}, "888756665RR0001": {"name": "OAK LAKE AGRICULTURAL SOCIETY", "designationCode": "C", "categoryCode": "56", "address": "BOX 256", "city": "OAK LAKE", "province": "MB", "country": "CA", "postalCode": "R0M1P0", "twitter": "None", "instagram": "None", "facebook": "None", "youtube": "None", "website": "None", "summary": "None", "logo": "None", "latitude": 49.7644269936811, "longitude": -100.63367204227485}, "855135349RR0001": {"name": "OAK LAKE AND AREA DONOR'S CHOICE", "designationCode": "A", "categoryCode": "05", "address": "P. O. BOX 11", "city": "OAK LAKE", "province": "MB", "country": "CA", "postalCode": "R0M1P0", "twitter": "None", "instagram": "None", "facebook": "None", "youtube": "None", "website": "None", "summary": "None", "logo": "None", "latitude": 49.76430756929151, "longitude": -100.63254783087561}, "119064137RR0001": {"name": "OAK LAKE MENNONITE CHURCH", "designationCode": "C", "categoryCode": "34", "address": "BOX 39", "city": "OAK LAKE", "province": "MB", "country": "CA", "postalCode": "R0M1P0", "twitter": "None", "instagram": "None", "facebook": "None", "youtube": "None", "website": "None", "summary": "None", "logo": "None", "latitude": 49.27227159526467, "longitude": -100.99019083285982}, "119064145RR0001": {"name": "OAK LAKE UNITED CHURCH", "designationCode": "C", "categoryCode": "44", "address": "BOX 89", "city": "OAK LAKE", "province": "MB", "country": "CA", "postalCode": "R0M1P0", "twitter": "None", "instagram": "None", "facebook": "None", "youtube": "None", "website": "None", "summary": "None", "logo": "None", "latitude": 49.2714630517253, "longitude": -100.98944909971863}, "107790610RR0001": {"name": "OAK MEADOWS CHRISTIAN SCHOOLS INC.", "designationCode": "C", "categoryCode": "20", "address": "112 THIRD LINE", "city": "OAKVILLE", "province": "ON", "country": "CA", "postalCode": "L6L3Z6", "twitter": "None", "instagram": "None", "facebook": "None", "youtube": "None", "website": "None", "summary": "None", "logo": "None", "latitude": 43.405883812366625, "longitude": -79.69992994506308}, "107790313RR0001": {"name": "OAK PARK CHURCH OF CHRIST", "designationCode": "C", "categoryCode": "39", "address": "11263 OAKFIELD DR SW", "city": "CALGARY", "province": "AB", "country": "CA", "postalCode": "T2W4M2", "twitter": "None", "instagram": "None", "facebook": "None", "youtube": "None", "website": "None", "summary": "None", "logo": "None", "latitude": 50.95399753621103, "longitude": -114.12830241618097}, "119064244RR0001": {"name": "OAK PARK CO-OPERATIVE CHILDREN'S CENTRE INC.", "designationCode": "C", "categoryCode": "20", "address": "1040 OXFORD ST W", "city": "LONDON", "province": "ON", "country": "CA", "postalCode": "N6H1V4", "twitter": "None", "instagram": "None", "facebook": "None", "youtube": "None", "website": "None", "summary": "None", "logo": "None", "latitude": 42.97726507071999, "longitude": -81.31483275864178}, "119064236RR0001": {"name": "OAK PARK LODGE INC.", "designationCode": "C", "categoryCode": "59", "address": "BOX 52", "city": "WOODLANDS", "province": "MB", "country": "CA", "postalCode": "R0C3H0", "twitter": "None", "instagram": "None", "facebook": "None", "youtube": "None", "website": "None", "summary": "None", "logo": "None", "latitude": 50.480104488010895, "longitude": -96.97111199999999}, "855402244RR0001": {"name": "OAK PARK NEIGHBOURHOOD CENTRE", "designationCode": "C", "categoryCode": "09", "address": "2200 SAWGRASS DR", "city": "OAKVILLE", "province": "ON", "country": "CA", "postalCode": "L6H6M8", "twitter": "None", "instagram": "None", "facebook": "None", "youtube": "None", "website": "None", "summary": "None", "logo": "None", "latitude": 43.478450530094186, "longitude": -79.71342380408541}, "107669848RR0023": {"name": "OAK PARK SEVENTH-DAY ADVENTIST CHURCH", "designationCode": "C", "categoryCode": "41", "address": "121 SALISBURY RD", "city": "MONCTON", "province": "NB", "country": "CA", "postalCode": "E1E1A6", "twitter": "None", "instagram": "None", "facebook": "None", "youtube": "None", "website": "None", "summary": "None", "logo": "None", "latitude": 46.0711640413756, "longitude": -64.82144086984238}, "891419244RR0001": {"name": "OAK RIDGE CHARITABLE TRUST", "designationCode": "B", "categoryCode": "39", "address": "1401 PRINCESS AVE", "city": "BRANDON", "province": "MB", "country": "CA", "postalCode": "R7A7L7", "twitter": "None", "instagram": "None", "facebook": "None", "youtube": "None", "website": "None", "summary": "None", "logo": "None", "latitude": 49.84694947489748, "longitude": -99.957294}, "131797615RR0001": {"name": "OAK RIDGES BRETHREN IN CHRIST CHURCH,", "designationCode": "C", "categoryCode": "39", "address": "185 RUPERT AVE.", "city": "STOUFFVILLE", "province": "ON", "country": "CA", "postalCode": "L4A1B6", "twitter": "None", "instagram": "None", "facebook": "None", "youtube": "None", "website": "None", "summary": "None", "logo": "None", "latitude": 43.971842125194634, "longitude": -79.25269006440064}, "862273315RR0001": {"name": "OAK RIDGES MORAINE FOUNDATION", "designationCode": "A", "categoryCode": "53", "address": "112 DUPONT ST", "city": "TORONTO", "province": "ON", "country": "CA", "postalCode": "M5R1V2", "twitter": "None", "instagram": "None", "facebook": "None", "youtube": "None", "website": "None", "summary": "None", "logo": "None", "latitude": 43.67618289537762, "longitude": -79.40121210880599}, "873208920RR0001": {"name": "OAK RIDGES MORAINE LAND TRUST", "designationCode": "C", "categoryCode": "55", "address": "18462 BATHURST STREET", "city": "NEWMARKET", "province": "ON", "country": "CA", "postalCode": "L3Y4V9", "twitter": "None", "instagram": "None", "facebook": "None", "youtube": "None", "website": "None", "summary": "None", "logo": "None", "latitude": 44.07244283819031, "longitude": -79.51212609714923}, "892978164RR0001": {"name": "OAK RIDGES TRAIL ASSOCIATION", "designationCode": "C", "categoryCode": "56", "address": "P.O. BOX 28544", "city": "AURORA", "province": "ON", "country": "CA", "postalCode": "L4G6S6", "twitter": "None", "instagram": "None", "facebook": "None", "youtube": "None", "website": "None", "summary": "None", "logo": "None", "latitude": 44.00671200000005, "longitude": -79.44972199999994}, "132360041RR0001": {"name": "OAK RIVER COMMUNITY ASSOCIATION", "designationCode": "C", "categoryCode": "56", "address": "BOX 5                         GOVERNMENT RD. ALLOWANCE", "city": "OAK RIVER", "province": "MB", "country": "CA", "postalCode": "R0K1T0", "twitter": "None", "instagram": "None", "facebook": "None", "youtube": "None", "website": "None", "summary": "None", "logo": "None", "latitude": 50.13779100000005, "longitude": -100.42870399999994}, "107790487RR0001": {"name": "OAK RIVER PASTORAL CHARGE", "designationCode": "C", "categoryCode": "44", "address": "BOX 33", "city": "OAKRIVER", "province": "MB", "country": "CA", "postalCode": "R0K1T0", "twitter": "None", "instagram": "None", "facebook": "None", "youtube": "None", "website": "None", "summary": "None", "logo": "None", "latitude": 50.13779100000005, "longitude": -100.42870399999994}, "858996549RR0001": {"name": "OAK STREET NURSERY SCHOOL INC.", "designationCode": "C", "categoryCode": "01", "address": "255 OAK ST", "city": "WINNIPEG", "province": "MB", "country": "CA", "postalCode": "R3M3P7", "twitter": "None", "instagram": "None", "facebook": "None", "youtube": "None", "website": "None", "summary": "None", "logo": "None", "latitude": 49.87072057146977, "longitude": -97.18124279701628}, "119063931RR0001": {"name": "OAKBANK - SPRINGFIELD KINSMEN SENIOR'S COMPLEX INC.", "designationCode": "C", "categoryCode": "01", "address": "100-689 MAIN ST  RR#2", "city": "OAKBANK", "province": "MB", "country": "CA", "postalCode": "R0E1J2", "twitter": "None", "instagram": "None", "facebook": "None", "youtube": "None", "website": "None", "summary": "None", "logo": "None", "latitude": 49.944816740656414, "longitude": -96.842394}, "862431905RR0001": {"name": "OAKBANK BAPTIST CHURCH INC.", "designationCode": "C", "categoryCode": "31", "address": "BOX 4003  RR1", "city": "OAKBANK", "province": "MB", "country": "CA", "postalCode": "R0E1J3", "twitter": "None", "instagram": "None", "facebook": "None", "youtube": "None", "website": "None", "summary": "None", "logo": "None", "latitude": 49.93758600000005, "longitude": -96.84243349999993}, "131893471RR0001": {"name": "OAKBANK KIDS KORNER COOPERATIVE INC", "designationCode": "C", "categoryCode": "01", "address": "644 WILLOW AVENUE             BOX 146", "city": "OAKBANK", "province": "MB", "country": "CA", "postalCode": "R0E1J0", "twitter": "None", "instagram": "None", "facebook": "None", "youtube": "None", "website": "None", "summary": "None", "logo": "None", "latitude": 49.937943461431765, "longitude": -96.8462957944214}, "131903213RR0001": {"name": "OAKBANK UNITED CHURCH,", "designationCode": "C", "categoryCode": "44", "address": "BOX 148", "city": "OAKBANK", "province": "MB", "country": "CA", "postalCode": "R0E1J0", "twitter": "None", "instagram": "None", "facebook": "None", "youtube": "None", "website": "None", "summary": "None", "logo": "None", "latitude": 49.93758600000005, "longitude": -96.84243349999993}, "856997564RR0001": {"name": "OAKBROOK FOUNDATION", "designationCode": "A", "categoryCode": "03", "address": "3078-275TH STREET", "city": "ALDERGROVE", "province": "BC", "country": "CA", "postalCode": "V4W3L4", "twitter": "None", "instagram": "None", "facebook": "None", "youtube": "None", "website": "None", "summary": "None", "logo": "None", "latitude": 49.058129514570965, "longitude": -122.46239225422705}, "119064053RR0001": {"name": "OAKBURN GAME AND FISH ASSOCIATION INC.", "designationCode": "A", "categoryCode": "54", "address": "PO BOX 171", "city": "OAKBURN", "province": "MB", "country": "CA", "postalCode": "R0J1L0", "twitter": "None", "instagram": "None", "facebook": "None", "youtube": "None", "website": "None", "summary": "None", "logo": "None", "latitude": 50.56456000000003, "longitude": -100.57705999999996}, "119288918RR0689": {"name": "OAKDALE CONGREGATION OF JEHOVAH'S WITNESSES, TORONTO, ONTARIO", "designationCode": "C", "categoryCode": "61", "address": "16 ARROW ROAD", "city": "TORONTO", "province": "ON", "country": "CA", "postalCode": "M9M2L7", "twitter": "None", "instagram": "None", "facebook": "None", "youtube": "None", "website": "None", "summary": "None", "logo": "None", "latitude": 43.73638723896361, "longitude": -79.52951807608606}, "136939063RR0001": {"name": "OAKDALE SENIOR HOUSING INC", "designationCode": "C", "categoryCode": "01", "address": "P.O. BOX 26", "city": "OAK RIVER", "province": "MB", "country": "CA", "postalCode": "R0K1T0", "twitter": "None", "instagram": "None", "facebook": "None", "youtube": "None", "website": "None", "summary": "None", "logo": "None", "latitude": 49.635229499999994, "longitude": -99.60807824999999}, "886565795RR0001": {"name": "OAKFIELD CEMETERY ASSOCIATION", "designationCode": "C", "categoryCode": "59", "address": "16 CAMERON ESTATES", "city": "SYDNEY", "province": "NS", "country": "CA", "postalCode": "B1P6Y4", "twitter": "None", "instagram": "None", "facebook": "None", "youtube": "None", "website": "None", "summary": "None", "logo": "None", "latitude": 46.12211942463509, "longitude": -60.17519152204411}, "119064095RR0001": {"name": "OAKHILL AND DISTRICT FIRE DEPARTMENT", "designationCode": "C", "categoryCode": "59", "address": "PO BOX 263", "city": "BRIDGEWATER", "province": "NS", "country": "CA", "postalCode": "B4V2W9", "twitter": "None", "instagram": "None", "facebook": "None", "youtube": "None", "website": "None", "summary": "None", "logo": "None", "latitude": 44.38048200000006, "longitude": -64.52305099999994}, "119288918RR0871": {"name": "OAKHILL CONGREGATION OF JEHOVAH'S WITNESSES BRANTFORD ONTARIO", "designationCode": "C", "categoryCode": "61", "address": "19 ABIGAIL AVE", "city": "BRANTFORD", "province": "ON", "country": "CA", "postalCode": "N3R4R8", "twitter": "None", "instagram": "None", "facebook": "None", "youtube": "None", "website": "None", "summary": "None", "logo": "None", "latitude": 43.1524126522304, "longitude": -80.27965618844142}, "132451105RR0001": {"name": "OAKLAND CEMETERY INC.", "designationCode": "C", "categoryCode": "59", "address": "15677 DUNBOROUGH RD", "city": "WEST LORNE", "province": "ON", "country": "CA", "postalCode": "N0L2P0", "twitter": "None", "instagram": "None", "facebook": "None", "youtube": "None", "website": "None", "summary": "None", "logo": "None", "latitude": 42.692775202608345, "longitude": -81.65998118443072}, "119064202RR0001": {"name": "OAKLAND UNITED CHURCH", "designationCode": "C", "categoryCode": "44", "address": "P.O. BOX 59, 154 OAKLAND ROAD", "city": "OAKLAND", "province": "ON", "country": "CA", "postalCode": "N0E1L0", "twitter": "None", "instagram": "None", "facebook": "None", "youtube": "None", "website": "None", "summary": "None", "logo": "None", "latitude": 43.031502322263044, "longitude": -80.33312552720865}, "886203793RR0001": {"name": "OAKLAND UNITED CHURCH, PASTORAL CHARGE", "designationCode": "C", "categoryCode": "44", "address": "BOX 20046, MILLBROOK MALL", "city": "CORNER BROOK", "province": "NL", "country": "CA", "postalCode": "A2H7J5", "twitter": "None", "instagram": "None", "facebook": "None", "youtube": "None", "website": "None", "summary": "None", "logo": "None", "latitude": 48.95097900000006, "longitude": -57.950103499999926}, "107790255RR0001": {"name": "OAKLANDS CHAPEL", "designationCode": "C", "categoryCode": "39", "address": "2736 FERNWOOD RD", "city": "VICTORIA", "province": "BC", "country": "CA", "postalCode": "V8T3A4", "twitter": "None", "instagram": "None", "facebook": "None", "youtube": "None", "website": "None", "summary": "None", "logo": "None", "latitude": 48.438845214265115, "longitude": -123.34492131282798}, "882929946RR0001": {"name": "OAKLANDS COMMUNITY ASSOCIATION", "designationCode": "C", "categoryCode": "09", "address": "1-2827 BELMONT AVE", "city": "VICTORIA", "province": "BC", "country": "CA", "postalCode": "V8R4B2", "twitter": "None", "instagram": "None", "facebook": "None", "youtube": "None", "website": "None", "summary": "None", "logo": "None", "latitude": 48.440852947544585, "longitude": -123.33893110941251}, "885462192RR0001": {"name": "OAKLANE CHARITABLE TRUST", "designationCode": "B", "categoryCode": "39", "address": "3425 2 AVENUE SOUTH", "city": "LETHBRIDGE", "province": "AB", "country": "CA", "postalCode": "T1J4V1", "twitter": "None", "instagram": "None", "facebook": "None", "youtube": "None", "website": "None", "summary": "None", "logo": "None", "latitude": 49.696839530439966, "longitude": -112.78914308381903}, "132071176RR0001": {"name": "OAKRIDGE BIBLE CHAPEL", "designationCode": "C", "categoryCode": "39", "address": "2250 EIGHTH LINE", "city": "OAKVILLE", "province": "ON", "country": "CA", "postalCode": "L6H7E7", "twitter": "None", "instagram": "None", "facebook": "None", "youtube": "None", "website": "None", "summary": "None", "logo": "None", "latitude": 43.48689183790185, "longitude": -79.7041015288821}, "889585469RR0001": {"name": "OAKRIDGE CHURCH OF CHRIST", "designationCode": "C", "categoryCode": "39", "address": "6970 OAK ST", "city": "VANCOUVER", "province": "BC", "country": "CA", "postalCode": "V6P3Z6", "twitter": "None", "instagram": "None", "facebook": "None", "youtube": "None", "website": "None", "summary": "None", "logo": "None", "latitude": 49.221692968636404, "longitude": -123.12846947997603}, "126177559RR0001": {"name": "OAKRIDGE FELLOWSHIP BAPTIST CHURCH", "designationCode": "C", "categoryCode": "31", "address": "6261 CAMBIE STREET", "city": "VANCOUVER", "province": "BC", "country": "CA", "postalCode": "V5Z3B2", "twitter": "None", "instagram": "None", "facebook": "None", "youtube": "None", "website": "None", "summary": "None", "logo": "None", "latitude": 49.22824561809682, "longitude": -123.11663397616687}, "107649733RR0001": {"name": "OAKRIDGE LUTHERAN CHURCH", "designationCode": "C", "categoryCode": "32", "address": "1921 COLLINGWOOD ST", "city": "VANCOUVER", "province": "BC", "country": "CA", "postalCode": "V6R3K6", "twitter": "None", "instagram": "None", "facebook": "None", "youtube": "None", "website": "None", "summary": "None", "logo": "None", "latitude": 49.269179378296485, "longitude": -123.18166333016889}, "107790446RR0001": {"name": "OAKRIDGE PRESBYTERIAN CHURCH", "designationCode": "C", "categoryCode": "37", "address": "970 OXFORD ST W", "city": "LONDON", "province": "ON", "country": "CA", "postalCode": "N6H1V4", "twitter": "None", "instagram": "None", "facebook": "None", "youtube": "None", "website": "None", "summary": "None", "logo": "None", "latitude": 42.978243030639405, "longitude": -81.31130610907256}, "119064293RR0001": {"name": "OAKRIDGE SENIORS' SOCIETY", "designationCode": "C", "categoryCode": "56", "address": "513-650 W 41ST AVE", "city": "VANCOUVER", "province": "BC", "country": "CA", "postalCode": "V5Z2M9", "twitter": "None", "instagram": "None", "facebook": "None", "youtube": "None", "website": "None", "summary": "None", "logo": "None", "latitude": 49.233542548906996, "longitude": -123.11711287483404}, "118818491RR0090": {"name": "OAKRIDGE SEVENTH-DAY ADVENTIST CHURCH", "designationCode": "C", "categoryCode": "41", "address": "PO 1000", "city": "ABBOTSFORD", "province": "BC", "country": "CA", "postalCode": "V2S4P5", "twitter": "None", "instagram": "None", "facebook": "None", "youtube": "None", "website": "None", "summary": "None", "logo": "None", "latitude": 49.03851300000005, "longitude": -122.29441549999993}, "871064580RR0001": {"name": "OAKS OF RIGHTEOUSNESS CHRISTIAN FELLOWSHIP", "designationCode": "C", "categoryCode": "39", "address": "3540 GRAYSHOTT DR", "city": "SEVERN", "province": "ON", "country": "CA", "postalCode": "L3V0Y4", "twitter": "None", "instagram": "None", "facebook": "None", "youtube": "None", "website": "None", "summary": "None", "logo": "None", "latitude": 44.71159797420499, "longitude": -79.36860458808954}, "865939011RR0001": {"name": "OAKVILLE CEMETERY ASSOCIATION", "designationCode": "C", "categoryCode": "59", "address": "BOX 88", "city": "OAKVILLE", "province": "MB", "country": "CA", "postalCode": "R0H0Y0", "twitter": "None", "instagram": "None", "facebook": "None", "youtube": "None", "website": "None", "summary": "None", "logo": "None", "latitude": 49.92975000000007, "longitude": -98.00394999999997}, "889674222RR0001": {"name": "OAKVILLE CHAMBER ORCHESTRA", "designationCode": "C", "categoryCode": "22", "address": "310 - 690 DORVAL DR", "city": "OAKVILLE", "province": "ON", "country": "CA", "postalCode": "L6K3W7", "twitter": "None", "instagram": "None", "facebook": "None", "youtube": "None", "website": "None", "summary": "None", "logo": "None", "latitude": 43.44348002351602, "longitude": -79.69573674585892}, "106926215RR0001": {"name": "OAKVILLE CHURCH OF THE NAZARENE", "designationCode": "C", "categoryCode": "39", "address": "320 BRONTE RD", "city": "OAKVILLE", "province": "ON", "country": "CA", "postalCode": "L6L3C8", "twitter": "None", "instagram": "None", "facebook": "None", "youtube": "None", "website": "None", "summary": "None", "logo": "None", "latitude": 43.39746454786779, "longitude": -79.72202577866575}, "119064392RR0001": {"name": "OAKVILLE COMMUNITY CLUB INC.", "designationCode": "C", "categoryCode": "56", "address": "PO BOX 344", "city": "OAKVILLE", "province": "MB", "country": "CA", "postalCode": "R0H0Y0", "twitter": "None", "instagram": "None", "facebook": "None", "youtube": "None", "website": "None", "summary": "None", "logo": "None", "latitude": 49.92975000000007, "longitude": -98.00394999999997}, "891934374RR0001": {"name": "OAKVILLE COMMUNITY FOUNDATION", "designationCode": "A", "categoryCode": "03", "address": "200 - 410 NORTH SERVICE RD E", "city": "OAKVILLE", "province": "ON", "country": "CA", "postalCode": "L6H5R2", "twitter": "None", "instagram": "None", "facebook": "None", "youtube": "None", "website": "None", "summary": "None", "logo": "None", "latitude": 43.47838128416527, "longitude": -79.6728936444104}, "107790628RR0001": {"name": "OAKVILLE CRISIS CENTRE", "designationCode": "C", "categoryCode": "09", "address": "PO BOX 776 RPO LAKESHORE WEST", "city": "OAKVILLE", "province": "ON", "country": "CA", "postalCode": "L6K0A9", "twitter": "None", "instagram": "None", "facebook": "None", "youtube": "None", "website": "None", "summary": "None", "logo": "None", "latitude": 43.43392717085388, "longitude": -79.68087896669049}, "119064400RR0001": {"name": "OAKVILLE FAMILY YMCA", "designationCode": "C", "categoryCode": "49", "address": "TREASURER                     410 REBECCA STREET", "city": "OAKVILLE", "province": "ON", "country": "CA", "postalCode": "L6K1K7", "twitter": "None", "instagram": "None", "facebook": "None", "youtube": "None", "website": "None", "summary": "None", "logo": "None", "latitude": 43.432455468492165, "longitude": -79.68673439687815}, "119064418RR0001": {"name": "OAKVILLE GALLERIES", "designationCode": "C", "categoryCode": "50", "address": "1306 LAKESHORE RD E", "city": "OAKVILLE", "province": "ON", "country": "CA", "postalCode": "L6J1L6", "twitter": "None", "instagram": "None", "facebook": "None", "youtube": "None", "website": "None", "summary": "None", "logo": "None", "latitude": 43.46281442535671, "longitude": -79.64973618978185}, "119064426RR0001": {"name": "OAKVILLE HISTORICAL SOCIETY", "designationCode": "C", "categoryCode": "50", "address": "110 KING ST", "city": "OAKVILLE", "province": "ON", "country": "CA", "postalCode": "L6J1B1", "twitter": "None", "instagram": "None", "facebook": "None", "youtube": "None", "website": "None", "summary": "None", "logo": "None", "latitude": 43.44219511350919, "longitude": -79.66799250470321}, "131453490RR0001": {"name": "OAKVILLE HOSPITAL FOUNDATION", "designationCode": "C", "categoryCode": "19", "address": "327 REYNOLDS ST", "city": "OAKVILLE", "province": "ON", "country": "CA", "postalCode": "L6J3L7", "twitter": "None", "instagram": "None", "facebook": "None", "youtube": "None", "website": "None", "summary": "None", "logo": "None", "latitude": 43.45313722621035, "longitude": -79.67429905799534}, "846699478RR0001": {"name": "OAKVILLE KIWANIS CHARITABLE FOUNDATION", "designationCode": "A", "categoryCode": "63", "address": "42 - 1250 MARLBOROUGH COURT", "city": "OAKVILLE", "province": "ON", "country": "CA", "postalCode": "L6H2W7", "twitter": "None", "instagram": "None", "facebook": "None", "youtube": "None", "website": "None", "summary": "None", "logo": "None", "latitude": 43.46741836329284, "longitude": -79.69445188441333}, "129950515RR0001": {"name": "OAKVILLE KIWANIS MEALS ON WHEELS", "designationCode": "C", "categoryCode": "09", "address": "107-165 CROSS AVE", "city": "OAKVILLE", "province": "ON", "country": "CA", "postalCode": "L6J0A9", "twitter": "None", "instagram": "None", "facebook": "None", "youtube": "None", "website": "None", "summary": "None", "logo": "None", "latitude": 43.454611081971784, "longitude": -79.68579398617979}, "885188623RR0001": {"name": "OAKVILLE KOREAN CHURCH", "designationCode": "C", "categoryCode": "39", "address": "5 DUNDAS ST E", "city": "OAKVILLE", "province": "ON", "country": "CA", "postalCode": "L6H7C4", "twitter": "None", "instagram": "None", "facebook": "None", "youtube": "None", "website": "None", "summary": "None", "logo": "None", "latitude": 43.479439930347894, "longitude": -79.72897436430246}, "107790693RR0001": {"name": "OAKVILLE PARENT-CHILD CENTRE", "designationCode": "C", "categoryCode": "59", "address": "B17-461 NORTH SERVICE ROAD W", "city": "OAKVILLE", "province": "ON", "country": "CA", "postalCode": "L6M2V5", "twitter": "None", "instagram": "None", "facebook": "None", "youtube": "None", "website": "None", "summary": "None", "logo": "None", "latitude": 43.4287818207343, "longitude": -79.72054200421685}, "892274440RR0001": {"name": "OAKVILLE SILVER THREADS SENIORS INC", "designationCode": "C", "categoryCode": "56", "address": "207-4TH STREET", "city": "OAKVILLE", "province": "MB", "country": "CA", "postalCode": "R0H0Y0", "twitter": "None", "instagram": "None", "facebook": "None", "youtube": "None", "website": "None", "summary": "None", "logo": "None", "latitude": 49.92936458346735, "longitude": -98.00035523128552}, "890152598RR0001": {"name": "OAKVILLE SUZUKI ASSOCIATION", "designationCode": "C", "categoryCode": "22", "address": "PO BOX 69599 RPO CENTRAL OAKVI109 THOMAS ST", "city": "OAKVILLE", "province": "ON", "country": "CA", "postalCode": "L6J7R4", "twitter": "None", "instagram": "None", "facebook": "None", "youtube": "None", "website": "None", "summary": "None", "logo": "None", "latitude": 43.46642400000006, "longitude": -79.69001299999994}, "119064533RR0001": {"name": "OAKVILLE UNITED CHURCH", "designationCode": "C", "categoryCode": "44", "address": "PO BOX 246", "city": "OAKVILLE", "province": "MB", "country": "CA", "postalCode": "R0H0Y0", "twitter": "None", "instagram": "None", "facebook": "None", "youtube": "None", "website": "None", "summary": "None", "logo": "None", "latitude": 49.92975000000007, "longitude": -98.00394999999997}, "892511213RR0001": {"name": "OAKVILLE UNITED PENTECOSTAL CHURCH", "designationCode": "C", "categoryCode": "39", "address": "2408 DUNHOLM GATE", "city": "OAKVILLE", "province": "ON", "country": "CA", "postalCode": "L6H7N4", "twitter": "None", "instagram": "None", "facebook": "None", "youtube": "None", "website": "None", "summary": "None", "logo": "None", "latitude": 43.494241034133566, "longitude": -79.70589672387307}, "859689614RR0001": {"name": "OAKVILLE WIND ORCHESTRA", "designationCode": "C", "categoryCode": "22", "address": "200 NORTH SERVICE RD W.       UNIT 1, SUITE 455", "city": "OAKVILLE", "province": "ON", "country": "CA", "postalCode": "L6M2Y1", "twitter": "None", "instagram": "None", "facebook": "None", "youtube": "None", "website": "None", "summary": "None", "logo": "None", "latitude": 43.450640558861664, "longitude": -79.70037321440934}, "119064558RR0001": {"name": "OAKWOOD BAPTIST CHURCH", "designationCode": "C", "categoryCode": "31", "address": "421 OAKWOOD AVE", "city": "TORONTO", "province": "ON", "country": "CA", "postalCode": "M6E2W1", "twitter": "None", "instagram": "None", "facebook": "None", "youtube": "None", "website": "None", "summary": "None", "logo": "None", "latitude": 43.68932563059032, "longitude": -79.43942593363745}, "119064566RR0001": {"name": "OAKWOOD BIBLE CHAPEL 8", "designationCode": "C", "categoryCode": "39", "address": "PO BOX 23051 3100 HOWARD", "city": "WINDSOR", "province": "ON", "country": "CA", "postalCode": "N8X3Y8", "twitter": "None", "instagram": "None", "facebook": "None", "youtube": "None", "website": "None", "summary": "None", "logo": "None", "latitude": 42.27361680768635, "longitude": -83.00465586473995}, "866827355RR0001": {"name": "OAKWOOD CEMETERY BOARD", "designationCode": "C", "categoryCode": "59", "address": "15 CRESTWOOD AVE", "city": "LINDSAY", "province": "ON", "country": "CA", "postalCode": "K9V6A7", "twitter": "None", "instagram": "None", "facebook": "None", "youtube": "None", "website": "None", "summary": "None", "logo": "None", "latitude": 44.36981591075373, "longitude": -78.74736090842836}, "119036010RR0001": {"name": "OAKWOOD CHILDREN'S HOUSE", "designationCode": "C", "categoryCode": "20", "address": "115 WINONA DRIVE", "city": "TORONTO", "province": "ON", "country": "CA", "postalCode": "M6G3S8", "twitter": "None", "instagram": "None", "facebook": "None", "youtube": "None", "website": "None", "summary": "None", "logo": "None", "latitude": 43.67796441355523, "longitude": -79.43152860805618}, "119288918RR0436": {"name": "OAKWOOD CONGREGATION OF JEHOVAH'S WITNESSES", "designationCode": "C", "categoryCode": "61", "address": "402 OAKWOOD AVE", "city": "TORONTO", "province": "ON", "country": "CA", "postalCode": "M6E2W3", "twitter": "None", "instagram": "None", "facebook": "None", "youtube": "None", "website": "None", "summary": "None", "logo": "None", "latitude": 43.68814363474525, "longitude": -79.43909397671513}, "892282047RR0001": {"name": "OAKWOOD GOSPEL HALL,", "designationCode": "C", "categoryCode": "39", "address": "RR 1                          12053 MCKENNEY RD", "city": "WELLAND", "province": "ON", "country": "CA", "postalCode": "L3B5N4", "twitter": "None", "instagram": "None", "facebook": "None", "youtube": "None", "website": "None", "summary": "None", "logo": "None", "latitude": 42.98855100000006, "longitude": -79.18475299999993}, "888719531RR0001": {"name": "OAKWOOD TERRACE FOUNDATION", "designationCode": "A", "categoryCode": "19", "address": "10 MOUNT HOPE AVE", "city": "DARTMOUTH", "province": "NS", "country": "CA", "postalCode": "B2Y4K1", "twitter": "None", "instagram": "None", "facebook": "None", "youtube": "None", "website": "None", "summary": "None", "logo": "None", "latitude": 44.65419249174836, "longitude": -63.54525907028727}, "108102542RR0001": {"name": "OAKWOOD UNITED CHURCH", "designationCode": "C", "categoryCode": "44", "address": "949 HIGHWAY 7", "city": "OAKWOOD", "province": "ON", "country": "CA", "postalCode": "K0M2M0", "twitter": "None", "instagram": "None", "facebook": "None", "youtube": "None", "website": "None", "summary": "None", "logo": "None", "latitude": 44.333734137998235, "longitude": -78.87654188984257}, "119064624RR0001": {"name": "OAKWOOD WESLEYAN CHURCH", "designationCode": "C", "categoryCode": "39", "address": "33 BRANDON AVENUE", "city": "TORONTO", "province": "ON", "country": "CA", "postalCode": "M6H2C8", "twitter": "None", "instagram": "None", "facebook": "None", "youtube": "None", "website": "None", "summary": "None", "logo": "None", "latitude": 43.67001590755396, "longitude": -79.44154685178032}, "892789363RR0001": {"name": "OASIS ADDICTION RECOVERY SOCIETY", "designationCode": "C", "categoryCode": "57", "address": "921 DANFORTH AVENUE", "city": "TORONTO", "province": "ON", "country": "CA", "postalCode": "M4J1L8", "twitter": "None", "instagram": "None", "facebook": "None", "youtube": "None", "website": "None", "summary": "None", "logo": "None", "latitude": 43.68014575823778, "longitude": -79.33847693421437}, "896067246RR0001": {"name": "OASIS CENTRE DES FEMMES INC.", "designationCode": "C", "categoryCode": "09", "address": "PO BOX 73022 RPO WOOD STREET", "city": "TORONTO", "province": "ON", "country": "CA", "postalCode": "M4Y2W5", "twitter": "None", "instagram": "None", "facebook": "None", "youtube": "None", "website": "None", "summary": "None", "logo": "None", "latitude": 43.66254965637268, "longitude": -79.38086268428545}, "119013415RR0001": {"name": "OASIS CHRISTIAN CENTRE", "designationCode": "C", "categoryCode": "36", "address": "219 QUEEN ST", "city": "SHERBROOKE", "province": "QC", "country": "CA", "postalCode": "J1M1K4", "twitter": "None", "instagram": "None", "facebook": "None", "youtube": "None", "website": "None", "summary": "None", "logo": "None", "latitude": 45.37156766221372, "longitude": -71.85874714005404}, "102541786RR0001": {"name": "OASIS COMMUNITY CHURCH, INC.", "designationCode": "C", "categoryCode": "39", "address": "940 ELMHURST RD", "city": "WINNIPEG", "province": "MB", "country": "CA", "postalCode": "R3R3X7", "twitter": "None", "instagram": "None", "facebook": "None", "youtube": "None", "website": "None", "summary": "None", "logo": "None", "latitude": 49.84360967943907, "longitude": -97.2579855184365}, "139697239RR0001": {"name": "OASIS DE L'ETOILE", "designationCode": "C", "categoryCode": "49", "address": "220 ROUTE 21", "city": "PLANTAGENET", "province": "ON", "country": "CA", "postalCode": "K0B1L0", "twitter": "None", "instagram": "None", "facebook": "None", "youtube": "None", "website": "None", "summary": "None", "logo": "None", "latitude": 45.559848488487475, "longitude": -75.05957567245684}, "143177418RR0001": {"name": "OASIS DE LA FERME SAINTE-FAMILLE", "designationCode": "C", "categoryCode": "49", "address": "163 CHEMIN PROULX", "city": "GATINEAU", "province": "QC", "country": "CA", "postalCode": "J8R3B9", "twitter": "None", "instagram": "None", "facebook": "None", "youtube": "None", "website": "None", "summary": "None", "logo": "None", "latitude": 45.53661945657561, "longitude": -75.58108558826244}, "886358597RR0001": {"name": "OASIS DE NAZARETH INC", "designationCode": "C", "categoryCode": "46", "address": "12813, BOUL. RIDEAU", "city": "ROUYN-NORANDA", "province": "QC", "country": "CA", "postalCode": "J0Z3J0", "twitter": "None", "instagram": "None", "facebook": "None", "youtube": "None", "website": "None", "summary": "None", "logo": "None", "latitude": 47.91144656618967, "longitude": -79.24902955603343}, "140741414RR0001": {"name": "OASIS DUFFERIN COMMUNITY CENTRE", "designationCode": "C", "categoryCode": "56", "address": "1219 DUFFERIN ST", "city": "TORONTO", "province": "ON", "country": "CA", "postalCode": "M6H4C2", "twitter": "None", "instagram": "None", "facebook": "None", "youtube": "None", "website": "None", "summary": "None", "logo": "None", "latitude": 43.66602789953255, "longitude": -79.43794116400272}, "896060837RR0001": {"name": "OASIS FOUNDATION", "designationCode": "B", "categoryCode": "53", "address": "101-1012 BEACH AVE", "city": "VANCOUVER", "province": "BC", "country": "CA", "postalCode": "V6E1T7", "twitter": "None", "instagram": "None", "facebook": "None", "youtube": "None", "website": "None", "summary": "None", "logo": "None", "latitude": 49.276074105117374, "longitude": -123.13392559741504}, "137626842RR0001": {"name": "OASIS MARIE CARITAS", "designationCode": "C", "categoryCode": "09", "address": "480 RUE ST-FRANCOIS", "city": "REPENTIGNY", "province": "QC", "country": "CA", "postalCode": "J6A2K4", "twitter": "None", "instagram": "None", "facebook": "None", "youtube": "None", "website": "None", "summary": "None", "logo": "None", "latitude": 45.74164253843275, "longitude": -73.44713738937634}, "852768928RR0001": {"name": "OASIS OF HOPE CHURCH", "designationCode": "C", "categoryCode": "36", "address": "211 MARSELLUS DR", "city": "BARRIE", "province": "ON", "country": "CA", "postalCode": "L4N8V5", "twitter": "None", "instagram": "None", "facebook": "None", "youtube": "None", "website": "None", "summary": "None", "logo": "None", "latitude": 44.327436380600986, "longitude": -79.7248730246435}, "891862377RR0001": {"name": "OASIS OF LOVE MINISTRIES INC.", "designationCode": "C", "categoryCode": "39", "address": "PO BOX 1942", "city": "ASSINIBOIA", "province": "SK", "country": "CA", "postalCode": "S0H0B0", "twitter": "None", "instagram": "None", "facebook": "None", "youtube": "None", "website": "None", "summary": "None", "logo": "None", "latitude": 49.63287300000006, "longitude": -105.99348049999993}, "889418109RR0001": {"name": "OASIS OF PRAISE CHRISTIAN MINISTRIES INTERNATIONAL", "designationCode": "C", "categoryCode": "39", "address": "98 ASCALON DRIVE", "city": "MAPLE", "province": "ON", "country": "CA", "postalCode": "L6A0M4", "twitter": "None", "instagram": "None", "facebook": "None", "youtube": "None", "website": "None", "summary": "None", "logo": "None", "latitude": 43.85266412519463, "longitude": -79.49934945504639}, "129342176RR0001": {"name": "OASIS SANTE MENTALE GRANBY ET REGION", "designationCode": "C", "categoryCode": "11", "address": "18 ANTOINE NORD", "city": "GRANBY", "province": "QC", "country": "CA", "postalCode": "J2G5G3", "twitter": "None", "instagram": "None", "facebook": "None", "youtube": "None", "website": "None", "summary": "None", "logo": "None", "latitude": 45.40196973411618, "longitude": -72.7297098511165}, "886531094RR0001": {"name": "OASIS SIGNS & WONDERS FELLOWSHIP", "designationCode": "B", "categoryCode": "39", "address": "BOX 702", "city": "CLARESHOLM", "province": "AB", "country": "CA", "postalCode": "T0L0T0", "twitter": "None", "instagram": "None", "facebook": "None", "youtube": "None", "website": "None", "summary": "None", "logo": "None", "latitude": 50.026080000000036, "longitude": -113.58213999999998}, "850115320RR0001": {"name": "OASIS SOCIETY FOR THE SPIRITUAL HEALTH OF VICTORIA", "designationCode": "C", "categoryCode": "09", "address": "106-505 TRUTCH ST", "city": "VICTORIA", "province": "BC", "country": "CA", "postalCode": "V8V4C3", "twitter": "None", "instagram": "None", "facebook": "None", "youtube": "None", "website": "None", "summary": "None", "logo": "None", "latitude": 48.4177271493162, "longitude": -123.35339137659439}, "895215531RR0001": {"name": "OASIS, UNITE MOBILE D'INTERVENTION", "designationCode": "C", "categoryCode": "09", "address": "370 BOUL. DES LAURENTIDES     PORTE 102", "city": "LAVAL", "province": "QC", "country": "CA", "postalCode": "H7G2T8", "twitter": "None", "instagram": "None", "facebook": "None", "youtube": "None", "website": "None", "summary": "None", "logo": "None", "latitude": 45.56742981098164, "longitude": -73.68886162297292}, "847231560RR0001": {"name": "OBIOMA RELIEF ORGANIZATION OF CANADA", "designationCode": "C", "categoryCode": "09", "address": "54 MORRIS STREET", "city": "FOREST", "province": "ON", "country": "CA", "postalCode": "N0N1J0", "twitter": "None", "instagram": "None", "facebook": "None", "youtube": "None", "website": "None", "summary": "None", "logo": "None", "latitude": 43.09331611848739, "longitude": -81.99488563718822}, "881895809RR0001": {"name": "OBJECTIF JEUNES FONDATION DE L'\u00c9COLE CHARLES PERRAULT DE LAVAL", "designationCode": "C", "categoryCode": "23", "address": "1750 BOUL. DE LA CONCORDE EST", "city": "LAVAL", "province": "QC", "country": "CA", "postalCode": "H7G2E7", "twitter": "None", "instagram": "None", "facebook": "None", "youtube": "None", "website": "None", "summary": "None", "logo": "None", "latitude": 45.57987945210356, "longitude": -73.67921750981043}, "839017951RR0001": {"name": "OBK Children", "designationCode": "C", "categoryCode": "09", "address": "2705 - 1067 W CORDOVA ST", "city": "VANCOUVER", "province": "BC", "country": "CA", "postalCode": "V6C2C6", "twitter": "None", "instagram": "None", "facebook": "None", "youtube": "None", "website": "None", "summary": "None", "logo": "None", "latitude": 49.28816920901367, "longitude": -123.1179448262451}, "106680366RR0001": {"name": "OBLATE FATHERS OF ASSUMPTION PROVINCE", "designationCode": "C", "categoryCode": "46", "address": "71 INDIAN TRAIL", "city": "TORONTO", "province": "ON", "country": "CA", "postalCode": "M6R2A1", "twitter": "None", "instagram": "None", "facebook": "None", "youtube": "None", "website": "None", "summary": "None", "logo": "None", "latitude": 43.65383845432525, "longitude": -79.45725154328017}, "131771990RR0002": {"name": "OBLATES OF MARY IMMACULATE - ST PETER'S PROVINCE", "designationCode": "C", "categoryCode": "46", "address": "96 EMPRESS AVE", "city": "OTTAWA", "province": "ON", "country": "CA", "postalCode": "K1R7G3", "twitter": "None", "instagram": "None", "facebook": "None", "youtube": "None", "website": "None", "summary": "None", "logo": "None", "latitude": 45.411189077702204, "longitude": -75.70929188902963}, "119064756RR0001": {"name": "OBORO GOBORO", "designationCode": "C", "categoryCode": "22", "address": "4001, RUE BERRI               LOCAL 301", "city": "MONTREAL", "province": "QC", "country": "CA", "postalCode": "H2L4H2", "twitter": "None", "instagram": "None", "facebook": "None", "youtube": "None", "website": "None", "summary": "None", "logo": "None", "latitude": 45.52152308272252, "longitude": -73.57436821466914}, "119064772RR0001": {"name": "OBSERVER PUBLICATIONS INC.", "designationCode": "C", "categoryCode": "47", "address": "304-177 DANFORTH AVENUE", "city": "TORONTO", "province": "ON", "country": "CA", "postalCode": "M4K1N2", "twitter": "None", "instagram": "None", "facebook": "None", "youtube": "None", "website": "None", "summary": "None", "logo": "None", "latitude": 43.67663277266448, "longitude": -79.35651840867914}, "873273122RR0001": {"name": "OBSIDIAN THEATRE COMPANY INC.", "designationCode": "C", "categoryCode": "22", "address": "1089 DUNDAS ST E", "city": "TORONTO", "province": "ON", "country": "CA", "postalCode": "M4M1R9", "twitter": "None", "instagram": "None", "facebook": "None", "youtube": "None", "website": "None", "summary": "None", "logo": "None", "latitude": 43.663921188441435, "longitude": -79.34363296488549}, "888783867RR0001": {"name": "OCASI - Ontario Council of Agencies Serving Immigrants", "designationCode": "C", "categoryCode": "59", "address": "110 EGLINTON AVE WEST         SUITE 200", "city": "TORONTO", "province": "ON", "country": "CA", "postalCode": "M4R1A3", "twitter": "None", "instagram": "None", "facebook": "None", "youtube": "None", "website": "None", "summary": "None", "logo": "None", "latitude": 43.70636882347513, "longitude": -79.40157455900494}, "898244751RR0001": {"name": "OCD CENTRE MANITOBA, INC.", "designationCode": "C", "categoryCode": "11", "address": "100-4 FORT STREET", "city": "WINNIPEG", "province": "MB", "country": "CA", "postalCode": "R3C1C4", "twitter": "None", "instagram": "None", "facebook": "None", "youtube": "None", "website": "None", "summary": "None", "logo": "None", "latitude": 49.886708437965275, "longitude": -97.1353738065669}, "119064814RR0001": {"name": "OCEAN PARK COMMUNITY ASSOCIATION", "designationCode": "C", "categoryCode": "59", "address": "1577-128TH ST", "city": "SURREY", "province": "BC", "country": "CA", "postalCode": "V4A3V1", "twitter": "None", "instagram": "None", "facebook": "None", "youtube": "None", "website": "None", "summary": "None", "logo": "None", "latitude": 49.03076703136361, "longitude": -122.86758189177093}}