{"825246242RR0001": {"name": "The Nest Addictions Rehabilitation Society", "designationCode": "C", "categoryCode": "57", "address": "6-14959 58TH AVENUE", "city": "SURREY", "province": "BC", "country": "CA", "postalCode": "V3S9Y9", "twitter": "None", "instagram": "None", "facebook": "None", "youtube": "None", "website": "None", "summary": "None", "logo": "None", "latitude": 49.108104114086125, "longitude": -122.80777414847948}, "757147897RR0001": {"name": "The Net of Jesus Church", "designationCode": "C", "categoryCode": "39", "address": "83 WINDALE CRES", "city": "KITCHENER", "province": "ON", "country": "CA", "postalCode": "N2E3H4", "twitter": "None", "instagram": "None", "facebook": "None", "youtube": "None", "website": "None", "summary": "None", "logo": "None", "latitude": 43.42020022424844, "longitude": -80.50800395807615}, "815925631RR0001": {"name": "The Network Church", "designationCode": "C", "categoryCode": "34", "address": "103 SIMEON STREET", "city": "KITCHENER", "province": "ON", "country": "CA", "postalCode": "N2H1S6", "twitter": "None", "instagram": "None", "facebook": "None", "youtube": "None", "website": "None", "summary": "None", "logo": "None", "latitude": 43.451751541491156, "longitude": -80.4763005760574}, "805833910RR0001": {"name": "The New Ambassadors of Christ's Church", "designationCode": "B", "categoryCode": "39", "address": "93 BEAUSOLEIL DRIVE", "city": "OTTAWA", "province": "ON", "country": "CA", "postalCode": "K1N8W3", "twitter": "None", "instagram": "None", "facebook": "None", "youtube": "None", "website": "None", "summary": "None", "logo": "None", "latitude": 45.43264042218223, "longitude": -75.68453639875408}, "839573706RR0001": {"name": "The New Booker School Society", "designationCode": "C", "categoryCode": "20", "address": "POST OFFICE BOX 438           1341 BELCHER STREET", "city": "PORT WILLIAMS", "province": "NS", "country": "CA", "postalCode": "B0P1T0", "twitter": "None", "instagram": "None", "facebook": "None", "youtube": "None", "website": "None", "summary": "None", "logo": "None", "latitude": 45.09247067990135, "longitude": -64.41495715096097}, "804093532RR0001": {"name": "The New Brunswick Community College Foundation / La Fondation du coll\u00e8ge communautaire du Nouveau-Brunswick Inc.", "designationCode": "A", "categoryCode": "25", "address": "284 SMYTHE STREET", "city": "FREDERICTON", "province": "NB", "country": "CA", "postalCode": "E3B3C9", "twitter": "None", "instagram": "None", "facebook": "None", "youtube": "None", "website": "None", "summary": "None", "logo": "None", "latitude": 45.96151869885743, "longitude": -66.65377609074392}, "888525268RR0001": {"name": "The New Brunswick Society for the Prevention of Cruelty to Animals / Soci\u00e9t\u00e9 protectrice des animaux du Nouveau-Brunswick", "designationCode": "C", "categoryCode": "54", "address": "PO BOX 1412                   STATION A", "city": "FREDERICTON", "province": "NB", "country": "CA", "postalCode": "E3B5E3", "twitter": "None", "instagram": "None", "facebook": "None", "youtube": "None", "website": "None", "summary": "None", "logo": "None", "latitude": 45.96062100000006, "longitude": -66.63911299999994}, "806003810RR0001": {"name": "The New Eden Church", "designationCode": "C", "categoryCode": "39", "address": "16255 KEELE ST", "city": "KING", "province": "ON", "country": "CA", "postalCode": "L7B0K1", "twitter": "None", "instagram": "None", "facebook": "None", "youtube": "None", "website": "None", "summary": "None", "logo": "None", "latitude": 44.00782700585704, "longitude": -79.54902391540342}, "858628977RR0001": {"name": "The New Life Catholic Charismatic Community of Calgary", "designationCode": "C", "categoryCode": "39", "address": "P. O. BOX 21134               CSP DOMINION DRUGS", "city": "CALGARY", "province": "AB", "country": "CA", "postalCode": "T2P4H5", "twitter": "None", "instagram": "None", "facebook": "None", "youtube": "None", "website": "None", "summary": "None", "logo": "None", "latitude": 51.04531500000006, "longitude": -114.06301099999993}, "878808468RR0001": {"name": "The New Mills Protestant Cemetery Ltd", "designationCode": "C", "categoryCode": "59", "address": "1075 CHALEUR ST", "city": "CHARLO", "province": "NB", "country": "CA", "postalCode": "E8E2E4", "twitter": "None", "instagram": "None", "facebook": "None", "youtube": "None", "website": "None", "summary": "None", "logo": "None", "latitude": 47.978599827947185, "longitude": -66.27697803771159}, "803137579RR0001": {"name": "The New Mom Project", "designationCode": "C", "categoryCode": "09", "address": "27 COBHAM CRESCENT", "city": "TORONTO", "province": "ON", "country": "CA", "postalCode": "M4A1V7", "twitter": "None", "instagram": "None", "facebook": "None", "youtube": "None", "website": "None", "summary": "None", "logo": "None", "latitude": 43.73850677655964, "longitude": -79.31253728919734}, "879825404RR0001": {"name": "The New Quarterly Literary Society Inc.", "designationCode": "C", "categoryCode": "21", "address": "ST. JEROME'S UNIVERSITY       290 WESTMOUNT ROAD NORTH", "city": "WATERLOO", "province": "ON", "country": "CA", "postalCode": "N2L3G3", "twitter": "None", "instagram": "None", "facebook": "None", "youtube": "None", "website": "None", "summary": "None", "logo": "None", "latitude": 43.46899003390247, "longitude": -80.54935993363928}, "107771925RR0001": {"name": "The New Sweden Mission Church", "designationCode": "C", "categoryCode": "39", "address": "RR#2", "city": "WETASKIWIN", "province": "AB", "country": "CA", "postalCode": "T9A1W9", "twitter": "None", "instagram": "None", "facebook": "None", "youtube": "None", "website": "None", "summary": "None", "logo": "None", "latitude": 52.96987500000006, "longitude": -113.37725149999994}, "894096668RR0001": {"name": "The Newfoundland and Labrador Retired Teachers' Foundation", "designationCode": "A", "categoryCode": "21", "address": "3 KENMOUNT RD", "city": "ST JOHN'S", "province": "NL", "country": "CA", "postalCode": "A1B1W1", "twitter": "None", "instagram": "None", "facebook": "None", "youtube": "None", "website": "None", "summary": "None", "logo": "None", "latitude": 47.56082077598271, "longitude": -52.7476574929022}, "882957764RR0001": {"name": "The Newfoundland Provincial Council for the Duke of Edinbur gh's Award Young Canadians, Inc.", "designationCode": "C", "categoryCode": "21", "address": "66 KENMOUNT ROAD              P.O. BOX 13814 / SUITE 307", "city": "ST.JOHN'S", "province": "NL", "country": "CA", "postalCode": "A1B4G3", "twitter": "None", "instagram": "None", "facebook": "None", "youtube": "None", "website": "None", "summary": "None", "logo": "None", "latitude": 47.55801547546392, "longitude": -52.757423161999014}, "731439329RR0001": {"name": "The Newlands Family Foundation", "designationCode": "B", "categoryCode": "03", "address": "800 - 150 YORK ST", "city": "TORONTO", "province": "ON", "country": "CA", "postalCode": "M5H3S5", "twitter": "None", "instagram": "None", "facebook": "None", "youtube": "None", "website": "None", "summary": "None", "logo": "None", "latitude": 43.6497124612788, "longitude": -79.38434705081065}, "804150290RR0001": {"name": "The Nexgen Charitable Foundation", "designationCode": "A", "categoryCode": "03", "address": "200 - 333 WILSON AVE", "city": "NORTH YORK", "province": "ON", "country": "CA", "postalCode": "M3H1T2", "twitter": "None", "instagram": "None", "facebook": "None", "youtube": "None", "website": "None", "summary": "None", "logo": "None", "latitude": 43.737049856483516, "longitude": -79.43551650109652}, "838483444RR0001": {"name": "The Next Door Teen Transitional Lodge", "designationCode": "C", "categoryCode": "09", "address": "323 MIDLAND AVENUE            PO BOX 96", "city": "MIDLAND", "province": "ON", "country": "CA", "postalCode": "L4R4K6", "twitter": "None", "instagram": "None", "facebook": "None", "youtube": "None", "website": "None", "summary": "None", "logo": "None", "latitude": 44.74935529922457, "longitude": -79.88283072607001}, "811124197RR0001": {"name": "The Nicholas Fidei Foundation", "designationCode": "B", "categoryCode": "03", "address": "1-1681 LANGSTAFF ROAD", "city": "VAUGHAN", "province": "ON", "country": "CA", "postalCode": "L4K5T3", "twitter": "None", "instagram": "None", "facebook": "None", "youtube": "None", "website": "None", "summary": "None", "logo": "None", "latitude": 43.82292987033334, "longitude": -79.48356760655564}, "802198408RR0001": {"name": "The Nikita Foundation", "designationCode": "B", "categoryCode": "03", "address": "65 QUEEN STREET WEST          SUITE 2400", "city": "TORONTO", "province": "ON", "country": "CA", "postalCode": "M5H2M8", "twitter": "None", "instagram": "None", "facebook": "None", "youtube": "None", "website": "None", "summary": "None", "logo": "None", "latitude": 43.651729751024405, "longitude": -79.38231815000869}, "753746296RR0001": {"name": "The Noah John Winston Miles Foundation", "designationCode": "B", "categoryCode": "03", "address": "169 WOODFIELD ROAD", "city": "TORONTO", "province": "ON", "country": "CA", "postalCode": "M4L2W8", "twitter": "None", "instagram": "None", "facebook": "None", "youtube": "None", "website": "None", "summary": "None", "logo": "None", "latitude": 43.668692790178305, "longitude": -79.32261858407882}, "834713000RR0001": {"name": "The Noble Hearts Foundation", "designationCode": "A", "categoryCode": "03", "address": "186 GOUGH AVE", "city": "TORONTO", "province": "ON", "country": "CA", "postalCode": "M4K3P1", "twitter": "None", "instagram": "None", "facebook": "None", "youtube": "None", "website": "None", "summary": "None", "logo": "None", "latitude": 43.68243822147847, "longitude": -79.34752787748843}, "809808058RR0001": {"name": "The Noreen and Robert Allen Charitable Trust", "designationCode": "B", "categoryCode": "05", "address": "333 MAIN ST                   2ND FLOOR", "city": "WINNIPEG", "province": "MB", "country": "CA", "postalCode": "R3C4E2", "twitter": "None", "instagram": "None", "facebook": "None", "youtube": "None", "website": "None", "summary": "None", "logo": "None", "latitude": 49.894839387183296, "longitude": -97.13795044529421}, "810510180RR0001": {"name": "The Norm Foster Theatre Festival", "designationCode": "C", "categoryCode": "22", "address": "5 RACE ST", "city": "ST CATHARINES", "province": "ON", "country": "CA", "postalCode": "L2R3M1", "twitter": "None", "instagram": "None", "facebook": "None", "youtube": "None", "website": "None", "summary": "None", "logo": "None", "latitude": 43.15854037220832, "longitude": -79.24106661062366}, "822189866RR0001": {"name": "The North Bay Naval Heritage Fund Trust", "designationCode": "A", "categoryCode": "59", "address": "255 MCFADDEN LINE             PO BOX 119", "city": "TROUT CREEK", "province": "ON", "country": "CA", "postalCode": "P0H2L0", "twitter": "None", "instagram": "None", "facebook": "None", "youtube": "None", "website": "None", "summary": "None", "logo": "None", "latitude": 45.97392455024124, "longitude": -79.36050577894693}, "866207517RR0001": {"name": "The North Grenville Historical Society", "designationCode": "C", "categoryCode": "50", "address": "PO BOX 1239", "city": "KEMPTVILLE", "province": "ON", "country": "CA", "postalCode": "K0G1J0", "twitter": "None", "instagram": "None", "facebook": "None", "youtube": "None", "website": "None", "summary": "None", "logo": "None", "latitude": 44.98774800000005, "longitude": -75.69332899999993}, "865145759RR0001": {"name": "The North Shore Restorative Justice Society", "designationCode": "C", "categoryCode": "59", "address": "147 E 14TH ST", "city": "NORTH VANCOUVER", "province": "BC", "country": "CA", "postalCode": "V7L2N4", "twitter": "None", "instagram": "None", "facebook": "None", "youtube": "None", "website": "None", "summary": "None", "logo": "None", "latitude": 49.32097847735032, "longitude": -123.0697701931733}, "811386978RR0001": {"name": "The North-American Lutheran Church - Canada Section", "designationCode": "C", "categoryCode": "49", "address": "11 GLENVIEW CRESCENT", "city": "ST. ALBERT", "province": "AB", "country": "CA", "postalCode": "T8N1B7", "twitter": "None", "instagram": "None", "facebook": "None", "youtube": "None", "website": "None", "summary": "None", "logo": "None", "latitude": 53.62975606408354, "longitude": -113.62524346860774}, "124750829RR0001": {"name": "The Northern Alberta Pioneers and Descendants Association", "designationCode": "C", "categoryCode": "59", "address": "9430 99 STREET NW", "city": "EDMONTON", "province": "AB", "country": "CA", "postalCode": "T6E3W4", "twitter": "None", "instagram": "None", "facebook": "None", "youtube": "None", "website": "None", "summary": "None", "logo": "None", "latitude": 53.508704978646115, "longitude": -113.48628420213538}, "848294658RR0001": {"name": "The Northern Ontario School of Architecture - L'\u00c9cole d'architecture du Nord de l'Ontario", "designationCode": "C", "categoryCode": "20", "address": "85 ELM ST", "city": "SUDBURY", "province": "ON", "country": "CA", "postalCode": "P3C1T3", "twitter": "None", "instagram": "None", "facebook": "None", "youtube": "None", "website": "None", "summary": "None", "logo": "None", "latitude": 46.49299901437057, "longitude": -80.99690535971712}, "107779712RR0001": {"name": "The Northern Teacher Education Program Council Inc.", "designationCode": "C", "categoryCode": "21", "address": "BOX 5000", "city": "LA RONGE", "province": "SK", "country": "CA", "postalCode": "S0J1L0", "twitter": "None", "instagram": "None", "facebook": "None", "youtube": "None", "website": "None", "summary": "None", "logo": "None", "latitude": 55.104968852218384, "longitude": -105.2789552305204}, "850503269RR0001": {"name": "The Northwestern Ontario Writers Workshop", "designationCode": "C", "categoryCode": "22", "address": "BOX 425                       1100 MEMORIAL AVENUE", "city": "THUNDER BAY", "province": "ON", "country": "CA", "postalCode": "P7B4A3", "twitter": "None", "instagram": "None", "facebook": "None", "youtube": "None", "website": "None", "summary": "None", "logo": "None", "latitude": 48.40423121426511, "longitude": -89.24559377676118}, "738647494RR0001": {"name": "The Nova Oasis Foundation", "designationCode": "B", "categoryCode": "03", "address": "6001 RUE IRWIN", "city": "LASALLE", "province": "QC", "country": "CA", "postalCode": "H8N1A1", "twitter": "None", "instagram": "None", "facebook": "None", "youtube": "None", "website": "None", "summary": "None", "logo": "None", "latitude": 45.45460576017102, "longitude": -73.60735466253082}, "806007373RR0001": {"name": "The Novus Foundation", "designationCode": "A", "categoryCode": "03", "address": "150 JOHN STREET               7TH FLOOR", "city": "TORONTO", "province": "ON", "country": "CA", "postalCode": "M5V3E3", "twitter": "None", "instagram": "None", "facebook": "None", "youtube": "None", "website": "None", "summary": "None", "logo": "None", "latitude": 43.649289712735914, "longitude": -79.39093521844872}, "805648284RR0001": {"name": "The Nymark Foundation", "designationCode": "B", "categoryCode": "05", "address": "52 WOODCREST ROAD", "city": "BARRIE", "province": "ON", "country": "CA", "postalCode": "L4N2V5", "twitter": "None", "instagram": "None", "facebook": "None", "youtube": "None", "website": "None", "summary": "None", "logo": "None", "latitude": 44.36943338718329, "longitude": -79.67824373910784}, "805706702RR0001": {"name": "The NBFirst Foundation for IT Education Ltd.", "designationCode": "C", "categoryCode": "21", "address": "570 QUEEN STREET              PO BOX 72 FREDERICTON A", "city": "FREDERICTON", "province": "NB", "country": "CA", "postalCode": "E3B4Y2", "twitter": "None", "instagram": "None", "facebook": "None", "youtube": "None", "website": "None", "summary": "None", "logo": "None", "latitude": 45.961429600323235, "longitude": -66.6394832611806}, "847027612RR0001": {"name": "The NCIC Foundation - Eastern Ontario and Outaouais District Inc.", "designationCode": "C", "categoryCode": "21", "address": "7 BELLFIELD STREET", "city": "NEPEAN", "province": "ON", "country": "CA", "postalCode": "K2B6K6", "twitter": "None", "instagram": "None", "facebook": "None", "youtube": "None", "website": "None", "summary": "None", "logo": "None", "latitude": 45.34901699223838, "longitude": -75.80136438908788}, "808522163RR0001": {"name": "The NIY Charitable Foundation", "designationCode": "A", "categoryCode": "03", "address": "304 - 970 LAWRENCE AVE W", "city": "NORTH YORK", "province": "ON", "country": "CA", "postalCode": "M6A3B6", "twitter": "None", "instagram": "None", "facebook": "None", "youtube": "None", "website": "None", "summary": "None", "logo": "None", "latitude": 43.71337799999999, "longitude": -79.45815149999999}, "841394265RR0001": {"name": "The Oaks Revitalization Association", "designationCode": "C", "categoryCode": "09", "address": "101 - 19 LESMILL RD", "city": "NORTH YORK", "province": "ON", "country": "CA", "postalCode": "M3B2T3", "twitter": "None", "instagram": "None", "facebook": "None", "youtube": "None", "website": "None", "summary": "None", "logo": "None", "latitude": 43.75614036248479, "longitude": -79.35259752813229}, "759793524RR0001": {"name": "The Oakville Creekside Alliance Church of the Christian and Missionary", "designationCode": "C", "categoryCode": "39", "address": "222 HOWELL ROAD", "city": "OAKVILLE", "province": "ON", "country": "CA", "postalCode": "L6H5Y7", "twitter": "None", "instagram": "None", "facebook": "None", "youtube": "None", "website": "None", "summary": "None", "logo": "None", "latitude": 43.470085736597696, "longitude": -79.7281291784581}, "119292258RR0001": {"name": "The Oasis", "designationCode": "C", "categoryCode": "36", "address": "3794 DIAMONDVIEW RD           RR 2 PO BOX 104", "city": "KINBURN", "province": "ON", "country": "CA", "postalCode": "K0A2H0", "twitter": "None", "instagram": "None", "facebook": "None", "youtube": "None", "website": "None", "summary": "None", "logo": "None", "latitude": 45.40763026092082, "longitude": -76.16216500758874}, "886817725RR0001": {"name": "The Oasis Christian Ministries - A Place of Refreshing", "designationCode": "C", "categoryCode": "47", "address": "21530-103 AVENUE", "city": "EDMONTON", "province": "AB", "country": "CA", "postalCode": "T5T3T9", "twitter": "None", "instagram": "None", "facebook": "None", "youtube": "None", "website": "None", "summary": "None", "logo": "None", "latitude": 53.54399545441124, "longitude": -113.69139334499964}, "815616099RR0001": {"name": "The Obakki Foundation", "designationCode": "A", "categoryCode": "03", "address": "400 - 341 WATER ST", "city": "VANCOUVER", "province": "BC", "country": "CA", "postalCode": "V6B1B8", "twitter": "None", "instagram": "None", "facebook": "None", "youtube": "None", "website": "None", "summary": "None", "logo": "None", "latitude": 49.28452632558126, "longitude": -123.10966915292288}, "727135121RR0001": {"name": "The Obeng Family Foundation", "designationCode": "B", "categoryCode": "03", "address": "121 RICHMOND ST W             SUITE 638", "city": "TORONTO", "province": "ON", "country": "CA", "postalCode": "M5H2K1", "twitter": "None", "instagram": "None", "facebook": "None", "youtube": "None", "website": "None", "summary": "None", "logo": "None", "latitude": 43.650278706359266, "longitude": -79.38450100747316}, "792879322RR0001": {"name": "The Odette Kaye Family Foundation", "designationCode": "B", "categoryCode": "03", "address": "118 BUCKINGHAM AVE.", "city": "TORONTO", "province": "ON", "country": "CA", "postalCode": "M4N1R6", "twitter": "None", "instagram": "None", "facebook": "None", "youtube": "None", "website": "None", "summary": "None", "logo": "None", "latitude": 43.726954157943204, "longitude": -79.38865820358929}, "801039801RR0001": {"name": "The Old Apostolic Church (Canada)", "designationCode": "C", "categoryCode": "39", "address": "7407 MCNIVEN RD", "city": "CAMPBELLVILLE", "province": "ON", "country": "CA", "postalCode": "L0P1B0", "twitter": "None", "instagram": "None", "facebook": "None", "youtube": "None", "website": "None", "summary": "None", "logo": "None", "latitude": 43.43465525870189, "longitude": -79.95979707828023}, "852107499RR0001": {"name": "The Olive Branch Foundation", "designationCode": "B", "categoryCode": "05", "address": "625-48TH AVE                  BOX 1129", "city": "COALHURST", "province": "AB", "country": "CA", "postalCode": "T0L0V0", "twitter": "None", "instagram": "None", "facebook": "None", "youtube": "None", "website": "None", "summary": "None", "logo": "None", "latitude": 49.74502271305453, "longitude": -112.92125470323548}, "827904376RR0001": {"name": "The Olive Tree Community Centre Inc.", "designationCode": "C", "categoryCode": "09", "address": "PO BOX 30021", "city": "LLOYDMINSTER", "province": "AB", "country": "CA", "postalCode": "T9V3L6", "twitter": "None", "instagram": "None", "facebook": "None", "youtube": "None", "website": "None", "summary": "None", "logo": "None"}, "756881728RR0001": {"name": "The One Ocean Foundation", "designationCode": "C", "categoryCode": "05", "address": "1 - 85 WEST WILMOT ST", "city": "RICHMOND HILL", "province": "ON", "country": "CA", "postalCode": "L4B1K7", "twitter": "None", "instagram": "None", "facebook": "None", "youtube": "None", "website": "None", "summary": "None", "logo": "None", "latitude": 43.85260654752639, "longitude": -79.38866851750977}, "834523680RR0001": {"name": "The Ontario Federation of Independent Schools Charitable Trust", "designationCode": "C", "categoryCode": "25", "address": "59 ROSE BRIDGE CRESCENT", "city": "CAMBRIDGE", "province": "ON", "country": "CA", "postalCode": "N3C3C3", "twitter": "None", "instagram": "None", "facebook": "None", "youtube": "None", "website": "None", "summary": "None", "logo": "None", "latitude": 43.42012874770618, "longitude": -80.29307344659229}, "891653446RR0001": {"name": "The Ontario Paper Thorold Foundation", "designationCode": "B", "categoryCode": "03", "address": "PO BOX 1040 STN MAIN", "city": "THOROLD", "province": "ON", "country": "CA", "postalCode": "L2V3Z5", "twitter": "None", "instagram": "None", "facebook": "None", "youtube": "None", "website": "None", "summary": "None", "logo": "None", "latitude": 43.124280000000056, "longitude": -79.19772199999993}, "104001771RR0001": {"name": "The Ontario Registered Music Teachers' Association (ORMTA)", "designationCode": "C", "categoryCode": "22", "address": "58 SHAKESPEARE AVENUE         PO BOX 1639", "city": "NIAGARA ON THE LAKE", "province": "ON", "country": "CA", "postalCode": "L0S1J0", "twitter": "None", "instagram": "None", "facebook": "None", "youtube": "None", "website": "None", "summary": "None", "logo": "None", "latitude": 43.25884707132554, "longitude": -79.09458794936225}, "818913717RR0001": {"name": "The Ontario Society of Adlerian Psychology", "designationCode": "C", "categoryCode": "19", "address": "410 - 322 EGLINTON AVE E", "city": "TORONTO", "province": "ON", "country": "CA", "postalCode": "M4P1L6", "twitter": "None", "instagram": "None", "facebook": "None", "youtube": "None", "website": "None", "summary": "None", "logo": "None", "latitude": 43.70880149999999, "longitude": -79.38828675}, "820476141RR0001": {"name": "The Onward Malvern Foundation", "designationCode": "C", "categoryCode": "21", "address": "55 MALVERN AVENUE", "city": "TORONTO", "province": "ON", "country": "CA", "postalCode": "M4E3E4", "twitter": "None", "instagram": "None", "facebook": "None", "youtube": "None", "website": "None", "summary": "None", "logo": "None", "latitude": 43.682747761324855, "longitude": -79.29363960456507}, "842670333RR0001": {"name": "The Open Bible Baptist Church Inc.", "designationCode": "B", "categoryCode": "39", "address": "POST OFFICE BOX 54", "city": "CHARLOTTETOWN", "province": "PE", "country": "CA", "postalCode": "C1A7K2", "twitter": "None", "instagram": "None", "facebook": "None", "youtube": "None", "website": "None", "summary": "None", "logo": "None", "latitude": 46.23659700000006, "longitude": -63.12815449999994}, "833382237RR0001": {"name": "The Open Door Community Church of Sherwood Park", "designationCode": "C", "categoryCode": "39", "address": "4200 SUMMERLAND DRIVE", "city": "SHERWOOD PARK", "province": "AB", "country": "CA", "postalCode": "T8H0R1", "twitter": "None", "instagram": "None", "facebook": "None", "youtube": "None", "website": "None", "summary": "None", "logo": "None", "latitude": 53.56061670886944, "longitude": -113.25191157253764}, "841195357RR0001": {"name": "The Open Gate Church", "designationCode": "C", "categoryCode": "39", "address": "108-800 KELLY RD              PO 321", "city": "VICTORIA", "province": "BC", "country": "CA", "postalCode": "V9B6J9", "twitter": "None", "instagram": "None", "facebook": "None", "youtube": "None", "website": "None", "summary": "None", "logo": "None", "latitude": 48.438232500432704, "longitude": -123.506433}, "811838531RR0001": {"name": "The Opera Cares Foundation La Fondation Opera Cares", "designationCode": "C", "categoryCode": "22", "address": "3219 THE BOULEVARD", "city": "WESTMOUNT", "province": "QC", "country": "CA", "postalCode": "H3Y1S4", "twitter": "None", "instagram": "None", "facebook": "None", "youtube": "None", "website": "None", "summary": "None", "logo": "None", "latitude": 45.49087852236123, "longitude": -73.59966452293816}, "821831237RR0001": {"name": "The Opera One Association", "designationCode": "C", "categoryCode": "22", "address": "1510-235 GRANDRAVINE DRIVE,", "city": "TORONTO", "province": "ON", "country": "CA", "postalCode": "M3N1J2", "twitter": "None", "instagram": "None", "facebook": "None", "youtube": "None", "website": "None", "summary": "None", "logo": "None", "latitude": 43.74886882705317, "longitude": -79.50599566873457}, "833755119RR0001": {"name": "The Orange Dog Foundation", "designationCode": "C", "categoryCode": "54", "address": "5202 50 AVE", "city": "BEAUMONT", "province": "AB", "country": "CA", "postalCode": "T4X1E3", "twitter": "None", "instagram": "None", "facebook": "None", "youtube": "None", "website": "None", "summary": "None", "logo": "None", "latitude": 53.35249167601692, "longitude": -113.4180705403544}, "826495202RR0001": {"name": "The Orangeville Community Band", "designationCode": "C", "categoryCode": "22", "address": "POST OFFICE BOX 172", "city": "ORANGEVILLE", "province": "ON", "country": "CA", "postalCode": "L9W2Z6", "twitter": "None", "instagram": "None", "facebook": "None", "youtube": "None", "website": "None", "summary": "None", "logo": "None", "latitude": 43.92016800000006, "longitude": -80.09314999999994}, "138031802RR0001": {"name": "The Organization of Military Museums of Canada, Inc. / L'Organisation des mus\u00e9es militaires du Canada, inc.", "designationCode": "C", "categoryCode": "20", "address": "2513 BEACON AVENUE            POST OFFICE BOX 2204", "city": "SIDNEY", "province": "BC", "country": "CA", "postalCode": "V8L3S8", "twitter": "None", "instagram": "None", "facebook": "None", "youtube": "None", "website": "None", "summary": "None", "logo": "None", "latitude": 48.64888253231591, "longitude": -123.39611027699232}, "119071538RR0001": {"name": "The Ottawa Duck Club Incorporated", "designationCode": "C", "categoryCode": "54", "address": "19 EDGEMONT AVENUE", "city": "OTTAWA", "province": "ON", "country": "CA", "postalCode": "K2J3S9", "twitter": "None", "instagram": "None", "facebook": "None", "youtube": "None", "website": "None", "summary": "None", "logo": "None", "latitude": 45.27055048600596, "longitude": -75.76402316625308}, "831058615RR0001": {"name": "The Ottawa Mission Foundation", "designationCode": "A", "categoryCode": "03", "address": "35 WALLER STREET", "city": "OTTAWA", "province": "ON", "country": "CA", "postalCode": "K1N7G4", "twitter": "None", "instagram": "None", "facebook": "None", "youtube": "None", "website": "None", "summary": "None", "logo": "None", "latitude": 45.42636524508045, "longitude": -75.68809342711658}, "880745286RR0001": {"name": "The OutCare Foundation/La Fondation OutCare", "designationCode": "A", "categoryCode": "13", "address": "720 BELFAST ROAD              SUITE 214", "city": "OTTAWA", "province": "ON", "country": "CA", "postalCode": "K1G0Z5", "twitter": "None", "instagram": "None", "facebook": "None", "youtube": "None", "website": "None", "summary": "None", "logo": "None", "latitude": 45.41468202354466, "longitude": -75.64218780685536}, "823552047RR0001": {"name": "The Overflow Ministries, Inc.", "designationCode": "C", "categoryCode": "49", "address": "PO BOX 2154", "city": "LA RONGE", "province": "SK", "country": "CA", "postalCode": "S0J1L0", "twitter": "None", "instagram": "None", "facebook": "None", "youtube": "None", "website": "None", "summary": "None", "logo": "None", "latitude": 55.104968852218384, "longitude": -105.2789552305204}, "819582362RR0001": {"name": "The Owemanco Charitable Foundation", "designationCode": "C", "categoryCode": "03", "address": "2950 KEELE STREET, 201", "city": "TORONTO", "province": "ON", "country": "CA", "postalCode": "M3M2H2", "twitter": "None", "instagram": "None", "facebook": "None", "youtube": "None", "website": "None", "summary": "None", "logo": "None", "latitude": 43.73499482708182, "longitude": -79.48404685795448}, "826072837RR0001": {"name": "The Owens Family Foundation Inc.", "designationCode": "B", "categoryCode": "03", "address": "1400 - 44 CHIPMAN HILL", "city": "SAINT JOHN", "province": "NB", "country": "CA", "postalCode": "E2L2A9", "twitter": "None", "instagram": "None", "facebook": "None", "youtube": "None", "website": "None", "summary": "None", "logo": "None", "latitude": 45.273613499999996, "longitude": -66.0626055}, "892435363RR0001": {"name": "The P.E. & E. Hart Trust", "designationCode": "B", "categoryCode": "25", "address": "130 KING STREET WEST          20TH FLOOR", "city": "TORONTO", "province": "ON", "country": "CA", "postalCode": "M5X1K1", "twitter": "None", "instagram": "None", "facebook": "None", "youtube": "None", "website": "None", "summary": "None", "logo": "None", "latitude": 43.64798216515656, "longitude": -79.38336717805407}, "836397372RR0001": {"name": "The Paige Foundation", "designationCode": "C", "categoryCode": "13", "address": "PO BOX 29071                  RPO OKANAGAN MISS.", "city": "KELOWNA", "province": "BC", "country": "CA", "postalCode": "V1W4A7", "twitter": "None", "instagram": "None", "facebook": "None", "youtube": "None", "website": "None", "summary": "None", "logo": "None", "latitude": 49.900838066640205, "longitude": -119.48955944070437}, "857282156RR0001": {"name": "The Pais Project", "designationCode": "C", "categoryCode": "49", "address": "3487 KING GEORGE BLVD", "city": "SURREY", "province": "BC", "country": "CA", "postalCode": "V4P1B7", "twitter": "None", "instagram": "None", "facebook": "None", "youtube": "None", "website": "None", "summary": "None", "logo": "None", "latitude": 49.06534765194193, "longitude": -122.81811091773885}, "840314827RR0001": {"name": "The Paksh Fund", "designationCode": "B", "categoryCode": "05", "address": "2005 - 5000 RUE BUCHAN", "city": "MONTREAL", "province": "QC", "country": "CA", "postalCode": "H4P1T2", "twitter": "None", "instagram": "None", "facebook": "None", "youtube": "None", "website": "None", "summary": "None", "logo": "None", "latitude": 45.49793261945316, "longitude": -73.65084922424843}, "862568623RR0001": {"name": "The Palgrave Home and School Association", "designationCode": "C", "categoryCode": "21", "address": "8962 PATTERSON SIDEROAD", "city": "PALGRAVE", "province": "ON", "country": "CA", "postalCode": "L7E0L2", "twitter": "None", "instagram": "None", "facebook": "None", "youtube": "None", "website": "None", "summary": "None", "logo": "None", "latitude": 43.945585569379034, "longitude": -79.83142964686938}, "838756245RR0001": {"name": "The Panikkar Family Foundation", "designationCode": "B", "categoryCode": "05", "address": "151 BLOOR STREET WEST         12TH FLOOR", "city": "TORONTO", "province": "ON", "country": "CA", "postalCode": "M5A1S4", "twitter": "None", "instagram": "None", "facebook": "None", "youtube": "None", "website": "None", "summary": "None", "logo": "None", "latitude": 43.66886577266448, "longitude": -79.39323632915928}, "807624721RR0001": {"name": "The Pantelidis Family Foundation", "designationCode": "B", "categoryCode": "05", "address": "16 CHESTNUT PARK RD", "city": "TORONTO", "province": "ON", "country": "CA", "postalCode": "M4W1W6", "twitter": "None", "instagram": "None", "facebook": "None", "youtube": "None", "website": "None", "summary": "None", "logo": "None", "latitude": 43.679019875122506, "longitude": -79.38868596309646}, "837999820RR0001": {"name": "The Paradigm Shift Project", "designationCode": "C", "categoryCode": "21", "address": "423 MORRISSON POINT RD", "city": "MILFORD", "province": "ON", "country": "CA", "postalCode": "K0K2P0", "twitter": "None", "instagram": "None", "facebook": "None", "youtube": "None", "website": "None", "summary": "None", "logo": "None", "latitude": 43.97895746727916, "longitude": -77.01277445091917}, "836929901RR0001": {"name": "The Parcival Project / Le projet parcival", "designationCode": "C", "categoryCode": "22", "address": "9-4137 ESPLANADE STREET", "city": "MONTREAL", "province": "QC", "country": "CA", "postalCode": "H2W1S9", "twitter": "None", "instagram": "None", "facebook": "None", "youtube": "None", "website": "None", "summary": "None", "logo": "None", "latitude": 45.51588325757393, "longitude": -73.58235893629184}, "843675786RR0001": {"name": "The Parents & Friends Group", "designationCode": "C", "categoryCode": "59", "address": "2341 MONCK RD", "city": "RAMARA", "province": "ON", "country": "CA", "postalCode": "L3V0P6", "twitter": "None", "instagram": "None", "facebook": "None", "youtube": "None", "website": "None", "summary": "None", "logo": "None", "latitude": 44.66714251673533, "longitude": -79.2307388664955}, "830916003RR0001": {"name": "The Parish", "designationCode": "C", "categoryCode": "39", "address": "467 BRAIDWOOD AVE", "city": "PETERBOROUGH", "province": "ON", "country": "CA", "postalCode": "K9J1V7", "twitter": "None", "instagram": "None", "facebook": "None", "youtube": "None", "website": "None", "summary": "None", "logo": "None", "latitude": 44.28400992587583, "longitude": -78.32324659740904}, "119229896RR0035": {"name": "The Parish of the Ascension", "designationCode": "C", "categoryCode": "30", "address": "58 SMALLWOOD DRIVE", "city": "MOUNT PEARL", "province": "NL", "country": "CA", "postalCode": "A1N1B1", "twitter": "None", "instagram": "None", "facebook": "None", "youtube": "None", "website": "None", "summary": "None", "logo": "None", "latitude": 47.516712392616924, "longitude": -52.795162927303814}, "842843435RR0001": {"name": "The Parish of the Lower Laurentians", "designationCode": "C", "categoryCode": "30", "address": "130, CHEMIN GLEN", "city": "WENTWORTH", "province": "QC", "country": "CA", "postalCode": "J8H0C2", "twitter": "None", "instagram": "None", "facebook": "None", "youtube": "None", "website": "None", "summary": "None", "logo": "None", "latitude": 45.77945871660239, "longitude": -74.34509600577105}, "108084658RR0129": {"name": "The Parish of Antrim St. John's", "designationCode": "C", "categoryCode": "30", "address": "3768 TIMMINS RD", "city": "PAKENHAM", "province": "ON", "country": "CA", "postalCode": "K0A2X0", "twitter": "None", "instagram": "None", "facebook": "None", "youtube": "None", "website": "None", "summary": "None", "logo": "None", "latitude": 45.33960825543823, "longitude": -76.26462568345069}, "119229896RR0036": {"name": "The Parish of Bay Roberts/Coley's Point", "designationCode": "C", "categoryCode": "30", "address": "P.O. BOX 1211", "city": "BAY ROBERTS", "province": "NL", "country": "CA", "postalCode": "A0A1G0", "twitter": "None", "instagram": "None", "facebook": "None", "youtube": "None", "website": "None", "summary": "None", "logo": "None", "latitude": 47.58335663598053, "longitude": -53.28220018500299}, "119229920RR0003": {"name": "The Parish of Bonne Bay North", "designationCode": "C", "categoryCode": "30", "address": "P.O. BOX 216", "city": "NORRIS POINT", "province": "NL", "country": "CA", "postalCode": "A0K3V0", "twitter": "None", "instagram": "None", "facebook": "None", "youtube": "None", "website": "None", "summary": "None", "logo": "None", "latitude": 49.53170000000006, "longitude": -57.87529999999998}, "131044695RR0001": {"name": "The Parish of Bridgewater and the Conqueralls", "designationCode": "C", "categoryCode": "30", "address": "78 ALEXANDRA AVE.", "city": "BRIDGEWATER", "province": "NS", "country": "CA", "postalCode": "B4V1H1", "twitter": "None", "instagram": "None", "facebook": "None", "youtube": "None", "website": "None", "summary": "None", "logo": "None", "latitude": 44.37230271354396, "longitude": -64.51561154778089}, "118787142RR0032": {"name": "The Parish of Central Saanich", "designationCode": "C", "categoryCode": "30", "address": "P.O. BOX 162", "city": "SAANICHTON", "province": "BC", "country": "CA", "postalCode": "V8M2C3", "twitter": "None", "instagram": "None", "facebook": "None", "youtube": "None", "website": "None", "summary": "None", "logo": "None", "latitude": 48.595209000000054, "longitude": -123.41690449999993}, "108084658RR0098": {"name": "The Parish of North Dundas", "designationCode": "C", "categoryCode": "30", "address": "2530 FALCONE LANE P.O.BOX 893", "city": "WINCHESTER", "province": "ON", "country": "CA", "postalCode": "K0C2K0", "twitter": "None", "instagram": "None", "facebook": "None", "youtube": "None", "website": "None", "summary": "None", "logo": "None", "latitude": 45.075443766703344, "longitude": -75.34044004133398}, "872965165RR0001": {"name": "The Parish of Northumberland", "designationCode": "C", "categoryCode": "30", "address": "1187 BRULE SHORE ROAD         RR#1", "city": "TATAMAGOUCH", "province": "NS", "country": "CA", "postalCode": "B0K1V0", "twitter": "None", "instagram": "None", "facebook": "None", "youtube": "None", "website": "None", "summary": "None", "logo": "None", "latitude": 45.7445044205088, "longitude": -63.22015330558596}, "890835366RR0001": {"name": "The Parish of Saint Clare", "designationCode": "C", "categoryCode": "38", "address": "FRANK NARCISO                 869 NOTRE-DAME-DE-GR\u00c2CES", "city": "LONGUEUIL", "province": "QC", "country": "CA", "postalCode": "J4J3E6", "twitter": "None", "instagram": "None", "facebook": "None", "youtube": "None", "website": "None", "summary": "None", "logo": "None", "latitude": 45.528394713312835, "longitude": -73.50247489979233}, "119229896RR0027": {"name": "The Parish of Southeast Labrador", "designationCode": "C", "categoryCode": "30", "address": "P O BOX 137", "city": "MARY'S HARBOUR", "province": "NL", "country": "CA", "postalCode": "A0K3P0", "twitter": "None", "instagram": "None", "facebook": "None", "youtube": "None", "website": "None", "summary": "None", "logo": "None", "latitude": 52.305144000000055, "longitude": -55.83599449999993}, "119197713RR0001": {"name": "The Parish of St. Lawrence", "designationCode": "C", "categoryCode": "30", "address": "80 PINE STREET", "city": "BROCKVILLE", "province": "ON", "country": "CA", "postalCode": "K6V1G7", "twitter": "None", "instagram": "None", "facebook": "None", "youtube": "None", "website": "None", "summary": "None", "logo": "None", "latitude": 44.593163862080765, "longitude": -75.68076743300227}, "137433967RR0001": {"name": "The Parish of St. Marguerite d'Youville", "designationCode": "C", "categoryCode": "38", "address": "4609 50 AVE", "city": "ST PAUL", "province": "AB", "country": "CA", "postalCode": "T0A3A3", "twitter": "None", "instagram": "None", "facebook": "None", "youtube": "None", "website": "None", "summary": "None", "logo": "None", "latitude": 53.99135148730496, "longitude": -111.28695202553523}, "851862250RR0001": {"name": "The Parish Community of St. Barnabas-Edmonton", "designationCode": "C", "categoryCode": "39", "address": "11224 33 ST NW", "city": "EDMONTON", "province": "AB", "country": "CA", "postalCode": "T5W1X5", "twitter": "None", "instagram": "None", "facebook": "None", "youtube": "None", "website": "None", "summary": "None", "logo": "None", "latitude": 53.56570500000001, "longitude": -113.39216674372413}, "851421206RR0001": {"name": "The Pas Families Building a Better Community Group Inc.", "designationCode": "A", "categoryCode": "56", "address": "PO BOX 116", "city": "THE PAS", "province": "MB", "country": "CA", "postalCode": "R9A1K3", "twitter": "None", "instagram": "None", "facebook": "None", "youtube": "None", "website": "None", "summary": "None", "logo": "None", "latitude": 53.81342700000006, "longitude": -101.25038149999993}, "847410446RR0001": {"name": "The Passion Church", "designationCode": "C", "categoryCode": "39", "address": "140 SAINT REGIS CRES S", "city": "NORTH YORK", "province": "ON", "country": "CA", "postalCode": "M3J1Y8", "twitter": "None", "instagram": "None", "facebook": "None", "youtube": "None", "website": "None", "summary": "None", "logo": "None", "latitude": 43.75505313240798, "longitude": -79.48173645504639}, "809365646RR0001": {"name": "The Patchwork Angels", "designationCode": "C", "categoryCode": "09", "address": "J1 - 111 MASKUTA DR", "city": "HINTON", "province": "AB", "country": "CA", "postalCode": "T7V1E8", "twitter": "None", "instagram": "None", "facebook": "None", "youtube": "None", "website": "None", "summary": "None", "logo": "None", "latitude": 53.41826647215617, "longitude": -117.55585831308777}, "855262176RR0001": {"name": "The Pathway Church Calgary", "designationCode": "C", "categoryCode": "39", "address": "100 CONVENTION WAY", "city": "COCHRANE", "province": "AB", "country": "CA", "postalCode": "T4C2G2", "twitter": "None", "instagram": "None", "facebook": "None", "youtube": "None", "website": "None", "summary": "None", "logo": "None", "latitude": 51.20903163221897, "longitude": -114.48780473147403}, "804209138RR0001": {"name": "The Patriarchal Parish of Sts. Peter and Paul of the Russian Orthodox Church Corp.", "designationCode": "C", "categoryCode": "39", "address": "4106 GOLDFINCH AVENUE", "city": "REGINA", "province": "SK", "country": "CA", "postalCode": "S4V1M8", "twitter": "None", "instagram": "None", "facebook": "None", "youtube": "None", "website": "None", "summary": "None", "logo": "None", "latitude": 50.41358937217967, "longitude": -104.51822800516454}, "826781627RR0001": {"name": "The Paul and Elizabeth Martin Foundation", "designationCode": "B", "categoryCode": "03", "address": "71 NORTH DRIVE", "city": "ETOBICOKE", "province": "ON", "country": "CA", "postalCode": "M9A4R1", "twitter": "None", "instagram": "None", "facebook": "None", "youtube": "None", "website": "None", "summary": "None", "logo": "None", "latitude": 43.67782461477861, "longitude": -79.51907901898569}, "752050922RR0001": {"name": "The Paul and Margy Campbell Family Foundation", "designationCode": "B", "categoryCode": "03", "address": "1002 - 175 CUMBERLAND ST", "city": "TORONTO", "province": "ON", "country": "CA", "postalCode": "M5R3M9", "twitter": "None", "instagram": "None", "facebook": "None", "youtube": "None", "website": "None", "summary": "None", "logo": "None", "latitude": 43.66969879098635, "longitude": -79.39382659893823}}