{"119019842RR0001": {"name": "AMAZING GRACE CHURCH", "designationCode": "C", "categoryCode": "39", "address": "1728 W.RIVER RD.", "city": "GRAND FALLS", "province": "NB", "country": "CA", "postalCode": "E3Z1T7", "twitter": "None", "instagram": "None", "facebook": "None", "youtube": "None", "website": "None", "summary": "None", "logo": "None", "latitude": 47.03191880207199, "longitude": -67.73598366252754}, "839866548RR0001": {"name": "AMAZING GRACE FOUNDATION", "designationCode": "C", "categoryCode": "02", "address": "1500 W. GEORGIA ST.           BOX 62, SUITE 1250", "city": "VANCOUVER", "province": "BC", "country": "CA", "postalCode": "V6G2Z6", "twitter": "None", "instagram": "None", "facebook": "None", "youtube": "None", "website": "None", "summary": "None", "logo": "None", "latitude": 49.29013479542975, "longitude": -123.1300069287031}, "892477415RR0001": {"name": "AMAZING GRACE MINISTRY INC.", "designationCode": "C", "categoryCode": "39", "address": "432 ELGIN AVE", "city": "WINNIPEG", "province": "MB", "country": "CA", "postalCode": "R3A0K7", "twitter": "None", "instagram": "None", "facebook": "None", "youtube": "None", "website": "None", "summary": "None", "logo": "None", "latitude": 49.90215607519204, "longitude": -97.14604247351248}, "886223403RR0001": {"name": "AMAZING GRACE UNITED CHURCH", "designationCode": "C", "categoryCode": "44", "address": "12740-102 AVE.", "city": "SURREY", "province": "BC", "country": "CA", "postalCode": "V3V3E5", "twitter": "None", "instagram": "None", "facebook": "None", "youtube": "None", "website": "None", "summary": "None", "logo": "None", "latitude": 49.18796548514058, "longitude": -122.86940374854291}, "717399091RR0001": {"name": "AMAZING POWER OF FAITH MINISTRIES", "designationCode": "C", "categoryCode": "39", "address": "211 CABANA DR", "city": "NORTH YORK", "province": "ON", "country": "CA", "postalCode": "M9L1L2", "twitter": "None", "instagram": "None", "facebook": "None", "youtube": "None", "website": "None", "summary": "None", "logo": "None", "latitude": 43.7645193511165, "longitude": -79.57001417069648}, "875223216RR0001": {"name": "AMAZON EVANGELISM SOCIETY", "designationCode": "C", "categoryCode": "47", "address": "405 - 12090 227 ST", "city": "MAPLE RIDGE", "province": "BC", "country": "CA", "postalCode": "V2X6J5", "twitter": "None", "instagram": "None", "facebook": "None", "youtube": "None", "website": "None", "summary": "None", "logo": "None", "latitude": 49.22228112184773, "longitude": -122.59393892890559}, "801730409RR0002": {"name": "AMBASSADOR BAPTIST CHURCH", "designationCode": "C", "categoryCode": "31", "address": "3738 BYNG RD", "city": "WINDSOR", "province": "ON", "country": "CA", "postalCode": "N8W3J2", "twitter": "None", "instagram": "None", "facebook": "None", "youtube": "None", "website": "None", "summary": "None", "logo": "None", "latitude": 42.268335882884124, "longitude": -82.97520333233328}, "897195947RR0001": {"name": "AMBASSADOR BAPTIST CHURCH", "designationCode": "C", "categoryCode": "31", "address": "18 ADELAIDE AVE", "city": "BRANTFORD", "province": "ON", "country": "CA", "postalCode": "N3S7H4", "twitter": "None", "instagram": "None", "facebook": "None", "youtube": "None", "website": "None", "summary": "None", "logo": "None", "latitude": 43.146179874637724, "longitude": -80.2121184038934}, "131634644RR0001": {"name": "AMBASSADOR CHRISTIAN REFORMED CHURCH", "designationCode": "C", "categoryCode": "39", "address": "3033 RIVARD AV", "city": "WINDSOR", "province": "ON", "country": "CA", "postalCode": "N8T2J1", "twitter": "None", "instagram": "None", "facebook": "None", "youtube": "None", "website": "None", "summary": "None", "logo": "None", "latitude": 42.29489604717531, "longitude": -82.95364717337952}, "119288918RR0068": {"name": "AMBASSADOR CONGREGATION OF JEHOVAH'S WITNESSES, WINDSOR, ONTARIO", "designationCode": "C", "categoryCode": "61", "address": "1582 CURRY AVE.", "city": "WINDSOR", "province": "ON", "country": "CA", "postalCode": "N9B3P1", "twitter": "None", "instagram": "None", "facebook": "None", "youtube": "None", "website": "None", "summary": "None", "logo": "None", "latitude": 42.29324247737898, "longitude": -83.04312477791595}, "884913518RR0001": {"name": "AMBASSADOR MINISTRIES IN COVENANT / AMBASSADEUR, MINISTERES DANS L'ALLIANCE DE DIEU", "designationCode": "C", "categoryCode": "39", "address": "208 FORCED ROAD", "city": "RUSSELL", "province": "ON", "country": "CA", "postalCode": "K4R1A1", "twitter": "None", "instagram": "None", "facebook": "None", "youtube": "None", "website": "None", "summary": "None", "logo": "None", "latitude": 45.260771907322834, "longitude": -75.3698847132555}, "889265278RR0001": {"name": "AMBASSADORS FOR CHRIST CANADA", "designationCode": "C", "categoryCode": "47", "address": "6 AVONDALE CRES", "city": "STEINBACH", "province": "MB", "country": "CA", "postalCode": "R5G2G2", "twitter": "None", "instagram": "None", "facebook": "None", "youtube": "None", "website": "None", "summary": "None", "logo": "None", "latitude": 49.50748214783034, "longitude": -96.68773063288825}, "106706203RR0001": {"name": "AMBASSADORS FOR CHRIST IN CANADA", "designationCode": "C", "categoryCode": "47", "address": "12-70 GIBSON DR", "city": "MARKHAM", "province": "ON", "country": "CA", "postalCode": "L3R4C2", "twitter": "None", "instagram": "None", "facebook": "None", "youtube": "None", "website": "None", "summary": "None", "logo": "None", "latitude": 43.82341308580959, "longitude": -79.32805927979093}, "898715750RR0001": {"name": "AMBASSADORS FOR CHRIST MINISTRIES INC.", "designationCode": "C", "categoryCode": "47", "address": "BOX 714", "city": "WHITE CITY", "province": "SK", "country": "CA", "postalCode": "S4L5B1", "twitter": "None", "instagram": "None", "facebook": "None", "youtube": "None", "website": "None", "summary": "None", "logo": "None", "latitude": 50.44321500000005, "longitude": -104.35691149999994}, "855409447RR0001": {"name": "AMBEDKAR MISSION", "designationCode": "C", "categoryCode": "35", "address": "33 MANTIS ROAD", "city": "TORONTO", "province": "ON", "country": "CA", "postalCode": "M1X1Y3", "twitter": "None", "instagram": "None", "facebook": "None", "youtube": "None", "website": "None", "summary": "None", "logo": "None", "latitude": 43.82261001416691, "longitude": -79.221832686768}, "118785351RR0001": {"name": "AMBERLEA PRESBYTERIAN CHURCH", "designationCode": "C", "categoryCode": "37", "address": "1820 WHITES RD.", "city": "PICKERING", "province": "ON", "country": "CA", "postalCode": "L1V1R8", "twitter": "None", "instagram": "None", "facebook": "None", "youtube": "None", "website": "None", "summary": "None", "logo": "None", "latitude": 43.829329107680806, "longitude": -79.12020486542762}, "895754265RR0001": {"name": "AMBLESIDE BAPTIST CHURCH", "designationCode": "C", "categoryCode": "31", "address": "PO BOX 21129 NW", "city": "EDMONTON", "province": "AB", "country": "CA", "postalCode": "T6R2V4", "twitter": "None", "instagram": "None", "facebook": "None", "youtube": "None", "website": "None", "summary": "None", "logo": "None", "latitude": 53.46322800000006, "longitude": -113.58339649999994}, "885349423RR0001": {"name": "AMBLESIDE ORCHESTRA SOCIETY", "designationCode": "C", "categoryCode": "22", "address": "7365 LIARD PLACE", "city": "VANCOUVER", "province": "BC", "country": "CA", "postalCode": "V5S4A3", "twitter": "None", "instagram": "None", "facebook": "None", "youtube": "None", "website": "None", "summary": "None", "logo": "None", "latitude": 49.21800143448174, "longitude": -123.02598028597369}, "873243737RR0001": {"name": "AMBROSE MCGHIE MEDICAL MUSEUM", "designationCode": "C", "categoryCode": "50", "address": "1 YOUNG STREET                SUITE #206", "city": "HAMILTON", "province": "ON", "country": "CA", "postalCode": "L8N1T8", "twitter": "None", "instagram": "None", "facebook": "None", "youtube": "None", "website": "None", "summary": "None", "logo": "None", "latitude": 43.25126996087477, "longitude": -79.87107463835193}, "872804406RR0001": {"name": "AMBROSE UNIVERSITY", "designationCode": "C", "categoryCode": "20", "address": "150 AMBROSE CIR SW", "city": "CALGARY", "province": "AB", "country": "CA", "postalCode": "T3H0L5", "twitter": "None", "instagram": "None", "facebook": "None", "youtube": "None", "website": "None", "summary": "None", "logo": "None", "latitude": 51.034709269349904, "longitude": -114.19338623831791}, "140687880RR0001": {"name": "AMELIA RISING SEXUAL ASSAULT CENTRE OF NIPISSING", "designationCode": "C", "categoryCode": "09", "address": "101 WORTHINGTON ST EAST       SUITE 11", "city": "NORTH BAY", "province": "ON", "country": "CA", "postalCode": "P1B1G5", "twitter": "None", "instagram": "None", "facebook": "None", "youtube": "None", "website": "None", "summary": "None", "logo": "None", "latitude": 46.3110474657222, "longitude": -79.4615682305095}, "893759654RR0001": {"name": "AMELIE & FREDERICK (SERVICE D'ENTRAIDE)", "designationCode": "C", "categoryCode": "09", "address": "1947 BOUL BASTIEN", "city": "QUEBEC", "province": "QC", "country": "CA", "postalCode": "G2B1C3", "twitter": "None", "instagram": "None", "facebook": "None", "youtube": "None", "website": "None", "summary": "None", "logo": "None", "latitude": 46.85757667831387, "longitude": -71.3309660671706}, "139311971RR0001": {"name": "AMERICAN CIVIL WAR HISTORICAL RE-ENACTMENT SOCIETY", "designationCode": "C", "categoryCode": "52", "address": "504 WESTHEIGHTS", "city": "KITCHENER", "province": "ON", "country": "CA", "postalCode": "N2N1M5", "twitter": "None", "instagram": "None", "facebook": "None", "youtube": "None", "website": "None", "summary": "None", "logo": "None", "latitude": 43.418936924490865, "longitude": -80.53796507051749}, "889569364RR0001": {"name": "AMERICAN HELLENIC EDUCATIONAL PROGRESSIVE ASSOCIATION-CJ1 TORONTO", "designationCode": "C", "categoryCode": "21", "address": "502-1315 LAWRENCE AVE E", "city": "TORONTO", "province": "ON", "country": "CA", "postalCode": "M3A3R3", "twitter": "None", "instagram": "None", "facebook": "None", "youtube": "None", "website": "None", "summary": "None", "logo": "None", "latitude": 43.74089138436452, "longitude": -79.32362586265373}, "891631269RR0001": {"name": "AMERICAN SCHOOLS OF ORIENTAL RESEARCH IN CANADA - LES \u00c9COLES AM\u00c9RICAINES DE RECHERCHE ORIENTALE AU CANADA", "designationCode": "C", "categoryCode": "21", "address": "UNIVERSITY OF TORONTO         4 BANCROFT AVENUE, 2ND FLOOR", "city": "TORONTO", "province": "ON", "country": "CA", "postalCode": "M5S1C1", "twitter": "None", "instagram": "None", "facebook": "None", "youtube": "None", "website": "None", "summary": "None", "logo": "None", "latitude": 43.66077116515656, "longitude": -79.39959892951117}, "106707953RR0001": {"name": "AMETHYST WOMEN'S ADDICTION CENTRE", "designationCode": "C", "categoryCode": "57", "address": "488 WILBROD ST", "city": "OTTAWA", "province": "ON", "country": "CA", "postalCode": "K1N6M8", "twitter": "None", "instagram": "None", "facebook": "None", "youtube": "None", "website": "None", "summary": "None", "logo": "None", "latitude": 45.43006767303375, "longitude": -75.67462916942708}, "851078360RR0001": {"name": "AMF MINISTRIES CANADA", "designationCode": "C", "categoryCode": "49", "address": "190 MULOCK DRIVE              P.O. BOX 251", "city": "NEWMARKET", "province": "ON", "country": "CA", "postalCode": "L3Y4X1", "twitter": "None", "instagram": "None", "facebook": "None", "youtube": "None", "website": "None", "summary": "None", "logo": "None", "latitude": 44.03792985258838, "longitude": -79.4685339755613}, "130106040RR0001": {"name": "AMHERST FIRST UNITED BAPTIST CHURCH,", "designationCode": "C", "categoryCode": "31", "address": "PO BOX 637 STN MAIN           90 VICTORIA ST. EAST", "city": "AMHERST", "province": "NS", "country": "CA", "postalCode": "B4H4B8", "twitter": "None", "instagram": "None", "facebook": "None", "youtube": "None", "website": "None", "summary": "None", "logo": "None", "latitude": 45.83390455482136, "longitude": -64.21273341245872}, "888091170RR0001": {"name": "AMHERST FOOD ASSISTANCE NETWORK ASSOCIATION", "designationCode": "C", "categoryCode": "09", "address": "RR6                           1204 BLAIR LAKE RD", "city": "AMHERST", "province": "NS", "country": "CA", "postalCode": "B4H3Y4", "twitter": "None", "instagram": "None", "facebook": "None", "youtube": "None", "website": "None", "summary": "None", "logo": "None", "latitude": 45.80287956275681, "longitude": -64.21183591730613}, "119288918RR0308": {"name": "AMHERST NOVA SCOTIA CONGREGATION OF JEHOVAH'S WITNESSES", "designationCode": "C", "categoryCode": "61", "address": "35 ROSEWOOD DR", "city": "AMHERST", "province": "NS", "country": "CA", "postalCode": "B4H4P4", "twitter": "None", "instagram": "None", "facebook": "None", "youtube": "None", "website": "None", "summary": "None", "logo": "None", "latitude": 45.81294979906509, "longitude": -64.20885988617368}, "106708159RR0001": {"name": "AMHERST OPEN BIBLE CHURCH", "designationCode": "C", "categoryCode": "39", "address": "131 VICTORIA ST WEST", "city": "AMHERST", "province": "NS", "country": "CA", "postalCode": "B4H1C7", "twitter": "None", "instagram": "None", "facebook": "None", "youtube": "None", "website": "None", "summary": "None", "logo": "None", "latitude": 45.82330311936625, "longitude": -64.22387364712316}, "118785518RR0001": {"name": "AMHERST WILDLIFE FOUNDATION", "designationCode": "C", "categoryCode": "54", "address": "26 SWANHURST BLVD.", "city": "MISSISSAUGA", "province": "ON", "country": "CA", "postalCode": "L5N1B7", "twitter": "None", "instagram": "None", "facebook": "None", "youtube": "None", "website": "None", "summary": "None", "logo": "None", "latitude": 43.59155942659698, "longitude": -79.72370107060439}, "118785435RR0001": {"name": "AMHERSTBURG ANDERDON AND MALDEN GOODFELLOWS INC.", "designationCode": "C", "categoryCode": "09", "address": "122 FRYER ST", "city": "AMHERSTBURG", "province": "ON", "country": "CA", "postalCode": "N9V2L7", "twitter": "None", "instagram": "None", "facebook": "None", "youtube": "None", "website": "None", "summary": "None", "logo": "None", "latitude": 42.1064112886491, "longitude": -83.09805688484602}, "106708076RR0001": {"name": "AMHERSTBURG COMMUNITY CHURCH", "designationCode": "C", "categoryCode": "36", "address": "125 ALMA ST.", "city": "AMHERSTBURG", "province": "ON", "country": "CA", "postalCode": "N9V1A3", "twitter": "None", "instagram": "None", "facebook": "None", "youtube": "None", "website": "None", "summary": "None", "logo": "None", "latitude": 42.11079752842075, "longitude": -83.10862238926077}, "119152692RR0001": {"name": "AMHERSTBURG COMMUNITY SERVICES", "designationCode": "C", "categoryCode": "59", "address": "179 VICTORIA ST S", "city": "AMHERSTBURG", "province": "ON", "country": "CA", "postalCode": "N9V3N5", "twitter": "None", "instagram": "None", "facebook": "None", "youtube": "None", "website": "None", "summary": "None", "logo": "None", "latitude": 42.10447458090485, "longitude": -83.10067593251227}, "896086477RR0001": {"name": "AMHERSTBURG HISTORIC SITES ASSOCIATION", "designationCode": "C", "categoryCode": "50", "address": "214 DALHOUSIE ST", "city": "AMHERSTBURG", "province": "ON", "country": "CA", "postalCode": "N9V1W4", "twitter": "None", "instagram": "None", "facebook": "None", "youtube": "None", "website": "None", "summary": "None", "logo": "None", "latitude": 42.103595945034414, "longitude": -83.11317494803458}, "859695082RR0001": {"name": "AMHERSTBURG REGULAR MISSIONARY BAPTIST ASSOCIATION", "designationCode": "C", "categoryCode": "49", "address": "52 MORNING GLORY LANE", "city": "CHATHAM", "province": "ON", "country": "CA", "postalCode": "N7L5R6", "twitter": "None", "instagram": "None", "facebook": "None", "youtube": "None", "website": "None", "summary": "None", "logo": "None", "latitude": 42.40488754010619, "longitude": -82.22442105969745}, "896524071RR0001": {"name": "AMI-QU\u00c9BEC AGIR CONTRE LA MALADIE MENTALE / AMI-QU\u00c9BEC ACTION ON MENTAL ILLNESS", "designationCode": "C", "categoryCode": "09", "address": "5800 BOUL DECARIE", "city": "MONTREAL", "province": "QC", "country": "CA", "postalCode": "H3X2J5", "twitter": "None", "instagram": "None", "facebook": "None", "youtube": "None", "website": "None", "summary": "None", "logo": "None", "latitude": 45.48801973131758, "longitude": -73.63937502374621}, "853866481RR0001": {"name": "AMICA HELPING HANDS COMMUNITY PROGRAM SOCIETY", "designationCode": "C", "categoryCode": "09", "address": "2700 - 20 QUEEN ST W", "city": "TORONTO", "province": "ON", "country": "CA", "postalCode": "M5H3R3", "twitter": "None", "instagram": "None", "facebook": "None", "youtube": "None", "website": "None", "summary": "None", "logo": "None", "latitude": 43.65151703655775, "longitude": -79.38341919746475}, "889917993RR0001": {"name": "AMICALE ALFA DE QU\u00c9BEC,", "designationCode": "C", "categoryCode": "57", "address": "2958 BOUL MONSEIGNEUR-GAUTHIERBUREAU 108", "city": "QUEBEC", "province": "QC", "country": "CA", "postalCode": "G1E2V2", "twitter": "None", "instagram": "None", "facebook": "None", "youtube": "None", "website": "None", "summary": "None", "logo": "None", "latitude": 46.8470727882164, "longitude": -71.21338758102041}, "118785526RR0001": {"name": "AMICALE DES ANCIENS DE L'ORPHELINAT ST-ARSENE INC.", "designationCode": "C", "categoryCode": "03", "address": "255 CROIS PASTEUR", "city": "LAVAL", "province": "QC", "country": "CA", "postalCode": "H7K1B5", "twitter": "None", "instagram": "None", "facebook": "None", "youtube": "None", "website": "None", "summary": "None", "logo": "None"}, "140343757RR0001": {"name": "AMICALE DES DIABETIQUES DE L'HOPITAL NOTRE DAME", "designationCode": "C", "categoryCode": "11", "address": "7547 - 3840 RUE SAINT-URBAIN", "city": "MONTREAL", "province": "QC", "country": "CA", "postalCode": "H2W1T8", "twitter": "None", "instagram": "None", "facebook": "None", "youtube": "None", "website": "None", "summary": "None", "logo": "None", "latitude": 45.51443975238073, "longitude": -73.57764570306969}, "894211804RR0001": {"name": "AMICHAT", "designationCode": "C", "categoryCode": "54", "address": "9991 CHEMIN CURE-BARRETTE", "city": "LA PLAINE", "province": "QC", "country": "CA", "postalCode": "J7M1N2", "twitter": "None", "instagram": "None", "facebook": "None", "youtube": "None", "website": "None", "summary": "None", "logo": "None", "latitude": 45.796366999740215, "longitude": -73.75489235910925}, "132057050RR0001": {"name": "AMICI CAMPING CHARITY", "designationCode": "C", "categoryCode": "01", "address": "403 - 150 EGLINTON AVE E", "city": "TORONTO", "province": "ON", "country": "CA", "postalCode": "M4P1E8", "twitter": "None", "instagram": "None", "facebook": "None", "youtube": "None", "website": "None", "summary": "None", "logo": "None", "latitude": 43.7089009100495, "longitude": -79.38780176683875}, "129714770RR0001": {"name": "AMICI CHAMBER ENSEMBLE", "designationCode": "C", "categoryCode": "22", "address": "23 ASHGROVE PLACE", "city": "TORONTO", "province": "ON", "country": "CA", "postalCode": "M3B2Y9", "twitter": "None", "instagram": "None", "facebook": "None", "youtube": "None", "website": "None", "summary": "None", "logo": "None", "latitude": 43.7420373511165, "longitude": -79.34239461532687}, "889652152RR0001": {"name": "AMICO ST-LUDGER", "designationCode": "C", "categoryCode": "03", "address": "47 RUE LOUIS-PHILIPPE-LIZOTTE", "city": "RIVIERE-DU-LOUP", "province": "QC", "country": "CA", "postalCode": "G5R4E6", "twitter": "None", "instagram": "None", "facebook": "None", "youtube": "None", "website": "None", "summary": "None", "logo": "None", "latitude": 47.82721857340302, "longitude": -69.51738536190787}, "862235124RR0001": {"name": "AMICUS FOUNDATION", "designationCode": "B", "categoryCode": "03", "address": "110 HEPBOURNE STREET          APT. 203", "city": "TORONTO", "province": "ON", "country": "CA", "postalCode": "M6H1K5", "twitter": "None", "instagram": "None", "facebook": "None", "youtube": "None", "website": "None", "summary": "None", "logo": "None", "latitude": 43.658840209013654, "longitude": -79.42921734277795}, "882468382RR0001": {"name": "AMIE DU QUARTIER", "designationCode": "C", "categoryCode": "09", "address": "655 RUE FILION", "city": "ST-JEROME", "province": "QC", "country": "CA", "postalCode": "J7Z1J6", "twitter": "None", "instagram": "None", "facebook": "None", "youtube": "None", "website": "None", "summary": "None", "logo": "None", "latitude": 45.78851576106505, "longitude": -73.98863212963802}, "866150816RR0001": {"name": "AMIGO RELIEF MISSIONS LTD.", "designationCode": "C", "categoryCode": "09", "address": "23 DONNELLY TERRACE", "city": "SHERWOOD PARK", "province": "AB", "country": "CA", "postalCode": "T8H2B3", "twitter": "None", "instagram": "None", "facebook": "None", "youtube": "None", "website": "None", "summary": "None", "logo": "None", "latitude": 53.55524751154118, "longitude": -113.27405986219632}, "811705078RR0001": {"name": "AMINA ANTHROPOLOGICAL RESOURCES ASSOCIATION - ASSOCIATION DE RESOURCES ANTHROPOLOGIES AMINA", "designationCode": "C", "categoryCode": "21", "address": "182 PENNYWELL RD", "city": "ST. JOHN'S", "province": "NL", "country": "CA", "postalCode": "A1C2L6", "twitter": "None", "instagram": "None", "facebook": "None", "youtube": "None", "website": "None", "summary": "None", "logo": "None", "latitude": 47.560670778809985, "longitude": -52.725329391626694}, "890940448RR0001": {"name": "AMIS CANADIENS DU CENTRE MEDICAL SHEBA / CANADIAN FRIENDS OF SHEBA MEDICAL CENTER", "designationCode": "C", "categoryCode": "11", "address": "2070A AVENUE RD", "city": "NORTH YORK", "province": "ON", "country": "CA", "postalCode": "M5M4A6", "twitter": "None", "instagram": "None", "facebook": "None", "youtube": "None", "website": "None", "summary": "None", "logo": "None", "latitude": 43.73644242332573, "longitude": -79.42025194382124}, "852000736RR0001": {"name": "AMIS DE LA BIBLIOTHEQUE DE BEACONSFIELD/FRIENDS OF THE BEACONSFIELD LIBRARY", "designationCode": "C", "categoryCode": "50", "address": "303 BOULEVARD BEACONSFIELD", "city": "BEACONSFIELD", "province": "QC", "country": "CA", "postalCode": "H9W4A7", "twitter": "None", "instagram": "None", "facebook": "None", "youtube": "None", "website": "None", "summary": "None", "logo": "None", "latitude": 45.42464670563415, "longitude": -73.86490051533762}, "856982475RR0001": {"name": "AMIS DE LA BIBLIOTHEQUE DE BROSSARD", "designationCode": "A", "categoryCode": "03", "address": "7654 PLACE TRUDEL", "city": "BROSSARD", "province": "QC", "country": "CA", "postalCode": "J4W1P5", "twitter": "None", "instagram": "None", "facebook": "None", "youtube": "None", "website": "None", "summary": "None", "logo": "None", "latitude": 45.45891593060769, "longitude": -73.47597135204012}, "893269126RR0001": {"name": "AMIS DE LA FORET LA BLANCHE / FRIENDS OF FORET LA BLANCHE", "designationCode": "C", "categoryCode": "59", "address": "300 CH SADDLER", "city": "MAYO", "province": "QC", "country": "CA", "postalCode": "J8L4L8", "twitter": "None", "instagram": "None", "facebook": "None", "youtube": "None", "website": "None", "summary": "None", "logo": "None", "latitude": 45.7077331579142, "longitude": -75.29879464317389}, "100192012RR0001": {"name": "AMIS DU FORT LENNOX", "designationCode": "C", "categoryCode": "52", "address": "959F RUE PRINCIPALE", "city": "ST-PAUL ILE-AUX-NOIX", "province": "QC", "country": "CA", "postalCode": "J0J1G0", "twitter": "None", "instagram": "None", "facebook": "None", "youtube": "None", "website": "None", "summary": "None", "logo": "None", "latitude": 45.13054390688894, "longitude": -73.27683898678515}, "859148033RR0001": {"name": "AMIS DU MONDE", "designationCode": "C", "categoryCode": "09", "address": "6665 RUE BOMBARDIER", "city": "SAINT-LEONARD", "province": "QC", "country": "CA", "postalCode": "H1P2W2", "twitter": "None", "instagram": "None", "facebook": "None", "youtube": "None", "website": "None", "summary": "None", "logo": "None", "latitude": 45.60211155236853, "longitude": -73.59163405020414}, "897017885RR0001": {"name": "AMISK CHRISTIAN FELLOWSHIP (PENTECOSTAL)", "designationCode": "C", "categoryCode": "39", "address": "PO BOX 107", "city": "AMISK", "province": "AB", "country": "CA", "postalCode": "T0B0B0", "twitter": "None", "instagram": "None", "facebook": "None", "youtube": "None", "website": "None", "summary": "None", "logo": "None", "latitude": 52.55013000000008, "longitude": -111.06835999999998}, "865138200RR0001": {"name": "AMISK HUGHENDEN HISTORICAL SOCIETY", "designationCode": "C", "categoryCode": "50", "address": "BOX 27", "city": "HUGHENDEN", "province": "AB", "country": "CA", "postalCode": "T0B2E0", "twitter": "None", "instagram": "None", "facebook": "None", "youtube": "None", "website": "None", "summary": "None", "logo": "None", "latitude": 52.51683000000003, "longitude": -110.98494999999997}, "871676243RR0001": {"name": "AMISK LAKE CHURCH INC.", "designationCode": "C", "categoryCode": "39", "address": "BOX 305", "city": "DENARE BEACH", "province": "SK", "country": "CA", "postalCode": "S0P0B0", "twitter": "None", "instagram": "None", "facebook": "None", "youtube": "None", "website": "None", "summary": "None", "logo": "None", "latitude": 54.65890500000006, "longitude": -102.07980349999994}, "888379443RR0001": {"name": "AMISK-PARK LUTHERAN CHURCH", "designationCode": "C", "categoryCode": "32", "address": "GENERAL DELIVERY", "city": "AMISK", "province": "AB", "country": "CA", "postalCode": "T0B0B0", "twitter": "None", "instagram": "None", "facebook": "None", "youtube": "None", "website": "None", "summary": "None", "logo": "None", "latitude": 52.56772800000006, "longitude": -111.05964349999994}, "119288918RR1402": {"name": "AMISTAD CONGREGATION OF JEHOVAH'S WITNESSES, LAVAL, QUEBEC", "designationCode": "C", "categoryCode": "61", "address": "60, DE MAYENCE STREET", "city": "LAVAL", "province": "QC", "country": "CA", "postalCode": "H7M3M3", "twitter": "None", "instagram": "None", "facebook": "None", "youtube": "None", "website": "None", "summary": "None", "logo": "None", "latitude": 45.59476834358601, "longitude": -73.7186072757229}, "847899614RR0001": {"name": "AMITABHA KADAMPA BUDDHIST CENTRE", "designationCode": "C", "categoryCode": "35", "address": "428 - 10407 122 ST NW", "city": "EDMONTON", "province": "AB", "country": "CA", "postalCode": "T5N4B8", "twitter": "None", "instagram": "None", "facebook": "None", "youtube": "None", "website": "None", "summary": "None", "logo": "None"}, "107594400RR0001": {"name": "AMITIE CHINOISE DE MONTREAL/CHINESE NEIGHBOURHOOD SOCIETY OF MONTREAL", "designationCode": "C", "categoryCode": "53", "address": "5995 BOUL. GOUIN WEST         SUITE 220", "city": "MONTREAL", "province": "QC", "country": "CA", "postalCode": "H4J2P8", "twitter": "None", "instagram": "None", "facebook": "None", "youtube": "None", "website": "None", "summary": "None", "logo": "None", "latitude": 45.53114030114257, "longitude": -73.72189682543704}, "896651395RR0001": {"name": "AMITIE HAITI-LEVIS", "designationCode": "C", "categoryCode": "09", "address": "205 MGR BOURGET", "city": "LEVIS", "province": "QC", "country": "CA", "postalCode": "G6V6Z9", "twitter": "None", "instagram": "None", "facebook": "None", "youtube": "None", "website": "None", "summary": "None", "logo": "None", "latitude": 46.81692322621033, "longitude": -71.15371747556131}, "889323465RR0001": {"name": "AMITIE MONDIALE INC.", "designationCode": "C", "categoryCode": "29", "address": "375 CHEMIN DE L'ANGE-GARDIEN", "city": "ST-PAUL D\"ABBOTSFORD", "province": "QC", "country": "CA", "postalCode": "J0E1A0", "twitter": "None", "instagram": "None", "facebook": "None", "youtube": "None", "website": "None", "summary": "None", "logo": "None", "latitude": 45.42404100000006, "longitude": -72.83876749999993}, "100192194RR0001": {"name": "AMITIE SOLEIL INC.", "designationCode": "C", "categoryCode": "56", "address": "715 CHATHAM", "city": "MONTREAL", "province": "QC", "country": "CA", "postalCode": "H3J1Z3", "twitter": "None", "instagram": "None", "facebook": "None", "youtube": "None", "website": "None", "summary": "None", "logo": "None", "latitude": 45.488678017225354, "longitude": -73.5731408100007}, "118785674RR0001": {"name": "AMITY GOODWILL INDUSTRIES", "designationCode": "C", "categoryCode": "11", "address": "225 KING WILLIAM STREET", "city": "HAMILTON", "province": "ON", "country": "CA", "postalCode": "L8R1B1", "twitter": "None", "instagram": "None", "facebook": "None", "youtube": "None", "website": "None", "summary": "None", "logo": "None", "latitude": 43.25533113962134, "longitude": -79.86085359310985}, "890268576RR0001": {"name": "AMITY MASONIC FOUNDATION", "designationCode": "C", "categoryCode": "09", "address": "15 GAMBLE ST", "city": "DUNNVILLE", "province": "ON", "country": "CA", "postalCode": "N1A1X8", "twitter": "None", "instagram": "None", "facebook": "None", "youtube": "None", "website": "None", "summary": "None", "logo": "None", "latitude": 42.89268517058152, "longitude": -79.62386660811386}, "896726908RR0001": {"name": "AMMA CANADA", "designationCode": "A", "categoryCode": "03", "address": "6401 LONGSPUR ROAD", "city": "MISSISSAUGA", "province": "ON", "country": "CA", "postalCode": "L5N6E3", "twitter": "None", "instagram": "None", "facebook": "None", "youtube": "None", "website": "None", "summary": "None", "logo": "None", "latitude": 43.570241464625695, "longitude": -79.7611731927406}, "862669694RR0001": {"name": "AMMI LACOMBE CANADA MAMI", "designationCode": "C", "categoryCode": "47", "address": "601 TAYLOR ST. W", "city": "SASKATOON", "province": "SK", "country": "CA", "postalCode": "S7M0C9", "twitter": "None", "instagram": "None", "facebook": "None", "youtube": "None", "website": "None", "summary": "None", "logo": "None", "latitude": 52.107320454988134, "longitude": -106.67878276005544}, "118786045RR0001": {"name": "AMNESTY INTERNATIONAL - GROUP 75", "designationCode": "C", "categoryCode": "59", "address": "40 OLD MILL RD, UNIT 806", "city": "OAKVILLE", "province": "ON", "country": "CA", "postalCode": "L6J7W3", "twitter": "None", "instagram": "None", "facebook": "None", "youtube": "None", "website": "None", "summary": "None", "logo": "None", "latitude": 43.453200562179894, "longitude": -79.68396589933006}, "887196194RR0001": {"name": "AMNESTY INTERNATIONAL CANADA, EDMONTON GROUPS, 12 AND 26", "designationCode": "C", "categoryCode": "59", "address": "BOX 52060, GARNEAU P.O.", "city": "EDMONTON", "province": "AB", "country": "CA", "postalCode": "T6G2T5", "twitter": "None", "instagram": "None", "facebook": "None", "youtube": "None", "website": "None", "summary": "None", "logo": "None", "latitude": 53.54623500000005, "longitude": -113.49037249999994}, "118785914RR0001": {"name": "AMNESTY INTERNATIONAL CANADIAN SECTION (ENGLISH SPEAKING)", "designationCode": "C", "categoryCode": "59", "address": "312 LAURIER AVENUE EAST", "city": "OTTAWA", "province": "ON", "country": "CA", "postalCode": "K1N1H9", "twitter": "None", "instagram": "None", "facebook": "None", "youtube": "None", "website": "None", "summary": "None", "logo": "None", "latitude": 45.427022625281545, "longitude": -75.67874986591859}, "118785922RR0001": {"name": "AMNESTY INTERNATIONAL CANADIAN SECTION ENGLISH SPEAKING GROUP 18", "designationCode": "C", "categoryCode": "59", "address": "51 WOODLAWN AVE E.", "city": "TORONTO", "province": "ON", "country": "CA", "postalCode": "M4T1B9", "twitter": "None", "instagram": "None", "facebook": "None", "youtube": "None", "website": "None", "summary": "None", "logo": "None", "latitude": 43.68451878377299, "longitude": -79.38941723812688}, "118785914RR0005": {"name": "AMNESTY INTERNATIONAL TORONTO ORGANIZATION", "designationCode": "C", "categoryCode": "59", "address": "1992 YONGE ST,                3RD FLR.", "city": "TORONTO", "province": "ON", "country": "CA", "postalCode": "M4S1Z7", "twitter": "None", "instagram": "None", "facebook": "None", "youtube": "None", "website": "None", "summary": "None", "logo": "None", "latitude": 43.70019899333489, "longitude": -79.39701734196989}, "100193457RR0001": {"name": "AMNISTIE INTERNATIONALE, SECTION CANADIENNE FRANCOPHONE", "designationCode": "C", "categoryCode": "59", "address": "500-50 RUE STE-CATHERINE OUEST", "city": "MONTR\u00c9AL", "province": "QC", "country": "CA", "postalCode": "H2X3V4", "twitter": "None", "instagram": "None", "facebook": "None", "youtube": "None", "website": "None", "summary": "None", "logo": "None", "latitude": 45.508309146361675, "longitude": -73.56514572996707}, "889988770RR0001": {"name": "AMOS PRESBYTERIAN CHURCH", "designationCode": "C", "categoryCode": "37", "address": "RR 2", "city": "HOLSTEIN", "province": "ON", "country": "CA", "postalCode": "N0G2A0", "twitter": "None", "instagram": "None", "facebook": "None", "youtube": "None", "website": "None", "summary": "None", "logo": "None", "latitude": 44.06014000000005, "longitude": -80.75996999999995}, "894514249RR0001": {"name": "AMOUR ET VIE", "designationCode": "C", "categoryCode": "47", "address": "2304 RUE HOCHELAGA", "city": "MONTREAL", "province": "QC", "country": "CA", "postalCode": "H2K1H8", "twitter": "None", "instagram": "None", "facebook": "None", "youtube": "None", "website": "None", "summary": "None", "logo": "None", "latitude": 45.53233527976228, "longitude": -73.56029945446947}, "894463595RR0001": {"name": "AMPUTEE SOCIETY OF OTTAWA/SOCIETE DES AMPUTE(E)S D'OTTAWA", "designationCode": "C", "categoryCode": "11", "address": "505 SMYTH ROAD                ROOM 1404", "city": "OTTAWA", "province": "ON", "country": "CA", "postalCode": "K1H8M2", "twitter": "None", "instagram": "None", "facebook": "None", "youtube": "None", "website": "None", "summary": "None", "logo": "None", "latitude": 45.39948874096807, "longitude": -75.64736863423326}, "887976736RR0001": {"name": "AMSSA COMMUNITY EDUCATION SOCIETY OF B C", "designationCode": "C", "categoryCode": "29", "address": "205-2929 COMMERCIAL DRIVE", "city": "VANCOUVER", "province": "BC", "country": "CA", "postalCode": "V5N4C8", "twitter": "None", "instagram": "None", "facebook": "None", "youtube": "None", "website": "None", "summary": "None", "logo": "None", "latitude": 49.258437666828826, "longitude": -123.06990279375918}, "879042513RR0001": {"name": "AMY BURGESS MEMORIAL FOUNDATION", "designationCode": "B", "categoryCode": "13", "address": "59 CLUBHOUSE DR.", "city": "HUNTSVILLE", "province": "ON", "country": "CA", "postalCode": "P1H1B1", "twitter": "None", "instagram": "None", "facebook": "None", "youtube": "None", "website": "None", "summary": "None", "logo": "None", "latitude": 45.34483896866506, "longitude": -79.14822094506307}, "118786201RR0001": {"name": "AMY JANZEN MEMORIAL FUND INC.", "designationCode": "C", "categoryCode": "11", "address": "BOX 580", "city": "WINKLER", "province": "MB", "country": "CA", "postalCode": "R6W4A7", "twitter": "None", "instagram": "None", "facebook": "None", "youtube": "None", "website": "None", "summary": "None", "logo": "None", "latitude": 49.17773400000006, "longitude": -97.93841299999994}, "857169247RR0001": {"name": "AMY'S CHILDREN HEALTH AND EDUCATIONAL CHARITY", "designationCode": "C", "categoryCode": "10", "address": "611 - 1130 WILSON AVE", "city": "NORTH YORK", "province": "ON", "country": "CA", "postalCode": "M3M1K3", "twitter": "None", "instagram": "None", "facebook": "None", "youtube": "None", "website": "None", "summary": "None", "logo": "None", "latitude": 43.726085180160204, "longitude": -79.48473749890348}, "106708985RR0001": {"name": "AMYOTROPHIC LATERAL SCLEROSIS SOCIETY OF BRITISH COLUMBIA", "designationCode": "C", "categoryCode": "11", "address": "1233-13351 COMMERCE PARKWAY", "city": "RICHMOND", "province": "BC", "country": "CA", "postalCode": "V6V2X7", "twitter": "None", "instagram": "None", "facebook": "None", "youtube": "None", "website": "None", "summary": "None", "logo": "None", "latitude": 49.172598586733216, "longitude": -123.07183547732072}, "864311568RR0001": {"name": "AMYOTROPHIC LATERAL SCLEROSIS SOCIETY OF ESSEX COUNTY", "designationCode": "C", "categoryCode": "11", "address": "1426 FRONT ROAD SOUTH", "city": "AMHERSTBURG", "province": "ON", "country": "CA", "postalCode": "N9V2M6", "twitter": "None", "instagram": "None", "facebook": "None", "youtube": "None", "website": "None", "summary": "None", "logo": "None", "latitude": 42.06211279655492, "longitude": -83.11365728054074}, "888814662RR0001": {"name": "AMYOTROPHIC LATERAL SCLEROSIS SOCIETY OF NOVA SCOTIA", "designationCode": "C", "categoryCode": "01", "address": "900 WINDMILL ROAD, UNIT 113", "city": "DARTMOUTH", "province": "NS", "country": "CA", "postalCode": "B3B1P7", "twitter": "None", "instagram": "None", "facebook": "None", "youtube": "None", "website": "None", "summary": "None", "logo": "None", "latitude": 44.70381052071646, "longitude": -63.612891101968}, "891342388RR0001": {"name": "ANAGANCE RIDGE PINE GROVE CEMETERY INC", "designationCode": "C", "categoryCode": "59", "address": "6 BROWN ROAD", "city": "CORN HILL", "province": "NB", "country": "CA", "postalCode": "E4Z1K1", "twitter": "None", "instagram": "None", "facebook": "None", "youtube": "None", "website": "None", "summary": "None", "logo": "None", "latitude": 45.91468500000006, "longitude": -65.31926749999994}, "118786235RR0001": {"name": "ANAGANCE RIDGE UNITED CHURCH", "designationCode": "C", "categoryCode": "44", "address": "128 ELLIOTT ROAD", "city": "ANAGANCE", "province": "NB", "country": "CA", "postalCode": "E4Z1E4", "twitter": "None", "instagram": "None", "facebook": "None", "youtube": "None", "website": "None", "summary": "None", "logo": "None", "latitude": 45.89618452510255, "longitude": -65.28829223157736}, "119080422RR0001": {"name": "ANAGO (NON) RESIDENTIAL RESOURCES, INC.", "designationCode": "C", "categoryCode": "01", "address": "371 PRINCESS AVE", "city": "LONDON", "province": "ON", "country": "CA", "postalCode": "N6B2A7", "twitter": "None", "instagram": "None", "facebook": "None", "youtube": "None", "website": "None", "summary": "None", "logo": "None", "latitude": 42.99008005297504, "longitude": -81.24300450678066}, "118849470RR0020": {"name": "ANAHIM LAKE MISSION", "designationCode": "C", "categoryCode": "38", "address": "4885 SAINT JOHN PAUL II WAY", "city": "VANCOUVER", "province": "BC", "country": "CA", "postalCode": "V5Z0G3", "twitter": "None", "instagram": "None", "facebook": "None", "youtube": "None", "website": "None", "summary": "None", "logo": "None", "latitude": 49.23885300000006, "longitude": -123.12055249999993}, "118786276RR0001": {"name": "ANAHIM LAKE PENTECOSTAL CHURCH", "designationCode": "C", "categoryCode": "36", "address": "PO BOX 3460", "city": "ANAHIM LAKE", "province": "BC", "country": "CA", "postalCode": "V0L1C0", "twitter": "None", "instagram": "None", "facebook": "None", "youtube": "None", "website": "None", "summary": "None", "logo": "None", "latitude": 52.471911544239, "longitude": -125.32504022123472}, "894397793RR0001": {"name": "ANAKO FOUNDATION", "designationCode": "B", "categoryCode": "03", "address": "1500 - 1140 PENDER ST W", "city": "VANCOUVER", "province": "BC", "country": "CA", "postalCode": "V6E4G1", "twitter": "None", "instagram": "None", "facebook": "None", "youtube": "None", "website": "None", "summary": "None", "logo": "None", "latitude": 49.28790194751592, "longitude": -123.12183137235255}, "889256640RR0001": {"name": "ANANDA MARGA CANADA", "designationCode": "C", "categoryCode": "39", "address": "113 SUNFOREST DR", "city": "BRAMPTON", "province": "ON", "country": "CA", "postalCode": "L6Z3Z8", "twitter": "None", "instagram": "None", "facebook": "None", "youtube": "None", "website": "None", "summary": "None", "logo": "None", "latitude": 43.7137110513589, "longitude": -79.79091545294027}, "858721004RR0001": {"name": "ANANDA MARGA UNIVERSAL RELIEF TEAM (AMURT)", "designationCode": "C", "categoryCode": "02", "address": "110 MILLICENT ST", "city": "TORONTO", "province": "ON", "country": "CA", "postalCode": "M6H1W4", "twitter": "None", "instagram": "None", "facebook": "None", "youtube": "None", "website": "None", "summary": "None", "logo": "None", "latitude": 43.66478719790515, "longitude": -79.44164756869982}, "892101999RR0001": {"name": "ANANTA KUAN-YIN ZEN BUDDHIST INSTITUTE", "designationCode": "C", "categoryCode": "35", "address": "200 SILVERSTAR BLVD UNIT 326", "city": "SCARBOROUGH", "province": "ON", "country": "CA", "postalCode": "M1V5H4", "twitter": "None", "instagram": "None", "facebook": "None", "youtube": "None", "website": "None", "summary": "None", "logo": "None", "latitude": 43.8101603488088, "longitude": -79.29309453384417}, "894048479RR0001": {"name": "ANAPILIS CHRISTIAN COMMUNITY CENTRE", "designationCode": "C", "categoryCode": "59", "address": "2185 STAVENBANK ROAD", "city": "MISSISSAUGA", "province": "ON", "country": "CA", "postalCode": "L5C1T3", "twitter": "None", "instagram": "None", "facebook": "None", "youtube": "None", "website": "None", "summary": "None", "logo": "None", "latitude": 43.56031741444928, "longitude": -79.61738998874726}, "868256496RR0001": {"name": "ANATOLIA ISLAMIC CENTRE", "designationCode": "C", "categoryCode": "60", "address": "5280 MAINGATE DRIVE", "city": "MISSISSAUGA", "province": "ON", "country": "CA", "postalCode": "L4W1G5", "twitter": "None", "instagram": "None", "facebook": "None", "youtube": "None", "website": "None", "summary": "None", "logo": "None", "latitude": 43.633547625829785, "longitude": -79.63193151601325}, "893224634RR0001": {"name": "ANATOMICA DANCE SOCIETY", "designationCode": "C", "categoryCode": "22", "address": "104 - 336 1ST AVE E", "city": "VANCOUVER", "province": "BC", "country": "CA", "postalCode": "V5T4R6", "twitter": "None", "instagram": "None", "facebook": "None", "youtube": "None", "website": "None", "summary": "None", "logo": "None", "latitude": 49.267835582001375, "longitude": -123.09651320970615}, "118786300RR0001": {"name": "ANAVETS SENIOR CITIZENS HOUSING SOCIETY", "designationCode": "C", "categoryCode": "01", "address": "#200-951 EAST 8TH AVENUE", "city": "VANCOUVER", "province": "BC", "country": "CA", "postalCode": "V5T4L2", "twitter": "None", "instagram": "None", "facebook": "None", "youtube": "None", "website": "None", "summary": "None", "logo": "None", "latitude": 49.263411518754545, "longitude": -123.08405391618098}, "877094516RR0001": {"name": "ANBA ABRAM COPTIC CHARITABLE ORGANIZATION", "designationCode": "C", "categoryCode": "09", "address": "P O BOX 30039", "city": "ST CATHARINES", "province": "ON", "country": "CA", "postalCode": "L2S4A1", "twitter": "None", "instagram": "None", "facebook": "None", "youtube": "None", "website": "None", "summary": "None", "logo": "None", "latitude": 43.15634700000005, "longitude": -79.24869349999993}}