{"853516946RR0001": {"name": "WILLING HEARTS INTERNATIONAL SOCIETY - CANADA", "designationCode": "C", "categoryCode": "01", "address": "PO 838                        1641 LONSDALE AVE", "city": "NORTH VANCOUVER", "province": "BC", "country": "CA", "postalCode": "V7M2J5", "twitter": "None", "instagram": "None", "facebook": "None", "youtube": "None", "website": "None", "summary": "None", "logo": "None", "latitude": 49.323529833130316, "longitude": -123.07236431983682}, "802772277RR0001": {"name": "WILLINGDON CHURCH", "designationCode": "C", "categoryCode": "34", "address": "4812 WILLINGDON AVE", "city": "BURNABY", "province": "BC", "country": "CA", "postalCode": "V5G3H6", "twitter": "None", "instagram": "None", "facebook": "None", "youtube": "None", "website": "None", "summary": "None", "logo": "None", "latitude": 49.241006999999996, "longitude": -123.0033918988983}, "107764573RR0018": {"name": "WILLINGDON EVANGELICAL CHURCH", "designationCode": "C", "categoryCode": "39", "address": "BOX 214", "city": "WILLINGDON", "province": "AB", "country": "CA", "postalCode": "T0B4R0", "twitter": "None", "instagram": "None", "facebook": "None", "youtube": "None", "website": "None", "summary": "None", "logo": "None", "latitude": 53.83346000000006, "longitude": -112.13515999999998}, "119288918RR0591": {"name": "WILLINGDON HEIGHTS CONGREGATION OF JEHOVAH'S WITNESSES", "designationCode": "C", "categoryCode": "61", "address": "4111 CAMBRIDGE ST", "city": "BURNABY", "province": "BC", "country": "CA", "postalCode": "V5C1G8", "twitter": "None", "instagram": "None", "facebook": "None", "youtube": "None", "website": "None", "summary": "None", "logo": "None", "latitude": 49.286514518754565, "longitude": -123.01360183236193}, "130680598RR0001": {"name": "WILLINGDON HEIGHTS UNITED CHURCH,", "designationCode": "C", "categoryCode": "44", "address": "4304 PARKER ST", "city": "BURNABY", "province": "BC", "country": "CA", "postalCode": "V5C3C5", "twitter": "None", "instagram": "None", "facebook": "None", "youtube": "None", "website": "None", "summary": "None", "logo": "None", "latitude": 49.275586499567325, "longitude": -123.00846316763807}, "119298826RR0001": {"name": "WILLIS CEMETERY COMPANY", "designationCode": "C", "categoryCode": "52", "address": "1564 HARDWOOD HILL RD         RR #2", "city": "STOTSBURN", "province": "NS", "country": "CA", "postalCode": "B0K1R0", "twitter": "None", "instagram": "None", "facebook": "None", "youtube": "None", "website": "None", "summary": "None", "logo": "None", "latitude": 45.66781952120741, "longitude": -62.82571102400602}, "119298842RR0001": {"name": "WILLIS UNITED CHURCH", "designationCode": "C", "categoryCode": "44", "address": "31 DUKE ST.                   BOX 111", "city": "DRUMBO", "province": "ON", "country": "CA", "postalCode": "N0J1G0", "twitter": "None", "instagram": "None", "facebook": "None", "youtube": "None", "website": "None", "summary": "None", "logo": "None", "latitude": 43.23790189148246, "longitude": -80.55099437968147}, "119298834RR0001": {"name": "WILLISTEAD MANOR INC", "designationCode": "C", "categoryCode": "52", "address": "CITY HALL, PO BOX 1607", "city": "WINDSOR", "province": "ON", "country": "CA", "postalCode": "N9A6S1", "twitter": "None", "instagram": "None", "facebook": "None", "youtube": "None", "website": "None", "summary": "None", "logo": "None", "latitude": 42.31734005496563, "longitude": -83.03565996999268}, "896550308RR0001": {"name": "WILLMORE WILDERNESS PRESERVATION AND HISTORICAL FOUNDATION", "designationCode": "C", "categoryCode": "52", "address": "P. O. BOX 93", "city": "GRANDE CACHE", "province": "AB", "country": "CA", "postalCode": "T0E0Y0", "twitter": "None", "instagram": "None", "facebook": "None", "youtube": "None", "website": "None", "summary": "None", "logo": "None", "latitude": 53.888100000000065, "longitude": -119.11633999999998}, "118917491RR0001": {"name": "WILLOUGHBY CHRISTIAN REFORMED CHURCH", "designationCode": "C", "categoryCode": "39", "address": "20525-72ND AVE", "city": "LANGLEY", "province": "BC", "country": "CA", "postalCode": "V2Y1T2", "twitter": "None", "instagram": "None", "facebook": "None", "youtube": "None", "website": "None", "summary": "None", "logo": "None", "latitude": 49.133474496537545, "longitude": -122.65397983236193}, "119288918RR0846": {"name": "WILLOUGHBY CONGREGATION OF JEHOVAH'S WITNESSES", "designationCode": "C", "categoryCode": "61", "address": "51 - 7179 201 ST", "city": "LANGLEY", "province": "BC", "country": "CA", "postalCode": "V2Y2Y9", "twitter": "None", "instagram": "None", "facebook": "None", "youtube": "None", "website": "None", "summary": "None", "logo": "None", "latitude": 49.13291699999999, "longitude": -122.66473200400978}, "131783482RR0001": {"name": "WILLOUGHBY HEIGHTS CANADIAN REFORMED CHURCH", "designationCode": "C", "categoryCode": "39", "address": "7949-202A STREET", "city": "LANGLEY", "province": "BC", "country": "CA", "postalCode": "V2Y1W8", "twitter": "None", "instagram": "None", "facebook": "None", "youtube": "None", "website": "None", "summary": "None", "logo": "None", "latitude": 49.14673181127011, "longitude": -122.66141540129196}, "119298883RR0001": {"name": "WILLOW BEACH FIELD NATURALISTS CLUB", "designationCode": "C", "categoryCode": "52", "address": "PO BOX 421", "city": "PORT HOPE", "province": "ON", "country": "CA", "postalCode": "L1A3Z3", "twitter": "None", "instagram": "None", "facebook": "None", "youtube": "None", "website": "None", "summary": "None", "logo": "None", "latitude": 43.95010200000006, "longitude": -78.29160199999993}, "119298909RR0001": {"name": "WILLOW BUNCH MUSEUM & HERITAGE SOCIETY INC", "designationCode": "C", "categoryCode": "50", "address": "BOX 157", "city": "WILLOW BUNCH", "province": "SK", "country": "CA", "postalCode": "S0H4K0", "twitter": "None", "instagram": "None", "facebook": "None", "youtube": "None", "website": "None", "summary": "None", "logo": "None", "latitude": 49.38336000000004, "longitude": -105.63441999999998}, "883438301RR0001": {"name": "WILLOW CHURCH CEMETERY SOCIETY", "designationCode": "C", "categoryCode": "50", "address": "242 COOPER RD", "city": "TATAMAGOUCHE", "province": "NS", "country": "CA", "postalCode": "B0K1V0", "twitter": "None", "instagram": "None", "facebook": "None", "youtube": "None", "website": "None", "summary": "None", "logo": "None", "latitude": 45.69830582864062, "longitude": -63.31523820765733}, "108213364RR0001": {"name": "WILLOW CREEK BAPTIST CHURCH", "designationCode": "C", "categoryCode": "31", "address": "2387 GILL RD", "city": "MIDHURST", "province": "ON", "country": "CA", "postalCode": "L9X0L2", "twitter": "None", "instagram": "None", "facebook": "None", "youtube": "None", "website": "None", "summary": "None", "logo": "None", "latitude": 44.45437460952715, "longitude": -79.72955646563622}, "870127438RR0001": {"name": "WILLOW CREEK CHARITABLE TRUST", "designationCode": "B", "categoryCode": "39", "address": "3425 2ND AVE S", "city": "LETHBRIDGE", "province": "AB", "country": "CA", "postalCode": "T1J4V1", "twitter": "None", "instagram": "None", "facebook": "None", "youtube": "None", "website": "None", "summary": "None", "logo": "None", "latitude": 49.696839530439966, "longitude": -112.78914308381903}, "886116391RR0001": {"name": "WILLOW CREEK COMMUNITY CEMETERY ASSOCIATION", "designationCode": "C", "categoryCode": "59", "address": "R.R. #3", "city": "CALMAR", "province": "AB", "country": "CA", "postalCode": "T0C0V0", "twitter": "None", "instagram": "None", "facebook": "None", "youtube": "None", "website": "None", "summary": "None", "logo": "None", "latitude": 52.96558522787373, "longitude": -114.42601200638603}, "882276207RR0001": {"name": "WILLOW CREEK FIREFIGHTER'S FOUNDATION", "designationCode": "C", "categoryCode": "59", "address": "BOX 1047", "city": "NANTON", "province": "AB", "country": "CA", "postalCode": "T0L1R0", "twitter": "None", "instagram": "None", "facebook": "None", "youtube": "None", "website": "None", "summary": "None", "logo": "None", "latitude": 50.448604499999995, "longitude": -113.84751825000001}, "108213406RR0001": {"name": "WILLOW CREEK FOUNDATION", "designationCode": "C", "categoryCode": "01", "address": "PO BOX 790", "city": "FORT MCLEOD", "province": "AB", "country": "CA", "postalCode": "T0L0Z0", "twitter": "None", "instagram": "None", "facebook": "None", "youtube": "None", "website": "None", "summary": "None", "logo": "None", "latitude": 49.72081000000003, "longitude": -113.42989999999998}, "860258508RR0001": {"name": "WILLOW CREEK GOSPEL MUSIC JAMBOREE ASSOCIATION", "designationCode": "C", "categoryCode": "47", "address": "P. O. BOX 474", "city": "GRANUM", "province": "AB", "country": "CA", "postalCode": "T0L1A0", "twitter": "None", "instagram": "None", "facebook": "None", "youtube": "None", "website": "None", "summary": "None", "logo": "None", "latitude": 49.873620000000074, "longitude": -113.51807999999994}, "854017902RR0001": {"name": "WILLOW GROVE CEMETERY SOCIETY", "designationCode": "C", "categoryCode": "59", "address": "53 MCCUISH ROAD", "city": "LOUISBOURG", "province": "NS", "country": "CA", "postalCode": "B1C1R6", "twitter": "None", "instagram": "None", "facebook": "None", "youtube": "None", "website": "None", "summary": "None", "logo": "None", "latitude": 45.93292973942498, "longitude": -59.9524808339198}, "898744016RR0001": {"name": "WILLOW GROVE FOUNDATION", "designationCode": "B", "categoryCode": "03", "address": "3741 WEST 35TH AVENUE", "city": "VANCOUVER", "province": "BC", "country": "CA", "postalCode": "V6N2N6", "twitter": "None", "instagram": "None", "facebook": "None", "youtube": "None", "website": "None", "summary": "None", "logo": "None", "latitude": 49.240494511541186, "longitude": -123.18728366472388}, "892923996RR0001": {"name": "WILLOW LAKE BAPTIST CHURCH FELLOWSHIP", "designationCode": "C", "categoryCode": "39", "address": "CHURCH STONY MOUNTAIN ROAD", "city": "ANZAC", "province": "AB", "country": "CA", "postalCode": "T0P1J0", "twitter": "None", "instagram": "None", "facebook": "None", "youtube": "None", "website": "None", "summary": "None", "logo": "None", "latitude": 56.443107338170115, "longitude": -111.04909041871463}, "108213646RR0001": {"name": "WILLOW LODGE ASSOCIATION", "designationCode": "C", "categoryCode": "01", "address": "BOX 249", "city": "TATAMAGOUCHE", "province": "NS", "country": "CA", "postalCode": "B0K1V0", "twitter": "None", "instagram": "None", "facebook": "None", "youtube": "None", "website": "None", "summary": "None", "logo": "None", "latitude": 45.71288526208159, "longitude": -63.415849046616174}, "874537905RR0001": {"name": "WILLOW LODGE FOUNDATION", "designationCode": "A", "categoryCode": "03", "address": "WILLOW LODGE PO BOX 249", "city": "TATAMAGOUCHE", "province": "NS", "country": "CA", "postalCode": "B0K1V0", "twitter": "None", "instagram": "None", "facebook": "None", "youtube": "None", "website": "None", "summary": "None", "logo": "None", "latitude": 45.71288526208159, "longitude": -63.415849046616174}, "127968501RR0001": {"name": "WILLOW PARK CHARITY GOLF CLASSIC FOUNDATION", "designationCode": "A", "categoryCode": "03", "address": "639 WILLOW PARK DR SE", "city": "CALGARY", "province": "AB", "country": "CA", "postalCode": "T2J0L6", "twitter": "None", "instagram": "None", "facebook": "None", "youtube": "None", "website": "None", "summary": "None", "logo": "None", "latitude": 50.959405499567325, "longitude": -114.04935922009349}, "892571217RR0001": {"name": "WILLOW PARK CHURCH MENNONITE BRETHREN", "designationCode": "C", "categoryCode": "34", "address": "439 HWY 33 W", "city": "KELOWNA", "province": "BC", "country": "CA", "postalCode": "V1X1Y2", "twitter": "None", "instagram": "None", "facebook": "None", "youtube": "None", "website": "None", "summary": "None", "logo": "None", "latitude": 49.88890309233488, "longitude": -119.39400189943721}, "119288918RR0632": {"name": "WILLOW PARK CONGREGATION OF JEHOVAH'S WITNESSES, CALGARY, ALBERTA", "designationCode": "C", "categoryCode": "61", "address": "1143 LAKE WAPTA RD SE", "city": "CALGARY", "province": "AB", "country": "CA", "postalCode": "T2J2P3", "twitter": "None", "instagram": "None", "facebook": "None", "youtube": "None", "website": "None", "summary": "None", "logo": "None", "latitude": 50.94614986984237, "longitude": -114.03832202360198}, "119288918RR0721": {"name": "WILLOW PARK CONGREGATION OF JEHOVAH'S WITNESSES, GUELPH, ONTARIO", "designationCode": "C", "categoryCode": "61", "address": "11 TORCH LANE", "city": "GUELPH", "province": "ON", "country": "CA", "postalCode": "N1G1V5", "twitter": "None", "instagram": "None", "facebook": "None", "youtube": "None", "website": "None", "summary": "None", "logo": "None", "latitude": 43.515810165993294, "longitude": -80.24409196728007}, "131328718RR0001": {"name": "WILLOW RIVER GOSPEL CHAPEL", "designationCode": "C", "categoryCode": "47", "address": "BOX 9", "city": "WILLOW RIVER", "province": "BC", "country": "CA", "postalCode": "V0J3C0", "twitter": "None", "instagram": "None", "facebook": "None", "youtube": "None", "website": "None", "summary": "None", "logo": "None", "latitude": 54.83943350271418, "longitude": -127.21815334112748}, "888393691RR0001": {"name": "WILLOW VALLEY PRESBYTERIAN CHURCH", "designationCode": "C", "categoryCode": "37", "address": "26016 HIGHWAY 595", "city": "RED DEER COUNTY", "province": "AB", "country": "CA", "postalCode": "T4E0T8", "twitter": "None", "instagram": "None", "facebook": "None", "youtube": "None", "website": "None", "summary": "None", "logo": "None", "latitude": 52.23036924542917, "longitude": -113.58006852275845}, "888338860RR0001": {"name": "WILLOW WILDE CEMETERY", "designationCode": "C", "categoryCode": "59", "address": "RR 1", "city": "BARRHEAD", "province": "AB", "country": "CA", "postalCode": "T7N1N2", "twitter": "None", "instagram": "None", "facebook": "None", "youtube": "None", "website": "None", "summary": "None", "logo": "None", "latitude": 54.12098400000005, "longitude": -114.40600999999992}, "893022244RR0001": {"name": "WILLOWBANK CEMETERY COMPANY", "designationCode": "B", "categoryCode": "59", "address": "WILLOW BANK CEMETERY          PO BOX 123", "city": "GANAGOQUE", "province": "ON", "country": "CA", "postalCode": "K7H2T7", "twitter": "None", "instagram": "None", "facebook": "None", "youtube": "None", "website": "None", "summary": "None", "logo": "None", "latitude": 44.929131000000055, "longitude": -76.19613649999994}, "119288918RR0182": {"name": "WILLOWBROOK CONGREGATION OF JEHOVAH'S WITNESSES", "designationCode": "C", "categoryCode": "61", "address": "806 ELK RIDGE TRAIL", "city": "PEACE RIVER REGIONAL DISTRICT", "province": "BC", "country": "CA", "postalCode": "V1G0H5", "twitter": "None", "instagram": "None", "facebook": "None", "youtube": "None", "website": "None", "summary": "None", "logo": "None", "latitude": 55.82157000000005, "longitude": -120.35623849999993}, "861655702RR0001": {"name": "WILLOWDALE BAPTIST CHURCH", "designationCode": "C", "categoryCode": "31", "address": "15 OLIVE AVE", "city": "WILLOWDALE", "province": "ON", "country": "CA", "postalCode": "M2N4N4", "twitter": "None", "instagram": "None", "facebook": "None", "youtube": "None", "website": "None", "summary": "None", "logo": "None", "latitude": 43.77888289586856, "longitude": -79.41447576406614}, "132948498RR0001": {"name": "WILLOWDALE CHRISTIAN ASSEMBLY,", "designationCode": "C", "categoryCode": "39", "address": "52 EUNICE ROAD", "city": "TORONTO", "province": "ON", "country": "CA", "postalCode": "M2K2V5", "twitter": "None", "instagram": "None", "facebook": "None", "youtube": "None", "website": "None", "summary": "None", "logo": "None", "latitude": 43.77311590368749, "longitude": -79.370938386231}, "108213463RR0001": {"name": "WILLOWDALE CHRISTIAN REFORMED CHURCH OF TORONTO", "designationCode": "C", "categoryCode": "39", "address": "70 HILDA AVENUE", "city": "WILLOWDALE", "province": "ON", "country": "CA", "postalCode": "M2M1V5", "twitter": "None", "instagram": "None", "facebook": "None", "youtube": "None", "website": "None", "summary": "None", "logo": "None", "latitude": 43.78714594004275, "longitude": -79.42479267225436}, "879340123RR0001": {"name": "WILLOWDALE COMMUNITY CHRISTIAN ASSEMBLY", "designationCode": "C", "categoryCode": "39", "address": "131 HOMEDALE DRIVE", "city": "SCARBOROUGH", "province": "ON", "country": "CA", "postalCode": "M1V1M1", "twitter": "None", "instagram": "None", "facebook": "None", "youtube": "None", "website": "None", "summary": "None", "logo": "None", "latitude": 43.81080340827511, "longitude": -79.28291554206808}, "119288918RR0475": {"name": "WILLOWDALE CONGREGATION OF JEHOVAH'S WITNESSES", "designationCode": "C", "categoryCode": "61", "address": "77 CHAMPAGNE DRIVE", "city": "TORONTO", "province": "ON", "country": "CA", "postalCode": "M3J2C6", "twitter": "None", "instagram": "None", "facebook": "None", "youtube": "None", "website": "None", "summary": "None", "logo": "None", "latitude": 43.76610834999131, "longitude": -79.4708426732649}, "108213497RR0001": {"name": "WILLOWDALE EVANGELICAL CHURCH/DEUTSCHE EVANGELISCHE MISSIONS-GEMEINDE", "designationCode": "C", "categoryCode": "32", "address": "236 FINCH AVE EAST", "city": "WILLOWDALE", "province": "ON", "country": "CA", "postalCode": "M2N4S2", "twitter": "None", "instagram": "None", "facebook": "None", "youtube": "None", "website": "None", "summary": "None", "logo": "None", "latitude": 43.78354018405535, "longitude": -79.39845845894153}, "886448901RR0001": {"name": "WILLOWDALE FELLOWSHIP", "designationCode": "C", "categoryCode": "49", "address": "P.O. BOX 520", "city": "TYNDALL", "province": "MB", "country": "CA", "postalCode": "R0E2B0", "twitter": "None", "instagram": "None", "facebook": "None", "youtube": "None", "website": "None", "summary": "None", "logo": "None", "latitude": 50.07686000000007, "longitude": -96.66069999999996}, "888710548RR0001": {"name": "WILLOWDALE LODGE STAFF AND RESIDENTS FUND", "designationCode": "C", "categoryCode": "09", "address": "BOX 537", "city": "KIPLING", "province": "SK", "country": "CA", "postalCode": "S0G2S0", "twitter": "None", "instagram": "None", "facebook": "None", "youtube": "None", "website": "None", "summary": "None", "logo": "None", "latitude": 50.94214200000001, "longitude": -104.50606274999998}, "108213547RR0001": {"name": "WILLOWDALE PENTECOSTAL CHURCH", "designationCode": "C", "categoryCode": "36", "address": "288 CUMMER AVE", "city": "WILLOWDALE", "province": "ON", "country": "CA", "postalCode": "M2M2E7", "twitter": "None", "instagram": "None", "facebook": "None", "youtube": "None", "website": "None", "summary": "None", "logo": "None", "latitude": 43.790137165156565, "longitude": -79.40322970650348}, "119299055RR0001": {"name": "WILLOWDALE PRESBYTERIAN CHURCH,", "designationCode": "C", "categoryCode": "37", "address": "38 ELLERSLIE AVE", "city": "WILLOWDALE", "province": "ON", "country": "CA", "postalCode": "M2N1X8", "twitter": "None", "instagram": "None", "facebook": "None", "youtube": "None", "website": "None", "summary": "None", "logo": "None", "latitude": 43.77132233337155, "longitude": -79.41590624300298}, "123923393RR0001": {"name": "WILLOWDALE ROTARY CLUB COMMUNITY SERVICE FOUNDATION", "designationCode": "C", "categoryCode": "65", "address": "908-505 CONSUMERS ROAD", "city": "TORONTO", "province": "ON", "country": "CA", "postalCode": "M2J4V8", "twitter": "None", "instagram": "None", "facebook": "None", "youtube": "None", "website": "None", "summary": "None", "logo": "None", "latitude": 43.77121033498767, "longitude": -79.3243361956548}, "107797383RR0002": {"name": "WILLOWDALE SEVENTH-DAY ADVENTIST CHURCH", "designationCode": "C", "categoryCode": "41", "address": "535 FINCH AVE W", "city": "NORTH YORK", "province": "ON", "country": "CA", "postalCode": "M2R3X2", "twitter": "None", "instagram": "None", "facebook": "None", "youtube": "None", "website": "None", "summary": "None", "logo": "None", "latitude": 43.7732049001973, "longitude": -79.44650531730097}, "132774464RR0001": {"name": "WILLOWGROVE", "designationCode": "C", "categoryCode": "59", "address": "11737 MCCOWAN", "city": "STOUFFVILLE", "province": "ON", "country": "CA", "postalCode": "L4A7X5", "twitter": "None", "instagram": "None", "facebook": "None", "youtube": "None", "website": "None", "summary": "None", "logo": "None", "latitude": 43.946773486446546, "longitude": -79.30355704602957}, "108213612RR0001": {"name": "WILLOWGROVE UNITED CHURCH", "designationCode": "C", "categoryCode": "44", "address": "55 TILLEY RD", "city": "SAULT STE MARIE", "province": "ON", "country": "CA", "postalCode": "P6B3Y7", "twitter": "None", "instagram": "None", "facebook": "None", "youtube": "None", "website": "None", "summary": "None", "logo": "None", "latitude": 46.528747513994034, "longitude": -84.31652055107045}, "108045220RR0001": {"name": "WILLOWLAKE BAPTIST CHURCH INC.", "designationCode": "C", "categoryCode": "39", "address": "45 WILLOWLAKE CRES", "city": "WINNIPEG", "province": "MB", "country": "CA", "postalCode": "R2J2Z4", "twitter": "None", "instagram": "None", "facebook": "None", "youtube": "None", "website": "None", "summary": "None", "logo": "None", "latitude": 49.84776926008411, "longitude": -97.07921647336826}, "895947711RR0001": {"name": "WILLPOWER INSTITUTE FOUNDATION/INSTITUT WILLPOWER FOUNDATION", "designationCode": "C", "categoryCode": "20", "address": "12520 135 AVE.", "city": "EDMONTON", "province": "AB", "country": "CA", "postalCode": "T5L3X3", "twitter": "None", "instagram": "None", "facebook": "None", "youtube": "None", "website": "None", "summary": "None", "logo": "None", "latitude": 53.59644148600597, "longitude": -113.53878080682671}, "132871856RR0001": {"name": "WILMAR HEIGHTS BAPTIST CHURCH", "designationCode": "C", "categoryCode": "31", "address": "1687 VICTORIA PARK AVE", "city": "SCARBOROUGH", "province": "ON", "country": "CA", "postalCode": "M1R1R7", "twitter": "None", "instagram": "None", "facebook": "None", "youtube": "None", "website": "None", "summary": "None", "logo": "None", "latitude": 43.734897491545894, "longitude": -79.30682729540109}, "890957046RR0001": {"name": "WILMOT CENTRE MISSIONARY CHURCH", "designationCode": "C", "categoryCode": "39", "address": "2463 BLEAMS ROAD", "city": "PETERSBURG", "province": "ON", "country": "CA", "postalCode": "N0B2H0", "twitter": "None", "instagram": "None", "facebook": "None", "youtube": "None", "website": "None", "summary": "None", "logo": "None", "latitude": 43.38574259052066, "longitude": -80.6266880909309}, "119288918RR0554": {"name": "WILMOT CONGREGATION OF JEHOVAH'S WITNESSES, BOWMANVILLE, ONTARIO", "designationCode": "C", "categoryCode": "61", "address": "515 - 145 LIBERTY ST S", "city": "BOWMANVILLE", "province": "ON", "country": "CA", "postalCode": "L1C4K5", "twitter": "None", "instagram": "None", "facebook": "None", "youtube": "None", "website": "None", "summary": "None", "logo": "None", "latitude": 43.90354482656541, "longitude": -78.67716021886939}, "126774835RR0001": {"name": "WILMOT FAMILY RESOURCE CENTRE INC", "designationCode": "C", "categoryCode": "56", "address": "175 WATERLOO ST UNIT 1", "city": "NEW HAMBURG", "province": "ON", "country": "CA", "postalCode": "N3A1S3", "twitter": "None", "instagram": "None", "facebook": "None", "youtube": "None", "website": "None", "summary": "None", "logo": "None", "latitude": 43.38149106382944, "longitude": -80.71455006858429}, "888897485RR0001": {"name": "WILMOT HERITAGE FIRE BRIGADES", "designationCode": "C", "categoryCode": "52", "address": "10 BELL DRIVE", "city": "BADEN", "province": "ON", "country": "CA", "postalCode": "N3A4J8", "twitter": "None", "instagram": "None", "facebook": "None", "youtube": "None", "website": "None", "summary": "None", "logo": "None", "latitude": 43.40166905479356, "longitude": -80.66570123988409}, "895885911RR0001": {"name": "WILMOT HORTICULTURAL SOCIETY", "designationCode": "C", "categoryCode": "56", "address": "36 WILLIAM ST", "city": "NEW HAMBURG", "province": "ON", "country": "CA", "postalCode": "N3A2C4", "twitter": "None", "instagram": "None", "facebook": "None", "youtube": "None", "website": "None", "summary": "None", "logo": "None", "latitude": 43.38585327003876, "longitude": -80.71349421790045}, "131797185RR0001": {"name": "WILMOT MENNONITE CHURCH", "designationCode": "C", "categoryCode": "34", "address": "2995 BLEAMS RD", "city": "NEW HAMBURG", "province": "ON", "country": "CA", "postalCode": "N3A3J3", "twitter": "None", "instagram": "None", "facebook": "None", "youtube": "None", "website": "None", "summary": "None", "logo": "None", "latitude": 43.38094865941508, "longitude": -80.65885727961805}, "119299253RR0001": {"name": "WILMOT MOUNTAIN UNITED BAPTIST CHURCH,", "designationCode": "C", "categoryCode": "31", "address": "652 PORT LORNE ROAD", "city": "PORT LORNE", "province": "NS", "country": "CA", "postalCode": "B0S1R0", "twitter": "None", "instagram": "None", "facebook": "None", "youtube": "None", "website": "None", "summary": "None", "logo": "None", "latitude": 44.94785064669047, "longitude": -65.26427317831387}, "889515995RR0001": {"name": "WILMOT UNITED BAPTIST CHURCH", "designationCode": "C", "categoryCode": "31", "address": "208 DODGE ROAD", "city": "WILMOT", "province": "NS", "country": "CA", "postalCode": "B0P1W0", "twitter": "None", "instagram": "None", "facebook": "None", "youtube": "None", "website": "None", "summary": "None", "logo": "None", "latitude": 44.96230541133355, "longitude": -64.99825317620774}, "108214123RR0001": {"name": "WILMOT UNITED CHURCH", "designationCode": "C", "categoryCode": "44", "address": "473 KING STREET", "city": "FREDERICTON", "province": "NB", "country": "CA", "postalCode": "E3B1E3", "twitter": "None", "instagram": "None", "facebook": "None", "youtube": "None", "website": "None", "summary": "None", "logo": "None", "latitude": 45.96127631585774, "longitude": -66.64212840354325}, "862249620RR0001": {"name": "WILMOT VALLEY CEMETERY INC.", "designationCode": "C", "categoryCode": "59", "address": "107 WALKER AVENUE             POST OFFICE BOX 1347 STN MAIN", "city": "SUMMERSIDE", "province": "PE", "country": "CA", "postalCode": "C1N4K2", "twitter": "None", "instagram": "None", "facebook": "None", "youtube": "None", "website": "None", "summary": "None", "logo": "None", "latitude": 46.41539390694305, "longitude": -63.783683033543475}, "119299279RR0001": {"name": "WILP SI'SATXW HOUSE OF PURIFICATION SOCIETY", "designationCode": "C", "categoryCode": "10", "address": "EXECUTIVE DIRECTOR            P.O. BOX 429 CEDARVALE ROAD", "city": "KITWANGA", "province": "BC", "country": "CA", "postalCode": "V0J2A0", "twitter": "None", "instagram": "None", "facebook": "None", "youtube": "None", "website": "None", "summary": "None", "logo": "None", "latitude": 55.10391900000006, "longitude": -128.07174049999992}, "139502520RR0001": {"name": "WILP WILXO'OSKWHL NISGA'A SOCIETY", "designationCode": "C", "categoryCode": "21", "address": "PO BOX 70                     3001 TS'00HL TS'AP AVE", "city": "GITWINKSIHLKW", "province": "BC", "country": "CA", "postalCode": "V0J3T0", "twitter": "None", "instagram": "None", "facebook": "None", "youtube": "None", "website": "None", "summary": "None", "logo": "None", "latitude": 55.19173200000006, "longitude": -129.22206199999994}, "893031443RR0001": {"name": "WILSON CENTRE SENIORS' ADVISORY ASSOCIATION", "designationCode": "C", "categoryCode": "09", "address": "2150 WILSON AVENUE", "city": "PORT COQUITLAM", "province": "BC", "country": "CA", "postalCode": "V3C6J5", "twitter": "None", "instagram": "None", "facebook": "None", "youtube": "None", "website": "None", "summary": "None", "logo": "None", "latitude": 49.26083054616569, "longitude": -122.77699344601535}, "141048496RR0001": {"name": "WILSON CHARITABLE TRUST", "designationCode": "B", "categoryCode": "39", "address": "3425 2 AVE S", "city": "LETHBRIDGE", "province": "AB", "country": "CA", "postalCode": "T1J4V1", "twitter": "None", "instagram": "None", "facebook": "None", "youtube": "None", "website": "None", "summary": "None", "logo": "None", "latitude": 49.696839530439966, "longitude": -112.78914308381903}, "119288918RR0225": {"name": "WILSON HEIGHTS CONGREGATION OF JEHOVAH'S WITNESSES TORONTO ONTARIO", "designationCode": "C", "categoryCode": "61", "address": "77 CHAMPAGNE DRIVE", "city": "NORTH YORK", "province": "ON", "country": "CA", "postalCode": "M3J2C6", "twitter": "None", "instagram": "None", "facebook": "None", "youtube": "None", "website": "None", "summary": "None", "logo": "None", "latitude": 43.76610834999131, "longitude": -79.4708426732649}, "119299329RR0001": {"name": "WILSON HEIGHTS UNITED CHURCH,", "designationCode": "C", "categoryCode": "44", "address": "1634 EAST 41ST AVENUE", "city": "VANCOUVER", "province": "BC", "country": "CA", "postalCode": "V5P1K5", "twitter": "None", "instagram": "None", "facebook": "None", "youtube": "None", "website": "None", "summary": "None", "logo": "None", "latitude": 49.23264849567219, "longitude": -123.0719834701656}, "896722238RR0001": {"name": "WILSON MUSEUM INC.", "designationCode": "C", "categoryCode": "50", "address": "BOX 393", "city": "DUNDURN", "province": "SK", "country": "CA", "postalCode": "S0K1K0", "twitter": "None", "instagram": "None", "facebook": "None", "youtube": "None", "website": "None", "summary": "None", "logo": "None", "latitude": 51.810335799434554, "longitude": -106.50361018215295}, "119299352RR0001": {"name": "WILSON'S BEACH COMMUNITY CEMETERY INC", "designationCode": "C", "categoryCode": "59", "address": "329 BACK ROAD", "city": "WILSON'S BEACH", "province": "NB", "country": "CA", "postalCode": "E5E1P4", "twitter": "None", "instagram": "None", "facebook": "None", "youtube": "None", "website": "None", "summary": "None", "logo": "None", "latitude": 44.93487075295764, "longitude": -66.93136556038993}, "108003203RR0001": {"name": "WILTON STANDARD CHURCH", "designationCode": "C", "categoryCode": "39", "address": "21 KANVERS WAY", "city": "NAPANEE", "province": "ON", "country": "CA", "postalCode": "K7R3X6", "twitter": "None", "instagram": "None", "facebook": "None", "youtube": "None", "website": "None", "summary": "None", "logo": "None", "latitude": 44.24304571908896, "longitude": -76.97207984906048}, "860527381RR0001": {"name": "WIM AND NANCY PAUW FOUNDATION", "designationCode": "B", "categoryCode": "03", "address": "300-229 BEAR ST. P.O. BOX 1070", "city": "BANFF", "province": "AB", "country": "CA", "postalCode": "T1L1H8", "twitter": "None", "instagram": "None", "facebook": "None", "youtube": "None", "website": "None", "summary": "None", "logo": "None", "latitude": 51.177149357902515, "longitude": -115.57243977295089}, "108214537RR0001": {"name": "WIMBORNE ALLIANCE CHURCH", "designationCode": "C", "categoryCode": "39", "address": "BOX 605", "city": "WIMBORNE", "province": "AB", "country": "CA", "postalCode": "T0M2G0", "twitter": "None", "instagram": "None", "facebook": "None", "youtube": "None", "website": "None", "summary": "None", "logo": "None", "latitude": 51.867350000000044, "longitude": -113.58315999999996}, "119299436RR0001": {"name": "WINBERG FOUNDATION", "designationCode": "B", "categoryCode": "03", "address": "36 EGLINTON AVE W             7TH FLOOR", "city": "TORONTO", "province": "ON", "country": "CA", "postalCode": "M4R1A1", "twitter": "None", "instagram": "None", "facebook": "None", "youtube": "None", "website": "None", "summary": "None", "logo": "None", "latitude": 43.7064732489756, "longitude": -79.39971737552654}, "108214669RR0001": {"name": "WINCHESTER BAPTIST CHURCH", "designationCode": "C", "categoryCode": "31", "address": "P O BOX 646", "city": "WINCHESTER", "province": "ON", "country": "CA", "postalCode": "K0C2K0", "twitter": "None", "instagram": "None", "facebook": "None", "youtube": "None", "website": "None", "summary": "None", "logo": "None", "latitude": 45.0389951460454, "longitude": -75.27678656455626}, "108214636RR0001": {"name": "WINCHESTER DISTRICT MEMORIAL HOSPITAL", "designationCode": "C", "categoryCode": "10", "address": "566 LOUISE ST", "city": "WINCHESTER", "province": "ON", "country": "CA", "postalCode": "K0C2K0", "twitter": "None", "instagram": "None", "facebook": "None", "youtube": "None", "website": "None", "summary": "None", "logo": "None", "latitude": 45.088400946292104, "longitude": -75.35239579964524}, "844259317RR0001": {"name": "WINCHESTER DISTRICT MEMORIAL HOSPITAL AUXILIARY", "designationCode": "C", "categoryCode": "19", "address": "566 LOUISE STREET", "city": "WINCHESTER", "province": "ON", "country": "CA", "postalCode": "K0C2K0", "twitter": "None", "instagram": "None", "facebook": "None", "youtube": "None", "website": "None", "summary": "None", "logo": "None", "latitude": 45.088400946292104, "longitude": -75.35239579964524}, "892824368RR0001": {"name": "WINCHESTER DISTRICT MEMORIAL HOSPITAL FOUNDATION", "designationCode": "A", "categoryCode": "13", "address": "566 LOUISE ST", "city": "WINCHESTER", "province": "ON", "country": "CA", "postalCode": "K0C2K0", "twitter": "None", "instagram": "None", "facebook": "None", "youtube": "None", "website": "None", "summary": "None", "logo": "None", "latitude": 45.088400946292104, "longitude": -75.35239579964524}, "119299477RR0001": {"name": "WINCHESTER PASTORAL CHARGE,", "designationCode": "C", "categoryCode": "44", "address": "BOX 65", "city": "WINCHESTER", "province": "ON", "country": "CA", "postalCode": "K0C2K0", "twitter": "None", "instagram": "None", "facebook": "None", "youtube": "None", "website": "None", "summary": "None", "logo": "None", "latitude": 45.0389951460454, "longitude": -75.27678656455626}, "119299493RR0001": {"name": "WINCHESTER WESLEYAN CHURCH", "designationCode": "C", "categoryCode": "39", "address": "PO BOX 121                    537 MAIN STREET WEST", "city": "WINCHESTER", "province": "ON", "country": "CA", "postalCode": "K0C2K0", "twitter": "None", "instagram": "None", "facebook": "None", "youtube": "None", "website": "None", "summary": "None", "logo": "None", "latitude": 45.09171492837551, "longitude": -75.3572191630587}, "801879917RR0001": {"name": "WIND DANCER PONY RESCUE FOUNDATION", "designationCode": "C", "categoryCode": "54", "address": "1165 HIGHWAY 8                POST OFFICE BOX 61", "city": "SHEFFIELD", "province": "ON", "country": "CA", "postalCode": "L0R1Z0", "twitter": "None", "instagram": "None", "facebook": "None", "youtube": "None", "website": "None", "summary": "None", "logo": "None", "latitude": 43.32303988696751, "longitude": -80.19857057720752}, "874906126RR0001": {"name": "WIND ON MY WINGS SAILING CLUB INC.", "designationCode": "C", "categoryCode": "56", "address": "38 - 702 SANGSTER BLVD", "city": "REGINA", "province": "SK", "country": "CA", "postalCode": "S4R8B6", "twitter": "None", "instagram": "None", "facebook": "None", "youtube": "None", "website": "None", "summary": "None", "logo": "None", "latitude": 50.487934406658994, "longitude": -104.63023294866974}, "883619603RR0001": {"name": "WIND WORD MINISTRIES", "designationCode": "C", "categoryCode": "47", "address": "26460 52 AVE", "city": "LANGLEY", "province": "BC", "country": "CA", "postalCode": "V4W1N6", "twitter": "None", "instagram": "None", "facebook": "None", "youtube": "None", "website": "None", "summary": "None", "logo": "None", "latitude": 49.09662648283292, "longitude": -122.4914930723065}, "873040042RR0001": {"name": "WINDERMERE COMMUNITY ASSOCIATION", "designationCode": "C", "categoryCode": "56", "address": "4726 NORTH STREET", "city": "WINDERMERE", "province": "BC", "country": "CA", "postalCode": "V0B2L2", "twitter": "None", "instagram": "None", "facebook": "None", "youtube": "None", "website": "None", "summary": "None", "logo": "None", "latitude": 50.46647058900907, "longitude": -115.9886070730469}, "874278898RR0001": {"name": "WINDERMERE DISTRICT HISTORICAL SOCIETY", "designationCode": "C", "categoryCode": "50", "address": "BOX 2315", "city": "INVERMERE", "province": "BC", "country": "CA", "postalCode": "V0A1K0", "twitter": "None", "instagram": "None", "facebook": "None", "youtube": "None", "website": "None", "summary": "None", "logo": "None", "latitude": 50.50916700000006, "longitude": -116.03037049999993}, "108214735RR0001": {"name": "WINDERMERE DISTRICT SOCIAL SERVICE SOCIETY", "designationCode": "C", "categoryCode": "01", "address": "PO BOX 183", "city": "INVERMERE", "province": "BC", "country": "CA", "postalCode": "V0A1K0", "twitter": "None", "instagram": "None", "facebook": "None", "youtube": "None", "website": "None", "summary": "None", "logo": "None", "latitude": 50.50916700000006, "longitude": -116.03037049999993}, "119299543RR0001": {"name": "WINDERMERE UNITED CHURCH", "designationCode": "C", "categoryCode": "44", "address": "1975 WINDERMERE RD. R.R.2", "city": "UTTERSON", "province": "ON", "country": "CA", "postalCode": "P0B1M0", "twitter": "None", "instagram": "None", "facebook": "None", "youtube": "None", "website": "None", "summary": "None", "logo": "None", "latitude": 45.16522152899769, "longitude": -79.49644267055226}, "119299535RR0001": {"name": "WINDERMERE UNITED CHURCH,", "designationCode": "C", "categoryCode": "44", "address": "356 WINDERMERE AVE.", "city": "TORONTO", "province": "ON", "country": "CA", "postalCode": "M6S3L3", "twitter": "None", "instagram": "None", "facebook": "None", "youtube": "None", "website": "None", "summary": "None", "logo": "None", "latitude": 43.648870442956955, "longitude": -79.48000456581428}, "827893363RR0001": {"name": "WINDERMERE VALLEY CHRISTIAN ASSEMBLY", "designationCode": "C", "categoryCode": "36", "address": "4814 HIGHWAY DRIVE", "city": "WINDERMERE", "province": "BC", "country": "CA", "postalCode": "V0B2L1", "twitter": "None", "instagram": "None", "facebook": "None", "youtube": "None", "website": "None", "summary": "None", "logo": "None", "latitude": 50.474574540065156, "longitude": -115.98784991741157}, "129144549RR0045": {"name": "WINDERMERE VALLEY SHARED MINISTRY", "designationCode": "C", "categoryCode": "44", "address": "BOX 700", "city": "INVERMERE", "province": "BC", "country": "CA", "postalCode": "V0A1K0", "twitter": "None", "instagram": "None", "facebook": "None", "youtube": "None", "website": "None", "summary": "None", "logo": "None", "latitude": 50.50916700000006, "longitude": -116.03037049999993}, "894841154RR0002": {"name": "WINDERMERE VALLEY YOUTH CENTRE", "designationCode": "C", "categoryCode": "09", "address": "PO BOX 1084", "city": "INVERMERE", "province": "BC", "country": "CA", "postalCode": "V0A1K0", "twitter": "None", "instagram": "None", "facebook": "None", "youtube": "None", "website": "None", "summary": "None", "logo": "None", "latitude": 50.50916700000006, "longitude": -116.03037049999993}, "885007443RR0001": {"name": "WINDHAM CEMETERY COMPANY", "designationCode": "C", "categoryCode": "59", "address": "PO BOX 392", "city": "SPRINGHILL", "province": "NS", "country": "CA", "postalCode": "B0M1X0", "twitter": "None", "instagram": "None", "facebook": "None", "youtube": "None", "website": "None", "summary": "None", "logo": "None", "latitude": 45.65057000000007, "longitude": -64.05729999999994}, "119299568RR0001": {"name": "WINDHAM CENTRE CEMETERY,", "designationCode": "C", "categoryCode": "59", "address": "86 EGYPT SCHOOL ROAD          R.R 2", "city": "DELHI", "province": "ON", "country": "CA", "postalCode": "N4B2W5", "twitter": "None", "instagram": "None", "facebook": "None", "youtube": "None", "website": "None", "summary": "None", "logo": "None", "latitude": 42.892982507357594, "longitude": -80.43989863223509}, "893611491RR0001": {"name": "WINDHORSE EDUCATION FOUNDATION INC.", "designationCode": "C", "categoryCode": "55", "address": "132 SARTY RD                  RR 2", "city": "NEW GERMANY", "province": "NS", "country": "CA", "postalCode": "B0R1E0", "twitter": "None", "instagram": "None", "facebook": "None", "youtube": "None", "website": "None", "summary": "None", "logo": "None", "latitude": 44.59659059690763, "longitude": -64.62827608379826}, "119299576RR0001": {"name": "WINDIGO FIRST NATIONS COUNCIL", "designationCode": "C", "categoryCode": "59", "address": "PO BOX 299", "city": "SIOUX LOOKOUT", "province": "ON", "country": "CA", "postalCode": "P8T1A3", "twitter": "None", "instagram": "None", "facebook": "None", "youtube": "None", "website": "None", "summary": "None", "logo": "None", "latitude": 50.09808300000006, "longitude": -91.91503249999994}, "119299584RR0001": {"name": "WINDMILL GARDENS COMMUNITY INC", "designationCode": "C", "categoryCode": "01", "address": "204 SUNSET DR                 SS 1", "city": "MITCHELL", "province": "ON", "country": "CA", "postalCode": "N0K1N0", "twitter": "None", "instagram": "None", "facebook": "None", "youtube": "None", "website": "None", "summary": "None", "logo": "None", "latitude": 43.47632586762069, "longitude": -81.20038512894553}, "854912599RR0001": {"name": "WINDMILL POINT CHURCH OF CHRIST (DISCIPLES)", "designationCode": "C", "categoryCode": "39", "address": "673 CENTRAL AVE", "city": "FORT ERIE", "province": "ON", "country": "CA", "postalCode": "L2A3V8", "twitter": "None", "instagram": "None", "facebook": "None", "youtube": "None", "website": "None", "summary": "None", "logo": "None", "latitude": 42.93451623980033, "longitude": -78.91914041329544}, "134542497RR0001": {"name": "WINDREACH FARM", "designationCode": "C", "categoryCode": "13", "address": "312 TOWNLINE ROAD", "city": "ASHBURN", "province": "ON", "country": "CA", "postalCode": "L0B1A0", "twitter": "None", "instagram": "None", "facebook": "None", "youtube": "None", "website": "None", "summary": "None", "logo": "None", "latitude": 44.01465612129948, "longitude": -79.02302754607878}, "853755031RR0001": {"name": "WINDREACH FARM FOUNDATION", "designationCode": "A", "categoryCode": "03", "address": "312 TOWNLINE ROAD", "city": "ASHBURN", "province": "ON", "country": "CA", "postalCode": "L0B1A0", "twitter": "None", "instagram": "None", "facebook": "None", "youtube": "None", "website": "None", "summary": "None", "logo": "None", "latitude": 44.01465612129948, "longitude": -79.02302754607878}, "884819806RR0001": {"name": "WINDRUSH STABLE THERAPEUTIC RIDING CENTRE", "designationCode": "C", "categoryCode": "56", "address": "PO BOX 426", "city": "CAMPBELLVILLE", "province": "ON", "country": "CA", "postalCode": "L0P1J0", "twitter": "None", "instagram": "None", "facebook": "None", "youtube": "None", "website": "None", "summary": "None", "logo": "None", "latitude": 43.50730200000005, "longitude": -80.09119699999994}}