{"132942970RR0001": {"name": "CENTRE D'ACTION B\u00c9N\u00c9VOLE D'AUTRAY INC.", "designationCode": "C", "categoryCode": "09", "address": "180 RUE DE CHAMPLAIN", "city": "BERTHIERVILLE", "province": "QC", "country": "CA", "postalCode": "J0K1A0", "twitter": "None", "instagram": "None", "facebook": "None", "youtube": "None", "website": "None", "summary": "None", "logo": "None", "latitude": 46.08191515543304, "longitude": -73.17591975852622}, "133837245RR0001": {"name": "CENTRE D'ACTION B\u00c9N\u00c9VOLE D'IBERVILLE ET DE LA R\u00c9GION", "designationCode": "C", "categoryCode": "09", "address": "290, AVENUE DES CONSEILLERS", "city": "ST-JEAN-SUR-RICHELIEU", "province": "QC", "country": "CA", "postalCode": "J2X1Z8", "twitter": "None", "instagram": "None", "facebook": "None", "youtube": "None", "website": "None", "summary": "None", "logo": "None", "latitude": 45.30516552264969, "longitude": -73.23605991618096}, "106892698RR0001": {"name": "CENTRE D'ACTION B\u00c9N\u00c9VOLE DE BEDFORD ET ENVIRON INC.", "designationCode": "C", "categoryCode": "09", "address": "35, RUE CYR", "city": "BEDFORD", "province": "QC", "country": "CA", "postalCode": "J0J1A0", "twitter": "None", "instagram": "None", "facebook": "None", "youtube": "None", "website": "None", "summary": "None", "logo": "None", "latitude": 45.12359004302036, "longitude": -72.98736428166686}, "100877513RR0001": {"name": "CENTRE D'ACTION B\u00c9N\u00c9VOLE DE BOUCHERVILLE", "designationCode": "C", "categoryCode": "09", "address": "20, PIERRE-BOUCHER", "city": "BOUCHERVILLE", "province": "QC", "country": "CA", "postalCode": "J4B5A4", "twitter": "None", "instagram": "None", "facebook": "None", "youtube": "None", "website": "None", "summary": "None", "logo": "None", "latitude": 45.60999149235395, "longitude": -73.45508339217496}, "130264997RR0001": {"name": "CENTRE D'ACTION B\u00c9N\u00c9VOLE DE CHICOUTIMI INC.", "designationCode": "C", "categoryCode": "09", "address": "605 RUE ST-PAUL", "city": "CHICOUTIMI", "province": "QC", "country": "CA", "postalCode": "G7J3Z4", "twitter": "None", "instagram": "None", "facebook": "None", "youtube": "None", "website": "None", "summary": "None", "logo": "None", "latitude": 48.421625784061455, "longitude": -71.0749760570144}, "888030558RR0001": {"name": "CENTRE D'ACTION B\u00c9N\u00c9VOLE DE CONTRECOEUR \"\u00c0 PLEIN COEUR\"", "designationCode": "C", "categoryCode": "09", "address": "5037, LEGENDRE                C.P. 10", "city": "CONTRECOEUR", "province": "QC", "country": "CA", "postalCode": "J0L1C0", "twitter": "None", "instagram": "None", "facebook": "None", "youtube": "None", "website": "None", "summary": "None", "logo": "None", "latitude": 45.857374816810044, "longitude": -73.23651067219704}, "132197922RR0001": {"name": "CENTRE D'ACTION B\u00c9N\u00c9VOLE DE COWANSVILLE", "designationCode": "C", "categoryCode": "09", "address": "201 RUE PRINCIPALE", "city": "COWANSVILLE", "province": "QC", "country": "CA", "postalCode": "J2K1J3", "twitter": "None", "instagram": "None", "facebook": "None", "youtube": "None", "website": "None", "summary": "None", "logo": "None", "latitude": 45.208240373333496, "longitude": -72.74355522038195}, "118845080RR0001": {"name": "CENTRE D'ACTION B\u00c9N\u00c9VOLE DE FARNHAM INC.", "designationCode": "C", "categoryCode": "09", "address": "1810, RUE PRINCIPALE E", "city": "FARNHAM", "province": "QC", "country": "CA", "postalCode": "J2N1N4", "twitter": "None", "instagram": "None", "facebook": "None", "youtube": "None", "website": "None", "summary": "None", "logo": "None", "latitude": 45.27285200773296, "longitude": -72.95567613950575}, "131513186RR0001": {"name": "CENTRE D'ACTION B\u00c9N\u00c9VOLE DE GRANBY INC.", "designationCode": "C", "categoryCode": "09", "address": "362, RUE NOTRE-DAME", "city": "GRANBY", "province": "QC", "country": "CA", "postalCode": "J2G3L3", "twitter": "None", "instagram": "None", "facebook": "None", "youtube": "None", "website": "None", "summary": "None", "logo": "None", "latitude": 45.40035864167017, "longitude": -72.73395620206009}, "891411183RR0001": {"name": "CENTRE D'ACTION B\u00c9N\u00c9VOLE DE HULL", "designationCode": "C", "categoryCode": "09", "address": "201 - 256A BOUL SAINT-JOSEPH", "city": "GATINEAU", "province": "QC", "country": "CA", "postalCode": "J8Y3X8", "twitter": "None", "instagram": "None", "facebook": "None", "youtube": "None", "website": "None", "summary": "None", "logo": "None", "latitude": 45.4368246903021, "longitude": -75.73294210109769}, "129414355RR0001": {"name": "CENTRE D'ACTION B\u00c9N\u00c9VOLE DE L'\u00c9RABLE", "designationCode": "C", "categoryCode": "59", "address": "1966 RUE SAINT-CALIXTE", "city": "PLESSISVILLE", "province": "QC", "country": "CA", "postalCode": "G6L1R9", "twitter": "None", "instagram": "None", "facebook": "None", "youtube": "None", "website": "None", "summary": "None", "logo": "None", "latitude": 46.221478890357275, "longitude": -71.76820520578234}, "106892714RR0001": {"name": "CENTRE D'ACTION B\u00c9N\u00c9VOLE DE LA M.R.C. DE COATICOOK", "designationCode": "C", "categoryCode": "09", "address": "23 RUE CUTTING", "city": "COATICOOK", "province": "QC", "country": "CA", "postalCode": "J1A2G2", "twitter": "None", "instagram": "None", "facebook": "None", "youtube": "None", "website": "None", "summary": "None", "logo": "None", "latitude": 45.131992878988996, "longitude": -71.80471262181908}, "892779422RR0001": {"name": "CENTRE D'ACTION B\u00c9N\u00c9VOLE DE LA MINGANIE", "designationCode": "C", "categoryCode": "09", "address": "1158 BOREALE", "city": "HAVRE SAINT-PIERRE", "province": "QC", "country": "CA", "postalCode": "G0G1P0", "twitter": "None", "instagram": "None", "facebook": "None", "youtube": "None", "website": "None", "summary": "None", "logo": "None", "latitude": 50.24013555785113, "longitude": -63.59954105092621}, "118890888RR0001": {"name": "CENTRE D'ACTION B\u00c9N\u00c9VOLE DE LA MISSISQUOI-NORD INC.", "designationCode": "C", "categoryCode": "09", "address": "314-B, RUE PRINCIPALE", "city": "MANSONVILLE", "province": "QC", "country": "CA", "postalCode": "J0E1X0", "twitter": "None", "instagram": "None", "facebook": "None", "youtube": "None", "website": "None", "summary": "None", "logo": "None", "latitude": 45.05257330558596, "longitude": -72.39230741003547}, "106893159RR0001": {"name": "CENTRE D'ACTION B\u00c9N\u00c9VOLE DE LA MITIS", "designationCode": "C", "categoryCode": "09", "address": "111 AVE DE LA GARE", "city": "MONT-JOLI", "province": "QC", "country": "CA", "postalCode": "G5H1P1", "twitter": "None", "instagram": "None", "facebook": "None", "youtube": "None", "website": "None", "summary": "None", "logo": "None", "latitude": 48.58951295862442, "longitude": -68.18684282763007}, "106895261RR0001": {"name": "CENTRE D'ACTION B\u00c9N\u00c9VOLE DE LA MORAINE", "designationCode": "C", "categoryCode": "09", "address": "511 RUE MASSICOTTE", "city": "ST-NARCISSE", "province": "QC", "country": "CA", "postalCode": "G0X2Y0", "twitter": "None", "instagram": "None", "facebook": "None", "youtube": "None", "website": "None", "summary": "None", "logo": "None", "latitude": 46.56279369579902, "longitude": -72.47087238438468}, "119011039RR0001": {"name": "CENTRE D'ACTION B\u00c9N\u00c9VOLE DE LA MRC DE MASKINONG\u00c9", "designationCode": "C", "categoryCode": "09", "address": "121 RANG PETITE RIVI\u00c8RE       LOCAL 15", "city": "LOUISEVILLE", "province": "QC", "country": "CA", "postalCode": "J5V2H3", "twitter": "None", "instagram": "None", "facebook": "None", "youtube": "None", "website": "None", "summary": "None", "logo": "None", "latitude": 46.25360541159335, "longitude": -72.95106513154259}, "100877539RR0001": {"name": "CENTRE D'ACTION B\u00c9N\u00c9VOLE DE LA VALL\u00c9E DE LA MATAP\u00c9DIA", "designationCode": "C", "categoryCode": "09", "address": "40, AV. DU PARC", "city": "AMQUI", "province": "QC", "country": "CA", "postalCode": "G5J2L6", "twitter": "None", "instagram": "None", "facebook": "None", "youtube": "None", "website": "None", "summary": "None", "logo": "None", "latitude": 48.46205673881939, "longitude": -67.43585565081675}, "122254816RR0001": {"name": "CENTRE D'ACTION B\u00c9N\u00c9VOLE DE LA VALL\u00c9E DU RICHELIEU INC.", "designationCode": "C", "categoryCode": "09", "address": "288-A RUE RADISSON", "city": "MONT ST-HILAIRE", "province": "QC", "country": "CA", "postalCode": "J3H2Z4", "twitter": "None", "instagram": "None", "facebook": "None", "youtube": "None", "website": "None", "summary": "None", "logo": "None", "latitude": 45.56114320038666, "longitude": -73.1874073011139}, "100877547RR0001": {"name": "CENTRE D'ACTION B\u00c9N\u00c9VOLE DE MONTR\u00c9AL-NORD", "designationCode": "C", "categoryCode": "59", "address": "4642 RUE FOREST", "city": "MONTREAL-NORD", "province": "QC", "country": "CA", "postalCode": "H1H2P3", "twitter": "None", "instagram": "None", "facebook": "None", "youtube": "None", "website": "None", "summary": "None", "logo": "None", "latitude": 45.59046479211155, "longitude": -73.62801438022974}, "118845874RR0001": {"name": "CENTRE D'ACTION B\u00c9N\u00c9VOLE DE NICOLET INC.", "designationCode": "C", "categoryCode": "09", "address": "207, RUE DU FRERE DOMINIQUE", "city": "NICOLET", "province": "QC", "country": "CA", "postalCode": "J3T1K6", "twitter": "None", "instagram": "None", "facebook": "None", "youtube": "None", "website": "None", "summary": "None", "logo": "None", "latitude": 46.23399994200466, "longitude": -72.60589337050621}, "893613273RR0001": {"name": "CENTRE D'ACTION B\u00c9N\u00c9VOLE DE SAINT-C\u00c9SAIRE", "designationCode": "C", "categoryCode": "09", "address": "1100, RUE LECLAIRE", "city": "ST-CESAIRE", "province": "QC", "country": "CA", "postalCode": "J0L1T0", "twitter": "None", "instagram": "None", "facebook": "None", "youtube": "None", "website": "None", "summary": "None", "logo": "None", "latitude": 45.41237206965212, "longitude": -72.99827552074511}, "128868940RR0001": {"name": "CENTRE D'ACTION B\u00c9N\u00c9VOLE DE SAINT-F\u00c9LICIEN", "designationCode": "C", "categoryCode": "09", "address": "1209 BOULEVARD SACR\u00c9-COEUR", "city": "ST-F\u00c9LICIEN", "province": "QC", "country": "CA", "postalCode": "G8K2P8", "twitter": "None", "instagram": "None", "facebook": "None", "youtube": "None", "website": "None", "summary": "None", "logo": "None", "latitude": 48.65290164472859, "longitude": -72.44648229727608}, "106892748RR0001": {"name": "CENTRE D'ACTION B\u00c9N\u00c9VOLE DE ST-HUBERT", "designationCode": "C", "categoryCode": "09", "address": "3339 GRANDE ALLEE", "city": "SAINT-HUBERT", "province": "QC", "country": "CA", "postalCode": "J4T2S9", "twitter": "None", "instagram": "None", "facebook": "None", "youtube": "None", "website": "None", "summary": "None", "logo": "None", "latitude": 45.49629404025042, "longitude": -73.4755752352127}, "118845122RR0001": {"name": "CENTRE D'ACTION B\u00c9N\u00c9VOLE DE VALLEYFIELD INC.", "designationCode": "C", "categoryCode": "59", "address": "95, RUE SALABERRY", "city": "SALABERRY-DE-VALLEYFIELD", "province": "QC", "country": "CA", "postalCode": "J6T2H5", "twitter": "None", "instagram": "None", "facebook": "None", "youtube": "None", "website": "None", "summary": "None", "logo": "None", "latitude": 45.25471036329285, "longitude": -74.12386042241337}, "100878792RR0001": {"name": "CENTRE D'ACTION B\u00c9N\u00c9VOLE DES CHIC-CHOCS INC.", "designationCode": "C", "categoryCode": "09", "address": "230 ROUTE DU PARC             SUITE E-207", "city": "STE-ANNE DES MONTS", "province": "QC", "country": "CA", "postalCode": "G4V2C4", "twitter": "None", "instagram": "None", "facebook": "None", "youtube": "None", "website": "None", "summary": "None", "logo": "None", "latitude": 49.11972667502432, "longitude": -66.47925420584059}, "106684046RR0001": {"name": "CENTRE D'ACTION B\u00c9N\u00c9VOLE DES MOULINS INC.", "designationCode": "C", "categoryCode": "09", "address": "298, RUE JOSEPH-GUAY", "city": "TERREBONNE", "province": "QC", "country": "CA", "postalCode": "J6W4S3", "twitter": "None", "instagram": "None", "facebook": "None", "youtube": "None", "website": "None", "summary": "None", "logo": "None", "latitude": 45.69486999971156, "longitude": -73.65586758921472}, "132019134RR0001": {"name": "CENTRE D'ACTION B\u00c9N\u00c9VOLE DES RIVERAINS", "designationCode": "C", "categoryCode": "09", "address": "100 RUE DE LA FABRIQUE", "city": "STE-ANNE-DE-LA-PERADE", "province": "QC", "country": "CA", "postalCode": "G0X2J0", "twitter": "None", "instagram": "None", "facebook": "None", "youtube": "None", "website": "None", "summary": "None", "logo": "None", "latitude": 46.574331999711546, "longitude": -72.203485867188}, "897924957RR0001": {"name": "CENTRE D'ACTION B\u00c9N\u00c9VOLE DRUMMOND INC.", "designationCode": "C", "categoryCode": "59", "address": "157 RUE LINDSAY, SUITE 200", "city": "DRUMMONDVILLE", "province": "QC", "country": "CA", "postalCode": "J2C1N7", "twitter": "None", "instagram": "None", "facebook": "None", "youtube": "None", "website": "None", "summary": "None", "logo": "None", "latitude": 45.884847427405035, "longitude": -72.4914455012694}, "106892771RR0001": {"name": "CENTRE D'ACTION B\u00c9N\u00c9VOLE DU BAS RICHELIEU INC.", "designationCode": "C", "categoryCode": "09", "address": "70 RUE ELIZABETH", "city": "SOREL-TRACY", "province": "QC", "country": "CA", "postalCode": "J3P4G5", "twitter": "None", "instagram": "None", "facebook": "None", "youtube": "None", "website": "None", "summary": "None", "logo": "None", "latitude": 46.04428603107515, "longitude": -73.11254663050339}, "848694766RR0001": {"name": "CENTRE D'ACTION B\u00c9N\u00c9VOLE DU GRAND CH\u00c2TEAUGUAY", "designationCode": "C", "categoryCode": "09", "address": "10, RUE GILMOUR", "city": "CH\u00c2TEAUGUAY", "province": "QC", "country": "CA", "postalCode": "J6J1K4", "twitter": "None", "instagram": "None", "facebook": "None", "youtube": "None", "website": "None", "summary": "None", "logo": "None", "latitude": 45.37715979488149, "longitude": -73.7487181470945}, "132080185RR0001": {"name": "CENTRE D'ACTION B\u00c9N\u00c9VOLE DU GRANIT", "designationCode": "C", "categoryCode": "09", "address": "4516 RUE LAVAL", "city": "LAC MEGANTIC", "province": "QC", "country": "CA", "postalCode": "G6B1C5", "twitter": "None", "instagram": "None", "facebook": "None", "youtube": "None", "website": "None", "summary": "None", "logo": "None", "latitude": 45.581127525419646, "longitude": -70.89087552037067}, "132433061RR0001": {"name": "CENTRE D'ACTION B\u00c9N\u00c9VOLE DU HAUT ST-FRAN\u00c7OIS", "designationCode": "C", "categoryCode": "09", "address": "209, DES ERABLES", "city": "WEEDON", "province": "QC", "country": "CA", "postalCode": "J0B3J0", "twitter": "None", "instagram": "None", "facebook": "None", "youtube": "None", "website": "None", "summary": "None", "logo": "None", "latitude": 45.70103446324071, "longitude": -71.46192516345447}, "132371394RR0002": {"name": "CENTRE D'ACTION B\u00c9N\u00c9VOLE DU LAC INC.", "designationCode": "C", "categoryCode": "09", "address": "875 RUE BOURASSA O            CP 2155", "city": "ALMA", "province": "QC", "country": "CA", "postalCode": "G8B5W1", "twitter": "None", "instagram": "None", "facebook": "None", "youtube": "None", "website": "None", "summary": "None", "logo": "None", "latitude": 48.54361934722135, "longitude": -71.6606877367419}, "131650764RR0001": {"name": "CENTRE D'ACTION B\u00c9N\u00c9VOLE DU LAC ST-PIERRE", "designationCode": "C", "categoryCode": "09", "address": "480 NOTRE-DAME CP 369", "city": "ST FRANCOIS DU LAC", "province": "QC", "country": "CA", "postalCode": "J0G1M0", "twitter": "None", "instagram": "None", "facebook": "None", "youtube": "None", "website": "None", "summary": "None", "logo": "None", "latitude": 46.065032917277485, "longitude": -72.82287547850414}, "867991325RR0001": {"name": "CENTRE D'ACTION B\u00c9N\u00c9VOLE DU RIVAGE", "designationCode": "C", "categoryCode": "09", "address": "521 B NOTRE-DAME EST", "city": "TROIS-RIVIERES", "province": "QC", "country": "CA", "postalCode": "G8T8L9", "twitter": "None", "instagram": "None", "facebook": "None", "youtube": "None", "website": "None", "summary": "None", "logo": "None", "latitude": 46.36710208355923, "longitude": -72.50067308260694}, "100878834RR0001": {"name": "CENTRE D'ACTION B\u00c9N\u00c9VOLE ET COMMUNAUTAIRE ST-LAURENT INC.", "designationCode": "C", "categoryCode": "09", "address": "910 BOULEVARD STE-CROIX", "city": "ST-LAURENT", "province": "QC", "country": "CA", "postalCode": "H4L3Y6", "twitter": "None", "instagram": "None", "facebook": "None", "youtube": "None", "website": "None", "summary": "None", "logo": "None", "latitude": 45.51503062779169, "longitude": -73.6780651063245}, "118845148RR0001": {"name": "CENTRE D'ACTION B\u00c9N\u00c9VOLE GASCONS-PERCE INC.", "designationCode": "C", "categoryCode": "09", "address": "390 BOUL RENE-LEVESQUE O", "city": "CHANDLER", "province": "QC", "country": "CA", "postalCode": "G0C1K0", "twitter": "None", "instagram": "None", "facebook": "None", "youtube": "None", "website": "None", "summary": "None", "logo": "None", "latitude": 48.34909149567216, "longitude": -64.69393016472387}, "129865077RR0001": {"name": "CENTRE D'ACTION B\u00c9N\u00c9VOLE L\u00c9ONIE B\u00c9LANGER INC.", "designationCode": "C", "categoryCode": "09", "address": "610 RUE DE LA MADONE", "city": "MONT-LAURIER", "province": "QC", "country": "CA", "postalCode": "J9L1S9", "twitter": "None", "instagram": "None", "facebook": "None", "youtube": "None", "website": "None", "summary": "None", "logo": "None", "latitude": 46.55337619703978, "longitude": -75.49580299867327}, "130355068RR0001": {"name": "CENTRE D'ACTION B\u00c9N\u00c9VOLE L'ACTUEL", "designationCode": "C", "categoryCode": "99", "address": "88 RUE AD\u00c8LE", "city": "VAUDREUIL-DORION", "province": "QC", "country": "CA", "postalCode": "J7V1S7", "twitter": "None", "instagram": "None", "facebook": "None", "youtube": "None", "website": "None", "summary": "None", "logo": "None", "latitude": 45.38722282234996, "longitude": -74.0119601226558}, "106893191RR0001": {"name": "CENTRE D'ACTION B\u00c9N\u00c9VOLE LA SEIGNEURIE DE MONNOIR", "designationCode": "C", "categoryCode": "09", "address": "146 CH DE RUISSEAU BARRE", "city": "MARIEVILLE", "province": "QC", "country": "CA", "postalCode": "J3M1P2", "twitter": "None", "instagram": "None", "facebook": "None", "youtube": "None", "website": "None", "summary": "None", "logo": "None", "latitude": 45.43655080405675, "longitude": -73.18109937610345}, "132542929RR0001": {"name": "CENTRE D'ACTION B\u00c9N\u00c9VOLE LAURENTIDES", "designationCode": "C", "categoryCode": "09", "address": "1, RUE SAINT VINCENT", "city": "SAINT-AGATHE-DES-MONTS", "province": "QC", "country": "CA", "postalCode": "J8C2A3", "twitter": "None", "instagram": "None", "facebook": "None", "youtube": "None", "website": "None", "summary": "None", "logo": "None", "latitude": 46.04647093505108, "longitude": -74.28876412375232}, "106893258RR0001": {"name": "CENTRE D'ACTION B\u00c9N\u00c9VOLE LAVIOLETTE", "designationCode": "C", "categoryCode": "09", "address": "5786 RUE NOTRE-DAME OUEST", "city": "TROIS-RIVIERES", "province": "QC", "country": "CA", "postalCode": "G9A5A1", "twitter": "None", "instagram": "None", "facebook": "None", "youtube": "None", "website": "None", "summary": "None", "logo": "None", "latitude": 46.31791288233588, "longitude": -72.56669455372484}, "100878743RR0001": {"name": "CENTRE D'ACTION B\u00c9N\u00c9VOLE LE HAUBAN INC.", "designationCode": "C", "categoryCode": "09", "address": "2-189 JACQUES-CARTIER", "city": "GASPE", "province": "QC", "country": "CA", "postalCode": "G4X2P8", "twitter": "None", "instagram": "None", "facebook": "None", "youtube": "None", "website": "None", "summary": "None", "logo": "None", "latitude": 48.82981524283011, "longitude": -64.48918363431255}, "131619900RR0001": {"name": "CENTRE D'ACTION B\u00c9N\u00c9VOLE LE NORDEST", "designationCode": "C", "categoryCode": "09", "address": "9 11E RUE", "city": "FORESTVILLE", "province": "QC", "country": "CA", "postalCode": "G0T1E0", "twitter": "None", "instagram": "None", "facebook": "None", "youtube": "None", "website": "None", "summary": "None", "logo": "None", "latitude": 48.74056503693218, "longitude": -69.08257728561932}, "119014470RR0001": {"name": "CENTRE D'ACTION B\u00c9N\u00c9VOLE LES ARTISANS DE L'AIDE", "designationCode": "C", "categoryCode": "09", "address": "108-184 RUE SAINT-EUSTACHE", "city": "SAINT-EUSTACHE", "province": "QC", "country": "CA", "postalCode": "J7R2L7", "twitter": "None", "instagram": "None", "facebook": "None", "youtube": "None", "website": "None", "summary": "None", "logo": "None", "latitude": 45.55838582763008, "longitude": -73.89393387010217}, "107606345RR0001": {"name": "CENTRE D'ACTION B\u00c9N\u00c9VOLE LES HAUTS-BOIS INC.", "designationCode": "C", "categoryCode": "09", "address": "716 4E RUE                    C.P. 863", "city": "MURDOCHVILLE", "province": "QC", "country": "CA", "postalCode": "G0E1W0", "twitter": "None", "instagram": "None", "facebook": "None", "youtube": "None", "website": "None", "summary": "None", "logo": "None", "latitude": 48.959699838161654, "longitude": -65.49408645002607}, "100877596RR0001": {"name": "CENTRE D'ACTION B\u00c9N\u00c9VOLE M\u00c9KINAC", "designationCode": "C", "categoryCode": "09", "address": "752 BOUL. ST-JOSEPH", "city": "ST-TITE", "province": "QC", "country": "CA", "postalCode": "G0X3H0", "twitter": "None", "instagram": "None", "facebook": "None", "youtube": "None", "website": "None", "summary": "None", "logo": "None", "latitude": 46.726051201771625, "longitude": -72.55800925036058}, "119145928RR0001": {"name": "CENTRE D'ACTION B\u00c9N\u00c9VOLE OUEST-DE-L'\u00ceLE / VOLUNTEER WEST ISLAND", "designationCode": "C", "categoryCode": "59", "address": "1 RUE DE L'EGLISE", "city": "STE-ANNE-DE-BELLEVUE", "province": "QC", "country": "CA", "postalCode": "H9X1W4", "twitter": "None", "instagram": "None", "facebook": "None", "youtube": "None", "website": "None", "summary": "None", "logo": "None", "latitude": 45.405734647786986, "longitude": -73.9551789076982}, "130350606RR0001": {"name": "CENTRE D'ACTION B\u00c9N\u00c9VOLE RIMOUSKI-NEIGETTE", "designationCode": "C", "categoryCode": "09", "address": "37 RUE DUCHESNE", "city": "RIMOUSKI", "province": "QC", "country": "CA", "postalCode": "G5L2E5", "twitter": "None", "instagram": "None", "facebook": "None", "youtube": "None", "website": "None", "summary": "None", "logo": "None", "latitude": 48.4471486949623, "longitude": -68.51806482177302}, "141096289RR0001": {"name": "CENTRE D'ACTION B\u00c9N\u00c9VOLE SOLANGE-BEAUCHAMP INC.", "designationCode": "C", "categoryCode": "09", "address": "75 RUE TURGEON", "city": "STE-THERESE", "province": "QC", "country": "CA", "postalCode": "J7E3H5", "twitter": "None", "instagram": "None", "facebook": "None", "youtube": "None", "website": "None", "summary": "None", "logo": "None", "latitude": 45.63738823480869, "longitude": -73.83892497541706}, "120510979RR0001": {"name": "CENTRE D'ACTION B\u00c9N\u00c9VOLE SOULANGES", "designationCode": "C", "categoryCode": "09", "address": "371 STE CATHERINE             CP 1423", "city": "ST-POLYCARPE", "province": "QC", "country": "CA", "postalCode": "J0P1X0", "twitter": "None", "instagram": "None", "facebook": "None", "youtube": "None", "website": "None", "summary": "None", "logo": "None", "latitude": 45.29289906131356, "longitude": -74.3183576324949}, "129550158RR0001": {"name": "CENTRE D'ACTION B\u00c9N\u00c9VOLE ST-SIM\u00c9ON/PORT DANIEL", "designationCode": "C", "categoryCode": "09", "address": "176 BOUL GERARD D LEVESQUE O  CP 337", "city": "PASPEBIAC", "province": "QC", "country": "CA", "postalCode": "G0C2K0", "twitter": "None", "instagram": "None", "facebook": "None", "youtube": "None", "website": "None", "summary": "None", "logo": "None", "latitude": 48.02483866720537, "longitude": -65.27038707493223}, "131686230RR0001": {"name": "CENTRE D'ACTION B\u00c9N\u00c9VOLE VALCOURT ET R\u00c9GION", "designationCode": "C", "categoryCode": "09", "address": "1230 RUE CHAMPLAIN", "city": "VALCOURT", "province": "QC", "country": "CA", "postalCode": "J0E2L0", "twitter": "None", "instagram": "None", "facebook": "None", "youtube": "None", "website": "None", "summary": "None", "logo": "None", "latitude": 45.49005757507646, "longitude": -72.3180596152113}, "135968006RR0001": {"name": "CENTRE D'ACTION BENEVOLE CORMORAN INC.", "designationCode": "C", "categoryCode": "09", "address": "2 - 321 RUE DE L'EGLISE", "city": "SAINT-BRUNO-DE-KAMOURASKA", "province": "QC", "country": "CA", "postalCode": "G0L2M0", "twitter": "None", "instagram": "None", "facebook": "None", "youtube": "None", "website": "None", "summary": "None", "logo": "None", "latitude": 47.46047446847127, "longitude": -69.75117805845564}, "134100148RR0001": {"name": "CENTRE D'ACTION BENEVOLE DE BORDEAUX-CARTIERVILLE", "designationCode": "C", "categoryCode": "09", "address": "1405, HENRI-BOURASSA O.       SUITE 200", "city": "MONTR\u00c9AL", "province": "QC", "country": "CA", "postalCode": "H3M3B2", "twitter": "None", "instagram": "None", "facebook": "None", "youtube": "None", "website": "None", "summary": "None", "logo": "None", "latitude": 45.539125050522195, "longitude": -73.6783205526283}, "106893134RR0001": {"name": "CENTRE D'ACTION BENEVOLE DE GRAND'MERE INC.", "designationCode": "C", "categoryCode": "59", "address": "C.P. 10006 SUCC. BUREAU-CHEF", "city": "GRAND-MERE", "province": "QC", "country": "CA", "postalCode": "G9T5K7", "twitter": "None", "instagram": "None", "facebook": "None", "youtube": "None", "website": "None", "summary": "None", "logo": "None", "latitude": 46.59868500000006, "longitude": -72.70858699999994}, "130699531RR0001": {"name": "CENTRE D'ACTION BENEVOLE DE LA M.R.C. DE BECANCOUR", "designationCode": "C", "categoryCode": "09", "address": "124, SAINT-ANTOINE", "city": "STE SOPHIE DE LEVARD", "province": "QC", "country": "CA", "postalCode": "G0X3C0", "twitter": "None", "instagram": "None", "facebook": "None", "youtube": "None", "website": "None", "summary": "None", "logo": "None", "latitude": 46.43365552400602, "longitude": -72.10804628570624}, "889694097RR0001": {"name": "CENTRE D'ACTION BENEVOLE DE LA REGION DE MATANE INC", "designationCode": "C", "categoryCode": "09", "address": "235 AVENUE ST-JEROME STE 220", "city": "MATANE", "province": "QC", "country": "CA", "postalCode": "G4W3A7", "twitter": "None", "instagram": "None", "facebook": "None", "youtube": "None", "website": "None", "summary": "None", "logo": "None", "latitude": 48.84353149154589, "longitude": -67.53095180463366}, "107883431RR0001": {"name": "CENTRE D'ACTION BENEVOLE DE MONTCALM OU CAB MONTCALM", "designationCode": "C", "categoryCode": "09", "address": "27 AVE ST LOUIS", "city": "ST ESPRIT", "province": "QC", "country": "CA", "postalCode": "J0K2L0", "twitter": "None", "instagram": "None", "facebook": "None", "youtube": "None", "website": "None", "summary": "None", "logo": "None", "latitude": 45.89845503857698, "longitude": -73.66680266331022}, "119287076RR0001": {"name": "CENTRE D'ACTION BENEVOLE DE MONTREAL INC / VOLUNTEER BUREAU OF MONTREAL INC", "designationCode": "C", "categoryCode": "09", "address": "300-2015 RUE DRUMMOND", "city": "MONTREAL", "province": "QC", "country": "CA", "postalCode": "H3G1W7", "twitter": "None", "instagram": "None", "facebook": "None", "youtube": "None", "website": "None", "summary": "None", "logo": "None", "latitude": 45.49968084626907, "longitude": -73.57636800787719}, "106892730RR0001": {"name": "CENTRE D'ACTION BENEVOLE DE QUEBEC INC.", "designationCode": "C", "categoryCode": "59", "address": "HALLES FLUR DE LYS 2ENE ETAGE 245 RUE SOUMANDE LOCAL 285", "city": "VANIER", "province": "QC", "country": "CA", "postalCode": "G1M3H6", "twitter": "None", "instagram": "None", "facebook": "None", "youtube": "None", "website": "None", "summary": "None", "logo": "None", "latitude": 46.818563848981704, "longitude": -71.25255374473375}, "118845106RR0001": {"name": "CENTRE D'ACTION BENEVOLE DE SEPT-ILES INC", "designationCode": "C", "categoryCode": "59", "address": "466 AV PERREAULT", "city": "SEPT-ILES", "province": "QC", "country": "CA", "postalCode": "G4R1K5", "twitter": "None", "instagram": "None", "facebook": "None", "youtube": "None", "website": "None", "summary": "None", "logo": "None", "latitude": 50.21487871608278, "longitude": -66.37042351246481}, "100877570RR0001": {"name": "CENTRE D'ACTION BENEVOLE DE WINDSOR", "designationCode": "C", "categoryCode": "09", "address": "330-54 RUE SAINT-GEORGES", "city": "WINDSOR", "province": "QC", "country": "CA", "postalCode": "J1S1J5", "twitter": "None", "instagram": "None", "facebook": "None", "youtube": "None", "website": "None", "summary": "None", "logo": "None", "latitude": 45.57008750401071, "longitude": -72.0031056562411}, "136229267RR0001": {"name": "CENTRE D'ACTION BENEVOLE DES BASQUES INC.", "designationCode": "C", "categoryCode": "09", "address": "169 RUE NOTRE-DAME O", "city": "TROIS-PISTOLES", "province": "QC", "country": "CA", "postalCode": "G0L4K0", "twitter": "None", "instagram": "None", "facebook": "None", "youtube": "None", "website": "None", "summary": "None", "logo": "None", "latitude": 48.12333663338892, "longitude": -69.18047305164737}, "129986550RR0001": {"name": "CENTRE D'ACTION BENEVOLE DES ILES-DE-LA-MADELEINE", "designationCode": "C", "categoryCode": "09", "address": "330 CH.PRINCIPAL              BUREAU 207", "city": "CAP AUX MEULES", "province": "QC", "country": "CA", "postalCode": "G4T1C9", "twitter": "None", "instagram": "None", "facebook": "None", "youtube": "None", "website": "None", "summary": "None", "logo": "None", "latitude": 47.37806428195531, "longitude": -61.865380513676904}, "132373135RR0001": {"name": "CENTRE D'ACTION BENEVOLE R H REDIKER/R H REDIKER VOLUNTEER CENTER", "designationCode": "C", "categoryCode": "09", "address": "112 RUE PRINCIPALE", "city": "STANSTEAD", "province": "QC", "country": "CA", "postalCode": "J0B3E5", "twitter": "None", "instagram": "None", "facebook": "None", "youtube": "None", "website": "None", "summary": "None", "logo": "None", "latitude": 45.01392358618496, "longitude": -72.14710128224378}, "131648891RR0001": {"name": "CENTRE D'ACTION SIDA MONTREAL/CENTER FOR AIDS SERVICES OF MONTREAL", "designationCode": "C", "categoryCode": "11", "address": "1750 RUE SAINT ANDRE          3RD FLOOR", "city": "MONTREAL", "province": "QC", "country": "CA", "postalCode": "H2L3T8", "twitter": "None", "instagram": "None", "facebook": "None", "youtube": "None", "website": "None", "summary": "None", "logo": "None", "latitude": 45.518127822349946, "longitude": -73.56203348669845}, "141470922RR0001": {"name": "CENTRE D'ACTION SOCIO-COMMUNAUTAIRE DE MONTREAL", "designationCode": "C", "categoryCode": "09", "address": "32 BOUL ST-JOSEPH OUEST", "city": "MONTREAL", "province": "QC", "country": "CA", "postalCode": "H2T2P3", "twitter": "None", "instagram": "None", "facebook": "None", "youtube": "None", "website": "None", "summary": "None", "logo": "None", "latitude": 45.52193331251085, "longitude": -73.59163596168284}, "138996863RR0001": {"name": "CENTRE D'ACTIONS B\u00c9N\u00c9VOLES INTERACTION", "designationCode": "C", "categoryCode": "09", "address": "100 RUE PRINCIPALE, C.P. 148", "city": "CLARENCEVILLE", "province": "QC", "country": "CA", "postalCode": "J0J1B0", "twitter": "None", "instagram": "None", "facebook": "None", "youtube": "None", "website": "None", "summary": "None", "logo": "None", "latitude": 45.063784507646055, "longitude": -73.24633289217496}, "100881333RR0001": {"name": "CENTRE D'ACTIVIT\u00c9S PR\u00c9SCOLAIRES ET FAMILIALES", "designationCode": "C", "categoryCode": "09", "address": "122 RUE BERRI", "city": "GATINEAU", "province": "QC", "country": "CA", "postalCode": "J8Y4H8", "twitter": "None", "instagram": "None", "facebook": "None", "youtube": "None", "website": "None", "summary": "None", "logo": "None", "latitude": 45.43545506771887, "longitude": -75.73523123780977}, "129721510RR0001": {"name": "CENTRE D'ACTIVITES POUR LE MAINTIEN DE L'EQUILIBRE EMOTIONNEL DE MONTREAL-NORD (CAMEE)", "designationCode": "C", "categoryCode": "09", "address": "11 700 RUE L'ARCHEVEQUE", "city": "MONTREAL-NORD", "province": "QC", "country": "CA", "postalCode": "H1H3B6", "twitter": "None", "instagram": "None", "facebook": "None", "youtube": "None", "website": "None", "summary": "None", "logo": "None", "latitude": 45.602811, "longitude": -73.63617525000001}, "893594879RR0001": {"name": "CENTRE D'AIDE A LA FAMILLE", "designationCode": "C", "categoryCode": "09", "address": "4068 BOUL SAINT-LAURENT       C.P. 42026", "city": "MONTREAL", "province": "QC", "country": "CA", "postalCode": "H2W2T3", "twitter": "None", "instagram": "None", "facebook": "None", "youtube": "None", "website": "None", "summary": "None", "logo": "None", "latitude": 45.517218884528916, "longitude": -73.5800426759766}, "859677601RR0001": {"name": "CENTRE D'AIDE AUX FAMILLES LATINO AMERICAINES", "designationCode": "C", "categoryCode": "09", "address": "7075 RUE ST-HUBERT            2IEME ETAGE", "city": "MONTREAL", "province": "QC", "country": "CA", "postalCode": "H2S2N1", "twitter": "None", "instagram": "None", "facebook": "None", "youtube": "None", "website": "None", "summary": "None", "logo": "None", "latitude": 45.54021819929014, "longitude": -73.6120181010157}, "889407375RR0001": {"name": "CENTRE D'AIDE AUX SANS-EMPLOI DU SUD-OUEST DE MONTREAL", "designationCode": "C", "categoryCode": "09", "address": "3181 RUE SAINT-JACQUES        2E \u00c9TAGE", "city": "MONTREAL", "province": "QC", "country": "CA", "postalCode": "H4C1G7", "twitter": "None", "instagram": "None", "facebook": "None", "youtube": "None", "website": "None", "summary": "None", "logo": "None", "latitude": 45.48332552152453, "longitude": -73.58042520165606}, "878372317RR0001": {"name": "CENTRE D'AIDE AUX VICTIMES D'ACTES CRIMINELS (CAVAC) COTE-NORD", "designationCode": "C", "categoryCode": "59", "address": "652 AV. DEQUEN", "city": "SEPT-ILES", "province": "QC", "country": "CA", "postalCode": "G4R2R5", "twitter": "None", "instagram": "None", "facebook": "None", "youtube": "None", "website": "None", "summary": "None", "logo": "None", "latitude": 50.212464000000054, "longitude": -66.38965549999993}, "138200357RR0001": {"name": "CENTRE D'AIDE AUX VICTIMES D'ACTES CRIMINELS - REGION DE QUEBEC", "designationCode": "C", "categoryCode": "59", "address": "1167 CH SAINTE-FOY", "city": "QUEBEC", "province": "QC", "country": "CA", "postalCode": "G1S2M8", "twitter": "None", "instagram": "None", "facebook": "None", "youtube": "None", "website": "None", "summary": "None", "logo": "None", "latitude": 46.79689597556129, "longitude": -71.24954994197599}, "893126607RR0001": {"name": "CENTRE D'AIDE AUX VICTIMES D'ACTES CRIMINELS CENTRE-DU-QU\u00c9BEC", "designationCode": "C", "categoryCode": "09", "address": "50 RUE DUNKIN                 BUR 302", "city": "DRUMMONDVILLE", "province": "QC", "country": "CA", "postalCode": "J2B8B1", "twitter": "None", "instagram": "None", "facebook": "None", "youtube": "None", "website": "None", "summary": "None", "logo": "None", "latitude": 45.878882628339944, "longitude": -72.47666222615301}, "895873305RR0001": {"name": "CENTRE D'AIDE AUX VICTIMES D'ACTES CRIMINELS DE LA GASPESIE ET LES ILES-DE-LA-MADELEINE", "designationCode": "C", "categoryCode": "09", "address": "113-484 PLACE HOTEL DE VILLE", "city": "CHANDLER", "province": "QC", "country": "CA", "postalCode": "G0C1K0", "twitter": "None", "instagram": "None", "facebook": "None", "youtube": "None", "website": "None", "summary": "None", "logo": "None", "latitude": 48.349427364418034, "longitude": -64.67907702582369}, "129481925RR0001": {"name": "CENTRE D'AIDE AUX VICTIMES D'ACTES CRIMINELS DE LA MAURICIE", "designationCode": "C", "categoryCode": "09", "address": "104-950 RUE ROYALE", "city": "TROIS-RIVIERES", "province": "QC", "country": "CA", "postalCode": "G9A4H8", "twitter": "None", "instagram": "None", "facebook": "None", "youtube": "None", "website": "None", "summary": "None", "logo": "None", "latitude": 46.34579335304974, "longitude": -72.54240318030442}, "138600218RR0001": {"name": "CENTRE D'AIDE AUX VICTIMES D'ACTES CRIMINELS DE LA MONTEREGIE", "designationCode": "C", "categoryCode": "09", "address": "201 - 1085 BOUL SAINTE-FOY", "city": "LONGUEUIL", "province": "QC", "country": "CA", "postalCode": "J4K1W7", "twitter": "None", "instagram": "None", "facebook": "None", "youtube": "None", "website": "None", "summary": "None", "logo": "None", "latitude": 45.51864024424375, "longitude": -73.49738941468043}, "882004161RR0001": {"name": "CENTRE D'AIDE AUX VICTIMES D'ACTES CRIMINELS DE LANAUDIERE", "designationCode": "C", "categoryCode": "09", "address": "290, RUE ST-MARC", "city": "JOLIETTE", "province": "QC", "country": "CA", "postalCode": "J6E5H6", "twitter": "None", "instagram": "None", "facebook": "None", "youtube": "None", "website": "None", "summary": "None", "logo": "None", "latitude": 46.02784162500141, "longitude": -73.44538734623592}, "128843562RR0001": {"name": "CENTRE D'AIDE AUX VICTIMES D'ACTES CRIMINELS DE LAVAL", "designationCode": "C", "categoryCode": "09", "address": "1760 MAURICE GAUVIN", "city": "LAVAL", "province": "QC", "country": "CA", "postalCode": "H7S1Z5", "twitter": "None", "instagram": "None", "facebook": "None", "youtube": "None", "website": "None", "summary": "None", "logo": "None", "latitude": 45.56536705133025, "longitude": -73.73564559703367}, "131395527RR0001": {"name": "CENTRE D'AIDE AUX VICTIMES D'ACTES CRIMINELS DE MONTREAL", "designationCode": "C", "categoryCode": "09", "address": "6472 BOUL SAINT-LAURENT", "city": "MONTREAL", "province": "QC", "country": "CA", "postalCode": "H2S3C4", "twitter": "None", "instagram": "None", "facebook": "None", "youtube": "None", "website": "None", "summary": "None", "logo": "None", "latitude": 45.530443866207044, "longitude": -73.60905371983368}, "134450527RR0001": {"name": "CENTRE D'AIDE AUX VICTIMES D'ACTES CRIMINELS DES LAURENTIDES", "designationCode": "C", "categoryCode": "09", "address": "510 RUE ST-GEORGES", "city": "SAINT-J\u00c9R\u00d4ME", "province": "QC", "country": "CA", "postalCode": "J7Z5B3", "twitter": "None", "instagram": "None", "facebook": "None", "youtube": "None", "website": "None", "summary": "None", "logo": "None", "latitude": 45.78157306494892, "longitude": -74.00193164643068}, "132431297RR0001": {"name": "CENTRE D'AIDE AUX VICTIMES ET TEMOINS D'ACTES CRIMINELS (C.A.V.A.C.) DE LA REGION DE RIMOUSKI", "designationCode": "C", "categoryCode": "09", "address": "204-148 RUE BELZILE", "city": "RIMOUSKI", "province": "QC", "country": "CA", "postalCode": "G5L3E4", "twitter": "None", "instagram": "None", "facebook": "None", "youtube": "None", "website": "None", "summary": "None", "logo": "None", "latitude": 48.45341289231918, "longitude": -68.5232695331526}, "865995153RR0001": {"name": "CENTRE D'AIDE DE BORDEAUX", "designationCode": "C", "categoryCode": "11", "address": "6777 RUE DE BORDEAUX", "city": "MONTREAL", "province": "QC", "country": "CA", "postalCode": "H2G2S3", "twitter": "None", "instagram": "None", "facebook": "None", "youtube": "None", "website": "None", "summary": "None", "logo": "None", "latitude": 45.547093141006314, "longitude": -73.5996403823072}, "100877802RR0001": {"name": "CENTRE D'AIDE ET D'INFORMATION POPULAIRE DE SOREL-TRACY", "designationCode": "C", "categoryCode": "09", "address": "326 BOULEVARD FISET", "city": "SOREL-TRACY", "province": "QC", "country": "CA", "postalCode": "J3P3R2", "twitter": "None", "instagram": "None", "facebook": "None", "youtube": "None", "website": "None", "summary": "None", "logo": "None", "latitude": 46.03683742602008, "longitude": -73.0947988795659}, "830674941RR0001": {"name": "CENTRE D'AIDE ET DE DEVELOPPEMENT DE LA FAMILLE DE L'EST DE MONTREAL (C.A.D.F.E.M.) INC", "designationCode": "C", "categoryCode": "09", "address": "1321 BOUL ST-JEAN BAPTISTE", "city": "MONTREAL", "province": "QC", "country": "CA", "postalCode": "H1B4A2", "twitter": "None", "instagram": "None", "facebook": "None", "youtube": "None", "website": "None", "summary": "None", "logo": "None", "latitude": 45.64205229672783, "longitude": -73.50284902816095}, "106892946RR0001": {"name": "CENTRE D'AIDE ET DE LUTTE CONTRE LES AGGRESSIONS SEXUELLES DE L'OUTAOUAIS", "designationCode": "C", "categoryCode": "09", "address": "CP 1872 SUCC. HULL", "city": "GATINEAU", "province": "QC", "country": "CA", "postalCode": "J8X3Z1", "twitter": "None", "instagram": "None", "facebook": "None", "youtube": "None", "website": "None", "summary": "None", "logo": "None", "latitude": 45.428300000000036, "longitude": -75.71036999999995}, "136102878RR0001": {"name": "CENTRE D'AIDE ET DE LUTTE CONTRE LES AGRESSIONS A CARACTERE SEXUEL (C.A.L.A.C.S.) DE GRANBY", "designationCode": "C", "categoryCode": "09", "address": "CP 63 SUCC BUREAU-CHEF", "city": "GRANBY", "province": "QC", "country": "CA", "postalCode": "J2G8E2", "twitter": "None", "instagram": "None", "facebook": "None", "youtube": "None", "website": "None", "summary": "None", "logo": "None", "latitude": 45.39837300000005, "longitude": -72.72281149999993}, "107603136RR0001": {"name": "CENTRE D'AIDE ET DE LUTTE CONTRE LES AGRESSIONS A CARACTERE SEXUEL (C.A.L.A.C.S.) LA VIGIE", "designationCode": "C", "categoryCode": "09", "address": "C.P. 22", "city": "VALLEYFIELD", "province": "QC", "country": "CA", "postalCode": "J6S4V5", "twitter": "None", "instagram": "None", "facebook": "None", "youtube": "None", "website": "None", "summary": "None", "logo": "None", "latitude": 45.25893600000006, "longitude": -74.10716449999994}, "107606543RR0001": {"name": "CENTRE D'AIDE ET DE LUTTE CONTRE LES AGRESSIONS A CARACTERE SEXUEL (CALACS) CHATEAUGUAY / CHATEAUGUAY SEXUAL ASSAULT CENTER", "designationCode": "C", "categoryCode": "09", "address": "CP 47030", "city": "CHATEAUGUAY", "province": "QC", "country": "CA", "postalCode": "J6K5B7", "twitter": "None", "instagram": "None", "facebook": "None", "youtube": "None", "website": "None", "summary": "None", "logo": "None", "latitude": 45.36151800000006, "longitude": -73.75070149999993}, "128973351RR0001": {"name": "CENTRE D'AIDE ET DE LUTTE CONTRE LES AGRESSIONS A CARACTERE SEXUEL (CALACS) DE RIMOUSKI", "designationCode": "C", "categoryCode": "09", "address": "146 RUE SAINTE-THERESE", "city": "RIMOUSKI", "province": "QC", "country": "CA", "postalCode": "G5L4C4", "twitter": "None", "instagram": "None", "facebook": "None", "youtube": "None", "website": "None", "summary": "None", "logo": "None", "latitude": 48.44792431724274, "longitude": -68.53327869929012}, "870550191RR0001": {"name": "CENTRE D'AIDE ET DE LUTTE CONTRE LES AGRESSIONS A CARACTERE SEXUEL (CALACS) LA BOME - GASPESIE", "designationCode": "C", "categoryCode": "09", "address": "C.P. 6160", "city": "GASPE", "province": "QC", "country": "CA", "postalCode": "G4X2R7", "twitter": "None", "instagram": "None", "facebook": "None", "youtube": "None", "website": "None", "summary": "None", "logo": "None", "latitude": 48.831441000000055, "longitude": -64.48063399999994}, "131699688RR0001": {"name": "CENTRE D'AIDE ET DE LUTTE CONTRE LES AGRESSIONS A CARACTERE SEXUEL CHAUDIERE-APPALACHES INC", "designationCode": "C", "categoryCode": "09", "address": "598, BOULEVARD RENAULT", "city": "BEAUCEVILLE", "province": "QC", "country": "CA", "postalCode": "G5X1M9", "twitter": "None", "instagram": "None", "facebook": "None", "youtube": "None", "website": "None", "summary": "None", "logo": "None", "latitude": 46.21001504746376, "longitude": -70.77430197913932}, "106889207RR0001": {"name": "CENTRE D'AIDE ET DE LUTTE CONTRE LES AGRESSIONS A CARACTERE SEXUEL DE L'ESTRIE", "designationCode": "C", "categoryCode": "09", "address": "C.P.1594", "city": "SHERBROOKE", "province": "QC", "country": "CA", "postalCode": "J1H5M4", "twitter": "None", "instagram": "None", "facebook": "None", "youtube": "None", "website": "None", "summary": "None", "logo": "None", "latitude": 45.403251000000054, "longitude": -71.88894349999994}, "100877810RR0001": {"name": "CENTRE D'AIDE ET DE LUTTE CONTRE LES AGRESSIONS A CARACTERE SEXUEL DE TROIS-RIVIERES", "designationCode": "C", "categoryCode": "01", "address": "C.A.L.A.C.S.DE TROIS RIVIERES C.P 776", "city": "TROIS-RIVIERES", "province": "QC", "country": "CA", "postalCode": "G9A5J9", "twitter": "None", "instagram": "None", "facebook": "None", "youtube": "None", "website": "None", "summary": "None", "logo": "None"}, "891300345RR0001": {"name": "CENTRE D'AIDE ET DE LUTTE CONTRE LES AGRESSIONS A CARACTERE SEXUEL LAURENTIDES (CALACS-LAURENTIDES)", "designationCode": "C", "categoryCode": "09", "address": "C.P. 202", "city": "SAINT-JEROME", "province": "QC", "country": "CA", "postalCode": "J7Z5T9", "twitter": "None", "instagram": "None", "facebook": "None", "youtube": "None", "website": "None", "summary": "None", "logo": "None", "latitude": 45.77506800000006, "longitude": -74.00320999999994}, "874308596RR0001": {"name": "CENTRE D'AIDE FAMILIALE, EDUCATIVE ET SOCIALE DE TOUT REPOS", "designationCode": "C", "categoryCode": "09", "address": "14013 DE MONTIGNY", "city": "MONTREAL", "province": "QC", "country": "CA", "postalCode": "H1A2W5", "twitter": "None", "instagram": "None", "facebook": "None", "youtube": "None", "website": "None", "summary": "None", "logo": "None", "latitude": 45.66870605743993, "longitude": -73.4996137382707}}