{"869869602RR0001": {"name": "SOUTHWEST ALBERTA SUSTAINABLE COMMUNITY INITIATIVE CENTRE", "designationCode": "C", "categoryCode": "52", "address": "BOX 1297                      696 KETTLES STREET", "city": "PINCHER CREEK", "province": "AB", "country": "CA", "postalCode": "T0K1W0", "twitter": "None", "instagram": "None", "facebook": "None", "youtube": "None", "website": "None", "summary": "None", "logo": "None", "latitude": 49.48491150678068, "longitude": -113.95011530835592}, "869443754RR0001": {"name": "SOUTHWEST CALGARY PAVILION OF HOPE CHURCH", "designationCode": "C", "categoryCode": "39", "address": "232 WILLOW PARK DR SE", "city": "CALGARY", "province": "AB", "country": "CA", "postalCode": "T2J0K5", "twitter": "None", "instagram": "None", "facebook": "None", "youtube": "None", "website": "None", "summary": "None", "logo": "None", "latitude": 50.958071496537556, "longitude": -114.06602256272721}, "132489576RR0001": {"name": "SOUTHWEST COMMUNITY BAPTIST CHURCH", "designationCode": "C", "categoryCode": "31", "address": "700 HUGH ALLEN DRIVE", "city": "KAMLOOPS", "province": "BC", "country": "CA", "postalCode": "V1S1N3", "twitter": "None", "instagram": "None", "facebook": "None", "youtube": "None", "website": "None", "summary": "None", "logo": "None", "latitude": 50.64608048211085, "longitude": -120.35684152553523}, "866608037RR0001": {"name": "SOUTHWEST COMMUNITY OPTIONS INC", "designationCode": "C", "categoryCode": "09", "address": "210 QUEEN STREET", "city": "NINETTE", "province": "MB", "country": "CA", "postalCode": "R0K1R0", "twitter": "None", "instagram": "None", "facebook": "None", "youtube": "None", "website": "None", "summary": "None", "logo": "None", "latitude": 49.40109900250643, "longitude": -99.630594}, "894375583RR0001": {"name": "SOUTHWEST DAY CARE AND EARLY LEARNING CENTRE INC.", "designationCode": "C", "categoryCode": "01", "address": "504 - 4TH AVENUE S.W.", "city": "MOOSE JAW", "province": "SK", "country": "CA", "postalCode": "S6H5V7", "twitter": "None", "instagram": "None", "facebook": "None", "youtube": "None", "website": "None", "summary": "None", "logo": "None", "latitude": 50.3829043928359, "longitude": -105.5447571469576}, "104947791RR0001": {"name": "SOUTHWEST DAY CARE INC.", "designationCode": "C", "categoryCode": "01", "address": "656 6TH ST", "city": "BRANDON", "province": "MB", "country": "CA", "postalCode": "R7A3P1", "twitter": "None", "instagram": "None", "facebook": "None", "youtube": "None", "website": "None", "summary": "None", "logo": "None", "latitude": 49.839335664723876, "longitude": -99.94600362839726}, "871852471RR0001": {"name": "SOUTHWEST HANTS FIRE SOCIETY", "designationCode": "C", "categoryCode": "39", "address": "1884 HIGHWAY 14 CH            RR #3", "city": "WINDSOR", "province": "NS", "country": "CA", "postalCode": "B0N2T0", "twitter": "None", "instagram": "None", "facebook": "None", "youtube": "None", "website": "None", "summary": "None", "logo": "None", "latitude": 44.84369011097911, "longitude": -64.22782251603867}, "107997819RR0001": {"name": "SOUTHWEST HOMES INC.", "designationCode": "C", "categoryCode": "01", "address": "5 - 2150 WALKER ST", "city": "SWIFT CURRENT", "province": "SK", "country": "CA", "postalCode": "S9H4C1", "twitter": "None", "instagram": "None", "facebook": "None", "youtube": "None", "website": "None", "summary": "None", "logo": "None", "latitude": 50.28367884869325, "longitude": -107.76988891468042}, "822814745RR0001": {"name": "SOUTHWEST HORIZON SCHOOL DIVISION", "designationCode": "C", "categoryCode": "20", "address": "BOX 370                       165 NORTH STREET", "city": "MELITA", "province": "MB", "country": "CA", "postalCode": "R0M1L0", "twitter": "None", "instagram": "None", "facebook": "None", "youtube": "None", "website": "None", "summary": "None", "logo": "None", "latitude": 49.27679226218956, "longitude": -100.98694362802834}, "108057100RR0001": {"name": "SOUTHWEST INTERLAKE PASTORAL CHARGE", "designationCode": "C", "categoryCode": "44", "address": "BOX213", "city": "ERKSDALE", "province": "MB", "country": "CA", "postalCode": "R0C0W0", "twitter": "None", "instagram": "None", "facebook": "None", "youtube": "None", "website": "None", "summary": "None", "logo": "None", "latitude": 50.86019400000005, "longitude": -98.11175299999994}, "107997827RR0001": {"name": "SOUTHWEST MIDDLESEX HEALTH CENTRE", "designationCode": "C", "categoryCode": "11", "address": "22262 MILL ROAD RR#5", "city": "MOUNT BRYDGES", "province": "ON", "country": "CA", "postalCode": "N0L1W0", "twitter": "None", "instagram": "None", "facebook": "None", "youtube": "None", "website": "None", "summary": "None", "logo": "None", "latitude": 42.89720416051069, "longitude": -81.471835628658}, "119158863RR0001": {"name": "SOUTHWEST NOVA SCOTIA OSTOMY CHAPTER AFFILIATE OF THE UNITED OSTOMY ASSOCIATION INC.", "designationCode": "C", "categoryCode": "09", "address": "PO BOX 70", "city": "HEBRON", "province": "NS", "country": "CA", "postalCode": "B0W1X0", "twitter": "None", "instagram": "None", "facebook": "None", "youtube": "None", "website": "None", "summary": "None", "logo": "None", "latitude": 43.88721000000004, "longitude": -66.09039999999999}, "107997751RR0001": {"name": "SOUTHWESTERN MANITOBA REGIONAL LIBRARY", "designationCode": "C", "categoryCode": "50", "address": "PO BOX 670", "city": "MELITA", "province": "MB", "country": "CA", "postalCode": "R0M1L0", "twitter": "None", "instagram": "None", "facebook": "None", "youtube": "None", "website": "None", "summary": "None", "logo": "None", "latitude": 49.26665000000003, "longitude": -100.96985999999998}, "119158806RR0001": {"name": "SOUTHWESTERN ONTARIO CHILDRENS CARE INC.", "designationCode": "C", "categoryCode": "11", "address": "741 BASELINE ROAD EAST", "city": "LONDON", "province": "ON", "country": "CA", "postalCode": "N6C2R6", "twitter": "None", "instagram": "None", "facebook": "None", "youtube": "None", "website": "None", "summary": "None", "logo": "None", "latitude": 42.961941568382706, "longitude": -81.22845966749384}, "896559630RR0001": {"name": "SOUTHWESTERN ONTARIO FIDDLE AND STEP DANCE ASSOCIATION", "designationCode": "C", "categoryCode": "22", "address": "118 QUEEN ST", "city": "STRATFORD", "province": "ON", "country": "CA", "postalCode": "N5A4N3", "twitter": "None", "instagram": "None", "facebook": "None", "youtube": "None", "website": "None", "summary": "None", "logo": "None", "latitude": 43.3723775342778, "longitude": -80.96998126299829}, "871853123RR0001": {"name": "SOUTHWESTERN ONTARIO OPTIMIST CONDUCTIVE ED TRUST FUND", "designationCode": "C", "categoryCode": "11", "address": "BOX 22", "city": "PAIN COURT", "province": "ON", "country": "CA", "postalCode": "N0P1S0", "twitter": "None", "instagram": "None", "facebook": "None", "youtube": "None", "website": "None", "summary": "None", "logo": "None", "latitude": 42.352819466111164, "longitude": -82.35967236675702}, "865024772RR0001": {"name": "SOUTHWESTERN ONTARIO SUZUKI INSTITUTE", "designationCode": "C", "categoryCode": "22", "address": "207 COUNTRY CLUB DR", "city": "GUELPH", "province": "ON", "country": "CA", "postalCode": "N1E3K8", "twitter": "None", "instagram": "None", "facebook": "None", "youtube": "None", "website": "None", "summary": "None", "logo": "None", "latitude": 43.57728142602006, "longitude": -80.26698642587583}, "895569044RR0001": {"name": "SOUTHWESTERN ONTARIO YOUTH FOR CHRIST", "designationCode": "C", "categoryCode": "49", "address": "94 GRAHAM STREET              SUITE 4", "city": "WOODSTOCK", "province": "ON", "country": "CA", "postalCode": "N4S6J7", "twitter": "None", "instagram": "None", "facebook": "None", "youtube": "None", "website": "None", "summary": "None", "logo": "None", "latitude": 43.132973877603995, "longitude": -80.75939831805078}, "107997769RR0001": {"name": "SOUTHWESTERN SASKATCHEWAN OLDTIMERS MUSEUM INC.", "designationCode": "C", "categoryCode": "50", "address": "BOX 1540", "city": "MAPLE CREEK", "province": "SK", "country": "CA", "postalCode": "S0N1N0", "twitter": "None", "instagram": "None", "facebook": "None", "youtube": "None", "website": "None", "summary": "None", "logo": "None", "latitude": 49.91416000000004, "longitude": -109.46959999999996}, "107997975RR0001": {"name": "SOUTHWOLD PASTORAL CHARGE", "designationCode": "C", "categoryCode": "44", "address": "37694 TALBOT LINE RR#3", "city": "SHEDDEN", "province": "ON", "country": "CA", "postalCode": "N0L2E0", "twitter": "None", "instagram": "None", "facebook": "None", "youtube": "None", "website": "None", "summary": "None", "logo": "None", "latitude": 42.733661204837304, "longitude": -81.35101558406005}, "119158947RR0001": {"name": "SOUTHWOOD CHURCH OF GOD", "designationCode": "C", "categoryCode": "36", "address": "112 OAKMOUNT ROAD, S.W.", "city": "CALGARY", "province": "AB", "country": "CA", "postalCode": "T2V4X4", "twitter": "None", "instagram": "None", "facebook": "None", "youtube": "None", "website": "None", "summary": "None", "logo": "None", "latitude": 50.97318417236993, "longitude": -114.13538620650348}, "131816506RR0001": {"name": "SOUTHWOOD UNITED CHURCH,", "designationCode": "C", "categoryCode": "44", "address": "10690 ELBOW DR S.W.", "city": "CALGARY", "province": "AB", "country": "CA", "postalCode": "T2W1G4", "twitter": "None", "instagram": "None", "facebook": "None", "youtube": "None", "website": "None", "summary": "None", "logo": "None", "latitude": 50.95732865667378, "longitude": -114.08462794780438}, "890552649RR0001": {"name": "SOUTHWORTH CHARITABLE FOUNDATION", "designationCode": "B", "categoryCode": "03", "address": "1400, 777-8TH AVENUE S.W.", "city": "CALGARY", "province": "AB", "country": "CA", "postalCode": "T2P3R5", "twitter": "None", "instagram": "None", "facebook": "None", "youtube": "None", "website": "None", "summary": "None", "logo": "None", "latitude": 51.04590663887669, "longitude": -114.07575818403993}, "893765503RR0001": {"name": "SOUTIEN LACT\u00c9A", "designationCode": "C", "categoryCode": "09", "address": "404-640 RUE DORCHESTER", "city": "SAINT-JEAN-SUR-RICHELIEU", "province": "QC", "country": "CA", "postalCode": "J3B5A4", "twitter": "None", "instagram": "None", "facebook": "None", "youtube": "None", "website": "None", "summary": "None", "logo": "None", "latitude": 45.320148282820696, "longitude": -73.2692590547631}, "885417162RR0001": {"name": "SOVEREIGN CHARITABLE TRUST", "designationCode": "B", "categoryCode": "39", "address": "3425 2 AVE S", "city": "LETHBRIDGE", "province": "AB", "country": "CA", "postalCode": "T1J4V1", "twitter": "None", "instagram": "None", "facebook": "None", "youtube": "None", "website": "None", "summary": "None", "logo": "None", "latitude": 49.696839530439966, "longitude": -112.78914308381903}, "899158018RR0001": {"name": "SOVEREIGN COMMUNITY CHURCH", "designationCode": "C", "categoryCode": "37", "address": "239 MCKINNON ROAD", "city": "MIRAMICHI", "province": "NB", "country": "CA", "postalCode": "E1V5Y6", "twitter": "None", "instagram": "None", "facebook": "None", "youtube": "None", "website": "None", "summary": "None", "logo": "None", "latitude": 47.042853408043975, "longitude": -65.51701455805267}, "119158996RR0001": {"name": "SOVEREIGN GRACE BAPTIST CHURCH", "designationCode": "C", "categoryCode": "31", "address": "PO BOX 3382  STN MAIN", "city": "MISSION", "province": "BC", "country": "CA", "postalCode": "V2V4J5", "twitter": "None", "instagram": "None", "facebook": "None", "youtube": "None", "website": "None", "summary": "None", "logo": "None", "latitude": 49.13294100000006, "longitude": -122.32108249999993}, "107998163RR0001": {"name": "SOVEREIGN GRACE BAPTIST CHURCH OF OROMOCTO INC.", "designationCode": "C", "categoryCode": "31", "address": "54 BROAD ROAD", "city": "HANEYTOWN", "province": "NB", "country": "CA", "postalCode": "E2V3N9", "twitter": "None", "instagram": "None", "facebook": "None", "youtube": "None", "website": "None", "summary": "None", "logo": "None", "latitude": 45.81357216711308, "longitude": -66.47128920625086}, "839224250RR0001": {"name": "SOVEREIGN GRACE CHURCH TORONTO", "designationCode": "C", "categoryCode": "39", "address": "9200 WESTON ROAD              P.O. BOX 92044", "city": "VAUGHAN", "province": "ON", "country": "CA", "postalCode": "L4H3J3", "twitter": "None", "instagram": "None", "facebook": "None", "youtube": "None", "website": "None", "summary": "None", "logo": "None", "latitude": 43.82745129335229, "longitude": -79.556578187748}, "119159010RR0001": {"name": "SOVEREIGN GRACE COMMUNITY CHURCH", "designationCode": "C", "categoryCode": "31", "address": "365 TALFOURD ST", "city": "SARNIA", "province": "ON", "country": "CA", "postalCode": "N7T1R1", "twitter": "None", "instagram": "None", "facebook": "None", "youtube": "None", "website": "None", "summary": "None", "logo": "None", "latitude": 42.96641690991274, "longitude": -82.39667521801745}, "861371722RR0001": {"name": "SOVEREIGN GRACE FELLOWSHIP", "designationCode": "C", "categoryCode": "39", "address": "RR 1", "city": "RIVER DENYS", "province": "NS", "country": "CA", "postalCode": "B0E2Y0", "twitter": "None", "instagram": "None", "facebook": "None", "youtube": "None", "website": "None", "summary": "None", "logo": "None", "latitude": 45.861219000000006, "longitude": -61.36836643541265}, "876074816RR0001": {"name": "SOVEREIGN GRACE FELLOWSHIP OF CANADA", "designationCode": "C", "categoryCode": "49", "address": "65 SNOWBALL CRES", "city": "SCARBOROUGH", "province": "ON", "country": "CA", "postalCode": "M1B1S5", "twitter": "None", "instagram": "None", "facebook": "None", "youtube": "None", "website": "None", "summary": "None", "logo": "None", "latitude": 43.80021068192056, "longitude": -79.22791870356063}, "812086221RR0001": {"name": "SOVEREIGN HOUSE CHRISTIAN FELLOWSHIP & MINISTRIES", "designationCode": "C", "categoryCode": "49", "address": "2040 COCKSHUTT RD.            R.R. 5", "city": "WATERFORD", "province": "ON", "country": "CA", "postalCode": "N0E1Y0", "twitter": "None", "instagram": "None", "facebook": "None", "youtube": "None", "website": "None", "summary": "None", "logo": "None", "latitude": 42.92882045490216, "longitude": -80.24652777003875}, "892645003RR0001": {"name": "SOVEREIGN HYLAND CEMETERY MEMORIAL FUND", "designationCode": "C", "categoryCode": "59", "address": "PO BOX 64", "city": "SOVEREIGN", "province": "SK", "country": "CA", "postalCode": "S0L3A0", "twitter": "None", "instagram": "None", "facebook": "None", "youtube": "None", "website": "None", "summary": "None", "logo": "None"}, "131898314RR0001": {"name": "SOVEREIGN MILITARY ORDER OF SAINT JOHN OF JERUSALEM KNIGHTS OF MALTA - PRIORY OF SAINT FRANCIS OF ASSISI", "designationCode": "C", "categoryCode": "05", "address": "316 - 215 THE DONWAY W", "city": "NORTH YORK", "province": "ON", "country": "CA", "postalCode": "M3B3P5", "twitter": "None", "instagram": "None", "facebook": "None", "youtube": "None", "website": "None", "summary": "None", "logo": "None", "latitude": 43.73652592557525, "longitude": -79.34650838452792}, "891573982RR0001": {"name": "SOVEREIGN ORDER OF ST JOHN OF JERUSALEM KNIGHTS HOSPITALLER", "designationCode": "C", "categoryCode": "11", "address": "SUITE 2200,FOUR BENTALL CENTRE1055 DUNSMUIR ST. PO BOX 49214", "city": "VANCOUVER", "province": "BC", "country": "CA", "postalCode": "V7X1K8", "twitter": "None", "instagram": "None", "facebook": "None", "youtube": "None", "website": "None", "summary": "None", "logo": "None", "latitude": 49.285848463673425, "longitude": -123.11997653738757}, "835901471RR0001": {"name": "SOVEREIGN ORDER OF ST. JOHN VICTORIA COMMANDERY", "designationCode": "A", "categoryCode": "13", "address": "200-3561 SHELBOURNE STREET", "city": "VICTORIA", "province": "BC", "country": "CA", "postalCode": "V8P4G9", "twitter": "None", "instagram": "None", "facebook": "None", "youtube": "None", "website": "None", "summary": "None", "logo": "None", "latitude": 48.45719700000001, "longitude": -123.33298260335299}, "118856905RR0001": {"name": "SOWER'S INTERNATIONAL MISSIONARY SOCIETY", "designationCode": "C", "categoryCode": "39", "address": "7 - 7354 MORROW RD", "city": "AGASSIZ", "province": "BC", "country": "CA", "postalCode": "V0M1A2", "twitter": "None", "instagram": "None", "facebook": "None", "youtube": "None", "website": "None", "summary": "None", "logo": "None", "latitude": 49.23573248845881, "longitude": -121.756491}, "872309414RR0001": {"name": "SOWERS INTERNATIONAL", "designationCode": "C", "categoryCode": "39", "address": "479 ORTON AVENUE", "city": "ANCASTER", "province": "ON", "country": "CA", "postalCode": "L9G4M7", "twitter": "None", "instagram": "None", "facebook": "None", "youtube": "None", "website": "None", "summary": "None", "logo": "None", "latitude": 43.22619271247611, "longitude": -79.96623627647271}, "869057679RR0001": {"name": "SOZO YOUTH MINISTRIES", "designationCode": "C", "categoryCode": "39", "address": "5 SHEFFIELD AVE", "city": "BRANTFORD", "province": "ON", "country": "CA", "postalCode": "N3S6V7", "twitter": "None", "instagram": "None", "facebook": "None", "youtube": "None", "website": "None", "summary": "None", "logo": "None", "latitude": 43.143155538721196, "longitude": -80.23247816789787}, "816592885RR0001": {"name": "SPA de Rivi\u00e8re-du-Loup", "designationCode": "C", "categoryCode": "54", "address": "154 RUE PRINCIPALE", "city": "ST-ARS\u00c8NE", "province": "QC", "country": "CA", "postalCode": "G0L2K0", "twitter": "None", "instagram": "None", "facebook": "None", "youtube": "None", "website": "None", "summary": "None", "logo": "None", "latitude": 47.9144912205175, "longitude": -69.43407206271951}, "820753085RR0001": {"name": "SPA Soci\u00e9t\u00e9 Protectrice des Animaux des Cantons", "designationCode": "C", "categoryCode": "54", "address": "409 RUE DE LA RIVIERE", "city": "COWANSVILLE", "province": "QC", "country": "CA", "postalCode": "J2K1N4", "twitter": "None", "instagram": "None", "facebook": "None", "youtube": "None", "website": "None", "summary": "None", "logo": "None", "latitude": 45.209391141719614, "longitude": -72.7656075546833}, "130362767RR0001": {"name": "SPADINA EARLY LEARNING AND CHILDCARE CO-OPERATIVE LIMITED", "designationCode": "C", "categoryCode": "01", "address": "1702 20TH ST WEST", "city": "SASKATOON", "province": "SK", "country": "CA", "postalCode": "S7M0Z9", "twitter": "None", "instagram": "None", "facebook": "None", "youtube": "None", "website": "None", "summary": "None", "logo": "None", "latitude": 52.1262570279705, "longitude": -106.696215}, "127717270RR0001": {"name": "SPALDING NEW HORIZONS SENIOR CENTRE INC", "designationCode": "C", "categoryCode": "56", "address": "BOX 327", "city": "SPALDING", "province": "SK", "country": "CA", "postalCode": "S0K4C0", "twitter": "None", "instagram": "None", "facebook": "None", "youtube": "None", "website": "None", "summary": "None", "logo": "None", "latitude": 52.332760000000064, "longitude": -104.49557999999996}, "140660804RR0001": {"name": "SPALLUMCHEEN PIONEER POWER CLUB", "designationCode": "C", "categoryCode": "52", "address": "9380 HWY 97", "city": "VERNON", "province": "BC", "country": "CA", "postalCode": "V1H1W9", "twitter": "None", "instagram": "None", "facebook": "None", "youtube": "None", "website": "None", "summary": "None", "logo": "None", "latitude": 50.362584232334854, "longitude": -119.28393094867698}, "889835195RR0001": {"name": "SPANISH AMERICA OUTREACH", "designationCode": "C", "categoryCode": "47", "address": "BOX 322", "city": "ELMIRA", "province": "ON", "country": "CA", "postalCode": "N3B2Z6", "twitter": "None", "instagram": "None", "facebook": "None", "youtube": "None", "website": "None", "summary": "None", "logo": "None", "latitude": 43.59864300000005, "longitude": -80.55873349999993}, "887402196RR0001": {"name": "SPANISH BAPTIST CHURCH", "designationCode": "C", "categoryCode": "39", "address": "46 DENISON ROAD E", "city": "TORONTO", "province": "ON", "country": "CA", "postalCode": "M9N1B7", "twitter": "None", "instagram": "None", "facebook": "None", "youtube": "None", "website": "None", "summary": "None", "logo": "None", "latitude": 43.697137157943196, "longitude": -79.50439773203871}, "107797383RR0083": {"name": "SPANISH BET-EL SEVENTH-DAY ADVENTIST CHURCH", "designationCode": "C", "categoryCode": "41", "address": "2007 - 2460 WESTON RD", "city": "NORTH YORK", "province": "ON", "country": "CA", "postalCode": "M9N2A4", "twitter": "None", "instagram": "None", "facebook": "None", "youtube": "None", "website": "None", "summary": "None", "logo": "None", "latitude": 43.70856374575019, "longitude": -79.53403439153259}, "119288918RR1090": {"name": "SPANISH CENTRAL CONGREGATION OF JEHOVAH'S WITNESSES", "designationCode": "C", "categoryCode": "61", "address": "6138 MARINE DRIVE", "city": "BURNABY", "province": "BC", "country": "CA", "postalCode": "V3N2Y1", "twitter": "None", "instagram": "None", "facebook": "None", "youtube": "None", "website": "None", "summary": "None", "logo": "None", "latitude": 49.20429888039047, "longitude": -122.96898838797524}, "140591694RR0001": {"name": "SPANISH CHRISTIAN FELLOWSHIP", "designationCode": "C", "categoryCode": "39", "address": "3125 CATALINA BLVD NE", "city": "CALGARY", "province": "AB", "country": "CA", "postalCode": "T1Y6R1", "twitter": "None", "instagram": "None", "facebook": "None", "youtube": "None", "website": "None", "summary": "None", "logo": "None", "latitude": 51.08045168443073, "longitude": -113.93186245071857}, "897569133RR0001": {"name": "SPANISH CHURCH OF GOD", "designationCode": "C", "categoryCode": "39", "address": "28 DECORSO DRIVE", "city": "BRAMPTON", "province": "ON", "country": "CA", "postalCode": "L6P3T7", "twitter": "None", "instagram": "None", "facebook": "None", "youtube": "None", "website": "None", "summary": "None", "logo": "None", "latitude": 43.78047866887882, "longitude": -79.68869325907448}, "136047040RR0001": {"name": "SPANISH CHURCH OF GOD (7TH DAY)", "designationCode": "C", "categoryCode": "39", "address": "PO BOX 31533                  RPO MEADOWVALE S C", "city": "PITT MEADOWS", "province": "BC", "country": "CA", "postalCode": "V3Y2G7", "twitter": "None", "instagram": "None", "facebook": "None", "youtube": "None", "website": "None", "summary": "None", "logo": "None", "latitude": 49.22196900000006, "longitude": -122.68960999999993}, "119288918RR0917": {"name": "SPANISH CIRCUIT 2A OF JEHOVAH'S WITNESSES", "designationCode": "C", "categoryCode": "61", "address": "13893 HIGHWAY 7", "city": "GEORGETOWN", "province": "ON", "country": "CA", "postalCode": "L7G4S4", "twitter": "None", "instagram": "None", "facebook": "None", "youtube": "None", "website": "None", "summary": "None", "logo": "None", "latitude": 43.654575971005, "longitude": -79.94094796964086}, "119288918RR0968": {"name": "SPANISH CONGREGATION OF JEHOVAH'S WITNESSES", "designationCode": "C", "categoryCode": "61", "address": "930 BULLEN CRT", "city": "VICTORIA", "province": "BC", "country": "CA", "postalCode": "V9B6W5", "twitter": "None", "instagram": "None", "facebook": "None", "youtube": "None", "website": "None", "summary": "None", "logo": "None", "latitude": 48.45679041825844, "longitude": -123.50152989811892}, "119288918RR1280": {"name": "SPANISH CONGREGATION OF JEHOVAH'S WITNESSES, ABBOTSFORD BC", "designationCode": "C", "categoryCode": "61", "address": "1672 SALTON ROAD", "city": "ABBOTSFORD", "province": "BC", "country": "CA", "postalCode": "V2S7P2", "twitter": "None", "instagram": "None", "facebook": "None", "youtube": "None", "website": "None", "summary": "None", "logo": "None", "latitude": 49.03245220319798, "longitude": -122.28751715660285}, "119288918RR1368": {"name": "SPANISH CONGREGATION OF JEHOVAH'S WITNESSES, RICHMOND HILL, ONTARIO", "designationCode": "C", "categoryCode": "61", "address": "335 SIXTEENTH AVENUE", "city": "RICHMOND HILL", "province": "ON", "country": "CA", "postalCode": "L4C7A6", "twitter": "None", "instagram": "None", "facebook": "None", "youtube": "None", "website": "None", "summary": "None", "logo": "None", "latitude": 43.85511183758474, "longitude": -79.42313532526416}, "119288918RR1436": {"name": "SPANISH CONGREGATION OF JEHOVAH'S WITNESSES, WHITBY, ONTARIO", "designationCode": "C", "categoryCode": "61", "address": "101 RIBBLESDALE DR.           UNIT 31", "city": "WHITBY", "province": "ON", "country": "CA", "postalCode": "L1N6L9", "twitter": "None", "instagram": "None", "facebook": "None", "youtube": "None", "website": "None", "summary": "None", "logo": "None", "latitude": 43.894711236193665, "longitude": -78.92997055952456}, "860497924RR0001": {"name": "SPANISH FELLOWSHIP HOUSE OF PRAYER", "designationCode": "C", "categoryCode": "39", "address": "16 JOHN STREET BOX 2", "city": "SPANISH", "province": "ON", "country": "CA", "postalCode": "P0P2A0", "twitter": "None", "instagram": "None", "facebook": "None", "youtube": "None", "website": "None", "summary": "None", "logo": "None", "latitude": 46.1962842936694, "longitude": -82.34078220001128}, "107797383RR0024": {"name": "SPANISH SEVENTH-DAY ADVENTIST CHURCH", "designationCode": "C", "categoryCode": "41", "address": "60 SAINT REGIS CRESCENT S", "city": "TORONTO", "province": "ON", "country": "CA", "postalCode": "M3J1Y8", "twitter": "None", "instagram": "None", "facebook": "None", "youtube": "None", "website": "None", "summary": "None", "logo": "None", "latitude": 43.7549620124935, "longitude": -79.48554708823376}, "119288918RR1035": {"name": "SPANISH WEST CONGREGATION OF JEHOVAH'S WITNESSES", "designationCode": "C", "categoryCode": "61", "address": "495 EAST 49TH AVENUE", "city": "VANCOUVER", "province": "BC", "country": "CA", "postalCode": "V5W2G8", "twitter": "None", "instagram": "None", "facebook": "None", "youtube": "None", "website": "None", "summary": "None", "logo": "None", "latitude": 49.22556147879262, "longitude": -123.09443066472387}, "121683916RR0001": {"name": "SPARC BC SOCIETY", "designationCode": "C", "categoryCode": "09", "address": "4445 NORFOLK STREET", "city": "BURNABY", "province": "BC", "country": "CA", "postalCode": "V5G0A7", "twitter": "None", "instagram": "None", "facebook": "None", "youtube": "None", "website": "None", "summary": "None", "logo": "None", "latitude": 49.25545447936952, "longitude": -123.00515999999999}, "107998528RR0002": {"name": "SPARE TIME FUN CENTRE", "designationCode": "C", "categoryCode": "01", "address": "1350 W 67 TH AVE.", "city": "VANCOUVER", "province": "BC", "country": "CA", "postalCode": "V6P2T4", "twitter": "None", "instagram": "None", "facebook": "None", "youtube": "None", "website": "None", "summary": "None", "logo": "None", "latitude": 49.210822477927245, "longitude": -123.13647352553522}, "897307435RR0001": {"name": "SPARK SOCIETY FOR YOUTH", "designationCode": "C", "categoryCode": "59", "address": "250 HOWARD ST", "city": "KIMBERLEY", "province": "BC", "country": "CA", "postalCode": "V1A2G7", "twitter": "None", "instagram": "None", "facebook": "None", "youtube": "None", "website": "None", "summary": "None", "logo": "None", "latitude": 49.68644301690824, "longitude": -115.98240033570882}, "803979277RR0001": {"name": "SPARKS HUMANITARIAN SOCIETY, CANADA", "designationCode": "B", "categoryCode": "20", "address": "1443 WEST 48TH AVENUE", "city": "VANCOUVER", "province": "BC", "country": "CA", "postalCode": "V6M2P1", "twitter": "None", "instagram": "None", "facebook": "None", "youtube": "None", "website": "None", "summary": "None", "logo": "None", "latitude": 49.227890467684105, "longitude": -123.13844096863639}, "811621275RR0001": {"name": "SPARKS OF HOPE CHARITABLE ORGANIZATION", "designationCode": "C", "categoryCode": "01", "address": "4 ROUNDWOOD CRT", "city": "SCARBOROUGH", "province": "ON", "country": "CA", "postalCode": "M1W1Z2", "twitter": "None", "instagram": "None", "facebook": "None", "youtube": "None", "website": "None", "summary": "None", "logo": "None", "latitude": 43.78987958338634, "longitude": -79.31051435276126}, "130639594RR0001": {"name": "SPARLING UNITED CHURCH,", "designationCode": "C", "categoryCode": "44", "address": "PO BOX 116", "city": "ROSSER", "province": "MB", "country": "CA", "postalCode": "R0H1E0", "twitter": "None", "instagram": "None", "facebook": "None", "youtube": "None", "website": "None", "summary": "None", "logo": "None", "latitude": 49.99022000000008, "longitude": -97.43981999999994}, "860009489RR0001": {"name": "SPARROW LAKE UNITED CHURCH CAMP, INC.", "designationCode": "C", "categoryCode": "49", "address": "P.O BOX 23028", "city": "BARRIE", "province": "ON", "country": "CA", "postalCode": "L4N7W8", "twitter": "None", "instagram": "None", "facebook": "None", "youtube": "None", "website": "None", "summary": "None", "logo": "None", "latitude": 44.38929300000005, "longitude": -79.68626449999994}, "889299905RR0001": {"name": "SPARROWS CHRISTIAN HOUSING SOCIETY", "designationCode": "C", "categoryCode": "09", "address": "BOX 4120", "city": "SMITHERS", "province": "BC", "country": "CA", "postalCode": "V0J2N0", "twitter": "None", "instagram": "None", "facebook": "None", "youtube": "None", "website": "None", "summary": "None", "logo": "None", "latitude": 54.78190002943043, "longitude": -127.16272999999995}, "119159168RR0001": {"name": "SPARTA AND DISTRICT HISTORICAL SOCIETY", "designationCode": "C", "categoryCode": "52", "address": "BOX 34", "city": "SPARTA", "province": "ON", "country": "CA", "postalCode": "N0L2H0", "twitter": "None", "instagram": "None", "facebook": "None", "youtube": "None", "website": "None", "summary": "None", "logo": "None", "latitude": 42.69778863868988, "longitude": -81.21932872536189}, "891590903RR0001": {"name": "SPARTA COMMUNITY SOCIETY", "designationCode": "C", "categoryCode": "56", "address": "PO BOX 103", "city": "SPARTA", "province": "ON", "country": "CA", "postalCode": "N0L2H0", "twitter": "None", "instagram": "None", "facebook": "None", "youtube": "None", "website": "None", "summary": "None", "logo": "None", "latitude": 42.69778863868988, "longitude": -81.21932872536189}, "119159192RR0001": {"name": "SPARWOOD & DISTRICT ARTS AND HERITAGE COUNCIL", "designationCode": "C", "categoryCode": "22", "address": "P. O. BOX 1043", "city": "SPARWOOD", "province": "BC", "country": "CA", "postalCode": "V0B2G0", "twitter": "None", "instagram": "None", "facebook": "None", "youtube": "None", "website": "None", "summary": "None", "logo": "None", "latitude": 49.71825130304497, "longitude": -114.89137413399925}, "119159200RR0001": {"name": "SPARWOOD CHRISTIAN CENTRE", "designationCode": "C", "categoryCode": "36", "address": "PO BOX 1180", "city": "SPARWOOD", "province": "BC", "country": "CA", "postalCode": "V0B2G0", "twitter": "None", "instagram": "None", "facebook": "None", "youtube": "None", "website": "None", "summary": "None", "logo": "None", "latitude": 49.71825130304497, "longitude": -114.89137413399925}, "107998684RR0001": {"name": "SPARWOOD FELLOWSHIP BAPTIST CHURCH", "designationCode": "C", "categoryCode": "31", "address": "RR2, 1381 PONDEROSA DR", "city": "SPARWOOD", "province": "BC", "country": "CA", "postalCode": "V0B2G2", "twitter": "None", "instagram": "None", "facebook": "None", "youtube": "None", "website": "None", "summary": "None", "logo": "None", "latitude": 49.75444170439736, "longitude": -114.89466538504756}, "859833881RR0001": {"name": "SPARWOOD FOOD BANK", "designationCode": "C", "categoryCode": "09", "address": "125 D CENTENNIAL SQUARE       BOX 682", "city": "SPARWOOD", "province": "BC", "country": "CA", "postalCode": "V0B2G0", "twitter": "None", "instagram": "None", "facebook": "None", "youtube": "None", "website": "None", "summary": "None", "logo": "None", "latitude": 49.73255451875455, "longitude": -114.88783161073923}, "867576803RR0001": {"name": "SPCA - PENINSULE ACADIENNE INC.", "designationCode": "C", "categoryCode": "54", "address": "103 RUE CLERMONT MALLET", "city": "SHIPPAGAN", "province": "NB", "country": "CA", "postalCode": "E8S0A8", "twitter": "None", "instagram": "None", "facebook": "None", "youtube": "None", "website": "None", "summary": "None", "logo": "None", "latitude": 47.72062464740648, "longitude": -64.73926494038132}, "854957115RR0001": {"name": "SPCA Basses-Laurentides Lanaudi\u00e8re (Soci\u00e9t\u00e9 pour la pr\u00e9vention de la cruaut\u00e9 envers les animaux)", "designationCode": "C", "categoryCode": "54", "address": "7695, ROUTE 335", "city": "SAINT-CALIXTE", "province": "QC", "country": "CA", "postalCode": "J0K1Z0", "twitter": "None", "instagram": "None", "facebook": "None", "youtube": "None", "website": "None", "summary": "None", "logo": "None", "latitude": 45.96283094835052, "longitude": -73.87204436679238}, "135924157RR0001": {"name": "SPCA DE LA MONT\u00c9R\u00c9GIE (SOCI\u00c9T\u00c9 POUR LA PR\u00c9VENTION DE LA CRUAUT\u00c9 ENVERS LES ANIMAUX", "designationCode": "C", "categoryCode": "54", "address": "178 CHEMIN DU VIDE", "city": "STE-ANGELE DE MONNOIR", "province": "QC", "country": "CA", "postalCode": "J0L1P0", "twitter": "None", "instagram": "None", "facebook": "None", "youtube": "None", "website": "None", "summary": "None", "logo": "None", "latitude": 45.41441877814404, "longitude": -73.10946299983928}, "850532888RR0001": {"name": "SPCA St. John & District Branch Perpetual Trust", "designationCode": "B", "categoryCode": "05", "address": "155 WELLINGTON ST W 20TH FL   DEPT. #04043", "city": "TORONTO", "province": "ON", "country": "CA", "postalCode": "M5V3K7", "twitter": "None", "instagram": "None", "facebook": "None", "youtube": "None", "website": "None", "summary": "None", "logo": "None", "latitude": 43.64596585316531, "longitude": -79.38574575644876}, "889359998RR0001": {"name": "SPCA VANCOUVER HOSPITAL TRUST FUND", "designationCode": "A", "categoryCode": "55", "address": "1205 E 7TH AVENUE", "city": "VANCOUVER", "province": "BC", "country": "CA", "postalCode": "V5T1R1", "twitter": "None", "instagram": "None", "facebook": "None", "youtube": "None", "website": "None", "summary": "None", "logo": "None", "latitude": 49.26427352654484, "longitude": -123.07900033236194}, "800632549RR0001": {"name": "SPE Canadian Educational Foundation", "designationCode": "C", "categoryCode": "21", "address": "1410 - 715 5 AVE SW", "city": "CALGARY", "province": "AB", "country": "CA", "postalCode": "T2P2X6", "twitter": "None", "instagram": "None", "facebook": "None", "youtube": "None", "website": "None", "summary": "None", "logo": "None", "latitude": 51.049102357620384, "longitude": -114.08736691042554}, "893127043RR0001": {"name": "SPEAK UP FOR WILDLIFE FOUNDATION", "designationCode": "C", "categoryCode": "54", "address": "110 MATSON PLACE", "city": "PENTICTON", "province": "BC", "country": "CA", "postalCode": "V2A2P3", "twitter": "None", "instagram": "None", "facebook": "None", "youtube": "None", "website": "None", "summary": "None", "logo": "None", "latitude": 49.48883922508516, "longitude": -119.56828120760001}, "119159283RR0001": {"name": "SPECIAL ABILITY RIDING INSTITUTE", "designationCode": "C", "categoryCode": "11", "address": "12659 MEDWAY RD               RR #1", "city": "ARVA", "province": "ON", "country": "CA", "postalCode": "N0M1C0", "twitter": "None", "instagram": "None", "facebook": "None", "youtube": "None", "website": "None", "summary": "None", "logo": "None", "latitude": 43.02279215396207, "longitude": -81.39012414539239}, "888113149RR0001": {"name": "SPECIAL ENDOWMENT FUND OF IOOF SENIORS HOMES TRUST", "designationCode": "A", "categoryCode": "05", "address": "130 KING ST. W. 20TH FLOOR    PO BOX 430, STN. FIRST CDN PL.", "city": "TORONTO", "province": "ON", "country": "CA", "postalCode": "M5X1K1", "twitter": "None", "instagram": "None", "facebook": "None", "youtube": "None", "website": "None", "summary": "None", "logo": "None", "latitude": 43.64868300000006, "longitude": -79.38544399999994}, "861873495RR0001": {"name": "SPECIAL EQUESTRIANS THERAPEUTIC RIDING ASSOCIATION", "designationCode": "C", "categoryCode": "56", "address": "528 MERSEA ROAD 7 RR #5", "city": "LEAMINGTON", "province": "ON", "country": "CA", "postalCode": "N8H3V8", "twitter": "None", "instagram": "None", "facebook": "None", "youtube": "None", "website": "None", "summary": "None", "logo": "None", "latitude": 41.993568147717994, "longitude": -82.52776800539893}, "807647763RR0001": {"name": "SPECIAL NEEDS ADULT PROGRAM SERVICES ORGANIZATION", "designationCode": "C", "categoryCode": "09", "address": "922 NORTH PARK DRIVE", "city": "BRAMPTON", "province": "ON", "country": "CA", "postalCode": "L6S3Y5", "twitter": "None", "instagram": "None", "facebook": "None", "youtube": "None", "website": "None", "summary": "None", "logo": "None", "latitude": 43.73357515321142, "longitude": -79.74356921591809}, "893138446RR0001": {"name": "SPECIAL NEEDS MINISTRIES", "designationCode": "C", "categoryCode": "49", "address": "11305 PINNACLE BLVD", "city": "GRANDE PRAIRIE", "province": "AB", "country": "CA", "postalCode": "T8W0C6", "twitter": "None", "instagram": "None", "facebook": "None", "youtube": "None", "website": "None", "summary": "None", "logo": "None", "latitude": 55.14796616680133, "longitude": -118.8367837327312}, "118781145RR0001": {"name": "SPECIAL OLYMPICS ALBERTA ASSOCIATION", "designationCode": "C", "categoryCode": "56", "address": "11759 GROAT ROAD", "city": "EDMONTON", "province": "AB", "country": "CA", "postalCode": "T5M3K6", "twitter": "None", "instagram": "None", "facebook": "None", "youtube": "None", "website": "None", "summary": "None", "logo": "None", "latitude": 53.56974075240938, "longitude": -113.54923837596016}, "129472411RR0001": {"name": "SPECIAL OLYMPICS BRITISH COLUMBIA SOCIETY", "designationCode": "C", "categoryCode": "11", "address": "210-3701 EAST HASTINGS", "city": "BURNABY", "province": "BC", "country": "CA", "postalCode": "V5C2H6", "twitter": "None", "instagram": "None", "facebook": "None", "youtube": "None", "website": "None", "summary": "None", "logo": "None", "latitude": 49.28120756292845, "longitude": -123.02331543707157}, "869562041RR0001": {"name": "SPECIAL OLYMPICS CANADA FOUNDATION", "designationCode": "A", "categoryCode": "53", "address": "600-21 ST CLAIR AVE E", "city": "TORONTO", "province": "ON", "country": "CA", "postalCode": "M4T1L9", "twitter": "None", "instagram": "None", "facebook": "None", "youtube": "None", "website": "None", "summary": "None", "logo": "None", "latitude": 43.690058011175346, "longitude": -79.38485244552025}, "119030732RR0001": {"name": "SPECIAL OLYMPICS MANITOBA, INC.", "designationCode": "C", "categoryCode": "56", "address": "304-145 PACIFIC AVENUE", "city": "WINNIPEG", "province": "MB", "country": "CA", "postalCode": "R3B2Z6", "twitter": "None", "instagram": "None", "facebook": "None", "youtube": "None", "website": "None", "summary": "None", "logo": "None", "latitude": 49.90076954738885, "longitude": -97.13572952235766}, "894753458RR0001": {"name": "SPECIAL OLYMPICS N.W.T.", "designationCode": "C", "categoryCode": "56", "address": "P.O. BOX 1691", "city": "YELLOWKNIFE", "province": "NT", "country": "CA", "postalCode": "X1A2P3", "twitter": "None", "instagram": "None", "facebook": "None", "youtube": "None", "website": "None", "summary": "None", "logo": "None"}, "119068435RR0001": {"name": "SPECIAL OLYMPICS ONTARIO INC.", "designationCode": "C", "categoryCode": "56", "address": "65 OVERLEA BOULEVARD          SUITE 200", "city": "TORONTO", "province": "ON", "country": "CA", "postalCode": "M4H1P1", "twitter": "None", "instagram": "None", "facebook": "None", "youtube": "None", "website": "None", "summary": "None", "logo": "None", "latitude": 43.70760096583777, "longitude": -79.34272723951187}, "119140465RR0001": {"name": "SPECIAL OLYMPICS SASKATCHEWAN INC.", "designationCode": "C", "categoryCode": "56", "address": "1121 WINNIPEG ST", "city": "REGINA", "province": "SK", "country": "CA", "postalCode": "S4R1J5", "twitter": "None", "instagram": "None", "facebook": "None", "youtube": "None", "website": "None", "summary": "None", "logo": "None", "latitude": 50.46091200000001, "longitude": -104.59518035758005}, "119159309RR0001": {"name": "SPECIAL OLYMPICS SOCIETY OF NOVA SCOTIA", "designationCode": "C", "categoryCode": "56", "address": "5516 SPRING GARDEN RD         SUITE 201", "city": "HALIFAX", "province": "NS", "country": "CA", "postalCode": "B3J1G6", "twitter": "None", "instagram": "None", "facebook": "None", "youtube": "None", "website": "None", "summary": "None", "logo": "None", "latitude": 44.64288003191187, "longitude": -63.57741499624908}, "108229030RR0001": {"name": "SPECIAL OLYMPICS YUKON SOCIETY", "designationCode": "C", "categoryCode": "56", "address": "4061 4TH AVE", "city": "WHITEHORSE", "province": "YT", "country": "CA", "postalCode": "Y1A1H1", "twitter": "None", "instagram": "None", "facebook": "None", "youtube": "None", "website": "None", "summary": "None", "logo": "None", "latitude": 60.71522942841034, "longitude": -135.0533227731282}, "120512322RR0001": {"name": "SPECTRE DE RUE INC", "designationCode": "C", "categoryCode": "09", "address": "1280 ONTARIO EST", "city": "MONTREAL", "province": "QC", "country": "CA", "postalCode": "H2L1R6", "twitter": "None", "instagram": "None", "facebook": "None", "youtube": "None", "website": "None", "summary": "None", "logo": "None", "latitude": 45.5218460785389, "longitude": -73.56189554091424}, "892467184RR0001": {"name": "SPECTRUM ARTISTIC AND EDUCATIONAL MEDIA ASSOCIATION", "designationCode": "C", "categoryCode": "21", "address": "32 EATON AVE", "city": "TORONTO", "province": "ON", "country": "CA", "postalCode": "M4J2Z5", "twitter": "None", "instagram": "None", "facebook": "None", "youtube": "None", "website": "None", "summary": "None", "logo": "None", "latitude": 43.68042104801203, "longitude": -79.34348649544101}, "832927123RR0001": {"name": "SPECTRUM CORE COMMUNITY SERVICES SCCS, INC.", "designationCode": "C", "categoryCode": "09", "address": "808 20TH ST W", "city": "SASKATOON", "province": "SK", "country": "CA", "postalCode": "S7M0Y3", "twitter": "None", "instagram": "None", "facebook": "None", "youtube": "None", "website": "None", "summary": "None", "logo": "None", "latitude": 52.12621251875456, "longitude": -106.68183363918864}, "882069206RR0001": {"name": "SPECTRUM INTERVENTION GROUP", "designationCode": "C", "categoryCode": "20", "address": "100-19 GRENFELL CRESCENT", "city": "NEPEAN", "province": "ON", "country": "CA", "postalCode": "K2G0G3", "twitter": "None", "instagram": "None", "facebook": "None", "youtube": "None", "website": "None", "summary": "None", "logo": "None", "latitude": 45.32359486372556, "longitude": -75.72157206861291}, "107999021RR0001": {"name": "SPECTRUM JOB SEARCH SOCIETY", "designationCode": "C", "categoryCode": "20", "address": "PO BOX 8402                   STATION CENTRAL", "city": "VICTORIA", "province": "BC", "country": "CA", "postalCode": "V8W3S1", "twitter": "None", "instagram": "None", "facebook": "None", "youtube": "None", "website": "None", "summary": "None", "logo": "None", "latitude": 48.42854700000005, "longitude": -123.36445249999994}}