{"119256733RR0001": {"name": "THE SPIRITUAL ASSEMBLY OF THE BAHA'IS OF CHILLIWACK", "designationCode": "C", "categoryCode": "33", "address": "PO BOX 101 STN MAIN", "city": "CHILLIWACK", "province": "BC", "country": "CA", "postalCode": "V2P6H7", "twitter": "None", "instagram": "None", "facebook": "None", "youtube": "None", "website": "None", "summary": "None", "logo": "None", "latitude": 49.169860930294725, "longitude": -121.95627179555584}, "133152132RR0001": {"name": "THE SPIRITUAL ASSEMBLY OF THE BAHA'IS OF CLARINGTON", "designationCode": "C", "categoryCode": "33", "address": "131 SOUTHFIELD AVE", "city": "COURTICE", "province": "ON", "country": "CA", "postalCode": "L1E3K1", "twitter": "None", "instagram": "None", "facebook": "None", "youtube": "None", "website": "None", "summary": "None", "logo": "None", "latitude": 43.887880918662475, "longitude": -78.7964877352127}, "119255552RR0001": {"name": "THE SPIRITUAL ASSEMBLY OF THE BAHA'IS OF COBOURG", "designationCode": "C", "categoryCode": "33", "address": "983 OTTO DRIVE", "city": "COBOURG", "province": "ON", "country": "CA", "postalCode": "K9A5Y3", "twitter": "None", "instagram": "None", "facebook": "None", "youtube": "None", "website": "None", "summary": "None", "logo": "None", "latitude": 43.980282494287195, "longitude": -78.17162043392591}, "734953128RR0001": {"name": "THE SPIRITUAL ASSEMBLY OF THE BAHA'IS OF COLLINGWOOD", "designationCode": "B", "categoryCode": "33", "address": "293 NAPIER ST", "city": "COLLINGWOOD", "province": "ON", "country": "CA", "postalCode": "L9Y3T6", "twitter": "None", "instagram": "None", "facebook": "None", "youtube": "None", "website": "None", "summary": "None", "logo": "None", "latitude": 44.49967223024839, "longitude": -80.2080437406402}, "119256790RR0002": {"name": "THE SPIRITUAL ASSEMBLY OF THE BAHA'IS OF COQUITLAM", "designationCode": "C", "categoryCode": "33", "address": "2931 BURTON COURT", "city": "COQUITLAM", "province": "BC", "country": "CA", "postalCode": "V3C5B3", "twitter": "None", "instagram": "None", "facebook": "None", "youtube": "None", "website": "None", "summary": "None", "logo": "None", "latitude": 49.26724945715253, "longitude": -122.80047950138497}, "119256964RR0001": {"name": "THE SPIRITUAL ASSEMBLY OF THE BAHA'IS OF COURTENAY", "designationCode": "B", "categoryCode": "33", "address": "BOX 3456", "city": "COURTENAY", "province": "BC", "country": "CA", "postalCode": "V9N5N5", "twitter": "None", "instagram": "None", "facebook": "None", "youtube": "None", "website": "None", "summary": "None", "logo": "None", "latitude": 49.68669300000006, "longitude": -124.99317349999993}, "890883465RR0001": {"name": "THE SPIRITUAL ASSEMBLY OF THE BAHA'IS OF COWICHAN VALLEY \"A\"", "designationCode": "C", "categoryCode": "33", "address": "BOX 6", "city": "MILL", "province": "BC", "country": "CA", "postalCode": "V0R2P1", "twitter": "None", "instagram": "None", "facebook": "None", "youtube": "None", "website": "None", "summary": "None", "logo": "None", "latitude": 49.62458375897879, "longitude": -125.02068676108856}, "886712595RR0001": {"name": "THE SPIRITUAL ASSEMBLY OF THE BAHA'IS OF COWICHAN VALLEY E", "designationCode": "B", "categoryCode": "33", "address": "2B - 5451 MILLER RD", "city": "DUNCAN", "province": "BC", "country": "CA", "postalCode": "V9L6R2", "twitter": "None", "instagram": "None", "facebook": "None", "youtube": "None", "website": "None", "summary": "None", "logo": "None", "latitude": 48.77017534301756, "longitude": -123.71306144289468}, "879938934RR0001": {"name": "THE SPIRITUAL ASSEMBLY OF THE BAHA'IS OF CRANBROOK", "designationCode": "C", "categoryCode": "33", "address": "305 6TH ST S", "city": "CRANBROOK", "province": "BC", "country": "CA", "postalCode": "V1C1K9", "twitter": "None", "instagram": "None", "facebook": "None", "youtube": "None", "website": "None", "summary": "None", "logo": "None", "latitude": 49.502856470136955, "longitude": -115.77668255398464}, "119256832RR0001": {"name": "THE SPIRITUAL ASSEMBLY OF THE BAHA'IS OF DELTA", "designationCode": "C", "categoryCode": "33", "address": "PO BOX 165", "city": "DELTA", "province": "BC", "country": "CA", "postalCode": "V4K3N6", "twitter": "None", "instagram": "None", "facebook": "None", "youtube": "None", "website": "None", "summary": "None", "logo": "None", "latitude": 49.08485400000005, "longitude": -123.05969449999994}, "849298963RR0001": {"name": "THE SPIRITUAL ASSEMBLY OF THE BAHA'IS OF DOLLARD DES ORMEAUX", "designationCode": "A", "categoryCode": "33", "address": "61 RUE RAVEL", "city": "DOLLARD-DES-ORMEAUX", "province": "QC", "country": "CA", "postalCode": "H9G2L9", "twitter": "None", "instagram": "None", "facebook": "None", "youtube": "None", "website": "None", "summary": "None", "logo": "None", "latitude": 45.470611539140954, "longitude": -73.85194325415017}, "119256295RR0001": {"name": "THE SPIRITUAL ASSEMBLY OF THE BAHA'IS OF DRUMHELLER", "designationCode": "C", "categoryCode": "33", "address": "PO BOX 1385", "city": "DRUMHELLER", "province": "AB", "country": "CA", "postalCode": "T0J0Y0", "twitter": "None", "instagram": "None", "facebook": "None", "youtube": "None", "website": "None", "summary": "None", "logo": "None", "latitude": 51.46154700000005, "longitude": -112.70878099999993}, "119255586RR0001": {"name": "THE SPIRITUAL ASSEMBLY OF THE BAHA'IS OF EAST GWILLIMBURY", "designationCode": "C", "categoryCode": "33", "address": "PO BOX 203", "city": "SHARON", "province": "ON", "country": "CA", "postalCode": "L0G1V0", "twitter": "None", "instagram": "None", "facebook": "None", "youtube": "None", "website": "None", "summary": "None", "logo": "None", "latitude": 44.105724877646686, "longitude": -79.43873155736361}, "119256402RR0001": {"name": "THE SPIRITUAL ASSEMBLY OF THE BAHA'IS OF EDMONTON", "designationCode": "C", "categoryCode": "33", "address": "9414 111 AVE", "city": "EDMONTON", "province": "AB", "country": "CA", "postalCode": "T5G0A4", "twitter": "None", "instagram": "None", "facebook": "None", "youtube": "None", "website": "None", "summary": "None", "logo": "None", "latitude": 53.56027641661366, "longitude": -113.48616661241267}, "891549040RR0001": {"name": "THE SPIRITUAL ASSEMBLY OF THE BAHA'IS OF FAIRVIEW M D #136", "designationCode": "C", "categoryCode": "33", "address": "PO BOX 81", "city": "BLUESKY", "province": "AB", "country": "CA", "postalCode": "T0H0J0", "twitter": "None", "instagram": "None", "facebook": "None", "youtube": "None", "website": "None", "summary": "None", "logo": "None", "latitude": 56.07245000000006, "longitude": -118.23576999999995}, "863182663RR0001": {"name": "THE SPIRITUAL ASSEMBLY OF THE BAHA'IS OF FORT ERIE", "designationCode": "C", "categoryCode": "33", "address": "P. O. BOX 267", "city": "FORT ERIE", "province": "ON", "country": "CA", "postalCode": "L2A5M9", "twitter": "None", "instagram": "None", "facebook": "None", "youtube": "None", "website": "None", "summary": "None", "logo": "None", "latitude": 42.901962000000054, "longitude": -78.97422049999993}, "892039041RR0001": {"name": "THE SPIRITUAL ASSEMBLY OF THE BAHA'IS OF FORT SASKATCHEWAN", "designationCode": "C", "categoryCode": "33", "address": "9913-87 ST", "city": "FORT SASKATCHEWAN", "province": "AB", "country": "CA", "postalCode": "T8L3B1", "twitter": "None", "instagram": "None", "facebook": "None", "youtube": "None", "website": "None", "summary": "None", "logo": "None", "latitude": 53.69879262949378, "longitude": -113.24149947235864}, "887392793RR0001": {"name": "THE SPIRITUAL ASSEMBLY OF THE BAHA'IS OF FORT SMITH N.W.T.", "designationCode": "C", "categoryCode": "33", "address": "PO BOX 836", "city": "FORT SMITH", "province": "NT", "country": "CA", "postalCode": "X0E0P0", "twitter": "None", "instagram": "None", "facebook": "None", "youtube": "None", "website": "None", "summary": "None", "logo": "None", "latitude": 60.01262014865944, "longitude": -112.05264672940851}, "119255362RR0001": {"name": "THE SPIRITUAL ASSEMBLY OF THE BAHA'IS OF FREDERICTON, INCORPORATED / L'ASSEMBLEE SPIRITUELLE DES BAHA'IS DE FREDERICTON,INCORPREE", "designationCode": "C", "categoryCode": "33", "address": "P.O. BOX 443", "city": "FREDERICTON", "province": "NB", "country": "CA", "postalCode": "E3B4Z9", "twitter": "None", "instagram": "None", "facebook": "None", "youtube": "None", "website": "None", "summary": "None", "logo": "None", "latitude": 45.96062100000006, "longitude": -66.63911299999994}, "119255826RR0001": {"name": "THE SPIRITUAL ASSEMBLY OF THE BAHA'IS OF GEORGINA", "designationCode": "B", "categoryCode": "33", "address": "P.O. BOX 293", "city": "KESWICK", "province": "ON", "country": "CA", "postalCode": "L4P3E2", "twitter": "None", "instagram": "None", "facebook": "None", "youtube": "None", "website": "None", "summary": "None", "logo": "None", "latitude": 44.23899300000005, "longitude": -79.46528299999993}, "863128013RR0001": {"name": "THE SPIRITUAL ASSEMBLY OF THE BAHA'IS OF GIBSONS", "designationCode": "C", "categoryCode": "33", "address": "640 DOUGALL ROAD", "city": "GIBSONS", "province": "BC", "country": "CA", "postalCode": "V0N1V8", "twitter": "None", "instagram": "None", "facebook": "None", "youtube": "None", "website": "None", "summary": "None", "logo": "None", "latitude": 49.39602358563669, "longitude": -123.50525936551455}, "889984795RR0001": {"name": "THE SPIRITUAL ASSEMBLY OF THE BAHA'IS OF GODERICH", "designationCode": "C", "categoryCode": "33", "address": "2-26 KINGSTON STREET", "city": "GODERICH", "province": "ON", "country": "CA", "postalCode": "N7A3K1", "twitter": "None", "instagram": "None", "facebook": "None", "youtube": "None", "website": "None", "summary": "None", "logo": "None", "latitude": 43.74223378659625, "longitude": -81.71019172485882}, "119256444RR0001": {"name": "THE SPIRITUAL ASSEMBLY OF THE BAHA'IS OF GRANDE PRAIRIE", "designationCode": "C", "categoryCode": "33", "address": "PO BOX 1035", "city": "GRANDE PRAIRIE", "province": "AB", "country": "CA", "postalCode": "T8V4B5", "twitter": "None", "instagram": "None", "facebook": "None", "youtube": "None", "website": "None", "summary": "None", "logo": "None", "latitude": 55.171122000000054, "longitude": -118.79491399999993}, "889429999RR0001": {"name": "THE SPIRITUAL ASSEMBLY OF THE BAHA'IS OF GREATER SUDBURY", "designationCode": "C", "categoryCode": "33", "address": "PO BOX 892 STN B              TREASURER", "city": "SUDBURY", "province": "ON", "country": "CA", "postalCode": "P3E4S1", "twitter": "None", "instagram": "None", "facebook": "None", "youtube": "None", "website": "None", "summary": "None", "logo": "None", "latitude": 46.48958700000006, "longitude": -80.99011249999994}, "889252441RR0001": {"name": "THE SPIRITUAL ASSEMBLY OF THE BAHA'IS OF GREATER VANCOUVER A", "designationCode": "C", "categoryCode": "33", "address": "P.O. BOX 78526 UNIV. POSTAL", "city": "VANCOUVER", "province": "BC", "country": "CA", "postalCode": "V6T2E7", "twitter": "None", "instagram": "None", "facebook": "None", "youtube": "None", "website": "None", "summary": "None", "logo": "None", "latitude": 49.263861165161615, "longitude": -123.21550018322218}, "886809797RR0001": {"name": "THE SPIRITUAL ASSEMBLY OF THE BAHA'IS OF GRIMSBY", "designationCode": "C", "categoryCode": "33", "address": "P.O. BOX 372", "city": "GRIMSBY", "province": "ON", "country": "CA", "postalCode": "L3M1Z4", "twitter": "None", "instagram": "None", "facebook": "None", "youtube": "None", "website": "None", "summary": "None", "logo": "None", "latitude": 43.192122000000055, "longitude": -79.52143399999993}, "119256014RR0001": {"name": "THE SPIRITUAL ASSEMBLY OF THE BAHA'IS OF GUELPH", "designationCode": "C", "categoryCode": "33", "address": "12 FRESHMEADOW WAY", "city": "GUELPH", "province": "ON", "country": "CA", "postalCode": "N1K1R7", "twitter": "None", "instagram": "None", "facebook": "None", "youtube": "None", "website": "None", "summary": "None", "logo": "None", "latitude": 43.5218905964281, "longitude": -80.28297281444411}, "119255925RR0001": {"name": "THE SPIRITUAL ASSEMBLY OF THE BAHA'IS OF HALDIMAND", "designationCode": "C", "categoryCode": "33", "address": "110 ELIZABETH CRES", "city": "DUNNVILLE", "province": "ON", "country": "CA", "postalCode": "N1A2P1", "twitter": "None", "instagram": "None", "facebook": "None", "youtube": "None", "website": "None", "summary": "None", "logo": "None", "latitude": 42.910118894540894, "longitude": -79.61869594451481}, "132404831RR0001": {"name": "THE SPIRITUAL ASSEMBLY OF THE BAHA'IS OF HALTON HILLS", "designationCode": "C", "categoryCode": "33", "address": "10551 THIRD LINE              RR#5", "city": "MILTON", "province": "ON", "country": "CA", "postalCode": "L9T2X9", "twitter": "None", "instagram": "None", "facebook": "None", "youtube": "None", "website": "None", "summary": "None", "logo": "None", "latitude": 43.580257121668396, "longitude": -79.95173336002658}, "119159903RR0001": {"name": "THE SPIRITUAL ASSEMBLY OF THE BAHA'IS OF HAMILTON", "designationCode": "C", "categoryCode": "33", "address": "PO BOX 57009 JACKSON STATION", "city": "HAMILTON", "province": "ON", "country": "CA", "postalCode": "L8P4W9", "twitter": "None", "instagram": "None", "facebook": "None", "youtube": "None", "website": "None", "summary": "None", "logo": "None", "latitude": 43.25737371138311, "longitude": -79.88158506204714}, "891541542RR0001": {"name": "THE SPIRITUAL ASSEMBLY OF THE BAHA'IS OF HAPPY VALLEY - GOOSE BAY", "designationCode": "C", "categoryCode": "33", "address": "BOX 459 STATION B", "city": "GOOSE BAY", "province": "NL", "country": "CA", "postalCode": "A0P1E0", "twitter": "None", "instagram": "None", "facebook": "None", "youtube": "None", "website": "None", "summary": "None", "logo": "None", "latitude": 53.29581900000005, "longitude": -60.29593999999993}, "119256337RR0001": {"name": "THE SPIRITUAL ASSEMBLY OF THE BAHA'IS OF HIGH RIVER", "designationCode": "C", "categoryCode": "33", "address": "BOX 5927", "city": "HIGH RIVER", "province": "AB", "country": "CA", "postalCode": "T1V1P6", "twitter": "None", "instagram": "None", "facebook": "None", "youtube": "None", "website": "None", "summary": "None", "logo": "None", "latitude": 50.57803500000006, "longitude": -113.85914299999993}, "869243949RR0001": {"name": "THE SPIRITUAL ASSEMBLY OF THE BAHA'IS OF HIGHLANDS", "designationCode": "B", "categoryCode": "33", "address": "725 CALEB PIKE ROAD", "city": "VICTORIA", "province": "BC", "country": "CA", "postalCode": "V9B6G5", "twitter": "None", "instagram": "None", "facebook": "None", "youtube": "None", "website": "None", "summary": "None", "logo": "None"}, "890208994RR0001": {"name": "THE SPIRITUAL ASSEMBLY OF THE BAHA'IS OF INNISFIL", "designationCode": "B", "categoryCode": "33", "address": "1954 APPLEWOOD AVE", "city": "INNISFIL", "province": "ON", "country": "CA", "postalCode": "L9S1W3", "twitter": "None", "instagram": "None", "facebook": "None", "youtube": "None", "website": "None", "summary": "None", "logo": "None", "latitude": 44.307097227335525, "longitude": -79.55140750320264}, "119256709RR0001": {"name": "THE SPIRITUAL ASSEMBLY OF THE BAHA'IS OF KAMLOOPS B C", "designationCode": "C", "categoryCode": "33", "address": "PO BOX 824 MAIN STATION", "city": "KAMLOOPS", "province": "BC", "country": "CA", "postalCode": "V2C5M8", "twitter": "None", "instagram": "None", "facebook": "None", "youtube": "None", "website": "None", "summary": "None", "logo": "None", "latitude": 50.675883000000056, "longitude": -120.33898099999993}, "119257053RR0001": {"name": "THE SPIRITUAL ASSEMBLY OF THE BAHA'IS OF KAWARTHA LAKES", "designationCode": "B", "categoryCode": "33", "address": "PO BOX 161 STN MAIN", "city": "LINDSAY", "province": "ON", "country": "CA", "postalCode": "K9V4S1", "twitter": "None", "instagram": "None", "facebook": "None", "youtube": "None", "website": "None", "summary": "None", "logo": "None", "latitude": 44.35437300000005, "longitude": -78.73967149999993}, "119256030RR0001": {"name": "THE SPIRITUAL ASSEMBLY OF THE BAHA'IS OF KINCARDINE", "designationCode": "C", "categoryCode": "33", "address": "451 MACDOUGALL DRIVE", "city": "KINCARDINE", "province": "ON", "country": "CA", "postalCode": "N2Z3A9", "twitter": "None", "instagram": "None", "facebook": "None", "youtube": "None", "website": "None", "summary": "None", "logo": "None", "latitude": 44.16555950040404, "longitude": -81.63419446347184}, "119255578RR0001": {"name": "THE SPIRITUAL ASSEMBLY OF THE BAHA'IS OF KING TOWNSHIP", "designationCode": "B", "categoryCode": "33", "address": "3070 18TH SIDEROAD", "city": "KETTLEBY", "province": "ON", "country": "CA", "postalCode": "L7B0H4", "twitter": "None", "instagram": "None", "facebook": "None", "youtube": "None", "website": "None", "summary": "None", "logo": "None", "latitude": 43.995228000000054, "longitude": -79.57601899999993}, "892099979RR0001": {"name": "THE SPIRITUAL ASSEMBLY OF THE BAHA'IS OF KITCHENER", "designationCode": "C", "categoryCode": "33", "address": "PO BOX STANLEY PARK           1005 OTTAWA STREET NORTH", "city": "KITCHENER", "province": "ON", "country": "CA", "postalCode": "N2A4A7", "twitter": "None", "instagram": "None", "facebook": "None", "youtube": "None", "website": "None", "summary": "None", "logo": "None", "latitude": 43.450296368198536, "longitude": -80.44602315771299}, "887390060RR0001": {"name": "THE SPIRITUAL ASSEMBLY OF THE BAHA'IS OF LADYSMITH", "designationCode": "B", "categoryCode": "33", "address": "PO BOX 279", "city": "LADYSMITH", "province": "BC", "country": "CA", "postalCode": "V9G1A2", "twitter": "None", "instagram": "None", "facebook": "None", "youtube": "None", "website": "None", "summary": "None", "logo": "None", "latitude": 48.99822900000005, "longitude": -123.82257049999993}, "891144347RR0001": {"name": "THE SPIRITUAL ASSEMBLY OF THE BAHA'IS OF LAKE COUNTRY", "designationCode": "B", "categoryCode": "33", "address": "15544 OLD MISSION RD", "city": "LAKE COUNTRY", "province": "BC", "country": "CA", "postalCode": "V4V2G5", "twitter": "None", "instagram": "None", "facebook": "None", "youtube": "None", "website": "None", "summary": "None", "logo": "None", "latitude": 50.10848646823237, "longitude": -119.3932302709328}, "899768204RR0001": {"name": "THE SPIRITUAL ASSEMBLY OF THE BAHA'IS OF LAKESHORE", "designationCode": "B", "categoryCode": "33", "address": "151 WALSTEDT WAY", "city": "BELLE RIVER", "province": "ON", "country": "CA", "postalCode": "N0R1A0", "twitter": "None", "instagram": "None", "facebook": "None", "youtube": "None", "website": "None", "summary": "None", "logo": "None", "latitude": 42.30684757507646, "longitude": -82.80781591087218}, "882054307RR0001": {"name": "THE SPIRITUAL ASSEMBLY OF THE BAHA'IS OF LAMBTON SHORES", "designationCode": "B", "categoryCode": "33", "address": "22 ONTARIO STREET SOUTH       PO BOX 478", "city": "GRAND BEND", "province": "ON", "country": "CA", "postalCode": "N0M1T0", "twitter": "None", "instagram": "None", "facebook": "None", "youtube": "None", "website": "None", "summary": "None", "logo": "None", "latitude": 43.31076940215827, "longitude": -81.75788493031924}, "119256774RR0001": {"name": "THE SPIRITUAL ASSEMBLY OF THE BAHA'IS OF LANGLEY CITY B C", "designationCode": "C", "categoryCode": "33", "address": "PO BOX 56001 VALLEY CTR RPO", "city": "LANGLEY", "province": "BC", "country": "CA", "postalCode": "V3A8B3", "twitter": "None", "instagram": "None", "facebook": "None", "youtube": "None", "website": "None", "summary": "None", "logo": "None", "latitude": 49.10435700000005, "longitude": -122.65652149999994}, "119256634RR0001": {"name": "THE SPIRITUAL ASSEMBLY OF THE BAHA'IS OF LANGLEY DISTRICT", "designationCode": "C", "categoryCode": "33", "address": "PO BOX 32015 PRO WALNUT GROVE", "city": "LANGLEY", "province": "BC", "country": "CA", "postalCode": "V1M2M3", "twitter": "None", "instagram": "None", "facebook": "None", "youtube": "None", "website": "None", "summary": "None", "logo": "None", "latitude": 49.16335796474569, "longitude": -122.64039464035474}, "890795941RR0001": {"name": "THE SPIRITUAL ASSEMBLY OF THE BAHA'IS OF LAPECHE", "designationCode": "C", "categoryCode": "33", "address": "84 CH DE LA VALL\u00c9E DE         WAKEFIELD", "city": "LA PECHE", "province": "QC", "country": "CA", "postalCode": "J0X3G0", "twitter": "None", "instagram": "None", "facebook": "None", "youtube": "None", "website": "None", "summary": "None", "logo": "None", "latitude": 45.62996810603604, "longitude": -75.93298030492214}, "890914393RR0001": {"name": "THE SPIRITUAL ASSEMBLY OF THE BAHA'IS OF LAVAL", "designationCode": "C", "categoryCode": "33", "address": "3758 BOUL. STE ROSE", "city": "LAVAL", "province": "QC", "country": "CA", "postalCode": "H7P1C4", "twitter": "None", "instagram": "None", "facebook": "None", "youtube": "None", "website": "None", "summary": "None", "logo": "None", "latitude": 45.5808508956374, "longitude": -73.82059116749383}, "890700842RR0001": {"name": "THE SPIRITUAL ASSEMBLY OF THE BAHA'IS OF LEDUC", "designationCode": "C", "categoryCode": "33", "address": "P O BOX 3423", "city": "LEDUC", "province": "AB", "country": "CA", "postalCode": "T9E6M2", "twitter": "None", "instagram": "None", "facebook": "None", "youtube": "None", "website": "None", "summary": "None", "logo": "None", "latitude": 53.26051200000006, "longitude": -113.54857099999992}, "119256766RR0001": {"name": "THE SPIRITUAL ASSEMBLY OF THE BAHA'IS OF MAPLE RIDGE", "designationCode": "C", "categoryCode": "33", "address": "BOX 274", "city": "MAPLE RIDGE", "province": "BC", "country": "CA", "postalCode": "V2X7G2", "twitter": "None", "instagram": "None", "facebook": "None", "youtube": "None", "website": "None", "summary": "None", "logo": "None", "latitude": 49.21686600000005, "longitude": -122.60537449999993}, "119256386RR0001": {"name": "THE SPIRITUAL ASSEMBLY OF THE BAHA'IS OF MEDICINE HAT", "designationCode": "C", "categoryCode": "33", "address": "4 - 1731A DUNMORE RD SE", "city": "MEDICINE HAT", "province": "AB", "country": "CA", "postalCode": "T1A1Z8", "twitter": "None", "instagram": "None", "facebook": "None", "youtube": "None", "website": "None", "summary": "None", "logo": "None", "latitude": 50.01772037520295, "longitude": -110.65902725766647}, "892514019RR0001": {"name": "THE SPIRITUAL ASSEMBLY OF THE BAHA'IS OF METCHOSIN", "designationCode": "B", "categoryCode": "33", "address": "P.O. BOX 27046", "city": "VICTORIA", "province": "BC", "country": "CA", "postalCode": "V9B5S4", "twitter": "None", "instagram": "None", "facebook": "None", "youtube": "None", "website": "None", "summary": "None", "logo": "None", "latitude": 48.49310400000006, "longitude": -123.50297599999993}, "119255974RR0001": {"name": "THE SPIRITUAL ASSEMBLY OF THE BAHA'IS OF MIDDLESEX CENTRE", "designationCode": "B", "categoryCode": "33", "address": "P.O.BOX 513", "city": "ILDERTON", "province": "ON", "country": "CA", "postalCode": "N0M2A0", "twitter": "None", "instagram": "None", "facebook": "None", "youtube": "None", "website": "None", "summary": "None", "logo": "None", "latitude": 42.996924570878505, "longitude": -81.5264312436531}, "119255834RR0001": {"name": "THE SPIRITUAL ASSEMBLY OF THE BAHA'IS OF MIDLAND", "designationCode": "C", "categoryCode": "33", "address": "P.O. BOX 536", "city": "MIDLAND", "province": "ON", "country": "CA", "postalCode": "L4R4L3", "twitter": "None", "instagram": "None", "facebook": "None", "youtube": "None", "website": "None", "summary": "None", "logo": "None"}, "132242249RR0001": {"name": "THE SPIRITUAL ASSEMBLY OF THE BAHA'IS OF MILTON", "designationCode": "C", "categoryCode": "33", "address": "713 SYER DR", "city": "MILTON", "province": "ON", "country": "CA", "postalCode": "L9T4C5", "twitter": "None", "instagram": "None", "facebook": "None", "youtube": "None", "website": "None", "summary": "None", "logo": "None", "latitude": 43.51373036943835, "longitude": -79.85515683833454}, "119159614RR0001": {"name": "THE SPIRITUAL ASSEMBLY OF THE BAHA'IS OF MONCTON, INCORPORATED-L'ASSEMBLEE SPIRITUELLE DES BAHA'IS DE MONCTON, INCORPOREE", "designationCode": "C", "categoryCode": "33", "address": "PO BOX 404", "city": "MONCTON", "province": "NB", "country": "CA", "postalCode": "E1C8L4", "twitter": "None", "instagram": "None", "facebook": "None", "youtube": "None", "website": "None", "summary": "None", "logo": "None", "latitude": 46.08834900000005, "longitude": -64.77824149999994}, "119160026RR0001": {"name": "THE SPIRITUAL ASSEMBLY OF THE BAHA'IS OF MOOSE JAW INC.", "designationCode": "C", "categoryCode": "33", "address": "PO BOX 1701 STN MAIN", "city": "MOOSE JAW", "province": "SK", "country": "CA", "postalCode": "S6H7K7", "twitter": "None", "instagram": "None", "facebook": "None", "youtube": "None", "website": "None", "summary": "None", "logo": "None", "latitude": 50.37724922856035, "longitude": -105.53464629643145}, "119256972RR0001": {"name": "THE SPIRITUAL ASSEMBLY OF THE BAHA'IS OF NANAIMO", "designationCode": "C", "categoryCode": "33", "address": "PO BOX 41081 RPO WOODGROVE", "city": "NANAIMO", "province": "BC", "country": "CA", "postalCode": "V9T6M7", "twitter": "None", "instagram": "None", "facebook": "None", "youtube": "None", "website": "None", "summary": "None", "logo": "None", "latitude": 49.222950548892, "longitude": -124.04011127817928}, "119255610RR0001": {"name": "THE SPIRITUAL ASSEMBLY OF THE BAHA'IS OF NEW TECUMSETH", "designationCode": "C", "categoryCode": "33", "address": "54 ONTARIO STREET", "city": "ALLISTON", "province": "ON", "country": "CA", "postalCode": "L9R1H4", "twitter": "None", "instagram": "None", "facebook": "None", "youtube": "None", "website": "None", "summary": "None", "logo": "None", "latitude": 44.15000672439266, "longitude": -79.87545645700828}, "887330991RR0001": {"name": "THE SPIRITUAL ASSEMBLY OF THE BAHA'IS OF NEW WESTMINSTER", "designationCode": "C", "categoryCode": "33", "address": "P.O. BOX 0027                 667-COLUMBIA ST", "city": "NEW WESTMINSTER", "province": "BC", "country": "CA", "postalCode": "V3M1A8", "twitter": "None", "instagram": "None", "facebook": "None", "youtube": "None", "website": "None", "summary": "None", "logo": "None", "latitude": 49.202509655850854, "longitude": -122.90933272617175}, "889972667RR0001": {"name": "THE SPIRITUAL ASSEMBLY OF THE BAHA'IS OF NEWMARKET", "designationCode": "C", "categoryCode": "33", "address": "P.O. BOX 7019                 665 STONEHAVEN AVE", "city": "NEWMARKET", "province": "ON", "country": "CA", "postalCode": "L3X2G9", "twitter": "None", "instagram": "None", "facebook": "None", "youtube": "None", "website": "None", "summary": "None", "logo": "None", "latitude": 44.03360922517112, "longitude": -79.4494775875986}, "119159820RR0001": {"name": "THE SPIRITUAL ASSEMBLY OF THE BAHA'IS OF NIAGARA FALLS ONTARIO", "designationCode": "C", "categoryCode": "33", "address": "8110 PINELLAS PARK DRIVE", "city": "NIAGARA FALLS", "province": "ON", "country": "CA", "postalCode": "L2H3B1", "twitter": "None", "instagram": "None", "facebook": "None", "youtube": "None", "website": "None", "summary": "None", "logo": "None", "latitude": 43.105402614749956, "longitude": -79.13383180723073}, "891525842RR0001": {"name": "THE SPIRITUAL ASSEMBLY OF THE BAHA'IS OF NIAGARA-ON-THE-LAKE", "designationCode": "C", "categoryCode": "33", "address": "BOX 1155", "city": "NIAGARA ON THE LAKE", "province": "ON", "country": "CA", "postalCode": "L0S1J0", "twitter": "None", "instagram": "None", "facebook": "None", "youtube": "None", "website": "None", "summary": "None", "logo": "None", "latitude": 43.23448500000005, "longitude": -79.16177149999993}, "859436933RR0001": {"name": "THE SPIRITUAL ASSEMBLY OF THE BAHA'IS OF NORFOLK", "designationCode": "C", "categoryCode": "33", "address": "PO BOX 15", "city": "PORT ROWAN", "province": "ON", "country": "CA", "postalCode": "N0E1M0", "twitter": "None", "instagram": "None", "facebook": "None", "youtube": "None", "website": "None", "summary": "None", "logo": "None", "latitude": 42.62403000000006, "longitude": -80.45044999999999}, "119256246RR0001": {"name": "THE SPIRITUAL ASSEMBLY OF THE BAHA'IS OF NORTH BATTLEFORD", "designationCode": "B", "categoryCode": "33", "address": "BOX 293", "city": "NORTH BATTLEFORD", "province": "SK", "country": "CA", "postalCode": "S9A2Y3", "twitter": "None", "instagram": "None", "facebook": "None", "youtube": "None", "website": "None", "summary": "None", "logo": "None", "latitude": 52.77640200000006, "longitude": -108.29903299999994}, "119159978RR0001": {"name": "THE SPIRITUAL ASSEMBLY OF THE BAHA'IS OF NORTH BAY", "designationCode": "C", "categoryCode": "33", "address": "PO BOX 553  STN MAIN", "city": "NORTH BAY", "province": "ON", "country": "CA", "postalCode": "P1B8J1", "twitter": "None", "instagram": "None", "facebook": "None", "youtube": "None", "website": "None", "summary": "None", "logo": "None", "latitude": 46.321452162305185, "longitude": -79.48136420420431}, "119256956RR0001": {"name": "THE SPIRITUAL ASSEMBLY OF THE BAHA'IS OF NORTH COWICHAN", "designationCode": "C", "categoryCode": "33", "address": "BOX 458", "city": "DUNCAN", "province": "BC", "country": "CA", "postalCode": "V9L3X8", "twitter": "None", "instagram": "None", "facebook": "None", "youtube": "None", "website": "None", "summary": "None", "logo": "None", "latitude": 48.77908800000006, "longitude": -123.70739299999994}, "867536674RR0001": {"name": "THE SPIRITUAL ASSEMBLY OF THE BAHA'IS OF NORTH DUMFRIES", "designationCode": "B", "categoryCode": "33", "address": "P.O. BOX 1083", "city": "AYR", "province": "ON", "country": "CA", "postalCode": "N0B1E0", "twitter": "None", "instagram": "None", "facebook": "None", "youtube": "None", "website": "None", "summary": "None", "logo": "None", "latitude": 43.30986900000005, "longitude": -80.39982049999993}, "134755750RR0001": {"name": "THE SPIRITUAL ASSEMBLY OF THE BAHA'IS OF NORTH SAANICH", "designationCode": "C", "categoryCode": "33", "address": "PO BOX 2652", "city": "SIDNEY", "province": "BC", "country": "CA", "postalCode": "V8L4C1", "twitter": "None", "instagram": "None", "facebook": "None", "youtube": "None", "website": "None", "summary": "None", "logo": "None", "latitude": 48.65020800000005, "longitude": -123.39842299999994}, "119256865RR0001": {"name": "THE SPIRITUAL ASSEMBLY OF THE BAHA'IS OF NORTH VANCOUVER DISTRICT", "designationCode": "C", "categoryCode": "33", "address": "PO BOX 38612                  METROPOLITAN POSTAL OUTLET", "city": "NORTH VANCOUVER", "province": "BC", "country": "CA", "postalCode": "V7M3N1", "twitter": "None", "instagram": "None", "facebook": "None", "youtube": "None", "website": "None", "summary": "None", "logo": "None", "latitude": 49.32107700000006, "longitude": -123.07521049999994}, "872849898RR0001": {"name": "THE SPIRITUAL ASSEMBLY OF THE BAHA'IS OF OKOTOKS", "designationCode": "B", "categoryCode": "33", "address": "P.O. BOX 1281", "city": "OKOTOKS", "province": "AB", "country": "CA", "postalCode": "T1S1B3", "twitter": "None", "instagram": "None", "facebook": "None", "youtube": "None", "website": "None", "summary": "None", "logo": "None", "latitude": 50.72589600000006, "longitude": -113.97494149999994}, "119256139RR0001": {"name": "THE SPIRITUAL ASSEMBLY OF THE BAHA'IS OF OLIVER PAIPOONGE", "designationCode": "B", "categoryCode": "33", "address": "27 INTOLA RD", "city": "MURILLO", "province": "ON", "country": "CA", "postalCode": "P7G0T4", "twitter": "None", "instagram": "None", "facebook": "None", "youtube": "None", "website": "None", "summary": "None", "logo": "None", "latitude": 48.487874749849844, "longitude": -89.4492690338839}, "119255768RR0001": {"name": "THE SPIRITUAL ASSEMBLY OF THE BAHA'IS OF ORILLIA", "designationCode": "C", "categoryCode": "33", "address": "PO BOX 104  STN MAIN", "city": "ORILLIA", "province": "ON", "country": "CA", "postalCode": "L3V6H9", "twitter": "None", "instagram": "None", "facebook": "None", "youtube": "None", "website": "None", "summary": "None", "logo": "None", "latitude": 44.58482747647954, "longitude": -79.42452845126093}, "889537643RR0001": {"name": "THE SPIRITUAL ASSEMBLY OF THE BAHA'IS OF OSHAWA", "designationCode": "C", "categoryCode": "33", "address": "500 ROSSLAND RD W             P.O. BOX 58032", "city": "OSHAWA", "province": "ON", "country": "CA", "postalCode": "L1J8L6", "twitter": "None", "instagram": "None", "facebook": "None", "youtube": "None", "website": "None", "summary": "None", "logo": "None", "latitude": 43.91084618016021, "longitude": -78.89033963379295}, "119159747RR0001": {"name": "THE SPIRITUAL ASSEMBLY OF THE BAHA'IS OF OTTAWA/L'ASSEMBLEE SPIRITUELLE DES BAHA'IS D'OTTAWA", "designationCode": "C", "categoryCode": "33", "address": "211 MCARTHUR AVE", "city": "OTTAWA", "province": "ON", "country": "CA", "postalCode": "K1L6P6", "twitter": "None", "instagram": "None", "facebook": "None", "youtube": "None", "website": "None", "summary": "None", "logo": "None", "latitude": 45.43131246768412, "longitude": -75.66128386525475}, "886204395RR0001": {"name": "THE SPIRITUAL ASSEMBLY OF THE BAHA'IS OF OWEN SOUND", "designationCode": "C", "categoryCode": "33", "address": "523 2ND AVENUE EAST", "city": "OWEN SOUND", "province": "ON", "country": "CA", "postalCode": "N4K2G5", "twitter": "None", "instagram": "None", "facebook": "None", "youtube": "None", "website": "None", "summary": "None", "logo": "None", "latitude": 44.55870647821569, "longitude": -80.94117538923211}, "885383760RR0001": {"name": "THE SPIRITUAL ASSEMBLY OF THE BAHA'IS OF PARKLAND COUNTY", "designationCode": "C", "categoryCode": "33", "address": "BOX 443", "city": "SEBA BEACH", "province": "AB", "country": "CA", "postalCode": "T0E2B0", "twitter": "None", "instagram": "None", "facebook": "None", "youtube": "None", "website": "None", "summary": "None", "logo": "None", "latitude": 53.55925000000008, "longitude": -114.73865999999998}, "119256576RR0001": {"name": "THE SPIRITUAL ASSEMBLY OF THE BAHA'IS OF PARKSVILLE", "designationCode": "C", "categoryCode": "33", "address": "206 - 220 ISLAND HWY W", "city": "PARKSVILLE", "province": "BC", "country": "CA", "postalCode": "V9P2P3", "twitter": "None", "instagram": "None", "facebook": "None", "youtube": "None", "website": "None", "summary": "None", "logo": "None", "latitude": 49.347638651501946, "longitude": -124.36260424806811}, "886824325RR0001": {"name": "THE SPIRITUAL ASSEMBLY OF THE BAHA'IS OF PARRY SOUND", "designationCode": "B", "categoryCode": "33", "address": "23A EDWARD ST.", "city": "PARRY SOUND", "province": "ON", "country": "CA", "postalCode": "P2A2Y5", "twitter": "None", "instagram": "None", "facebook": "None", "youtube": "None", "website": "None", "summary": "None", "logo": "None", "latitude": 45.3462467725884, "longitude": -80.01946451277308}, "140150921RR0001": {"name": "THE SPIRITUAL ASSEMBLY OF THE BAHA'IS OF PELHAM", "designationCode": "C", "categoryCode": "33", "address": "159 WELLAND RD", "city": "FONTHILL", "province": "ON", "country": "CA", "postalCode": "L0S1E4", "twitter": "None", "instagram": "None", "facebook": "None", "youtube": "None", "website": "None", "summary": "None", "logo": "None", "latitude": 43.02516049711447, "longitude": -79.29587194463038}, "119256691RR0001": {"name": "THE SPIRITUAL ASSEMBLY OF THE BAHA'IS OF PENTICTON", "designationCode": "C", "categoryCode": "33", "address": "130 UPLANDS PLACE", "city": "PENTICTON", "province": "BC", "country": "CA", "postalCode": "V2A7Y1", "twitter": "None", "instagram": "None", "facebook": "None", "youtube": "None", "website": "None", "summary": "None", "logo": "None", "latitude": 49.502223000000015, "longitude": -119.57891279975759}, "119255685RR0001": {"name": "THE SPIRITUAL ASSEMBLY OF THE BAHA'IS OF PICKERING", "designationCode": "C", "categoryCode": "33", "address": "BOX 397", "city": "PICKERING", "province": "ON", "country": "CA", "postalCode": "L1V2R6", "twitter": "None", "instagram": "None", "facebook": "None", "youtube": "None", "website": "None", "summary": "None", "logo": "None", "latitude": 43.837818000000055, "longitude": -79.08191449999994}, "888521440RR0001": {"name": "THE SPIRITUAL ASSEMBLY OF THE BAHA'IS OF PITT MEADOWS", "designationCode": "B", "categoryCode": "33", "address": "P O BOX 31564", "city": "PITT MEADOWS", "province": "BC", "country": "CA", "postalCode": "V3Y2G7", "twitter": "None", "instagram": "None", "facebook": "None", "youtube": "None", "website": "None", "summary": "None", "logo": "None", "latitude": 49.22196900000006, "longitude": -122.68960999999993}, "119256980RR0001": {"name": "THE SPIRITUAL ASSEMBLY OF THE BAHA'IS OF PORT ALBERNI", "designationCode": "C", "categoryCode": "33", "address": "5765 BROWN RD", "city": "PORT ALBERNI", "province": "BC", "country": "CA", "postalCode": "V9Y7E5", "twitter": "None", "instagram": "None", "facebook": "None", "youtube": "None", "website": "None", "summary": "None", "logo": "None", "latitude": 49.265757533181265, "longitude": -124.835832}, "880946215RR0001": {"name": "THE SPIRITUAL ASSEMBLY OF THE BAHA'IS OF PORT COQUITLAM", "designationCode": "C", "categoryCode": "33", "address": "PO BOX 642", "city": "PORT COQUITLAM", "province": "BC", "country": "CA", "postalCode": "V3B6H9", "twitter": "None", "instagram": "None", "facebook": "None", "youtube": "None", "website": "None", "summary": "None", "logo": "None", "latitude": 49.27258500000005, "longitude": -122.75999449999993}, "895079408RR0001": {"name": "THE SPIRITUAL ASSEMBLY OF THE BAHA'IS OF PORT MOODY", "designationCode": "C", "categoryCode": "33", "address": "P.O. BOX 31089", "city": "PORT MOODY", "province": "BC", "country": "CA", "postalCode": "V3H4T4", "twitter": "None", "instagram": "None", "facebook": "None", "youtube": "None", "website": "None", "summary": "None", "logo": "None", "latitude": 49.28240400000006, "longitude": -122.82934399999994}, "119257152RR0001": {"name": "THE SPIRITUAL ASSEMBLY OF THE BAHA'IS OF POWELL RIVER", "designationCode": "C", "categoryCode": "33", "address": "4007 JOYCE AVE.", "city": "POWELL RIVER", "province": "BC", "country": "CA", "postalCode": "V8A2Z4", "twitter": "None", "instagram": "None", "facebook": "None", "youtube": "None", "website": "None", "summary": "None", "logo": "None", "latitude": 49.82425987898898, "longitude": -124.52055445354584}, "119256238RR0001": {"name": "THE SPIRITUAL ASSEMBLY OF THE BAHA'IS OF PRINCE ALBERT", "designationCode": "B", "categoryCode": "33", "address": "BOX - 695", "city": "PRINCE ALBERT", "province": "SK", "country": "CA", "postalCode": "S6V5S2", "twitter": "None", "instagram": "None", "facebook": "None", "youtube": "None", "website": "None", "summary": "None", "logo": "None", "latitude": 53.199456000000055, "longitude": -105.74863099999993}, "133336545RR0001": {"name": "THE SPIRITUAL ASSEMBLY OF THE BAHA'IS OF PRINCE GEORGE", "designationCode": "C", "categoryCode": "33", "address": "BOX 1772 STATION A", "city": "PRINCE GEORGE", "province": "BC", "country": "CA", "postalCode": "V2L4V7", "twitter": "None", "instagram": "None", "facebook": "None", "youtube": "None", "website": "None", "summary": "None", "logo": "None", "latitude": 53.91241800000006, "longitude": -122.74463149999994}, "889279196RR0001": {"name": "THE SPIRITUAL ASSEMBLY OF THE BAHA'IS OF PRINCE RUPERT", "designationCode": "C", "categoryCode": "33", "address": "245 CRESTVIEW DR", "city": "PRINCE RUPERT", "province": "BC", "country": "CA", "postalCode": "V8J2Z6", "twitter": "None", "instagram": "None", "facebook": "None", "youtube": "None", "website": "None", "summary": "None", "logo": "None", "latitude": 54.31784269135562, "longitude": -130.2913463913096}, "119255958RR0001": {"name": "THE SPIRITUAL ASSEMBLY OF THE BAHA'IS OF PUSLINCH", "designationCode": "C", "categoryCode": "33", "address": "18 BADENOCH ST", "city": "MORRISTON", "province": "ON", "country": "CA", "postalCode": "N0B2C0", "twitter": "None", "instagram": "None", "facebook": "None", "youtube": "None", "website": "None", "summary": "None", "logo": "None"}, "122207723RR0001": {"name": "THE SPIRITUAL ASSEMBLY OF THE BAHA'IS OF QUALICUM BEACH", "designationCode": "C", "categoryCode": "33", "address": "1230 MIDIRON CLOSE", "city": "QUALICUM BEACH", "province": "BC", "country": "CA", "postalCode": "V9K1C6", "twitter": "None", "instagram": "None", "facebook": "None", "youtube": "None", "website": "None", "summary": "None", "logo": "None", "latitude": 49.34915498332293, "longitude": -124.38949198655422}, "119256857RR0001": {"name": "THE SPIRITUAL ASSEMBLY OF THE BAHA'IS OF RICHMOND", "designationCode": "C", "categoryCode": "33", "address": "P.O. BOX 26116 CTR RICHMOND PO", "city": "RICHMOND", "province": "BC", "country": "CA", "postalCode": "V6Y3V3", "twitter": "None", "instagram": "None", "facebook": "None", "youtube": "None", "website": "None", "summary": "None", "logo": "None", "latitude": 49.163343000000054, "longitude": -123.13664449999993}, "119255792RR0001": {"name": "THE SPIRITUAL ASSEMBLY OF THE BAHA'IS OF RICHMOND HILL", "designationCode": "C", "categoryCode": "33", "address": "BOX 32063 RPO 250 HARDING BLVD", "city": "RICHMOND HILL", "province": "ON", "country": "CA", "postalCode": "L4C9S3", "twitter": "None", "instagram": "None", "facebook": "None", "youtube": "None", "website": "None", "summary": "None", "logo": "None", "latitude": 43.86815121790044, "longitude": -79.44855576014234}, "119255354RR0001": {"name": "THE SPIRITUAL ASSEMBLY OF THE BAHA'IS OF RIVERVIEW", "designationCode": "B", "categoryCode": "33", "address": "713 YALE AVE", "city": "RIVERVIEW", "province": "NB", "country": "CA", "postalCode": "E1B2C3", "twitter": "None", "instagram": "None", "facebook": "None", "youtube": "None", "website": "None", "summary": "None", "logo": "None", "latitude": 46.05697191312255, "longitude": -64.79675782933218}, "878495969RR0001": {"name": "THE SPIRITUAL ASSEMBLY OF THE BAHA'IS OF RUSSELL TOWNSHIP", "designationCode": "B", "categoryCode": "33", "address": "523 GASCON STREET", "city": "RUSSELL", "province": "ON", "country": "CA", "postalCode": "K4R1C6", "twitter": "None", "instagram": "None", "facebook": "None", "youtube": "None", "website": "None", "summary": "None", "logo": "None", "latitude": 45.258416539969964, "longitude": -75.34522967527985}, "132716887RR0001": {"name": "THE SPIRITUAL ASSEMBLY OF THE BAHA'IS OF SAANICH", "designationCode": "C", "categoryCode": "33", "address": "3921 CARMICHAEL TERRACE", "city": "VICTORIA", "province": "BC", "country": "CA", "postalCode": "V8Z7B9", "twitter": "None", "instagram": "None", "facebook": "None", "youtube": "None", "website": "None", "summary": "None", "logo": "None", "latitude": 48.47284670162741, "longitude": -123.41680799497968}, "119256659RR0001": {"name": "THE SPIRITUAL ASSEMBLY OF THE BAHA'IS OF SALMON ARM", "designationCode": "C", "categoryCode": "33", "address": "1890-20TH AVE N.E.", "city": "SALMON ARM", "province": "BC", "country": "CA", "postalCode": "V1E2G3", "twitter": "None", "instagram": "None", "facebook": "None", "youtube": "None", "website": "None", "summary": "None", "logo": "None", "latitude": 50.71439248788189, "longitude": -119.26341997446477}, "119256600RR0001": {"name": "THE SPIRITUAL ASSEMBLY OF THE BAHA'IS OF SALTSPRING ISLAND F", "designationCode": "C", "categoryCode": "33", "address": "132 BROOKWOOD ROAD", "city": "SALT SPRING ISLAND", "province": "BC", "country": "CA", "postalCode": "V8K1W4", "twitter": "None", "instagram": "None", "facebook": "None", "youtube": "None", "website": "None", "summary": "None", "logo": "None", "latitude": 48.7663369606221, "longitude": -123.39393740828051}, "119256097RR0001": {"name": "THE SPIRITUAL ASSEMBLY OF THE BAHA'IS OF SARNIA", "designationCode": "C", "categoryCode": "33", "address": "2527 HAMILTON RD.", "city": "BRIGHTS GROVE", "province": "ON", "country": "CA", "postalCode": "N0N1C0", "twitter": "None", "instagram": "None", "facebook": "None", "youtube": "None", "website": "None", "summary": "None", "logo": "None", "latitude": 43.02989341645802, "longitude": -82.26624879007943}, "119257061RR0001": {"name": "THE SPIRITUAL ASSEMBLY OF THE BAHA'IS OF SAULT STE MARIE", "designationCode": "B", "categoryCode": "33", "address": "PO/CP 20027", "city": "SAULT STE MARIE", "province": "ON", "country": "CA", "postalCode": "P6A6N2", "twitter": "None", "instagram": "None", "facebook": "None", "youtube": "None", "website": "None", "summary": "None", "logo": "None", "latitude": 46.517883000000054, "longitude": -84.34795399999993}}