{"107282071RR0001": {"name": "EDMONTON BETHEL BIBLE FELLOWSHIP ASSEMBLY", "designationCode": "C", "categoryCode": "39", "address": "PO BOX 22040                  RPO POLLARD MEADOWS", "city": "EDMONTON", "province": "AB", "country": "CA", "postalCode": "T6L0A1", "twitter": "None", "instagram": "None", "facebook": "None", "youtube": "None", "website": "None", "summary": "None", "logo": "None", "latitude": 53.44833006665108, "longitude": -113.41363992988745}, "881307920RR0001": {"name": "EDMONTON BIBLE & GOSPEL HALL", "designationCode": "C", "categoryCode": "49", "address": "61-52010 RANGE ROAD 233", "city": "SHERWOOD PARK", "province": "AB", "country": "CA", "postalCode": "T8B1C4", "twitter": "None", "instagram": "None", "facebook": "None", "youtube": "None", "website": "None", "summary": "None", "logo": "None", "latitude": 53.45602909435062, "longitude": -113.32392535685796}, "889045449RR0001": {"name": "EDMONTON BIBLE PRESBYTERIAN CHURCH", "designationCode": "C", "categoryCode": "39", "address": "376 KASKA RD", "city": "SHERWOOD PARK", "province": "AB", "country": "CA", "postalCode": "T8A4G8", "twitter": "None", "instagram": "None", "facebook": "None", "youtube": "None", "website": "None", "summary": "None", "logo": "None", "latitude": 53.5389874565756, "longitude": -113.32972366763806}, "876795675RR0001": {"name": "EDMONTON BUDDHIST RESEARCH INSTITUTE", "designationCode": "C", "categoryCode": "35", "address": "11328 97 ST NW", "city": "EDMONTON", "province": "AB", "country": "CA", "postalCode": "T5G1X4", "twitter": "None", "instagram": "None", "facebook": "None", "youtube": "None", "website": "None", "summary": "None", "logo": "None", "latitude": 53.56373332944776, "longitude": -113.49192971097554}, "862825916RR0001": {"name": "EDMONTON CAPITAL CITY CHURCH OF CHRIST", "designationCode": "C", "categoryCode": "39", "address": "PO BOX 17012 RPO UPTOWN", "city": "EDMONTON", "province": "AB", "country": "CA", "postalCode": "T5K0G4", "twitter": "None", "instagram": "None", "facebook": "None", "youtube": "None", "website": "None", "summary": "None", "logo": "None", "latitude": 53.54623500000005, "longitude": -113.49037249999994}, "118893460RR0001": {"name": "EDMONTON CARDIAC INSTITUTE", "designationCode": "C", "categoryCode": "11", "address": "11231 151 ST NW", "city": "EDMONTON", "province": "AB", "country": "CA", "postalCode": "T5M4B8", "twitter": "None", "instagram": "None", "facebook": "None", "youtube": "None", "website": "None", "summary": "None", "logo": "None", "latitude": 53.562015220093485, "longitude": -113.5811157984022}, "880730221RR0001": {"name": "EDMONTON CARING CLOWNS SOCIETY", "designationCode": "C", "categoryCode": "11", "address": "210-10809-70 AVENUE NW", "city": "EDMONTON", "province": "AB", "country": "CA", "postalCode": "T6H4Y5", "twitter": "None", "instagram": "None", "facebook": "None", "youtube": "None", "website": "None", "summary": "None", "logo": "None", "latitude": 53.50656599999999, "longitude": -113.510392436688}, "118893478RR0001": {"name": "EDMONTON CATHOLIC CEMETERIES", "designationCode": "C", "categoryCode": "59", "address": "14611 MARK MESSIER TRAIL NW", "city": "EDMONTON", "province": "AB", "country": "CA", "postalCode": "T6V1H4", "twitter": "None", "instagram": "None", "facebook": "None", "youtube": "None", "website": "None", "summary": "None", "logo": "None", "latitude": 53.60802492209379, "longitude": -113.58464781268228}, "118894070RR0003": {"name": "EDMONTON CATHOLIC SEPARATE SCHOOL DISTRICT NO. 7", "designationCode": "C", "categoryCode": "20", "address": "9807 106 ST NW", "city": "EDMONTON", "province": "AB", "country": "CA", "postalCode": "T5K1C2", "twitter": "None", "instagram": "None", "facebook": "None", "youtube": "None", "website": "None", "summary": "None", "logo": "None", "latitude": 53.53596404385708, "longitude": -113.50290428123417}, "118893494RR0001": {"name": "EDMONTON CENTRAL SEVENTH-DAY ADVENTIST CHURCH", "designationCode": "C", "categoryCode": "41", "address": "5816 HIGHWAY 2A", "city": "LACOMBE", "province": "AB", "country": "CA", "postalCode": "T4L2G5", "twitter": "None", "instagram": "None", "facebook": "None", "youtube": "None", "website": "None", "summary": "None", "logo": "None", "latitude": 52.474063600197404, "longitude": -113.71692568401835}, "894370014RR0001": {"name": "EDMONTON CENTRE FOR RACE AND CULTURE", "designationCode": "C", "categoryCode": "21", "address": "9538 107 AVE NW", "city": "EDMONTON", "province": "AB", "country": "CA", "postalCode": "T5H0T7", "twitter": "None", "instagram": "None", "facebook": "None", "youtube": "None", "website": "None", "summary": "None", "logo": "None", "latitude": 53.55289940218694, "longitude": -113.48388591355524}, "824355879RR0001": {"name": "EDMONTON CENTRE VICTORY CHURCH", "designationCode": "C", "categoryCode": "39", "address": "12009-139 ST NW", "city": "EDMONTON", "province": "AB", "country": "CA", "postalCode": "T5L2C1", "twitter": "None", "instagram": "None", "facebook": "None", "youtube": "None", "website": "None", "summary": "None", "logo": "None", "latitude": 53.57263477990651, "longitude": -113.56130378570623}, "118893502RR0001": {"name": "EDMONTON CEREBRAL PALSY ASSOCIATION", "designationCode": "C", "categoryCode": "11", "address": "SUITE 102, 11720 KINGSWAY AVE", "city": "EDMONTON", "province": "AB", "country": "CA", "postalCode": "T5G0X5", "twitter": "None", "instagram": "None", "facebook": "None", "youtube": "None", "website": "None", "summary": "None", "logo": "None", "latitude": 53.566864279790934, "longitude": -113.5216462453116}, "118893510RR0001": {"name": "EDMONTON CHAMBER MUSIC SOCIETY", "designationCode": "C", "categoryCode": "22", "address": "188 - 8507 112 ST NW", "city": "EDMONTON", "province": "AB", "country": "CA", "postalCode": "T6G2L7", "twitter": "None", "instagram": "None", "facebook": "None", "youtube": "None", "website": "None", "summary": "None", "logo": "None", "latitude": 53.515807257478535, "longitude": -113.520744}, "865139844RR0001": {"name": "EDMONTON CHAMBER OF VOLUNTARY ORGANIZATIONS", "designationCode": "C", "categoryCode": "25", "address": "255 BONNIE DOONSHOPPING CNTR  82ND AVE AND 83RD ST", "city": "EDMONTON", "province": "AB", "country": "CA", "postalCode": "T6C4E3", "twitter": "None", "instagram": "None", "facebook": "None", "youtube": "None", "website": "None", "summary": "None", "logo": "None", "latitude": 53.51956800000005, "longitude": -113.46127549999994}, "118893536RR0001": {"name": "EDMONTON CHINATOWN MULTICULTURAL CENTRE FOUNDATION", "designationCode": "C", "categoryCode": "56", "address": "9540  102ND AVENUE", "city": "EDMONTON", "province": "AB", "country": "CA", "postalCode": "T5H0E3", "twitter": "None", "instagram": "None", "facebook": "None", "youtube": "None", "website": "None", "summary": "None", "logo": "None", "latitude": 53.545148202325485, "longitude": -113.48044890374032}, "107282212RR0001": {"name": "EDMONTON CHINESE ALLIANCE CHURCH", "designationCode": "C", "categoryCode": "39", "address": "5019 199 ST NW", "city": "EDMONTON", "province": "AB", "country": "CA", "postalCode": "T6M2T6", "twitter": "None", "instagram": "None", "facebook": "None", "youtube": "None", "website": "None", "summary": "None", "logo": "None", "latitude": 53.488089, "longitude": -113.66447583115077}, "118893544RR0001": {"name": "EDMONTON CHINESE BAPTIST CHURCH", "designationCode": "C", "categoryCode": "31", "address": "11112 - 109 AVENUE", "city": "EDMONTON", "province": "AB", "country": "CA", "postalCode": "T5H1E1", "twitter": "None", "instagram": "None", "facebook": "None", "youtube": "None", "website": "None", "summary": "None", "logo": "None", "latitude": 53.5547363452881, "longitude": -113.51396981040473}, "130559941RR0001": {"name": "EDMONTON CHINESE BILINGUAL EDUCATION ASSOCIATION", "designationCode": "C", "categoryCode": "21", "address": "BOX 220-21 10405 JASPER AVE.", "city": "EDMONTON", "province": "AB", "country": "CA", "postalCode": "T5J3S2", "twitter": "None", "instagram": "None", "facebook": "None", "youtube": "None", "website": "None", "summary": "None", "logo": "None", "latitude": 53.5408984773503, "longitude": -113.50015297446477}, "107282246RR0001": {"name": "EDMONTON CHINESE CHRISTIAN CHURCH (PROTESTANT)", "designationCode": "C", "categoryCode": "39", "address": "8810- 65 AVE", "city": "EDMONTON", "province": "AB", "country": "CA", "postalCode": "T6E0J7", "twitter": "None", "instagram": "None", "facebook": "None", "youtube": "None", "website": "None", "summary": "None", "logo": "None", "latitude": 53.50138149653755, "longitude": -113.46487094171619}, "864191960RR0001": {"name": "EDMONTON CHINESE GARDEN SOCIETY", "designationCode": "C", "categoryCode": "56", "address": "1381 CARTER CREST ROAD", "city": "EDMONTON", "province": "AB", "country": "CA", "postalCode": "T6R2L5", "twitter": "None", "instagram": "None", "facebook": "None", "youtube": "None", "website": "None", "summary": "None", "logo": "None", "latitude": 53.46545067805409, "longitude": -113.58128597986047}, "891820466RR0001": {"name": "EDMONTON CHRIST FAMILY FELLOWSHIP ASSEMBLY", "designationCode": "C", "categoryCode": "39", "address": "201-8407 ARGYLL ROAD", "city": "EDMONTON", "province": "AB", "country": "CA", "postalCode": "T6C4B2", "twitter": "None", "instagram": "None", "facebook": "None", "youtube": "None", "website": "None", "summary": "None", "logo": "None", "latitude": 53.50138674357991, "longitude": -113.45631737633552}, "118893569RR0001": {"name": "EDMONTON CHRISTIAN ASSEMBLY", "designationCode": "C", "categoryCode": "39", "address": "3918 103B STREET", "city": "EDMONTON", "province": "AB", "country": "CA", "postalCode": "T6J2X9", "twitter": "None", "instagram": "None", "facebook": "None", "youtube": "None", "website": "None", "summary": "None", "logo": "None", "latitude": 53.475282167638056, "longitude": -113.49700668544033}, "888193240RR0001": {"name": "EDMONTON CHURCH OF CHRIST", "designationCode": "C", "categoryCode": "39", "address": "11532 130 ST NW", "city": "EDMONTON", "province": "AB", "country": "CA", "postalCode": "T5M1A4", "twitter": "None", "instagram": "None", "facebook": "None", "youtube": "None", "website": "None", "summary": "None", "logo": "None", "latitude": 53.566378921172635, "longitude": -113.5446709899011}, "770907921RR0001": {"name": "EDMONTON CIRCLE OF FRIENDS SOCIETY", "designationCode": "C", "categoryCode": "09", "address": "14320 94 ST NW", "city": "EDMONTON", "province": "AB", "country": "CA", "postalCode": "T5E3W2", "twitter": "None", "instagram": "None", "facebook": "None", "youtube": "None", "website": "None", "summary": "None", "logo": "None", "latitude": 53.60595234999131, "longitude": -113.48526994134082}, "131558140RR0001": {"name": "EDMONTON CITY CENTRE CHURCH CORPORATION", "designationCode": "C", "categoryCode": "53", "address": "9321 JASPER AVE               ALEX TAYLOR SCHOOL", "city": "EDMONTON", "province": "AB", "country": "CA", "postalCode": "T5H3T7", "twitter": "None", "instagram": "None", "facebook": "None", "youtube": "None", "website": "None", "summary": "None", "logo": "None", "latitude": 53.546527050205064, "longitude": -113.47735308442554}, "891140949RR0001": {"name": "EDMONTON COLUMBIAN CHOIRS", "designationCode": "C", "categoryCode": "22", "address": "11030 ST.ALBERT TRAIL NW", "city": "EDMONTON", "province": "AB", "country": "CA", "postalCode": "T5M3K7", "twitter": "None", "instagram": "None", "facebook": "None", "youtube": "None", "website": "None", "summary": "None", "logo": "None", "latitude": 53.55831191450752, "longitude": -113.54147434029645}, "860723279RR0001": {"name": "EDMONTON COMMUNITY LEGAL CENTRE", "designationCode": "C", "categoryCode": "09", "address": "200-10115 100A STREET", "city": "EDMONTON", "province": "AB", "country": "CA", "postalCode": "T5J2W2", "twitter": "None", "instagram": "None", "facebook": "None", "youtube": "None", "website": "None", "summary": "None", "logo": "None", "latitude": 53.54137442714526, "longitude": -113.49199747709051}, "118893627RR0001": {"name": "EDMONTON CONGREGATION OF JEHOVAH'S WITNESSES UNIVERSITY UNIT", "designationCode": "C", "categoryCode": "61", "address": "5315 - 104A ST.", "city": "EDMONTON", "province": "AB", "country": "CA", "postalCode": "T6H2L9", "twitter": "None", "instagram": "None", "facebook": "None", "youtube": "None", "website": "None", "summary": "None", "logo": "None", "latitude": 53.49062716763808, "longitude": -113.4987848512034}, "133231399RR0001": {"name": "EDMONTON CRESTWOOD PARENT ASSOCIATION", "designationCode": "C", "categoryCode": "21", "address": "1645 GLASTONBURY BLVD", "city": "EDMONTON", "province": "AB", "country": "CA", "postalCode": "T5T6P3", "twitter": "None", "instagram": "None", "facebook": "None", "youtube": "None", "website": "None", "summary": "None", "logo": "None", "latitude": 53.499105135177956, "longitude": -113.66873180388386}, "118893643RR0001": {"name": "EDMONTON CRESTWOOD PRESBYTERIAN CHURCH", "designationCode": "C", "categoryCode": "37", "address": "14304 96 AVE", "city": "EDMONTON", "province": "AB", "country": "CA", "postalCode": "T5N0C4", "twitter": "None", "instagram": "None", "facebook": "None", "youtube": "None", "website": "None", "summary": "None", "logo": "None", "latitude": 53.533676522649685, "longitude": -113.56796330682671}, "891196776RR0001": {"name": "EDMONTON CURSILLOS IN CHRISTIANITY", "designationCode": "C", "categoryCode": "49", "address": "13-53158 RGE RD 215", "city": "ARDROSSAN", "province": "AB", "country": "CA", "postalCode": "T8E2C9", "twitter": "None", "instagram": "None", "facebook": "None", "youtube": "None", "website": "None", "summary": "None", "logo": "None", "latitude": 53.56593249841348, "longitude": -113.07963438634658}, "882651581RR0001": {"name": "EDMONTON DEAF CHURCH FELLOWSHIP", "designationCode": "C", "categoryCode": "39", "address": "P.O. BOX 41091                YELLOWBIRD POSTAL OUTLET", "city": "EDMONTON", "province": "AB", "country": "CA", "postalCode": "T6J6M7", "twitter": "None", "instagram": "None", "facebook": "None", "youtube": "None", "website": "None", "summary": "None", "logo": "None", "latitude": 53.45952900000006, "longitude": -113.52241249999994}, "899799753RR0001": {"name": "EDMONTON DOWN SYNDROME SOCIETY", "designationCode": "C", "categoryCode": "09", "address": "9139 39 AVE NW", "city": "EDMONTON", "province": "AB", "country": "CA", "postalCode": "T6E5Y2", "twitter": "None", "instagram": "None", "facebook": "None", "youtube": "None", "website": "None", "summary": "None", "logo": "None", "latitude": 53.474032499567315, "longitude": -113.46959194463038}, "899611032RR0001": {"name": "EDMONTON DREAM CENTRE OF ALBERTA", "designationCode": "C", "categoryCode": "09", "address": "162 BONNIE DOON MALL          BOX 68169", "city": "EDMONTON", "province": "AB", "country": "CA", "postalCode": "T6C4N6", "twitter": "None", "instagram": "None", "facebook": "None", "youtube": "None", "website": "None", "summary": "None", "logo": "None", "latitude": 53.51956800000005, "longitude": -113.46127549999994}, "899700884RR0001": {"name": "EDMONTON EMERGENCY RELIEF SERVICES SOCIETY", "designationCode": "C", "categoryCode": "02", "address": "10255 104 ST", "city": "EDMONTON", "province": "AB", "country": "CA", "postalCode": "T5J1B1", "twitter": "None", "instagram": "None", "facebook": "None", "youtube": "None", "website": "None", "summary": "None", "logo": "None", "latitude": 53.54442138328816, "longitude": -113.49919798219774}, "118893684RR0001": {"name": "EDMONTON FESTIVAL BALLET SOCIETY", "designationCode": "C", "categoryCode": "22", "address": "8205 90 AVE NW", "city": "EDMONTON", "province": "AB", "country": "CA", "postalCode": "T6C1N8", "twitter": "None", "instagram": "None", "facebook": "None", "youtube": "None", "website": "None", "summary": "None", "logo": "None", "latitude": 53.5251554906232, "longitude": -113.4533798068267}, "899420020RR0001": {"name": "EDMONTON FIREFIGHTERS MEMORIAL SOCIETY", "designationCode": "C", "categoryCode": "59", "address": "SUITE 200                     7024 - 101 AVENUE N.W.", "city": "EDMONTON", "province": "AB", "country": "CA", "postalCode": "T6A0H7", "twitter": "None", "instagram": "None", "facebook": "None", "youtube": "None", "website": "None", "summary": "None", "logo": "None"}, "107406316RR0013": {"name": "EDMONTON FREE METHODIST CHURCH", "designationCode": "C", "categoryCode": "39", "address": "7706 - 86 AVE", "city": "EDMONTON", "province": "AB", "country": "CA", "postalCode": "T6C1H8", "twitter": "None", "instagram": "None", "facebook": "None", "youtube": "None", "website": "None", "summary": "None", "logo": "None", "latitude": 53.52150522344038, "longitude": -113.44624452080336}, "140800970RR0001": {"name": "EDMONTON GARRISON MILITARY FAMILY RESOURCE CENTRE SOCIETY", "designationCode": "C", "categoryCode": "09", "address": "PO BOX 10500", "city": "EDMONTON", "province": "AB", "country": "CA", "postalCode": "T5J4J5", "twitter": "None", "instagram": "None", "facebook": "None", "youtube": "None", "website": "None", "summary": "None", "logo": "None", "latitude": 53.54623500000005, "longitude": -113.49037249999994}, "129185310RR0001": {"name": "EDMONTON GLEANERS ASSOCIATION", "designationCode": "C", "categoryCode": "09", "address": "PO BOX 62061", "city": "EDMONTON", "province": "AB", "country": "CA", "postalCode": "T5M4B5", "twitter": "None", "instagram": "None", "facebook": "None", "youtube": "None", "website": "None", "summary": "None", "logo": "None", "latitude": 53.55989700000005, "longitude": -113.57346499999994}, "893733667RR0001": {"name": "EDMONTON GOOD SHEPHERD CHINESE LUTHERAN CHURCH", "designationCode": "C", "categoryCode": "32", "address": "10815 76 AVE NW", "city": "EDMONTON", "province": "AB", "country": "CA", "postalCode": "T6E1M1", "twitter": "None", "instagram": "None", "facebook": "None", "youtube": "None", "website": "None", "summary": "None", "logo": "None", "latitude": 53.512262488458816, "longitude": -113.5101825}, "107282584RR0001": {"name": "EDMONTON HEBREW ASSOCIATION-CONGREGATION BETH ISRAEL", "designationCode": "C", "categoryCode": "42", "address": "131 WOLF WILLOW RD NW", "city": "EDMONTON", "province": "AB", "country": "CA", "postalCode": "T5T7T7", "twitter": "None", "instagram": "None", "facebook": "None", "youtube": "None", "website": "None", "summary": "None", "logo": "None", "latitude": 53.50456247287824, "longitude": -113.612202}, "118893825RR0001": {"name": "EDMONTON HERITAGE FESTIVAL ASSOCIATION", "designationCode": "C", "categoryCode": "22", "address": "10820-119 STREET", "city": "EDMONTON", "province": "AB", "country": "CA", "postalCode": "T5H3P2", "twitter": "None", "instagram": "None", "facebook": "None", "youtube": "None", "website": "None", "summary": "None", "logo": "None", "latitude": 53.5545054493336, "longitude": -113.52688125610204}, "118893833RR0001": {"name": "EDMONTON HOSPITAL WORKERS' CHILD CARE SOCIETY", "designationCode": "C", "categoryCode": "01", "address": "ROOM 135                      10230 - 111 AVENUE", "city": "EDMONTON", "province": "AB", "country": "CA", "postalCode": "T5G0B7", "twitter": "None", "instagram": "None", "facebook": "None", "youtube": "None", "website": "None", "summary": "None", "logo": "None", "latitude": 53.559047187372386, "longitude": -113.49611829886823}, "119231066RR0001": {"name": "EDMONTON HUMANE SOCIETY FOR THE PREVENTION OF CRUELTY TO ANIMALS", "designationCode": "C", "categoryCode": "54", "address": "13620 163 STREET N.W", "city": "EDMONTON", "province": "AB", "country": "CA", "postalCode": "T5V0B2", "twitter": "None", "instagram": "None", "facebook": "None", "youtube": "None", "website": "None", "summary": "None", "logo": "None", "latitude": 53.59818821883207, "longitude": -113.6027290768711}, "123161432RR0001": {"name": "EDMONTON IMMIGRANT SERVICES ASSOCIATION", "designationCode": "C", "categoryCode": "09", "address": "201 10720 113 ST", "city": "EDMONTON", "province": "AB", "country": "CA", "postalCode": "T5H3H8", "twitter": "None", "instagram": "None", "facebook": "None", "youtube": "None", "website": "None", "summary": "None", "logo": "None", "latitude": 53.5519977485429, "longitude": -113.51582021097555}, "884192824RR0001": {"name": "EDMONTON INNER CITY CHILDREN'S PROJECT SOCIETY", "designationCode": "C", "categoryCode": "09", "address": "304 - 6770 129 AVE NW", "city": "EDMONTON", "province": "AB", "country": "CA", "postalCode": "T5C1V7", "twitter": "None", "instagram": "None", "facebook": "None", "youtube": "None", "website": "None", "summary": "None", "logo": "None", "latitude": 53.58762899999999, "longitude": -113.44373999999999}, "887264869RR0001": {"name": "EDMONTON INTERFAITH CENTRE FOR EDUCATION AND ACTION SOCIETY", "designationCode": "C", "categoryCode": "49", "address": "#113, 11148-84 AVENUE", "city": "EDMONTON", "province": "AB", "country": "CA", "postalCode": "T6G0V8", "twitter": "None", "instagram": "None", "facebook": "None", "youtube": "None", "website": "None", "summary": "None", "logo": "None", "latitude": 53.52006951875456, "longitude": -113.51979}, "871569984RR0001": {"name": "EDMONTON INTERNATIONAL FILM FESTIVAL SOCIETY", "designationCode": "C", "categoryCode": "22", "address": "201-10816A 82 AVE NW", "city": "EDMONTON", "province": "AB", "country": "CA", "postalCode": "T6E2B3", "twitter": "None", "instagram": "None", "facebook": "None", "youtube": "None", "website": "None", "summary": "None", "logo": "None", "latitude": 53.518013999999994, "longitude": -113.48866397875054}, "108080326RR0001": {"name": "EDMONTON INTERNATIONAL STREET PERFORMERS FESTIVAL ASSOCIATION", "designationCode": "C", "categoryCode": "22", "address": "10212 112 ST NW", "city": "EDMONTON", "province": "AB", "country": "CA", "postalCode": "T5K1M4", "twitter": "None", "instagram": "None", "facebook": "None", "youtube": "None", "website": "None", "summary": "None", "logo": "None", "latitude": 53.543529838190324, "longitude": -113.51397823982899}, "895761989RR0001": {"name": "EDMONTON ISLAMIC SCHOOL SOCIETY", "designationCode": "C", "categoryCode": "20", "address": "14525 127 ST NW", "city": "EDMONTON", "province": "AB", "country": "CA", "postalCode": "T6V0B3", "twitter": "None", "instagram": "None", "facebook": "None", "youtube": "None", "website": "None", "summary": "None", "logo": "None", "latitude": 53.60705027767114, "longitude": -113.54126525710979}, "898418132RR0001": {"name": "EDMONTON JAPANESE (NIKKEI) CHRISTIAN CHURCH", "designationCode": "C", "categoryCode": "39", "address": "9802 76 AVE NW", "city": "EDMONTON", "province": "AB", "country": "CA", "postalCode": "T6E1K5", "twitter": "None", "instagram": "None", "facebook": "None", "youtube": "None", "website": "None", "summary": "None", "logo": "None", "latitude": 53.51230647879262, "longitude": -113.48352}, "118975002RR0001": {"name": "EDMONTON JOHN HOWARD SOCIETY", "designationCode": "C", "categoryCode": "59", "address": "401 10010 105TH ST", "city": "EDMONTON", "province": "AB", "country": "CA", "postalCode": "T5J1C4", "twitter": "None", "instagram": "None", "facebook": "None", "youtube": "None", "website": "None", "summary": "None", "logo": "None", "latitude": 53.5390551618097, "longitude": -113.50114817822697}, "873257018RR0001": {"name": "EDMONTON KHALSA SCHOOL EDUCATIONAL ASSOCIATION", "designationCode": "C", "categoryCode": "20", "address": "4504 MILLWOODS ROAD SOUTH NW", "city": "EDMONTON", "province": "AB", "country": "CA", "postalCode": "T6L6Y8", "twitter": "None", "instagram": "None", "facebook": "None", "youtube": "None", "website": "None", "summary": "None", "logo": "None", "latitude": 53.44323483045735, "longitude": -113.40853988227855}, "877265207RR0001": {"name": "EDMONTON KOREAN COMMUNITY CENTRE FOUNDATION", "designationCode": "C", "categoryCode": "56", "address": "2503 ELLWOOD DR SW", "city": "EDMONTON", "province": "AB", "country": "CA", "postalCode": "T6X0P7", "twitter": "None", "instagram": "None", "facebook": "None", "youtube": "None", "website": "None", "summary": "None", "logo": "None", "latitude": 53.43030843655164, "longitude": -113.47312118171901}, "890697865RR0001": {"name": "EDMONTON KOREAN FULL GOSPEL CHURCH", "designationCode": "C", "categoryCode": "39", "address": "9603 79 AVENUE", "city": "EDMONTON", "province": "AB", "country": "CA", "postalCode": "T6C0S1", "twitter": "None", "instagram": "None", "facebook": "None", "youtube": "None", "website": "None", "summary": "None", "logo": "None", "latitude": 53.51511654674263, "longitude": -113.47701291618097}, "107282782RR0001": {"name": "EDMONTON KOREAN PRESBYTERIAN CHURCH", "designationCode": "C", "categoryCode": "37", "address": "7907 - 86 AVE", "city": "EDMONTON", "province": "AB", "country": "CA", "postalCode": "T6C1J2", "twitter": "None", "instagram": "None", "facebook": "None", "youtube": "None", "website": "None", "summary": "None", "logo": "None", "latitude": 53.52178148124545, "longitude": -113.4499913068267}, "106693047RR0018": {"name": "EDMONTON KOREAN SEVENTH-DAY ADVENTIST CHURCH", "designationCode": "C", "categoryCode": "41", "address": "5816 HIGHWAY, 2A", "city": "LACOMBE", "province": "AB", "country": "CA", "postalCode": "T4L2G5", "twitter": "None", "instagram": "None", "facebook": "None", "youtube": "None", "website": "None", "summary": "None", "logo": "None", "latitude": 52.474063600197404, "longitude": -113.71692568401835}, "134804293RR0001": {"name": "EDMONTON KOREAN UNITED CHURCH CONGREGATION", "designationCode": "C", "categoryCode": "44", "address": "7909 82 AVE NW", "city": "EDMONTON", "province": "AB", "country": "CA", "postalCode": "T6C0Y1", "twitter": "None", "instagram": "None", "facebook": "None", "youtube": "None", "website": "None", "summary": "None", "logo": "None", "latitude": 53.517871499567306, "longitude": -113.44980149999999}, "107282840RR0001": {"name": "EDMONTON LIFE ENRICHMENT CENTRE", "designationCode": "C", "categoryCode": "49", "address": "9648 54 AVE", "city": "EDMONTON", "province": "AB", "country": "CA", "postalCode": "T6E5V1", "twitter": "None", "instagram": "None", "facebook": "None", "youtube": "None", "website": "None", "summary": "None", "logo": "None", "latitude": 53.489835322263055, "longitude": -113.47868426698034}, "875759912RR0001": {"name": "EDMONTON LIFELONG LEARNERS ASSOCIATION", "designationCode": "C", "categoryCode": "21", "address": "10230 JASPER AVE NW", "city": "EDMONTON", "province": "AB", "country": "CA", "postalCode": "T5J4P6", "twitter": "None", "instagram": "None", "facebook": "None", "youtube": "None", "website": "None", "summary": "None", "logo": "None", "latitude": 53.54093945772946, "longitude": -113.49643402553522}, "139871677RR0001": {"name": "EDMONTON LIVING WORD ASSEMBLY", "designationCode": "C", "categoryCode": "39", "address": "12432 87 STREET", "city": "EDMONTON", "province": "AB", "country": "CA", "postalCode": "T5B3P3", "twitter": "None", "instagram": "None", "facebook": "None", "youtube": "None", "website": "None", "summary": "None", "logo": "None", "latitude": 53.58069900000001, "longitude": -113.47445973651077}, "899813059RR0001": {"name": "EDMONTON LOGOS SOCIETY", "designationCode": "C", "categoryCode": "21", "address": "7730 106 ST NW", "city": "EDMONTON", "province": "AB", "country": "CA", "postalCode": "T6E4W3", "twitter": "None", "instagram": "None", "facebook": "None", "youtube": "None", "website": "None", "summary": "None", "logo": "None", "latitude": 53.51375252787249, "longitude": -113.50354018053464}, "888894052RR0001": {"name": "EDMONTON MAYFIELD ROTARY CHARITABLE SOCIETY", "designationCode": "C", "categoryCode": "01", "address": "10142 111ST NW                UNIT 810", "city": "EDMONTON", "province": "AB", "country": "CA", "postalCode": "T5K1K6", "twitter": "None", "instagram": "None", "facebook": "None", "youtube": "None", "website": "None", "summary": "None", "logo": "None", "latitude": 53.54192652844941, "longitude": -113.51214721761198}, "118893940RR0001": {"name": "EDMONTON MEALS ON WHEELS", "designationCode": "C", "categoryCode": "09", "address": "11111 - 103 AVENUE", "city": "EDMONTON", "province": "AB", "country": "CA", "postalCode": "T5K2P1", "twitter": "None", "instagram": "None", "facebook": "None", "youtube": "None", "website": "None", "summary": "None", "logo": "None", "latitude": 53.544559506780665, "longitude": -113.513454}, "118893965RR0001": {"name": "EDMONTON MORAVIAN CHURCH", "designationCode": "C", "categoryCode": "39", "address": "9540- 83 AVE", "city": "EDMONTON", "province": "AB", "country": "CA", "postalCode": "T6C1B9", "twitter": "None", "instagram": "None", "facebook": "None", "youtube": "None", "website": "None", "summary": "None", "logo": "None", "latitude": 53.51905550432783, "longitude": -113.47626149999999}, "132948613RR0001": {"name": "EDMONTON MUSICAL THEATRE SOCIETY", "designationCode": "C", "categoryCode": "22", "address": "#301, 14503 MILLER BLVD. NW", "city": "EDMONTON", "province": "AB", "country": "CA", "postalCode": "T5Y3A7", "twitter": "None", "instagram": "None", "facebook": "None", "youtube": "None", "website": "None", "summary": "None", "logo": "None", "latitude": 53.61107929324863, "longitude": -113.41151047116757}, "871308235RR0001": {"name": "EDMONTON NATIVE HEALING CENTRE SOCIETY", "designationCode": "C", "categoryCode": "56", "address": "101-11813 123 STREET", "city": "EDMONTON", "province": "AB", "country": "CA", "postalCode": "T5L0G7", "twitter": "None", "instagram": "None", "facebook": "None", "youtube": "None", "website": "None", "summary": "None", "logo": "None", "latitude": 53.570799502914184, "longitude": -113.53410528902445}, "107282915RR0001": {"name": "EDMONTON NATURE CENTRES FOUNDATION", "designationCode": "A", "categoryCode": "53", "address": "PO BOX 2359 STN MAIN", "city": "EDMONTON", "province": "AB", "country": "CA", "postalCode": "T5J2R7", "twitter": "None", "instagram": "None", "facebook": "None", "youtube": "None", "website": "None", "summary": "None", "logo": "None", "latitude": 53.54623500000005, "longitude": -113.49037249999994}, "118894013RR0001": {"name": "EDMONTON NEW CHURCH SOCIETY SWEDENBORGIAN", "designationCode": "C", "categoryCode": "39", "address": "9119-128 A. AVE. NW", "city": "EDMONTON", "province": "AB", "country": "CA", "postalCode": "T5E0J6", "twitter": "None", "instagram": "None", "facebook": "None", "youtube": "None", "website": "None", "summary": "None", "logo": "None", "latitude": 53.5859307971502, "longitude": -113.4810477971502}, "140926734RR0001": {"name": "EDMONTON NEW LIFE CHINESE LUTHERAN CHURCH", "designationCode": "C", "categoryCode": "32", "address": "10927-94 ST", "city": "EDMONTON", "province": "AB", "country": "CA", "postalCode": "T5H2A1", "twitter": "None", "instagram": "None", "facebook": "None", "youtube": "None", "website": "None", "summary": "None", "logo": "None", "latitude": 53.55751837330483, "longitude": -113.48344911293228}, "894686849RR0001": {"name": "EDMONTON NEW SHADOW THEATRE SOCIETY", "designationCode": "C", "categoryCode": "22", "address": "10329 83 AVE NW", "city": "EDMONTON", "province": "AB", "country": "CA", "postalCode": "T6E2C6", "twitter": "None", "instagram": "None", "facebook": "None", "youtube": "None", "website": "None", "summary": "None", "logo": "None", "latitude": 53.51902951399404, "longitude": -113.496372}, "890725542RR0001": {"name": "EDMONTON OILERS COMMUNITY FOUNDATION", "designationCode": "A", "categoryCode": "03", "address": "300 - 10214 104 AVE NW", "city": "EDMONTON", "province": "AB", "country": "CA", "postalCode": "T5J0H6", "twitter": "None", "instagram": "None", "facebook": "None", "youtube": "None", "website": "None", "summary": "None", "logo": "None", "latitude": 53.54627111245997, "longitude": -113.49607403748665}, "118894021RR0001": {"name": "EDMONTON OPERA ASSOCIATION", "designationCode": "C", "categoryCode": "22", "address": "15230 128 AVE NW", "city": "EDMONTON", "province": "AB", "country": "CA", "postalCode": "T5V1A8", "twitter": "None", "instagram": "None", "facebook": "None", "youtube": "None", "website": "None", "summary": "None", "logo": "None", "latitude": 53.58491949105495, "longitude": -113.5839915}, "107282964RR0001": {"name": "EDMONTON PEOPLE IN NEED SHELTER SOCIETY", "designationCode": "C", "categoryCode": "01", "address": "9536 103 AVE", "city": "EDMONTON", "province": "AB", "country": "CA", "postalCode": "T5H0G8", "twitter": "None", "instagram": "None", "facebook": "None", "youtube": "None", "website": "None", "summary": "None", "logo": "None", "latitude": 53.54675435111648, "longitude": -113.48144724883136}, "139265748RR0001": {"name": "EDMONTON PHILHARMONIC SOCIETY (1980)", "designationCode": "C", "categoryCode": "22", "address": "5908 108A ST NW", "city": "EDMONTON", "province": "AB", "country": "CA", "postalCode": "T6H3A1", "twitter": "None", "instagram": "None", "facebook": "None", "youtube": "None", "website": "None", "summary": "None", "logo": "None", "latitude": 53.496576000000005, "longitude": -113.51042871429377}, "870259173RR0001": {"name": "EDMONTON POLICE FOUNDATION", "designationCode": "C", "categoryCode": "59", "address": "9620 - 103A AVENUE", "city": "EDMONTON", "province": "AB", "country": "CA", "postalCode": "T5J0H7", "twitter": "None", "instagram": "None", "facebook": "None", "youtube": "None", "website": "None", "summary": "None", "logo": "None", "latitude": 53.546725100318916, "longitude": -113.48739314642452}, "892941436RR0001": {"name": "EDMONTON PRESBYTERY UNITED CHURCH OF CANADA", "designationCode": "C", "categoryCode": "44", "address": "13535 122 AVENUE", "city": "EDMONTON", "province": "AB", "country": "CA", "postalCode": "T5L2V7", "twitter": "None", "instagram": "None", "facebook": "None", "youtube": "None", "website": "None", "summary": "None", "logo": "None", "latitude": 53.572462513994026, "longitude": -113.55553219594324}, "118894047RR0001": {"name": "EDMONTON PRO-LIFE SOCIETY", "designationCode": "C", "categoryCode": "09", "address": "212 11125 107 AVE NW", "city": "EDMONTON", "province": "AB", "country": "CA", "postalCode": "T5H0X9", "twitter": "None", "instagram": "None", "facebook": "None", "youtube": "None", "website": "None", "summary": "None", "logo": "None", "latitude": 53.55136448124545, "longitude": -113.5134405}, "118894054RR0001": {"name": "EDMONTON PUBLIC SCHOOL BOARD TEACHERS CHARITY TRUST FUND", "designationCode": "B", "categoryCode": "05", "address": "401 11010-142 STREET", "city": "EDMONTON", "province": "AB", "country": "CA", "postalCode": "T5N2R1", "twitter": "None", "instagram": "None", "facebook": "None", "youtube": "None", "website": "None", "summary": "None", "logo": "None", "latitude": 53.55767700000001, "longitude": -113.56596971991966}, "891004889RR0001": {"name": "EDMONTON RAGA-MALA MUSIC SOCIETY", "designationCode": "C", "categoryCode": "22", "address": "P. O. BOX 41003               PETROLIA RPO", "city": "EDMONTON", "province": "AB", "country": "CA", "postalCode": "T6J6M7", "twitter": "None", "instagram": "None", "facebook": "None", "youtube": "None", "website": "None", "summary": "None", "logo": "None", "latitude": 53.45952900000006, "longitude": -113.52241249999994}, "118894088RR0001": {"name": "EDMONTON REALTORS' CHARITABLE FOUNDATION", "designationCode": "A", "categoryCode": "53", "address": "14220-112 AVENUE NW", "city": "EDMONTON", "province": "AB", "country": "CA", "postalCode": "T5M2T8", "twitter": "None", "instagram": "None", "facebook": "None", "youtube": "None", "website": "None", "summary": "None", "logo": "None", "latitude": 53.56051452264971, "longitude": -113.56664255398464}, "842099368RR0001": {"name": "EDMONTON RECITAL SOCIETY", "designationCode": "C", "categoryCode": "22", "address": "PO BOX 47026                  RPO EDMONTON CENTRE", "city": "EDMONTON", "province": "AB", "country": "CA", "postalCode": "T5J4N1", "twitter": "None", "instagram": "None", "facebook": "None", "youtube": "None", "website": "None", "summary": "None", "logo": "None", "latitude": 53.54623500000005, "longitude": -113.49037249999994}, "893738054RR0001": {"name": "EDMONTON REGIMENT ASSOCIATES", "designationCode": "C", "categoryCode": "51", "address": "536 WOODBRIDGE WAY", "city": "SHERWOOD PARK", "province": "AB", "country": "CA", "postalCode": "T8A4G9", "twitter": "None", "instagram": "None", "facebook": "None", "youtube": "None", "website": "None", "summary": "None", "logo": "None", "latitude": 53.53102251067582, "longitude": -113.32223102109182}, "836789495RR0001": {"name": "EDMONTON REGION IMMIGRANT EMPLOYMENT COUNCIL", "designationCode": "C", "categoryCode": "59", "address": "304 - 10209 97 ST NW", "city": "EDMONTON", "province": "AB", "country": "CA", "postalCode": "T5J0L5", "twitter": "None", "instagram": "None", "facebook": "None", "youtube": "None", "website": "None", "summary": "None", "logo": "None", "latitude": 53.54431112989782, "longitude": -113.48624644791994}, "886644590RR0001": {"name": "EDMONTON REGIONAL SCIENCE FAIR COUNCIL", "designationCode": "C", "categoryCode": "21", "address": "8719-120ST", "city": "EDMONTON", "province": "AB", "country": "CA", "postalCode": "T6G1X4", "twitter": "None", "instagram": "None", "facebook": "None", "youtube": "None", "website": "None", "summary": "None", "logo": "None", "latitude": 53.52387579684339, "longitude": -113.5386817884762}, "890780570RR0001": {"name": "EDMONTON REGIONAL SEARCH & RESCUE ASSOCIATION", "designationCode": "C", "categoryCode": "59", "address": "PO BOX 38067 RPO CAPILANO", "city": "EDMONTON", "province": "AB", "country": "CA", "postalCode": "T6A3Y6", "twitter": "None", "instagram": "None", "facebook": "None", "youtube": "None", "website": "None", "summary": "None", "logo": "None", "latitude": 53.55443349205362, "longitude": -113.43801968520823}, "122942451RR0001": {"name": "EDMONTON RESIDENTIAL AIDE PLACEMENT SERVICE SOCIETY", "designationCode": "C", "categoryCode": "09", "address": "110-17420 STONY PLAIN RD", "city": "EDMONTON", "province": "AB", "country": "CA", "postalCode": "T5S1K6", "twitter": "None", "instagram": "None", "facebook": "None", "youtube": "None", "website": "None", "summary": "None", "logo": "None", "latitude": 53.54207295481525, "longitude": -113.61974246488455}, "714901899RR0001": {"name": "EDMONTON RETROUVAILLE ASSOCIATION", "designationCode": "C", "categoryCode": "49", "address": "508 KULAWY PT NW", "city": "EDMONTON", "province": "AB", "country": "CA", "postalCode": "T6L6Z2", "twitter": "None", "instagram": "None", "facebook": "None", "youtube": "None", "website": "None", "summary": "None", "logo": "None", "latitude": 53.473944456575595, "longitude": -113.40992846710719}, "890492762RR0001": {"name": "EDMONTON RODEO COWBOYS BENEVOLENT FOUNDATION", "designationCode": "C", "categoryCode": "09", "address": "P.O. BOX 1480", "city": "EDMONTON", "province": "AB", "country": "CA", "postalCode": "T5J2N5", "twitter": "None", "instagram": "None", "facebook": "None", "youtube": "None", "website": "None", "summary": "None", "logo": "None", "latitude": 53.54623500000005, "longitude": -113.49037249999994}, "889045845RR0001": {"name": "EDMONTON SABERS MARCHING BAND ASSOCIATION", "designationCode": "C", "categoryCode": "22", "address": "13512 136A ST NW", "city": "EDMONTON", "province": "AB", "country": "CA", "postalCode": "T5L2A6", "twitter": "None", "instagram": "None", "facebook": "None", "youtube": "None", "website": "None", "summary": "None", "logo": "None", "latitude": 53.59733842045147, "longitude": -113.5574772320387}, "107283145RR0001": {"name": "EDMONTON SAFETY COUNCIL", "designationCode": "C", "categoryCode": "59", "address": "4831 93 AVE NW", "city": "EDMONTON", "province": "AB", "country": "CA", "postalCode": "T6B3A2", "twitter": "None", "instagram": "None", "facebook": "None", "youtube": "None", "website": "None", "summary": "None", "logo": "None", "latitude": 53.530302491777036, "longitude": -113.413572}, "897373262RR0001": {"name": "EDMONTON SCHOOL OF BALLET SOCIETY", "designationCode": "C", "categoryCode": "22", "address": "8205 90 AVE", "city": "EDMONTON", "province": "AB", "country": "CA", "postalCode": "T6C1N8", "twitter": "None", "instagram": "None", "facebook": "None", "youtube": "None", "website": "None", "summary": "None", "logo": "None", "latitude": 53.5251554906232, "longitude": -113.4533798068267}, "108199068RR0001": {"name": "EDMONTON SENIORS CENTRE", "designationCode": "C", "categoryCode": "56", "address": "3Y - 11111 JASPER AVE NW", "city": "EDMONTON", "province": "AB", "country": "CA", "postalCode": "T5K0L4", "twitter": "None", "instagram": "None", "facebook": "None", "youtube": "None", "website": "None", "summary": "None", "logo": "None", "latitude": 53.54089750836813, "longitude": -113.51300302553523}, "817143076RR0001": {"name": "EDMONTON SENIORS COORDINATING COUNCIL", "designationCode": "C", "categoryCode": "59", "address": "1240 WEBER CENTRE             5555 CALGARY TRAIL", "city": "EDMONDON", "province": "AB", "country": "CA", "postalCode": "T6H5P9", "twitter": "None", "instagram": "None", "facebook": "None", "youtube": "None", "website": "None", "summary": "None", "logo": "None", "latitude": 53.49249429421768, "longitude": -113.49610889130958}, "107283194RR0001": {"name": "EDMONTON SOCIAL PLANNING COUNCIL", "designationCode": "C", "categoryCode": "09", "address": "37-9912 106TH STREET", "city": "EDMONTON", "province": "AB", "country": "CA", "postalCode": "T5K1C5", "twitter": "None", "instagram": "None", "facebook": "None", "youtube": "None", "website": "None", "summary": "None", "logo": "None", "latitude": 53.537733, "longitude": -113.50299724372412}, "106693047RR0017": {"name": "EDMONTON SOUTH SEVENTH-DAY ADVENTIST CHURCH", "designationCode": "C", "categoryCode": "41", "address": "5816 HIGHWAY, 2A", "city": "LACOMBE", "province": "AB", "country": "CA", "postalCode": "T4L2G5", "twitter": "None", "instagram": "None", "facebook": "None", "youtube": "None", "website": "None", "summary": "None", "logo": "None", "latitude": 52.474063600197404, "longitude": -113.71692568401835}, "107997363RR0001": {"name": "EDMONTON SOUTHSIDE CHURCH OF THE NAZARENE", "designationCode": "C", "categoryCode": "39", "address": "10712-29 AVENUE", "city": "EDMONTON", "province": "AB", "country": "CA", "postalCode": "T6J5H7", "twitter": "None", "instagram": "None", "facebook": "None", "youtube": "None", "website": "None", "summary": "None", "logo": "None", "latitude": 53.46077446826102, "longitude": -113.50625276270982}, "891203945RR0001": {"name": "EDMONTON SPANISH SEVENTH-DAY ADVENTIST CHURCH", "designationCode": "C", "categoryCode": "41", "address": "5816 HIGHWAY 2A", "city": "LACOMBE", "province": "AB", "country": "CA", "postalCode": "T4L2G5", "twitter": "None", "instagram": "None", "facebook": "None", "youtube": "None", "website": "None", "summary": "None", "logo": "None", "latitude": 52.474063600197404, "longitude": -113.71692568401835}}