{"881299929RR0001": {"name": "LAKESHORE CHARITABLE FOUNDATION", "designationCode": "C", "categoryCode": "21", "address": "3421 LAKESHORE BLVD WEST", "city": "TORONTO", "province": "ON", "country": "CA", "postalCode": "M8W1N2", "twitter": "None", "instagram": "None", "facebook": "None", "youtube": "None", "website": "None", "summary": "None", "logo": "None", "latitude": 43.59557186759203, "longitude": -79.52862678628314}, "131449555RR0001": {"name": "LAKESHORE COMMUNITY CHILDCARE CENTRE OF ETOBICOKE", "designationCode": "C", "categoryCode": "20", "address": "99 SEVENTH STREET", "city": "ETOBICOKE", "province": "ON", "country": "CA", "postalCode": "M8V3B5", "twitter": "None", "instagram": "None", "facebook": "None", "youtube": "None", "website": "None", "summary": "None", "logo": "None", "latitude": 43.59870523088699, "longitude": -79.50433182084645}, "869673145RR0001": {"name": "LAKESHORE COMMUNITY CHURCH", "designationCode": "C", "categoryCode": "36", "address": "P O BOX 760", "city": "BRIGHTS GROVE", "province": "ON", "country": "CA", "postalCode": "N0N1C0", "twitter": "None", "instagram": "None", "facebook": "None", "youtube": "None", "website": "None", "summary": "None", "logo": "None", "latitude": 43.03275802308861, "longitude": -82.2513532893661}, "862352754RR0001": {"name": "LAKESHORE COMMUNITY OUTREACH CENTRE INC.", "designationCode": "C", "categoryCode": "09", "address": "310 LAKESHORE ROAD WEST", "city": "MISSISSAUGA", "province": "ON", "country": "CA", "postalCode": "L5H1G8", "twitter": "None", "instagram": "None", "facebook": "None", "youtube": "None", "website": "None", "summary": "None", "logo": "None", "latitude": 43.54433876270983, "longitude": -79.5937738600033}, "106962608RR0001": {"name": "LAKESHORE COMMUNITY SERVICE", "designationCode": "C", "categoryCode": "59", "address": "499 NOTRE DAME ST             PO BOX 885", "city": "BELLE RIVER", "province": "ON", "country": "CA", "postalCode": "N0R1A0", "twitter": "None", "instagram": "None", "facebook": "None", "youtube": "None", "website": "None", "summary": "None", "logo": "None", "latitude": 42.293133833303166, "longitude": -82.7061470503413}, "119288918RR0286": {"name": "LAKESHORE CONGREGATION OF JEHOVAH'S WITNESSES, MONTREAL QUEBEC", "designationCode": "C", "categoryCode": "61", "address": "20 JOHN FISHER", "city": "POINTE CLAIRE", "province": "QC", "country": "CA", "postalCode": "H9R5W4", "twitter": "None", "instagram": "None", "facebook": "None", "youtube": "None", "website": "None", "summary": "None", "logo": "None", "latitude": 45.45791276184445, "longitude": -73.79627948857437}, "862843042RR0001": {"name": "LAKESHORE FIREFIGHTERS ASSOCIATION", "designationCode": "C", "categoryCode": "59", "address": "600 DOROTHY CT", "city": "BELLE RIVER", "province": "ON", "country": "CA", "postalCode": "N0R1A0", "twitter": "None", "instagram": "None", "facebook": "None", "youtube": "None", "website": "None", "summary": "None", "logo": "None", "latitude": 42.289794, "longitude": -82.68788333873857}, "132021668RR0001": {"name": "LAKESHORE GENERAL HOSPITAL FOUNDATION,", "designationCode": "A", "categoryCode": "13", "address": "160 STILLVIEW", "city": "POINTE-CLAIRE", "province": "QC", "country": "CA", "postalCode": "H9R2Y2", "twitter": "None", "instagram": "None", "facebook": "None", "youtube": "None", "website": "None", "summary": "None", "logo": "None", "latitude": 45.44963096165417, "longitude": -73.8323363844993}, "895046076RR0001": {"name": "LAKESHORE HANDIVAN ASSOCIATION INC.", "designationCode": "C", "categoryCode": "09", "address": "BOX 569", "city": "ASHERN", "province": "MB", "country": "CA", "postalCode": "R0C0E0", "twitter": "None", "instagram": "None", "facebook": "None", "youtube": "None", "website": "None", "summary": "None", "logo": "None", "latitude": 51.18065000000007, "longitude": -98.35010999999997}, "889341178RR0001": {"name": "LAKESHORE HOSPITAL GUILD", "designationCode": "C", "categoryCode": "19", "address": "BOX 721", "city": "ASHERN", "province": "MB", "country": "CA", "postalCode": "R0C0E0", "twitter": "None", "instagram": "None", "facebook": "None", "youtube": "None", "website": "None", "summary": "None", "logo": "None", "latitude": 51.18065000000007, "longitude": -98.35010999999997}, "119003093RR0001": {"name": "LAKESHORE MISSIONARY CHURCH", "designationCode": "C", "categoryCode": "39", "address": "656 LAKESHORE DR", "city": "NORTH BAY", "province": "ON", "country": "CA", "postalCode": "P1A2G2", "twitter": "None", "instagram": "None", "facebook": "None", "youtube": "None", "website": "None", "summary": "None", "logo": "None", "latitude": 46.26771265171079, "longitude": -79.4388009257316}, "136402799RR0001": {"name": "LAKESHORE PENTECOSTAL CAMP,", "designationCode": "C", "categoryCode": "56", "address": "PO BOX 725", "city": "COBOURG", "province": "ON", "country": "CA", "postalCode": "K9A4K8", "twitter": "None", "instagram": "None", "facebook": "None", "youtube": "None", "website": "None", "summary": "None", "logo": "None", "latitude": 43.95960600000005, "longitude": -78.16778449999994}, "889316790RR0001": {"name": "LAKESHORE SCHOOL DIVISION SCHOLARSHIP AND TRUST FUND COMMITTEE", "designationCode": "C", "categoryCode": "21", "address": "PO BOX 100", "city": "ERIKSDALE", "province": "MB", "country": "CA", "postalCode": "R0C0W0", "twitter": "None", "instagram": "None", "facebook": "None", "youtube": "None", "website": "None", "summary": "None", "logo": "None", "latitude": 50.86375000000004, "longitude": -98.11142999999998}, "119288918RR0328": {"name": "LAKESHORE ST CATHARINES CONGREGATION OF JEHOVAH'S WITNESSES", "designationCode": "C", "categoryCode": "61", "address": "3 CHAMPA DRIVE", "city": "ST. CATHARINES", "province": "ON", "country": "CA", "postalCode": "L2M3K1", "twitter": "None", "instagram": "None", "facebook": "None", "youtube": "None", "website": "None", "summary": "None", "logo": "None", "latitude": 43.19157407216227, "longitude": -79.22313905539828}, "119165173RR0001": {"name": "LAKESHORE ST. ANDREW'S PRESBYTERIAN CHURCH", "designationCode": "C", "categoryCode": "37", "address": "235 AMY CROFT DR", "city": "TECUMSEH", "province": "ON", "country": "CA", "postalCode": "N9K1C8", "twitter": "None", "instagram": "None", "facebook": "None", "youtube": "None", "website": "None", "summary": "None", "logo": "None", "latitude": 42.30682079257382, "longitude": -82.85067736854431}, "891522443RR0001": {"name": "LAKESHORE TOWNSHIP COMMUNITY DAYCARE CENTRE", "designationCode": "C", "categoryCode": "01", "address": "376 I.C. ROY                  SS 3", "city": "BELLE RIVER", "province": "ON", "country": "CA", "postalCode": "N0R1A0", "twitter": "None", "instagram": "None", "facebook": "None", "youtube": "None", "website": "None", "summary": "None", "logo": "None", "latitude": 42.28923300000005, "longitude": -82.71911149999994}, "119061620RR0001": {"name": "LAKESHORE UNITED CHURCH", "designationCode": "C", "categoryCode": "44", "address": "56 NORTH STREET", "city": "GODERICH", "province": "ON", "country": "CA", "postalCode": "N7A2T4", "twitter": "None", "instagram": "None", "facebook": "None", "youtube": "None", "website": "None", "summary": "None", "logo": "None", "latitude": 43.74495016763808, "longitude": -81.71115397775434}, "867637407RR0001": {"name": "LAKESHORE VICTORY CHURCH", "designationCode": "C", "categoryCode": "39", "address": "33 GLENRIDGE RD", "city": "BRAMPTON", "province": "ON", "country": "CA", "postalCode": "L6S1N2", "twitter": "None", "instagram": "None", "facebook": "None", "youtube": "None", "website": "None", "summary": "None", "logo": "None", "latitude": 43.73516334497099, "longitude": -79.72584185166475}, "141022749RR0001": {"name": "LAKESHORE WOMEN'S RESOURCE CENTRE INC", "designationCode": "C", "categoryCode": "09", "address": "BOX 628", "city": "ASHERN", "province": "MB", "country": "CA", "postalCode": "R0C0E0", "twitter": "None", "instagram": "None", "facebook": "None", "youtube": "None", "website": "None", "summary": "None", "logo": "None", "latitude": 51.18065000000007, "longitude": -98.35010999999997}, "119003192RR0001": {"name": "LAKESIDE BAPTIST CHURCH", "designationCode": "C", "categoryCode": "31", "address": "PO BOX 249 TRANSMITTER ROAD", "city": "KENORA", "province": "ON", "country": "CA", "postalCode": "P9N3X3", "twitter": "None", "instagram": "None", "facebook": "None", "youtube": "None", "website": "None", "summary": "None", "logo": "None", "latitude": 49.76929240807474, "longitude": -94.43469653773222}, "892543562RR0001": {"name": "LAKESIDE BIBLE CHURCH", "designationCode": "C", "categoryCode": "39", "address": "PO BOX 24042", "city": "GUELPH", "province": "ON", "country": "CA", "postalCode": "N1E6V8", "twitter": "None", "instagram": "None", "facebook": "None", "youtube": "None", "website": "None", "summary": "None", "logo": "None", "latitude": 43.54455300000005, "longitude": -80.24788249999993}, "867721581RR0001": {"name": "LAKESIDE CEMETERY", "designationCode": "C", "categoryCode": "59", "address": "P.O. BOX 423", "city": "EMERSON", "province": "MB", "country": "CA", "postalCode": "R0A0L0", "twitter": "None", "instagram": "None", "facebook": "None", "youtube": "None", "website": "None", "summary": "None", "logo": "None", "latitude": 49.00687000000005, "longitude": -97.20476999999994}, "119003200RR0001": {"name": "LAKESIDE CEMETERY FUND", "designationCode": "C", "categoryCode": "59", "address": "RR #2 WEYMOUTH", "city": "DIGBY COUNTY", "province": "NS", "country": "CA", "postalCode": "B0W3T0", "twitter": "None", "instagram": "None", "facebook": "None", "youtube": "None", "website": "None", "summary": "None", "logo": "None", "latitude": 44.40479821896017, "longitude": -65.99849728761068}, "140860826RR0001": {"name": "LAKESIDE CHARITABLE TRUST", "designationCode": "B", "categoryCode": "39", "address": "2500-201 PORTAGE AVENUE", "city": "WINNIPEG", "province": "MB", "country": "CA", "postalCode": "R3B3K6", "twitter": "None", "instagram": "None", "facebook": "None", "youtube": "None", "website": "None", "summary": "None", "logo": "None", "latitude": 49.895359615067065, "longitude": -97.13919299627776}, "893169763RR0001": {"name": "LAKESIDE CHARITABLE TRUST", "designationCode": "B", "categoryCode": "39", "address": "3425 2 AVENUE SOUTH", "city": "LETHBRIDGE", "province": "AB", "country": "CA", "postalCode": "T1J4V1", "twitter": "None", "instagram": "None", "facebook": "None", "youtube": "None", "website": "None", "summary": "None", "logo": "None", "latitude": 49.696839530439966, "longitude": -112.78914308381903}, "131982977RR0001": {"name": "LAKESIDE CHRISTIAN SCHOOL INC", "designationCode": "C", "categoryCode": "20", "address": "BOX 894", "city": "KILLARNEY", "province": "MB", "country": "CA", "postalCode": "R0K1G0", "twitter": "None", "instagram": "None", "facebook": "None", "youtube": "None", "website": "None", "summary": "None", "logo": "None", "latitude": 49.18482000000006, "longitude": -99.66915999999998}, "854487113RR0001": {"name": "LAKESIDE CHURCH - HALIBURTON", "designationCode": "C", "categoryCode": "31", "address": "P O BOX 749", "city": "HALIBURTON", "province": "ON", "country": "CA", "postalCode": "K0M1S0", "twitter": "None", "instagram": "None", "facebook": "None", "youtube": "None", "website": "None", "summary": "None", "logo": "None", "latitude": 45.24560095765924, "longitude": -78.57868961447684}, "107591919RR0001": {"name": "LAKESIDE CHURCH OF GOD", "designationCode": "C", "categoryCode": "39", "address": "BOX 1456", "city": "GIMLI", "province": "MB", "country": "CA", "postalCode": "R0C1B0", "twitter": "None", "instagram": "None", "facebook": "None", "youtube": "None", "website": "None", "summary": "None", "logo": "None", "latitude": 50.30677349294383, "longitude": -96.92898988377391}, "118828235RR0005": {"name": "LAKESIDE CHURCH OF THE NAZARENE", "designationCode": "C", "categoryCode": "39", "address": "P.O. BOX 1610", "city": "HOLLAND LANDING", "province": "ON", "country": "CA", "postalCode": "L9N1P2", "twitter": "None", "instagram": "None", "facebook": "None", "youtube": "None", "website": "None", "summary": "None", "logo": "None", "latitude": 44.10536100000006, "longitude": -79.49254399999994}, "107406316RR0050": {"name": "LAKESIDE COMMUNITY CHURCH", "designationCode": "C", "categoryCode": "39", "address": "PO BOX 71", "city": "SALMON ARM", "province": "BC", "country": "CA", "postalCode": "V1E4N2", "twitter": "None", "instagram": "None", "facebook": "None", "youtube": "None", "website": "None", "summary": "None", "logo": "None", "latitude": 50.70318000000006, "longitude": -119.26884049999992}, "119288918RR0326": {"name": "LAKESIDE CONGREGATION OF JEHOVAH'S WITNESSES SARNIA, ONTARIO", "designationCode": "C", "categoryCode": "61", "address": "11 OSGOODE CRT", "city": "SARNIA", "province": "ON", "country": "CA", "postalCode": "N7S4V9", "twitter": "None", "instagram": "None", "facebook": "None", "youtube": "None", "website": "None", "summary": "None", "logo": "None", "latitude": 43.00232960484653, "longitude": -82.36121216264806}, "119003242RR0001": {"name": "LAKESIDE GOSPEL CHAPEL", "designationCode": "C", "categoryCode": "34", "address": "BOX 86", "city": "ST LAURENT", "province": "MB", "country": "CA", "postalCode": "R0C2S0", "twitter": "None", "instagram": "None", "facebook": "None", "youtube": "None", "website": "None", "summary": "None", "logo": "None", "latitude": 50.40907368314322, "longitude": -97.93736167557958}, "131081721RR0001": {"name": "LAKESIDE HEIGHTS BAPTIST CHURCH,", "designationCode": "C", "categoryCode": "31", "address": "275 BRAEBROOK AVENUE", "city": "POINTE-CLAIRE", "province": "QC", "country": "CA", "postalCode": "H9R1W1", "twitter": "None", "instagram": "None", "facebook": "None", "youtube": "None", "website": "None", "summary": "None", "logo": "None", "latitude": 45.45307999056495, "longitude": -73.81883265517324}, "895705291RR0001": {"name": "LAKESIDE NURSERY SCHOOL SOCIETY", "designationCode": "C", "categoryCode": "20", "address": "BOX 1035", "city": "SLAVE LAKE", "province": "AB", "country": "CA", "postalCode": "T0G2A0", "twitter": "None", "instagram": "None", "facebook": "None", "youtube": "None", "website": "None", "summary": "None", "logo": "None", "latitude": 55.28284800000006, "longitude": -114.77156299999993}, "892822065RR0001": {"name": "LAKESIDE PASTORAL CHARGE,", "designationCode": "C", "categoryCode": "44", "address": "BOX 29", "city": "STE ROSE", "province": "MB", "country": "CA", "postalCode": "R0L1S0", "twitter": "None", "instagram": "None", "facebook": "None", "youtube": "None", "website": "None", "summary": "None", "logo": "None", "latitude": 51.05911000000003, "longitude": -99.52392999999995}, "119003291RR0001": {"name": "LAKESIDE UNITED CHURCH", "designationCode": "C", "categoryCode": "44", "address": "19 SPRINGWOOD CRES", "city": "GRAVENHURST", "province": "ON", "country": "CA", "postalCode": "P1P1Z1", "twitter": "None", "instagram": "None", "facebook": "None", "youtube": "None", "website": "None", "summary": "None", "logo": "None", "latitude": 44.910652242310505, "longitude": -79.3596987524667}, "837099969RR0001": {"name": "LAKESIDE UNITED CHURCH", "designationCode": "C", "categoryCode": "44", "address": "BOX 67", "city": "ITUNA", "province": "SK", "country": "CA", "postalCode": "S0A1N0", "twitter": "None", "instagram": "None", "facebook": "None", "youtube": "None", "website": "None", "summary": "None", "logo": "None", "latitude": 51.17134000000004, "longitude": -103.49577999999997}, "887846269RR0001": {"name": "LAKETOWN LEADERS CLUB INC", "designationCode": "C", "categoryCode": "09", "address": "BOX 356", "city": "SALTCOATS", "province": "SK", "country": "CA", "postalCode": "S0A3R0", "twitter": "None", "instagram": "None", "facebook": "None", "youtube": "None", "website": "None", "summary": "None", "logo": "None", "latitude": 51.033300000000054, "longitude": -102.16763999999995}, "119003408RR0001": {"name": "LAKEVIEW BAPTIST CHURCH", "designationCode": "C", "categoryCode": "31", "address": "230 STANLEY DR", "city": "WATERLOO", "province": "ON", "country": "CA", "postalCode": "N2L1H7", "twitter": "None", "instagram": "None", "facebook": "None", "youtube": "None", "website": "None", "summary": "None", "logo": "None", "latitude": 43.45390547406075, "longitude": -80.53350881781964}, "119003424RR0001": {"name": "LAKEVIEW BIBLE CHAPEL OF THE ASSOCIATED GOSPEL CHURCHES OF CANADA", "designationCode": "C", "categoryCode": "39", "address": "BOX 142", "city": "FRASER LAKE", "province": "BC", "country": "CA", "postalCode": "V0J1S0", "twitter": "None", "instagram": "None", "facebook": "None", "youtube": "None", "website": "None", "summary": "None", "logo": "None", "latitude": 54.05537000000004, "longitude": -124.84213999999997}, "131902900RR0001": {"name": "LAKEVIEW BIBLE CHURCH", "designationCode": "C", "categoryCode": "34", "address": "1509 29 ST SOUTH", "city": "LETHBRIDGE", "province": "AB", "country": "CA", "postalCode": "T1K2X6", "twitter": "None", "instagram": "None", "facebook": "None", "youtube": "None", "website": "None", "summary": "None", "logo": "None", "latitude": 49.67720571637925, "longitude": -112.79984521859838}, "119003432RR0001": {"name": "LAKEVIEW CEMETERY BOARD", "designationCode": "C", "categoryCode": "59", "address": "539 HUGEL AVE.", "city": "MIDLAND", "province": "ON", "country": "CA", "postalCode": "L4R1W1", "twitter": "None", "instagram": "None", "facebook": "None", "youtube": "None", "website": "None", "summary": "None", "logo": "None", "latitude": 44.74933268780919, "longitude": -79.88683576055676}, "107592156RR0001": {"name": "LAKEVIEW CHAPEL", "designationCode": "C", "categoryCode": "36", "address": "GENERAL DELIVERY", "city": "KINOSOTA", "province": "MB", "country": "CA", "postalCode": "R0H0L0", "twitter": "None", "instagram": "None", "facebook": "None", "youtube": "None", "website": "None", "summary": "None", "logo": "None", "latitude": 50.90538300000006, "longitude": -98.87013349999994}, "891331548RR0001": {"name": "LAKEVIEW CHARITABLE TRUST", "designationCode": "B", "categoryCode": "39", "address": "3425 2 AVENUE SOUTH", "city": "LETHBRIDGE", "province": "AB", "country": "CA", "postalCode": "T1J4V1", "twitter": "None", "instagram": "None", "facebook": "None", "youtube": "None", "website": "None", "summary": "None", "logo": "None", "latitude": 49.696839530439966, "longitude": -112.78914308381903}, "119145100RR0001": {"name": "LAKEVIEW COMMUNITY CENTRE SOCIETY", "designationCode": "C", "categoryCode": "56", "address": "7703 SQUILAX-ANGLEMONT HWY", "city": "ANGLEMONT", "province": "BC", "country": "CA", "postalCode": "V0E1M8", "twitter": "None", "instagram": "None", "facebook": "None", "youtube": "None", "website": "None", "summary": "None", "logo": "None", "latitude": 50.964231328837194, "longitude": -119.1692498389056}, "130918972RR0001": {"name": "LAKEVIEW COMMUNITY CHURCH", "designationCode": "C", "categoryCode": "34", "address": "BOX 1575", "city": "KILLARNEY", "province": "MB", "country": "CA", "postalCode": "R0K1G0", "twitter": "None", "instagram": "None", "facebook": "None", "youtube": "None", "website": "None", "summary": "None", "logo": "None", "latitude": 49.18482000000006, "longitude": -99.66915999999998}, "119288918RR0184": {"name": "LAKEVIEW CONGREGATION OF JEHOVAH'S WITNESSES", "designationCode": "C", "categoryCode": "61", "address": "191 LABRECHE DR", "city": "NORTH BAY", "province": "ON", "country": "CA", "postalCode": "P1A3R6", "twitter": "None", "instagram": "None", "facebook": "None", "youtube": "None", "website": "None", "summary": "None", "logo": "None", "latitude": 46.278581134052764, "longitude": -79.43252193992717}, "119288918RR0411": {"name": "LAKEVIEW CONGREGATION OF JEHOVAH'S WITNESSES", "designationCode": "C", "categoryCode": "61", "address": "564 ANNADALE DRIVE", "city": "OSHAWA", "province": "ON", "country": "CA", "postalCode": "L1H7S7", "twitter": "None", "instagram": "None", "facebook": "None", "youtube": "None", "website": "None", "summary": "None", "logo": "None", "latitude": 43.892523577009705, "longitude": -78.81325746713584}, "119288918RR0575": {"name": "LAKEVIEW CONGREGATION OF JEHOVAH'S WITNESSES", "designationCode": "C", "categoryCode": "61", "address": "639 ERAMOSA ROAD", "city": "GUELPH", "province": "ON", "country": "CA", "postalCode": "N1E2N7", "twitter": "None", "instagram": "None", "facebook": "None", "youtube": "None", "website": "None", "summary": "None", "logo": "None", "latitude": 43.571841391338246, "longitude": -80.24721284537502}, "119288918RR0760": {"name": "LAKEVIEW CONGREGATION OF JEHOVAH'S WITNESSES", "designationCode": "C", "categoryCode": "61", "address": "2784 OTTER RD", "city": "QUESNEL", "province": "BC", "country": "CA", "postalCode": "V2J6L4", "twitter": "None", "instagram": "None", "facebook": "None", "youtube": "None", "website": "None", "summary": "None", "logo": "None", "latitude": 52.83120457891428, "longitude": -122.42529907279743}, "119003523RR0001": {"name": "LAKEVIEW CONGREGATION OF JEHOVAHS WITNESSES", "designationCode": "C", "categoryCode": "61", "address": "2822-2 AVE. SOUTH", "city": "LETHBRIDGE", "province": "AB", "country": "CA", "postalCode": "T1J4E7", "twitter": "None", "instagram": "None", "facebook": "None", "youtube": "None", "website": "None", "summary": "None", "logo": "None", "latitude": 49.69712453952925, "longitude": -112.799934}, "119003465RR0001": {"name": "LAKEVIEW CONGREGATION, CHURCH OF GOD IN CHRIST (MENN.)", "designationCode": "C", "categoryCode": "39", "address": "BOX 1901", "city": "STETTLER", "province": "AB", "country": "CA", "postalCode": "T0C2L0", "twitter": "None", "instagram": "None", "facebook": "None", "youtube": "None", "website": "None", "summary": "None", "logo": "None", "latitude": 52.32597900000006, "longitude": -112.70698099999993}, "889069266RR0001": {"name": "LAKEVIEW CONSERVATIVE MENNONITE CHURCH", "designationCode": "C", "categoryCode": "34", "address": "R#2", "city": "KIPPEN", "province": "ON", "country": "CA", "postalCode": "N0M2E0", "twitter": "None", "instagram": "None", "facebook": "None", "youtube": "None", "website": "None", "summary": "None", "logo": "None", "latitude": 43.46545121033426, "longitude": -81.55668749446299}, "837741073RR0001": {"name": "LAKEVIEW FREE METHODIST CHURCH INC.", "designationCode": "C", "categoryCode": "39", "address": "SITE 510, BOX 15, RR5", "city": "SASKATOON", "province": "SK", "country": "CA", "postalCode": "S7K3J8", "twitter": "None", "instagram": "None", "facebook": "None", "youtube": "None", "website": "None", "summary": "None", "logo": "None", "latitude": 52.13049000000005, "longitude": -106.65926449999994}, "857470041RR0001": {"name": "LAKEVIEW GOSPEL CENTRE CHURCH", "designationCode": "C", "categoryCode": "36", "address": "4801 54 STREET", "city": "BONNYVILLE", "province": "AB", "country": "CA", "postalCode": "T9N1Z1", "twitter": "None", "instagram": "None", "facebook": "None", "youtube": "None", "website": "None", "summary": "None", "logo": "None", "latitude": 54.266328502914206, "longitude": -110.75206644362076}, "139742480RR0001": {"name": "LAKEVIEW GOSPEL HALL", "designationCode": "C", "categoryCode": "39", "address": "RR #1", "city": "BANCROFT", "province": "ON", "country": "CA", "postalCode": "K0L1C0", "twitter": "None", "instagram": "None", "facebook": "None", "youtube": "None", "website": "None", "summary": "None", "logo": "None", "latitude": 45.03567300000006, "longitude": -77.98000849999994}, "119003580RR0001": {"name": "LAKEVIEW HEIGHTS BAPTIST CHURCH", "designationCode": "C", "categoryCode": "31", "address": "2630 ALHAMBRA DRIVE", "city": "WEST KELOWNA", "province": "BC", "country": "CA", "postalCode": "V1Z2Z3", "twitter": "None", "instagram": "None", "facebook": "None", "youtube": "None", "website": "None", "summary": "None", "logo": "None", "latitude": 49.86228127477062, "longitude": -119.56690561437458}, "119288918RR0819": {"name": "LAKEVIEW HEIGHTS CONGREGATION OF JEHOVAH'S WITNESSES", "designationCode": "C", "categoryCode": "61", "address": "3970 SONOMA PINES DR", "city": "WESTBANK", "province": "BC", "country": "CA", "postalCode": "V4T3B7", "twitter": "None", "instagram": "None", "facebook": "None", "youtube": "None", "website": "None", "summary": "None", "logo": "None", "latitude": 49.83159794887195, "longitude": -119.60765710748818}, "107592487RR0001": {"name": "LAKEVIEW MULTICULTURAL UNITED CHURCH", "designationCode": "C", "categoryCode": "44", "address": "2776 SEMLIN DRIVE", "city": "VANCOUVER", "province": "BC", "country": "CA", "postalCode": "V5N4R6", "twitter": "None", "instagram": "None", "facebook": "None", "youtube": "None", "website": "None", "summary": "None", "logo": "None", "latitude": 49.25970337040611, "longitude": -123.06395002902899}, "119003606RR0001": {"name": "LAKEVIEW PIONEER LODGE INC.", "designationCode": "C", "categoryCode": "01", "address": "BOX 189", "city": "WAKAW", "province": "SK", "country": "CA", "postalCode": "S0K4P0", "twitter": "None", "instagram": "None", "facebook": "None", "youtube": "None", "website": "None", "summary": "None", "logo": "None", "latitude": 52.65295000000003, "longitude": -105.74270999999999}, "857465280RR0001": {"name": "LAKEVIEW PIONEER SOCIETY", "designationCode": "C", "categoryCode": "01", "address": "BOX 86", "city": "MCLENNAN", "province": "AB", "country": "CA", "postalCode": "T0H2L0", "twitter": "None", "instagram": "None", "facebook": "None", "youtube": "None", "website": "None", "summary": "None", "logo": "None", "latitude": 55.700090000000046, "longitude": -116.90258999999998}, "119003614RR0001": {"name": "LAKEVIEW PRESBYTERIAN CHURCH", "designationCode": "C", "categoryCode": "37", "address": "148 FLAMINGO DR", "city": "THUNDER BAY", "province": "ON", "country": "CA", "postalCode": "P7B6K1", "twitter": "None", "instagram": "None", "facebook": "None", "youtube": "None", "website": "None", "summary": "None", "logo": "None", "latitude": 48.434681859570595, "longitude": -89.26992114559394}, "888257045RR0001": {"name": "LAKEVIEW SCHOOL", "designationCode": "C", "categoryCode": "20", "address": "13797 RIVERSIDE DRIVE E", "city": "WINDSOR", "province": "ON", "country": "CA", "postalCode": "N8N1B5", "twitter": "None", "instagram": "None", "facebook": "None", "youtube": "None", "website": "None", "summary": "None", "logo": "None", "latitude": 42.32289048154114, "longitude": -82.85701201461504}, "107592479RR0001": {"name": "LAKEVIEW UNITED CHURCH", "designationCode": "C", "categoryCode": "44", "address": "3023-63RD AVE SW", "city": "CALGARY", "province": "AB", "country": "CA", "postalCode": "T3E5J6", "twitter": "None", "instagram": "None", "facebook": "None", "youtube": "None", "website": "None", "summary": "None", "logo": "None", "latitude": 50.997309812626426, "longitude": -114.12779789895562}, "119003655RR0001": {"name": "LAKEVIEW UNITED CHURCH", "designationCode": "C", "categoryCode": "44", "address": "3200 MCCALLUM AVE", "city": "REGINA", "province": "SK", "country": "CA", "postalCode": "S4S0R8", "twitter": "None", "instagram": "None", "facebook": "None", "youtube": "None", "website": "None", "summary": "None", "logo": "None", "latitude": 50.431682522649695, "longitude": -104.62746421870851}, "816550578RR0001": {"name": "LAKEVILLE CEMETERY CORPORATION INC.", "designationCode": "C", "categoryCode": "59", "address": "2213 ROUTE 134", "city": "LAKEVILLE-WEST MORLAND", "province": "NB", "country": "CA", "postalCode": "E1H1P3", "twitter": "None", "instagram": "None", "facebook": "None", "youtube": "None", "website": "None", "summary": "None", "logo": "None", "latitude": 46.16512800000005, "longitude": -64.70429749999994}, "825094949RR0001": {"name": "LAKEVILLE CORNER BAPTIST CHURCH, INC.", "designationCode": "C", "categoryCode": "31", "address": "219 SCOTCHTOWN RD", "city": "SCOTCHTON", "province": "NB", "country": "CA", "postalCode": "E4B1W6", "twitter": "None", "instagram": "None", "facebook": "None", "youtube": "None", "website": "None", "summary": "None", "logo": "None", "latitude": 45.90742907631721, "longitude": -66.12076618844142}, "889602777RR0001": {"name": "LAKEVILLE PRESBYTERIAN CEMETERY ASSOCIATION", "designationCode": "C", "categoryCode": "52", "address": "338 LAMONT ROAD", "city": "LAKEVILLE KINGS CO", "province": "NS", "country": "CA", "postalCode": "B4N3V7", "twitter": "None", "instagram": "None", "facebook": "None", "youtube": "None", "website": "None", "summary": "None", "logo": "None", "latitude": 45.120319962808026, "longitude": -64.59928283490075}, "875150781RR0001": {"name": "LAKEVILLE WOMEN'S INSTITUTE", "designationCode": "C", "categoryCode": "59", "address": "6490 HWY 221", "city": "LAKEVILLE", "province": "NS", "country": "CA", "postalCode": "B0P1G0", "twitter": "None", "instagram": "None", "facebook": "None", "youtube": "None", "website": "None", "summary": "None", "logo": "None", "latitude": 45.108634385760034, "longitude": -64.61009114647253}, "119003689RR0001": {"name": "LAKEVILLE, GOOD CORNER AND BLOOMFIELD UNITED BAPTIST CHURCH", "designationCode": "C", "categoryCode": "31", "address": "28 GOOD CORNER ROAD", "city": "GOOD CORNER", "province": "NB", "country": "CA", "postalCode": "E7K1B9", "twitter": "None", "instagram": "None", "facebook": "None", "youtube": "None", "website": "None", "summary": "None", "logo": "None", "latitude": 46.38415345071856, "longitude": -67.73942618385286}, "107592545RR0001": {"name": "LAKEWOOD ALLIANCE CHURCH", "designationCode": "C", "categoryCode": "39", "address": "210 - 556 NORTH NECHAKO RD", "city": "PRINCE GEORGE", "province": "BC", "country": "CA", "postalCode": "V2K1A1", "twitter": "None", "instagram": "None", "facebook": "None", "youtube": "None", "website": "None", "summary": "None", "logo": "None", "latitude": 53.93118924938793, "longitude": -122.78078176069265}, "102947132RR0001": {"name": "LAKEWOOD CHILDREN'S CENTRE INC.", "designationCode": "C", "categoryCode": "20", "address": "55 KAY CRESCENT", "city": "WINNIPEG", "province": "MB", "country": "CA", "postalCode": "R2Y1L1", "twitter": "None", "instagram": "None", "facebook": "None", "youtube": "None", "website": "None", "summary": "None", "logo": "None", "latitude": 49.893478710802654, "longitude": -97.30913521201383}, "132712290RR0001": {"name": "LAKEWOOD COMMUNITY CHURCH", "designationCode": "C", "categoryCode": "31", "address": "804 CASSILS RD. EAST", "city": "BROOKS", "province": "AB", "country": "CA", "postalCode": "T1R0L2", "twitter": "None", "instagram": "None", "facebook": "None", "youtube": "None", "website": "None", "summary": "None", "logo": "None", "latitude": 50.57211752654483, "longitude": -111.88261341618097}, "119288918RR0552": {"name": "LAKEWOOD CONGREGATION OF JEHOVAH'S WITNESSES", "designationCode": "C", "categoryCode": "61", "address": "2810-48 STREET", "city": "EDMONTON", "province": "AB", "country": "CA", "postalCode": "T6L4R1", "twitter": "None", "instagram": "None", "facebook": "None", "youtube": "None", "website": "None", "summary": "None", "logo": "None", "latitude": 53.45974945628714, "longitude": -113.41695945951845}, "119003788RR0001": {"name": "LAKEWOOD HEADSTART ASSOCIATION INC.", "designationCode": "C", "categoryCode": "09", "address": "P.O. BOX 634", "city": "SAINT JOHN", "province": "NB", "country": "CA", "postalCode": "E2L4A5", "twitter": "None", "instagram": "None", "facebook": "None", "youtube": "None", "website": "None", "summary": "None", "logo": "None", "latitude": 45.27342600000006, "longitude": -66.06407149999993}, "895546729RR0001": {"name": "LAKEWOOD LODGE AUXILIARY", "designationCode": "C", "categoryCode": "19", "address": "BOX 846", "city": "BIG RIVER", "province": "SK", "country": "CA", "postalCode": "S0J0E0", "twitter": "None", "instagram": "None", "facebook": "None", "youtube": "None", "website": "None", "summary": "None", "logo": "None", "latitude": 53.83341000000007, "longitude": -107.01782999999995}, "844149146RR0001": {"name": "LAKEWOOD NORTH MINISTRIES", "designationCode": "C", "categoryCode": "39", "address": "UNIT #301-773 GLENMORE RD.", "city": "KELOWNA", "province": "BC", "country": "CA", "postalCode": "V1V3B9", "twitter": "None", "instagram": "None", "facebook": "None", "youtube": "None", "website": "None", "summary": "None", "logo": "None", "latitude": 49.90227300000001, "longitude": -119.45346318927814}, "890340573RR0001": {"name": "LAM OAK TAI CHARITABLE FUND", "designationCode": "B", "categoryCode": "05", "address": "5337 SWIFTCURRENT TRAIL", "city": "MISSISSAUGA", "province": "ON", "country": "CA", "postalCode": "L5R2H6", "twitter": "None", "instagram": "None", "facebook": "None", "youtube": "None", "website": "None", "summary": "None", "logo": "None", "latitude": 43.60859517903502, "longitude": -79.66670716054028}, "857407688RR0001": {"name": "LAM TY NI (LUMBINI) BUDDHIST TEMPLE", "designationCode": "C", "categoryCode": "35", "address": "#3-14655-108 AVE", "city": "SURREY", "province": "BC", "country": "CA", "postalCode": "V3R1V9", "twitter": "None", "instagram": "None", "facebook": "None", "youtube": "None", "website": "None", "summary": "None", "logo": "None", "latitude": 49.19883805159814, "longitude": -122.81624482534617}, "817007024RR0001": {"name": "LAMb International Canada", "designationCode": "C", "categoryCode": "47", "address": "PO BOX 35026", "city": "BARRIE", "province": "ON", "country": "CA", "postalCode": "L4N5Z2", "twitter": "None", "instagram": "None", "facebook": "None", "youtube": "None", "website": "None", "summary": "None", "logo": "None", "latitude": 44.38929300000005, "longitude": -79.68626449999994}, "846233328RR0001": {"name": "LAMA YESHE LING TIBETAN BUDDHIST GROUP", "designationCode": "C", "categoryCode": "35", "address": "306 - 1235 FAIRVIEW ST", "city": "BURLINGTON", "province": "ON", "country": "CA", "postalCode": "L7S2K9", "twitter": "None", "instagram": "None", "facebook": "None", "youtube": "None", "website": "None", "summary": "None", "logo": "None", "latitude": 43.33016844162928, "longitude": -79.81836180913439}, "139322614RR0001": {"name": "LAMBDA CHI ALPHA EDUCATIONAL FOUNDATION", "designationCode": "C", "categoryCode": "21", "address": "1 TORONTO STREET, BOX 1       SUITE 800", "city": "TORONTO", "province": "ON", "country": "CA", "postalCode": "M5C2V6", "twitter": "None", "instagram": "None", "facebook": "None", "youtube": "None", "website": "None", "summary": "None", "logo": "None", "latitude": 43.64988730558597, "longitude": -79.37604079929623}, "862758448RR0001": {"name": "LAMBDA SCHOLARSHIP FOUNDATION CANADA", "designationCode": "A", "categoryCode": "23", "address": "6 WINDSOR AVE", "city": "OTTAWA", "province": "ON", "country": "CA", "postalCode": "K1S0W4", "twitter": "None", "instagram": "None", "facebook": "None", "youtube": "None", "website": "None", "summary": "None", "logo": "None", "latitude": 45.39311958200137, "longitude": -75.67771277448216}, "119004422RR0001": {"name": "LAMBERT'S COVE UNITED BAPTIST CHURCH", "designationCode": "C", "categoryCode": "31", "address": "34 LAMBERT RD", "city": "LAMBERT'S COVE", "province": "NB", "country": "CA", "postalCode": "E5V1E1", "twitter": "None", "instagram": "None", "facebook": "None", "youtube": "None", "website": "None", "summary": "None", "logo": "None", "latitude": 45.017932776814774, "longitude": -66.94586309868127}, "119004448RR0001": {"name": "LAMBETH CEMETERY BOARD", "designationCode": "C", "categoryCode": "59", "address": "THE LAMBETH COMMUNITY CEMETARYP.O BOX 882 LAMBETH STATION", "city": "LONDON", "province": "ON", "country": "CA", "postalCode": "N6P1R2", "twitter": "None", "instagram": "None", "facebook": "None", "youtube": "None", "website": "None", "summary": "None", "logo": "None", "latitude": 42.98689500000006, "longitude": -81.24624349999993}, "107593998RR0001": {"name": "LAMBETH UNITED CHURCH", "designationCode": "C", "categoryCode": "44", "address": "4268 COLONEL TALBOT RD", "city": "LONDON", "province": "ON", "country": "CA", "postalCode": "N6P1A2", "twitter": "None", "instagram": "None", "facebook": "None", "youtube": "None", "website": "None", "summary": "None", "logo": "None", "latitude": 42.910083836545546, "longitude": -81.30087383677667}, "129898466RR0001": {"name": "LAMBRICK PARK CHURCH", "designationCode": "C", "categoryCode": "47", "address": "1780 FELTHAM ROAD", "city": "VICTORIA", "province": "BC", "country": "CA", "postalCode": "V8N2A5", "twitter": "None", "instagram": "None", "facebook": "None", "youtube": "None", "website": "None", "summary": "None", "logo": "None", "latitude": 48.47603650100961, "longitude": -123.32452113918865}, "131527962RR0001": {"name": "LAMBRICK PARK PRESCHOOL", "designationCode": "C", "categoryCode": "20", "address": "4205 TYNDALL AVE.", "city": "VICTORIA", "province": "BC", "country": "CA", "postalCode": "V8N3R9", "twitter": "None", "instagram": "None", "facebook": "None", "youtube": "None", "website": "None", "summary": "None", "logo": "None", "latitude": 48.47985693751727, "longitude": -123.32289937259517}, "878172162RR0001": {"name": "LAMBSGATE TORONTO CHURCH", "designationCode": "C", "categoryCode": "39", "address": "173 BOGERT AVENUE", "city": "TORONTO", "province": "ON", "country": "CA", "postalCode": "M2N1L1", "twitter": "None", "instagram": "None", "facebook": "None", "youtube": "None", "website": "None", "summary": "None", "logo": "None", "latitude": 43.75882487870052, "longitude": -79.41903642117263}, "126088368RR0001": {"name": "LAMBTON BAPTIST CHURCH,", "designationCode": "C", "categoryCode": "31", "address": "PO BOX 40", "city": "PORT LAMBTON", "province": "ON", "country": "CA", "postalCode": "N0P2B0", "twitter": "None", "instagram": "None", "facebook": "None", "youtube": "None", "website": "None", "summary": "None", "logo": "None", "latitude": 42.65674000000007, "longitude": -82.50609999999995}, "129904264RR0001": {"name": "LAMBTON CHRISTIAN SCHOOL SOCIETY", "designationCode": "C", "categoryCode": "20", "address": "1273 EXMOUTH STREET", "city": "SARNIA", "province": "ON", "country": "CA", "postalCode": "N7S1W9", "twitter": "None", "instagram": "None", "facebook": "None", "youtube": "None", "website": "None", "summary": "None", "logo": "None", "latitude": 42.98451474174375, "longitude": -82.36142056433002}, "862517612RR0001": {"name": "LAMBTON CONCERT BAND", "designationCode": "C", "categoryCode": "22", "address": "PO BOX 771", "city": "WATFORD", "province": "ON", "country": "CA", "postalCode": "N0M2S0", "twitter": "None", "instagram": "None", "facebook": "None", "youtube": "None", "website": "None", "summary": "None", "logo": "None", "latitude": 42.94966000000005, "longitude": -81.88000999999997}, "102953593RR0001": {"name": "LAMBTON COUNTY DEVELOPMENTAL SERVICES", "designationCode": "C", "categoryCode": "11", "address": "PO BOX 1210 339 CENTRE ST", "city": "PETROLIA", "province": "ON", "country": "CA", "postalCode": "N0N1R0", "twitter": "None", "instagram": "None", "facebook": "None", "youtube": "None", "website": "None", "summary": "None", "logo": "None", "latitude": 42.886154528040066, "longitude": -82.14838185413784}, "831392147RR0001": {"name": "LAMBTON COUNTY DEVELOPMENTAL SERVICES FOUNDATION", "designationCode": "A", "categoryCode": "03", "address": "339 CENTRE ST", "city": "PETROLIA", "province": "ON", "country": "CA", "postalCode": "N0N1R0", "twitter": "None", "instagram": "None", "facebook": "None", "youtube": "None", "website": "None", "summary": "None", "logo": "None", "latitude": 42.886154528040066, "longitude": -82.14838185413784}, "889847216RR0001": {"name": "LAMBTON COUNTY MENTAL HEALTH FOUNDATION", "designationCode": "A", "categoryCode": "13", "address": "210 LOCHIEL STREET", "city": "SARNIA", "province": "ON", "country": "CA", "postalCode": "N7T4C7", "twitter": "None", "instagram": "None", "facebook": "None", "youtube": "None", "website": "None", "summary": "None", "logo": "None", "latitude": 42.97346426966472, "longitude": -82.40446801066788}, "119004539RR0001": {"name": "LAMBTON COUNTY MUSIC FESTIVAL", "designationCode": "C", "categoryCode": "22", "address": "1107 HIGHWAY DR. E.", "city": "SARNIA", "province": "ON", "country": "CA", "postalCode": "N7S3T4", "twitter": "None", "instagram": "None", "facebook": "None", "youtube": "None", "website": "None", "summary": "None", "logo": "None", "latitude": 42.98644449805211, "longitude": -82.36875872841253}, "898328208RR0001": {"name": "LAMBTON COUNTY REGIONAL TRAIL", "designationCode": "C", "categoryCode": "56", "address": "150 NORTH CHRISTINA STREET", "city": "SARNIA", "province": "ON", "country": "CA", "postalCode": "N7T8H3", "twitter": "None", "instagram": "None", "facebook": "None", "youtube": "None", "website": "None", "summary": "None", "logo": "None", "latitude": 42.97211145460227, "longitude": -82.40732158960225}, "119004547RR0001": {"name": "LAMBTON COUNTY SCIENCE FAIR", "designationCode": "C", "categoryCode": "21", "address": "LAMBTON COLLEGE               1457 LONDON RD.", "city": "SARNIA", "province": "ON", "country": "CA", "postalCode": "N7S6K4", "twitter": "None", "instagram": "None", "facebook": "None", "youtube": "None", "website": "None", "summary": "None", "logo": "None", "latitude": 42.97612000000004, "longitude": -82.34849999999994}, "135676872RR0001": {"name": "LAMBTON CRISIS PREGNANCY CENTRE", "designationCode": "C", "categoryCode": "09", "address": "204-551 EXMOUTH ST", "city": "SARNIA", "province": "ON", "country": "CA", "postalCode": "N7T5P6", "twitter": "None", "instagram": "None", "facebook": "None", "youtube": "None", "website": "None", "summary": "None", "logo": "None", "latitude": 42.98518993187812, "longitude": -82.3857917059799}, "890614043RR0001": {"name": "LAMBTON DRUG AWARENESS ACTION COMMITTEE (LDAAC)", "designationCode": "C", "categoryCode": "59", "address": "160 EXMOUTH STREET", "city": "SARNIA", "province": "ON", "country": "CA", "postalCode": "N7T7Z6", "twitter": "None", "instagram": "None", "facebook": "None", "youtube": "None", "website": "None", "summary": "None", "logo": "None", "latitude": 42.98571654830203, "longitude": -82.40240358810478}}