{"119097046RR0001": {"name": "PORT LORNE AND DISTRICT VOLUNTEER FIRE DEPARTMENT", "designationCode": "C", "categoryCode": "59", "address": "RR1", "city": "PARADISE", "province": "NS", "country": "CA", "postalCode": "B0S1R0", "twitter": "None", "instagram": "None", "facebook": "None", "youtube": "None", "website": "None", "summary": "None", "logo": "None", "latitude": 44.867231543507074, "longitude": -65.2062110028283}, "866273139RR0001": {"name": "PORT LORNE COMMUNITY CENTRE ASSOCIATION", "designationCode": "C", "categoryCode": "50", "address": "595 PORT LORNE ROAD", "city": "PORT LORNE", "province": "NS", "country": "CA", "postalCode": "B0S1R0", "twitter": "None", "instagram": "None", "facebook": "None", "youtube": "None", "website": "None", "summary": "None", "logo": "None", "latitude": 44.945728858445435, "longitude": -65.26332915517324}, "815054143RR0001": {"name": "PORT MAITLAND \"ON THE GRAND\" HISTORICAL ASSOCIATION", "designationCode": "C", "categoryCode": "50", "address": "2563 LAKESHORE ROAD, RR9", "city": "DUNNVILLE", "province": "ON", "country": "CA", "postalCode": "N1A2W8", "twitter": "None", "instagram": "None", "facebook": "None", "youtube": "None", "website": "None", "summary": "None", "logo": "None", "latitude": 42.85562493981162, "longitude": -79.73353162810879}, "861907459RR0001": {"name": "PORT MCNEILL & DISTRICT MUSEUM SOCIETY", "designationCode": "C", "categoryCode": "50", "address": "PO BOX 1179", "city": "PORT MCNEILL", "province": "BC", "country": "CA", "postalCode": "V0N2R0", "twitter": "None", "instagram": "None", "facebook": "None", "youtube": "None", "website": "None", "summary": "None", "logo": "None", "latitude": 50.58438000000007, "longitude": -127.08205999999996}, "107853624RR0001": {"name": "PORT MCNEILL REGULAR BAPTIST CHURCH", "designationCode": "C", "categoryCode": "31", "address": "BOX 313", "city": "PORT MCNEIL", "province": "BC", "country": "CA", "postalCode": "V0N2R0", "twitter": "None", "instagram": "None", "facebook": "None", "youtube": "None", "website": "None", "summary": "None", "logo": "None", "latitude": 50.581180000000074, "longitude": -127.06684999999999}, "119097087RR0001": {"name": "PORT MEDWAY BAPTIST CHURCH", "designationCode": "C", "categoryCode": "31", "address": "PO BOX 33", "city": "PORT MEDWAY", "province": "NS", "country": "CA", "postalCode": "B0J2T0", "twitter": "None", "instagram": "None", "facebook": "None", "youtube": "None", "website": "None", "summary": "None", "logo": "None", "latitude": 44.12546902661936, "longitude": -64.61699659300588}, "867745671RR0001": {"name": "PORT MOODY ARTS CENTRE SOCIETY", "designationCode": "C", "categoryCode": "22", "address": "2425 ST JOHN'S ST", "city": "PORT MOODY", "province": "BC", "country": "CA", "postalCode": "V3H2B2", "twitter": "None", "instagram": "None", "facebook": "None", "youtube": "None", "website": "None", "summary": "None", "logo": "None", "latitude": 49.27669851788917, "longitude": -122.85714077699231}, "119288918RR0739": {"name": "PORT MOODY CONGREGATION OF JEHOVAH'S WITNESSES, Vancouver, British Columbia", "designationCode": "C", "categoryCode": "61", "address": "699 BLUE MOUNTAIN STREET", "city": "COQUITLAM", "province": "BC", "country": "CA", "postalCode": "V3J4R8", "twitter": "None", "instagram": "None", "facebook": "None", "youtube": "None", "website": "None", "summary": "None", "logo": "None", "latitude": 49.25966282653357, "longitude": -122.86880942169223}, "890821523RR0001": {"name": "PORT MOODY ECOLOGICAL SOCIETY", "designationCode": "C", "categoryCode": "52", "address": "300 IOCO ROAD", "city": "PORT MOODY", "province": "BC", "country": "CA", "postalCode": "V3H2V7", "twitter": "None", "instagram": "None", "facebook": "None", "youtube": "None", "website": "None", "summary": "None", "logo": "None", "latitude": 49.283930969982606, "longitude": -122.83019171002512}, "891314197RR0001": {"name": "PORT MOODY FOUNDATION", "designationCode": "A", "categoryCode": "56", "address": "#402 - 130 BREW STREET", "city": "PORT MOODY", "province": "BC", "country": "CA", "postalCode": "V3H0E3", "twitter": "None", "instagram": "None", "facebook": "None", "youtube": "None", "website": "None", "summary": "None", "logo": "None", "latitude": 49.280036142623445, "longitude": -122.82847834252046}, "889596458RR0001": {"name": "PORT MOODY PACIFIC GRACE MB CHURCH", "designationCode": "C", "categoryCode": "34", "address": "2622 ST. JOHNS STREET", "city": "PORT MOODY", "province": "BC", "country": "CA", "postalCode": "V3H2B6", "twitter": "None", "instagram": "None", "facebook": "None", "youtube": "None", "website": "None", "summary": "None", "logo": "None", "latitude": 49.276741514859424, "longitude": -122.85312359590849}, "108006495RR0001": {"name": "PORT MOODY PASTORAL CHARGE", "designationCode": "C", "categoryCode": "44", "address": "2318 ST.JOHNS ST", "city": "PORT MOODY", "province": "BC", "country": "CA", "postalCode": "V3H2A9", "twitter": "None", "instagram": "None", "facebook": "None", "youtube": "None", "website": "None", "summary": "None", "logo": "None", "latitude": 49.27673647489748, "longitude": -122.86036294463038}, "107853699RR0001": {"name": "PORT MOUTON PASTORAL CHARGE", "designationCode": "C", "categoryCode": "44", "address": "RR#1", "city": "HUNTS POINT QUEENS CO.", "province": "NS", "country": "CA", "postalCode": "B0T1G0", "twitter": "None", "instagram": "None", "facebook": "None", "youtube": "None", "website": "None", "summary": "None", "logo": "None", "latitude": 43.95268745492615, "longitude": -64.7647805379987}, "119097129RR0001": {"name": "PORT MOUTON UNITED BAPTIST CHURCH", "designationCode": "C", "categoryCode": "31", "address": "BOX 44", "city": "PORT MOUTON", "province": "NS", "country": "CA", "postalCode": "B0T1T0", "twitter": "None", "instagram": "None", "facebook": "None", "youtube": "None", "website": "None", "summary": "None", "logo": "None"}, "107853707RR0001": {"name": "PORT NELSON UNITED CHURCH", "designationCode": "C", "categoryCode": "44", "address": "3132 SOUTH DRIVE", "city": "BURLINGTON", "province": "ON", "country": "CA", "postalCode": "L7N1H7", "twitter": "None", "instagram": "None", "facebook": "None", "youtube": "None", "website": "None", "summary": "None", "logo": "None", "latitude": 43.33822300241523, "longitude": -79.7790581999453}, "888121449RR0002": {"name": "PORT OF GRACE COMMUNITY CHURCH, OF THE UNITED BRETHREN IN CANADA", "designationCode": "C", "categoryCode": "39", "address": "26 CHARLOTTE STREET", "city": "PORT COLBORNE", "province": "ON", "country": "CA", "postalCode": "L3K3C6", "twitter": "None", "instagram": "None", "facebook": "None", "youtube": "None", "website": "None", "summary": "None", "logo": "None", "latitude": 42.885106554532896, "longitude": -79.25088954662704}, "860879808RR0001": {"name": "PORT OF HOPE MINISTRIES CANADA", "designationCode": "C", "categoryCode": "47", "address": "8870 GLOVER RD                PO BOX 621", "city": "FORT LANGLEY", "province": "BC", "country": "CA", "postalCode": "V1M2R9", "twitter": "None", "instagram": "None", "facebook": "None", "youtube": "None", "website": "None", "summary": "None", "logo": "None", "latitude": 49.163239500663835, "longitude": -122.58535871974772}, "126595487RR0001": {"name": "PORT PERRY AGRICULTURAL SOCIETY", "designationCode": "C", "categoryCode": "56", "address": "P.O. BOX 401", "city": "PORT PERRY", "province": "ON", "country": "CA", "postalCode": "L9L1A4", "twitter": "None", "instagram": "None", "facebook": "None", "youtube": "None", "website": "None", "summary": "None", "logo": "None", "latitude": 44.10681900000006, "longitude": -78.94273399999993}, "119097160RR0001": {"name": "PORT PERRY BAPTIST CHURCH", "designationCode": "C", "categoryCode": "31", "address": "2210 HWY 7A                   SS 507", "city": "PORT PERRY", "province": "ON", "country": "CA", "postalCode": "L9L1B4", "twitter": "None", "instagram": "None", "facebook": "None", "youtube": "None", "website": "None", "summary": "None", "logo": "None", "latitude": 44.10612117855606, "longitude": -78.91559820452261}, "891450843RR0001": {"name": "PORT PERRY HOSPITAL FOUNDATION", "designationCode": "A", "categoryCode": "13", "address": "451 PAXTON STREET", "city": "PORT PERRY", "province": "ON", "country": "CA", "postalCode": "L9L1L9", "twitter": "None", "instagram": "None", "facebook": "None", "youtube": "None", "website": "None", "summary": "None", "logo": "None", "latitude": 44.10472097675289, "longitude": -78.95374950180265}, "106887979RR0001": {"name": "PORT PERRY PASTORAL CHARGE", "designationCode": "C", "categoryCode": "44", "address": "294 QUEEN ST", "city": "PORT PERRY", "province": "ON", "country": "CA", "postalCode": "L9L1B9", "twitter": "None", "instagram": "None", "facebook": "None", "youtube": "None", "website": "None", "summary": "None", "logo": "None", "latitude": 44.103636305009054, "longitude": -78.94703080875995}, "897263620RR0001": {"name": "PORT REXTON AREA VOLUNTEER FIRE DEPARTMENT", "designationCode": "C", "categoryCode": "59", "address": "79 MAIN ROAD                  P.O. BOX 100", "city": "PORT REXTON", "province": "NL", "country": "CA", "postalCode": "A0C2H0", "twitter": "None", "instagram": "None", "facebook": "None", "youtube": "None", "website": "None", "summary": "None", "logo": "None", "latitude": 48.10975435215011, "longitude": -53.745940290109644}, "856555107RR0001": {"name": "PORT ROWAN - SOUTH WALSINGHAM HERITAGE ASSOCIATION", "designationCode": "C", "categoryCode": "50", "address": "P. O. BOX 193", "city": "PORT ROWAN", "province": "ON", "country": "CA", "postalCode": "N0E1M0", "twitter": "None", "instagram": "None", "facebook": "None", "youtube": "None", "website": "None", "summary": "None", "logo": "None", "latitude": 42.62403000000006, "longitude": -80.45044999999999}, "859963001RR0001": {"name": "PORT ROWAN CHRIST THE KING LUTHERAN CHURCH", "designationCode": "C", "categoryCode": "39", "address": "PO BOX 298                    1140 BAY ST", "city": "PORT ROWAN", "province": "ON", "country": "CA", "postalCode": "N0E1M0", "twitter": "None", "instagram": "None", "facebook": "None", "youtube": "None", "website": "None", "summary": "None", "logo": "None", "latitude": 42.6324180693923, "longitude": -80.45694747126213}, "107853798RR0001": {"name": "PORT ROWAN COMMUNITY CHURCH", "designationCode": "C", "categoryCode": "31", "address": "PO BOX 238", "city": "PORT ROWAN", "province": "ON", "country": "CA", "postalCode": "N0E1M0", "twitter": "None", "instagram": "None", "facebook": "None", "youtube": "None", "website": "None", "summary": "None", "logo": "None", "latitude": 42.62403000000006, "longitude": -80.45044999999999}, "122550544RR0001": {"name": "PORT ROWAN FREE METHODIST CHURCH", "designationCode": "C", "categoryCode": "39", "address": "PO BOX 196", "city": "PORT ROWAN", "province": "ON", "country": "CA", "postalCode": "N0E1M0", "twitter": "None", "instagram": "None", "facebook": "None", "youtube": "None", "website": "None", "summary": "None", "logo": "None", "latitude": 42.62403000000006, "longitude": -80.45044999999999}, "890998743RR0001": {"name": "PORT ROWAN MENNONITE BRETHREN CHURCH", "designationCode": "C", "categoryCode": "34", "address": "465 CONC 1 RD, RR#3", "city": "PORT ROWAN", "province": "ON", "country": "CA", "postalCode": "N0E1M0", "twitter": "None", "instagram": "None", "facebook": "None", "youtube": "None", "website": "None", "summary": "None", "logo": "None", "latitude": 42.60715023925208, "longitude": -80.52236206800734}, "119097202RR0001": {"name": "PORT SIMPSON NATIVE REVIVAL CENTRE", "designationCode": "C", "categoryCode": "39", "address": "1110 MISSION ST PO BOX 108", "city": "PORT SIMPSON", "province": "BC", "country": "CA", "postalCode": "V0V1H0", "twitter": "None", "instagram": "None", "facebook": "None", "youtube": "None", "website": "None", "summary": "None", "logo": "None", "latitude": 34.11578450432783, "longitude": -118.15459241909517}, "135773604RR0001": {"name": "PORT STANLEY FESTIVAL THEATRE", "designationCode": "C", "categoryCode": "22", "address": "6-302 BRIDGE ST", "city": "PORT STANLEY", "province": "ON", "country": "CA", "postalCode": "N5L1C3", "twitter": "None", "instagram": "None", "facebook": "None", "youtube": "None", "website": "None", "summary": "None", "logo": "None", "latitude": 42.66559239226179, "longitude": -81.21322959595867}, "880027560RR0001": {"name": "PORT STANLEY GARDENERS", "designationCode": "C", "categoryCode": "56", "address": "194 PROSPECT ST", "city": "PORT STANLEY", "province": "ON", "country": "CA", "postalCode": "N5L1A6", "twitter": "None", "instagram": "None", "facebook": "None", "youtube": "None", "website": "None", "summary": "None", "logo": "None", "latitude": 42.66566351916856, "longitude": -81.20915484597491}, "107853921RR0001": {"name": "PORT STANLEY UNITED CHURCH", "designationCode": "C", "categoryCode": "44", "address": "239 COLBORNE ST", "city": "PORT STANLEY", "province": "ON", "country": "CA", "postalCode": "N5L1B9", "twitter": "None", "instagram": "None", "facebook": "None", "youtube": "None", "website": "None", "summary": "None", "logo": "None", "latitude": 42.66747616867442, "longitude": -81.2125030964906}, "131928855RR0001": {"name": "PORT SYDNEY BIBLE CHAPEL", "designationCode": "C", "categoryCode": "39", "address": "370 SOUTH MARY LK RD          RR #1", "city": "PORT SYDNEY", "province": "ON", "country": "CA", "postalCode": "P0B1L0", "twitter": "None", "instagram": "None", "facebook": "None", "youtube": "None", "website": "None", "summary": "None", "logo": "None", "latitude": 45.20182197977357, "longitude": -79.2917088511165}, "890623598RR0001": {"name": "PORT UNION HISTORICAL MUSEUM ASSOCIATION", "designationCode": "C", "categoryCode": "50", "address": "PO BOX 99", "city": "PORT UNION", "province": "NL", "country": "CA", "postalCode": "A0C2J0", "twitter": "None", "instagram": "None", "facebook": "None", "youtube": "None", "website": "None", "summary": "None", "logo": "None", "latitude": 48.49989000000005, "longitude": -53.081349999999986}, "899055966RR0001": {"name": "PORT UNION WORSHIP CENTER, INC.", "designationCode": "C", "categoryCode": "39", "address": "P.O. BOX 39", "city": "PORT UNION", "province": "NL", "country": "CA", "postalCode": "A0C2J0", "twitter": "None", "instagram": "None", "facebook": "None", "youtube": "None", "website": "None", "summary": "None", "logo": "None", "latitude": 48.49989000000005, "longitude": -53.081349999999986}, "856851597RR0001": {"name": "PORT WADE CEMETERY ASSOCIATION", "designationCode": "C", "categoryCode": "59", "address": "1579 GRANVILLE RD", "city": "GRANVILLE FERRY", "province": "NS", "country": "CA", "postalCode": "B0S1K0", "twitter": "None", "instagram": "None", "facebook": "None", "youtube": "None", "website": "None", "summary": "None", "logo": "None", "latitude": 44.682558036099216, "longitude": -65.7043711309314}, "107854127RR0001": {"name": "PORT WALLIS UNITED CHURCH", "designationCode": "C", "categoryCode": "44", "address": "263 WAVERLEY ROAD", "city": "DARTMOUTH", "province": "NS", "country": "CA", "postalCode": "B2X1C8", "twitter": "None", "instagram": "None", "facebook": "None", "youtube": "None", "website": "None", "summary": "None", "logo": "None", "latitude": 44.69964953788448, "longitude": -63.54777033919992}, "889209599RR0001": {"name": "PORT WILLIAMS HEALTH AUXILIARY", "designationCode": "A", "categoryCode": "05", "address": "66 CHAMBER CLOSE", "city": "WOLFVILLE", "province": "NS", "country": "CA", "postalCode": "B4P2S8", "twitter": "None", "instagram": "None", "facebook": "None", "youtube": "None", "website": "None", "summary": "None", "logo": "None", "latitude": 45.08978458954891, "longitude": -64.37873888059981}, "108151408RR0001": {"name": "PORT WILLIAMS UNITED BAPTIST CHURCH", "designationCode": "C", "categoryCode": "31", "address": "P.O. BOX 301", "city": "PORT WILLIAMS", "province": "NS", "country": "CA", "postalCode": "B0P1T0", "twitter": "None", "instagram": "None", "facebook": "None", "youtube": "None", "website": "None", "summary": "None", "logo": "None", "latitude": 45.096850000000074, "longitude": -64.40921999999995}, "130868649RR0001": {"name": "PORTAGE & DISTRICT RECYCLING INC", "designationCode": "C", "categoryCode": "59", "address": "700 PHILLIPS ST", "city": "PORTAGE LA PRAIRIE", "province": "MB", "country": "CA", "postalCode": "R1N4A4", "twitter": "None", "instagram": "None", "facebook": "None", "youtube": "None", "website": "None", "summary": "None", "logo": "None", "latitude": 49.98412292534899, "longitude": -98.2723369383682}, "824256226RR0001": {"name": "PORTAGE ANIMAL WELFARE SOCIETY INC.", "designationCode": "C", "categoryCode": "54", "address": "121 12 TH ST NE", "city": "PORTAGE LA PRAIRIE", "province": "MB", "country": "CA", "postalCode": "R1N4A2", "twitter": "None", "instagram": "None", "facebook": "None", "youtube": "None", "website": "None", "summary": "None", "logo": "None"}, "104268248RR0001": {"name": "PORTAGE ARC INDUSTRIES INC.", "designationCode": "C", "categoryCode": "20", "address": "1675 SASKATCHEWAN AVE W", "city": "PORTAGE LA PRAIRIE", "province": "MB", "country": "CA", "postalCode": "R1N0R4", "twitter": "None", "instagram": "None", "facebook": "None", "youtube": "None", "website": "None", "summary": "None", "logo": "None", "latitude": 49.97200422800839, "longitude": -98.31153138401615}, "107852329RR0001": {"name": "PORTAGE AVENUE CHURCH", "designationCode": "C", "categoryCode": "34", "address": "1420 PORTAGE AVE", "city": "WINNIPEG", "province": "MB", "country": "CA", "postalCode": "R3G0W2", "twitter": "None", "instagram": "None", "facebook": "None", "youtube": "None", "website": "None", "summary": "None", "logo": "None", "latitude": 49.88187569216368, "longitude": -97.19211615332691}, "885586792RR0001": {"name": "PORTAGE COLLEGE", "designationCode": "C", "categoryCode": "20", "address": "BOX 417, 9531-94 AVE          ATTN: CYNTHIA QUINTAL", "city": "LAC LA BICHE", "province": "AB", "country": "CA", "postalCode": "T0A2C0", "twitter": "None", "instagram": "None", "facebook": "None", "youtube": "None", "website": "None", "summary": "None", "logo": "None", "latitude": 54.76579881262644, "longitude": -111.9696850496568}, "119096170RR0001": {"name": "PORTAGE COMMUNITY CENTRE INC.", "designationCode": "C", "categoryCode": "56", "address": "#11 2ND STREET NE", "city": "PORTAGE LA PRAIRIE", "province": "MB", "country": "CA", "postalCode": "R1N1R8", "twitter": "None", "instagram": "None", "facebook": "None", "youtube": "None", "website": "None", "summary": "None", "logo": "None", "latitude": 49.97312727095087, "longitude": -98.28782195144524}, "119096188RR0001": {"name": "PORTAGE DAY CARE CENTRE INC.", "designationCode": "C", "categoryCode": "20", "address": "36-2ND STREET S.W.", "city": "PORTAGE LA PRAIRIE", "province": "MB", "country": "CA", "postalCode": "R1N2A1", "twitter": "None", "instagram": "None", "facebook": "None", "youtube": "None", "website": "None", "summary": "None", "logo": "None", "latitude": 49.97228833927955, "longitude": -98.29371092776839}, "107852402RR0001": {"name": "PORTAGE EVANGELICAL CHURCH INC.", "designationCode": "C", "categoryCode": "34", "address": "72-3RD STREET NE", "city": "PORTAGE LA PRAIRIE", "province": "MB", "country": "CA", "postalCode": "R1N1N6", "twitter": "None", "instagram": "None", "facebook": "None", "youtube": "None", "website": "None", "summary": "None", "logo": "None", "latitude": 49.974543939706265, "longitude": -98.28554770792124}, "104268743RR0001": {"name": "PORTAGE FAMILY ABUSE PREVENTION CENTRE INC.", "designationCode": "C", "categoryCode": "09", "address": "BOX 1541", "city": "PORTAGE LA PRAIRIE", "province": "MB", "country": "CA", "postalCode": "R1N3P1", "twitter": "None", "instagram": "None", "facebook": "None", "youtube": "None", "website": "None", "summary": "None", "logo": "None", "latitude": 49.97301900000005, "longitude": -98.29058299999993}, "119096204RR0001": {"name": "PORTAGE GOSPEL HALL", "designationCode": "C", "categoryCode": "39", "address": "PO BOX 1231                   PTGE-LA-PRAIRI", "city": "PORTAGE LA PRAIRIE", "province": "MB", "country": "CA", "postalCode": "R1N3J9", "twitter": "None", "instagram": "None", "facebook": "None", "youtube": "None", "website": "None", "summary": "None", "logo": "None", "latitude": 49.97301900000005, "longitude": -98.29058299999993}, "119288918RR0900": {"name": "PORTAGE INLET CONGREGATION OF JEHOVAH'S WITNESSES, VICTORIA", "designationCode": "C", "categoryCode": "61", "address": "930B OLD ESQUIMALT RD", "city": "ESQUIMALT", "province": "BC", "country": "CA", "postalCode": "V9A4X3", "twitter": "None", "instagram": "None", "facebook": "None", "youtube": "None", "website": "None", "summary": "None", "logo": "None", "latitude": 48.43304063965197, "longitude": -123.4022429892295}, "119096220RR0001": {"name": "PORTAGE LA PRAIRIE FRIENDSHIP CENTER INCORPORATED", "designationCode": "C", "categoryCode": "09", "address": "20 - 3RD STREET NE", "city": "PORTAGE LA PRAIRIE", "province": "MB", "country": "CA", "postalCode": "R1N1N4", "twitter": "None", "instagram": "None", "facebook": "None", "youtube": "None", "website": "None", "summary": "None", "logo": "None", "latitude": 49.97416529129643, "longitude": -98.28560174757655}, "119096238RR0001": {"name": "PORTAGE LA PRAIRIE HANDIVAN INC.", "designationCode": "C", "categoryCode": "59", "address": "BOX 774", "city": "PORTAGE LA PRAIRIE", "province": "MB", "country": "CA", "postalCode": "R1N3C2", "twitter": "None", "instagram": "None", "facebook": "None", "youtube": "None", "website": "None", "summary": "None", "logo": "None", "latitude": 49.97301900000005, "longitude": -98.29058299999993}, "132163098RR0001": {"name": "PORTAGE LA PRAIRIE HERITAGE INC.", "designationCode": "C", "categoryCode": "50", "address": "251 3RD STREET N.E.", "city": "PORTAGE LA PRAIRIE", "province": "MB", "country": "CA", "postalCode": "R1N1L1", "twitter": "None", "instagram": "None", "facebook": "None", "youtube": "None", "website": "None", "summary": "None", "logo": "None", "latitude": 49.97704431474924, "longitude": -98.28529856196486}, "131161853RR0001": {"name": "PORTAGE LA PRAIRIE REGIONAL LIBRARY", "designationCode": "C", "categoryCode": "50", "address": "40-B ROYAL ROAD N.,", "city": "PORTAGE LA PRAIRIE", "province": "MB", "country": "CA", "postalCode": "R1N1V1", "twitter": "None", "instagram": "None", "facebook": "None", "youtube": "None", "website": "None", "summary": "None", "logo": "None", "latitude": 49.97385968308272, "longitude": -98.28978211320788}, "107852469RR0001": {"name": "PORTAGE LA PRAIRIE SCHOOL DIVISION #24 TRUST", "designationCode": "C", "categoryCode": "21", "address": "535-3RD STREET N.W.", "city": "PORTAGE LA PRAIRIE", "province": "MB", "country": "CA", "postalCode": "R1N2C4", "twitter": "None", "instagram": "None", "facebook": "None", "youtube": "None", "website": "None", "summary": "None", "logo": "None", "latitude": 49.98137435118284, "longitude": -98.29382850416567}, "119030666RR0017": {"name": "PORTAGE LA PRAIRIE SEVENTH-DAY ADVENTIST CHURCH", "designationCode": "C", "categoryCode": "41", "address": "1004 VICTORIA AVE", "city": "SASKATOON", "province": "SK", "country": "CA", "postalCode": "S7N0Z8", "twitter": "None", "instagram": "None", "facebook": "None", "youtube": "None", "website": "None", "summary": "None", "logo": "None", "latitude": 52.115409, "longitude": -106.66240826773014}, "119288918RR0057": {"name": "PORTAGE LA PRAIRIE, MANITOBA, CONGREGATION OF JEHOVAH'S WITNESSES", "designationCode": "C", "categoryCode": "61", "address": "31-20TH ST N.W.", "city": "PORTAGE LA PRAIRIE", "province": "MB", "country": "CA", "postalCode": "R1N2Y9", "twitter": "None", "instagram": "None", "facebook": "None", "youtube": "None", "website": "None", "summary": "None", "logo": "None", "latitude": 49.972041695639504, "longitude": -98.31631543464124}, "891220071RR0001": {"name": "PORTAGE LEARNING AND LITERACY CENTRE INC.", "designationCode": "C", "categoryCode": "21", "address": "110 SASKATCHEWAN AVE W", "city": "PORTAGE LA PRAIRIE", "province": "MB", "country": "CA", "postalCode": "R1N0M1", "twitter": "None", "instagram": "None", "facebook": "None", "youtube": "None", "website": "None", "summary": "None", "logo": "None", "latitude": 49.97334281353152, "longitude": -98.29257455338545}, "104268586RR0001": {"name": "PORTAGE MCC COMMUNITY ASSISTANCE CENTRE INC.", "designationCode": "A", "categoryCode": "09", "address": "149 SASKATCHEWAN AVE E", "city": "PORTAGE LA PRAIRIE", "province": "MB", "country": "CA", "postalCode": "R1N0L7", "twitter": "None", "instagram": "None", "facebook": "None", "youtube": "None", "website": "None", "summary": "None", "logo": "None", "latitude": 49.97283943581321, "longitude": -98.28870128891872}, "119096311RR0001": {"name": "PORTAGE PLAINS UNITED WAY INC.", "designationCode": "C", "categoryCode": "03", "address": "PO BOX 953", "city": "PORTAGE LA PRAIRIE", "province": "MB", "country": "CA", "postalCode": "R1N3C4", "twitter": "None", "instagram": "None", "facebook": "None", "youtube": "None", "website": "None", "summary": "None", "logo": "None", "latitude": 49.97301900000005, "longitude": -98.29058299999993}, "132910613RR0001": {"name": "PORTAGE SERVICE FOR SENIORS INC.", "designationCode": "C", "categoryCode": "09", "address": "165 SASKATCHEWAN AVE E", "city": "PORTAGE LA PRAIRIE", "province": "MB", "country": "CA", "postalCode": "R1N0L7", "twitter": "None", "instagram": "None", "facebook": "None", "youtube": "None", "website": "None", "summary": "None", "logo": "None", "latitude": 49.972811438159106, "longitude": -98.28818764490536}, "119096329RR0001": {"name": "PORTAGE VALE UNITED BAPTIST CHURCH", "designationCode": "C", "categoryCode": "31", "address": "1136 PORTAGE VALE RD", "city": "PORTAGE VALE", "province": "NB", "country": "CA", "postalCode": "E4Z3E5", "twitter": "None", "instagram": "None", "facebook": "None", "youtube": "None", "website": "None", "summary": "None", "logo": "None", "latitude": 45.84145888382231, "longitude": -65.22738248082722}, "858900202RR0001": {"name": "PORTAL OF GLORY CHRISTIAN MINISTRIES INTERNATIONAL", "designationCode": "C", "categoryCode": "39", "address": "1236 - 119 ST NW", "city": "EDMONTON", "province": "AB", "country": "CA", "postalCode": "T6J7H6", "twitter": "None", "instagram": "None", "facebook": "None", "youtube": "None", "website": "None", "summary": "None", "logo": "None", "latitude": 53.444819801470615, "longitude": -113.54140301490673}, "890815442RR0001": {"name": "PORTAL PLAYERS DRAMATIC SOCIETY", "designationCode": "C", "categoryCode": "22", "address": "4904 ARGYLE STREET", "city": "PORT ALBERNI", "province": "BC", "country": "CA", "postalCode": "V9Y1V7", "twitter": "None", "instagram": "None", "facebook": "None", "youtube": "None", "website": "None", "summary": "None", "logo": "None", "latitude": 49.234650477350314, "longitude": -124.80636133236194}, "132172529RR0001": {"name": "PORTAL VILLAGE BIBLE CHAPEL", "designationCode": "C", "categoryCode": "39", "address": "309 ELGIN ST", "city": "PORT COLBORNE", "province": "ON", "country": "CA", "postalCode": "L3K6A2", "twitter": "None", "instagram": "None", "facebook": "None", "youtube": "None", "website": "None", "summary": "None", "logo": "None", "latitude": 42.88835746826102, "longitude": -79.26258094463039}, "867182693RR0001": {"name": "PORTAUPIQUE CEMETERY COMPANY", "designationCode": "C", "categoryCode": "59", "address": "66 LORNEVALE ROAD", "city": "GREAT VILLAGE", "province": "NS", "country": "CA", "postalCode": "B0M1L0", "twitter": "None", "instagram": "None", "facebook": "None", "youtube": "None", "website": "None", "summary": "None", "logo": "None", "latitude": 45.404151000000056, "longitude": -63.55468249999993}, "896577343RR0001": {"name": "PORTER'S LAKE AND MYRA ROAD WILDERNESS AREA ASSOCIATION", "designationCode": "C", "categoryCode": "52", "address": "POST OFFICE BOX 45", "city": "PORTER LAKE", "province": "NS", "country": "CA", "postalCode": "B3E1M1", "twitter": "None", "instagram": "None", "facebook": "None", "youtube": "None", "website": "None", "summary": "None", "logo": "None", "latitude": 44.73874500000005, "longitude": -63.305580499999934}, "888252434RR0001": {"name": "PORTIA WHITE AND VERA CLYKE SCHOLARSHIP FUND", "designationCode": "C", "categoryCode": "21", "address": "37 NOVA DRIVE", "city": "TRURO", "province": "NS", "country": "CA", "postalCode": "B2N3H3", "twitter": "None", "instagram": "None", "facebook": "None", "youtube": "None", "website": "None", "summary": "None", "logo": "None", "latitude": 45.36992883374692, "longitude": -63.286346223123246}, "874363500RR0001": {"name": "PORTICO COMMUNITY CHURCH", "designationCode": "C", "categoryCode": "36", "address": "1814 BARBERTOWN ROAD", "city": "MISSISSAUGA", "province": "ON", "country": "CA", "postalCode": "L5M2M5", "twitter": "None", "instagram": "None", "facebook": "None", "youtube": "None", "website": "None", "summary": "None", "logo": "None", "latitude": 43.573323952507586, "longitude": -79.69685022225788}, "107853491RR0001": {"name": "PORTLAND COMMUNITY CHURCH", "designationCode": "C", "categoryCode": "39", "address": "PO BOX 51", "city": "HARTINGTON", "province": "ON", "country": "CA", "postalCode": "K0H1W0", "twitter": "None", "instagram": "None", "facebook": "None", "youtube": "None", "website": "None", "summary": "None", "logo": "None", "latitude": 44.757492663456496, "longitude": -76.92196384326736}, "129371332RR0001": {"name": "PORTLAND PLACE NON-PROFIT HOUSING CORPORATION", "designationCode": "C", "categoryCode": "09", "address": "163 PORTLAND ST", "city": "TORONTO", "province": "ON", "country": "CA", "postalCode": "M5V3E8", "twitter": "None", "instagram": "None", "facebook": "None", "youtube": "None", "website": "None", "summary": "None", "logo": "None", "latitude": 43.64718828005074, "longitude": -79.40118775212092}, "119097020RR0001": {"name": "PORTLAND TOWNSHIP COMMUNITY CARING", "designationCode": "C", "categoryCode": "09", "address": "BOX 19", "city": "HARTINGTON", "province": "ON", "country": "CA", "postalCode": "K0H1W0", "twitter": "None", "instagram": "None", "facebook": "None", "youtube": "None", "website": "None", "summary": "None", "logo": "None", "latitude": 44.757492663456496, "longitude": -76.92196384326736}, "119097038RR0001": {"name": "PORTLAND UNITED CHURCH", "designationCode": "C", "categoryCode": "44", "address": "50 NEWPORT CRESCENT", "city": "SAINT JOHN", "province": "NB", "country": "CA", "postalCode": "E2K1Y5", "twitter": "None", "instagram": "None", "facebook": "None", "youtube": "None", "website": "None", "summary": "None", "logo": "None", "latitude": 45.282950337429305, "longitude": -66.08198563771619}, "895357812RR0001": {"name": "PORTREEVE MEMORIAL ORGANIZATION", "designationCode": "C", "categoryCode": "59", "address": "BOX 32", "city": "PORTREEVE", "province": "SK", "country": "CA", "postalCode": "S0N2A0", "twitter": "None", "instagram": "None", "facebook": "None", "youtube": "None", "website": "None", "summary": "None", "logo": "None", "latitude": 50.82359000000008, "longitude": -109.00554999999997}, "128967353RR0112": {"name": "PORTUGESE CATHOLIC COMMUNITY OF \"SENHOR SANTO CRISTO\"", "designationCode": "C", "categoryCode": "38", "address": "1711 COUNTRY WALK DR.", "city": "OTTAWA", "province": "ON", "country": "CA", "postalCode": "K1L8C9", "twitter": "None", "instagram": "None", "facebook": "None", "youtube": "None", "website": "None", "summary": "None", "logo": "None", "latitude": 45.45721923454886, "longitude": -75.53480485469451}, "136090065RR0001": {"name": "PORTUGUESE CANADIAN SENIORS FOUNDATION", "designationCode": "C", "categoryCode": "56", "address": "5455 IMPERIAL STREET", "city": "BURNABY", "province": "BC", "country": "CA", "postalCode": "V5J1E5", "twitter": "None", "instagram": "None", "facebook": "None", "youtube": "None", "website": "None", "summary": "None", "logo": "None", "latitude": 49.22193748600597, "longitude": -122.9853825}, "888560059RR0001": {"name": "PORTUGUESE SENIOR & PIONEERS SOCIETY", "designationCode": "C", "categoryCode": "09", "address": "12103 67 ST NW", "city": "EDMONTON", "province": "AB", "country": "CA", "postalCode": "T5B1M6", "twitter": "None", "instagram": "None", "facebook": "None", "youtube": "None", "website": "None", "summary": "None", "logo": "None", "latitude": 53.5752632514571, "longitude": -113.44449670520542}, "107797383RR0067": {"name": "PORTUGUESE SEVENTH-DAY ADVENTIST CHURCH", "designationCode": "C", "categoryCode": "41", "address": "280 CARLINGVIEW DRIVE", "city": "TORONTO", "province": "ON", "country": "CA", "postalCode": "M9W5G1", "twitter": "None", "instagram": "None", "facebook": "None", "youtube": "None", "website": "None", "summary": "None", "logo": "None", "latitude": 43.68927943712855, "longitude": -79.59674519487538}, "886984806RR0001": {"name": "PORTUGUESE SUPPORT SERVICES FOR QUALITY LIVING INC.", "designationCode": "C", "categoryCode": "09", "address": "760 BARTON ST. E", "city": "HAMILTON", "province": "ON", "country": "CA", "postalCode": "L8L3B1", "twitter": "None", "instagram": "None", "facebook": "None", "youtube": "None", "website": "None", "summary": "None", "logo": "None", "latitude": 43.25547192587583, "longitude": -79.83215926048813}, "107599938RR0001": {"name": "POSA/SOURCE DES MONTS", "designationCode": "C", "categoryCode": "57", "address": "620 RUE SENECAL", "city": "CHAMBLY", "province": "QC", "country": "CA", "postalCode": "J3L1N9", "twitter": "None", "instagram": "None", "facebook": "None", "youtube": "None", "website": "None", "summary": "None", "logo": "None", "latitude": 45.450609654711904, "longitude": -73.2978819025623}, "871265591RR0001": {"name": "POSABILITIES ASSOCIATION OF BRITISH COLUMBIA", "designationCode": "C", "categoryCode": "59", "address": "240 - 4664 LOUGHEED HWY", "city": "BURNABY", "province": "BC", "country": "CA", "postalCode": "V5C5T5", "twitter": "None", "instagram": "None", "facebook": "None", "youtube": "None", "website": "None", "summary": "None", "logo": "None", "latitude": 49.26619753448027, "longitude": -122.99816292881867}, "140737875RR0001": {"name": "POSITIVE LIVING NORTH: NO KHEYOH T'SIH'EN T'SEHENA SOCIETY", "designationCode": "C", "categoryCode": "09", "address": "#1, 1563 SECOND AVENUE", "city": "PRINCE GEORGE", "province": "BC", "country": "CA", "postalCode": "V2L3B8", "twitter": "None", "instagram": "None", "facebook": "None", "youtube": "None", "website": "None", "summary": "None", "logo": "None", "latitude": 53.91874916224787, "longitude": -122.74910978428139}, "843784364RR0001": {"name": "POSSIBILITIES INTERNATIONAL", "designationCode": "C", "categoryCode": "39", "address": "PO BOX 1665", "city": "PETROLIA", "province": "ON", "country": "CA", "postalCode": "N0N1R0", "twitter": "None", "instagram": "None", "facebook": "None", "youtube": "None", "website": "None", "summary": "None", "logo": "None", "latitude": 42.88638664158026, "longitude": -82.34714259335837}, "133146621RR0001": {"name": "POST ROAD HERITAGE GROUP INC", "designationCode": "C", "categoryCode": "52", "address": "PO BOX 71", "city": "EMERSON", "province": "MB", "country": "CA", "postalCode": "R0A0L0", "twitter": "None", "instagram": "None", "facebook": "None", "youtube": "None", "website": "None", "summary": "None", "logo": "None"}, "131892267RR0001": {"name": "POST-POLIO NETWORK (MANITOBA), INC", "designationCode": "C", "categoryCode": "11", "address": "SELF-HELP CLEARING HOUSE      825 SHERBROOK ST.", "city": "WINNIPEG", "province": "MB", "country": "CA", "postalCode": "R3A1M5", "twitter": "None", "instagram": "None", "facebook": "None", "youtube": "None", "website": "None", "summary": "None", "logo": "None", "latitude": 49.90293714680605, "longitude": -97.15654520699444}, "891934325RR0001": {"name": "POTALA BUDDIST SOCIETY (CANADA)", "designationCode": "C", "categoryCode": "35", "address": "10853 98 STREET", "city": "EDMONTON", "province": "AB", "country": "CA", "postalCode": "T5H2P6", "twitter": "None", "instagram": "None", "facebook": "None", "youtube": "None", "website": "None", "summary": "None", "logo": "None", "latitude": 53.55473376908647, "longitude": -113.49198607989524}, "119094571RR0001": {"name": "POTALA TIBETAN BUDDHIST MEDITATION CENTRE (THUNDER BAY)", "designationCode": "C", "categoryCode": "35", "address": "3651 SALMI RD                 RR 1", "city": "KAMINISTIQUIA", "province": "ON", "country": "CA", "postalCode": "P0T1X0", "twitter": "None", "instagram": "None", "facebook": "None", "youtube": "None", "website": "None", "summary": "None", "logo": "None", "latitude": 48.54068700000006, "longitude": -89.61444349999994}, "830660163RR0001": {"name": "POTASHVILLE MUSIC FESTIVAL ASSOCIATION", "designationCode": "C", "categoryCode": "22", "address": "PO BOX 588", "city": "CHURCHBRIDGE", "province": "SK", "country": "CA", "postalCode": "S0A0M0", "twitter": "None", "instagram": "None", "facebook": "None", "youtube": "None", "website": "None", "summary": "None", "logo": "None", "latitude": 50.897380000000055, "longitude": -101.89767999999998}, "895282358RR0001": {"name": "POTENTIAL PLACE SOCIETY", "designationCode": "C", "categoryCode": "09", "address": "110-999 8 ST SW", "city": "CALGARY", "province": "AB", "country": "CA", "postalCode": "T2R1J5", "twitter": "None", "instagram": "None", "facebook": "None", "youtube": "None", "website": "None", "summary": "None", "logo": "None", "latitude": 51.04413271357262, "longitude": -114.08146582780296}, "896213402RR0001": {"name": "POTLUCK CAFE (2003) SOCIETY", "designationCode": "C", "categoryCode": "20", "address": "20 WEST HASTINGS STREET", "city": "VANCOUVER", "province": "BC", "country": "CA", "postalCode": "V6B1G6", "twitter": "None", "instagram": "None", "facebook": "None", "youtube": "None", "website": "None", "summary": "None", "logo": "None", "latitude": 49.281652688845476, "longitude": -123.10535752290949}, "892744384RR0001": {"name": "POTTER'S HANDS MINISTRIES SOCIETY", "designationCode": "C", "categoryCode": "01", "address": "PO BOX 27093", "city": "RED DEER", "province": "AB", "country": "CA", "postalCode": "T4N6X8", "twitter": "None", "instagram": "None", "facebook": "None", "youtube": "None", "website": "None", "summary": "None", "logo": "None", "latitude": 52.26852300000006, "longitude": -113.80901299999994}, "131767220RR0001": {"name": "POTTER'S HOUSE CHRISTIAN CHURCH", "designationCode": "C", "categoryCode": "39", "address": "11816-66 ST NW", "city": "EDMONTON", "province": "AB", "country": "CA", "postalCode": "T5B1J3", "twitter": "None", "instagram": "None", "facebook": "None", "youtube": "None", "website": "None", "summary": "None", "logo": "None", "latitude": 53.57093386372554, "longitude": -113.44305620708042}, "864793153RR0001": {"name": "POTTER'S HOUSE CHRISTIAN CHURCH OF SASKATOON SK.", "designationCode": "C", "categoryCode": "39", "address": "PO BOX 225", "city": "SUNSET HOUSE", "province": "AB", "country": "CA", "postalCode": "T0H3H0", "twitter": "None", "instagram": "None", "facebook": "None", "youtube": "None", "website": "None", "summary": "None", "logo": "None", "latitude": 55.116760000000056, "longitude": -116.86920999999995}, "841945520RR0001": {"name": "POTTER'S HOUSE CHRISTIAN FELLOWSHIP ABBOTSFORD", "designationCode": "C", "categoryCode": "39", "address": "13236 239B ST", "city": "MAPLE RIDGE", "province": "BC", "country": "CA", "postalCode": "V4R0A3", "twitter": "None", "instagram": "None", "facebook": "None", "youtube": "None", "website": "None", "summary": "None", "logo": "None", "latitude": 49.24338033888282, "longitude": -122.55826003064246}, "856585138RR0001": {"name": "POTTER'S HOUSE CHRISTIAN FELLOWSHIP CHURCH OF NORTH BATTLEFORD INC.", "designationCode": "C", "categoryCode": "39", "address": "BOX 1291", "city": "NORTH BATTLEFORD", "province": "SK", "country": "CA", "postalCode": "S9A3L8", "twitter": "None", "instagram": "None", "facebook": "None", "youtube": "None", "website": "None", "summary": "None", "logo": "None", "latitude": 52.77640200000006, "longitude": -108.29903299999994}, "861468999RR0001": {"name": "POTTER'S PLACE MISSION SOCIETY", "designationCode": "C", "categoryCode": "59", "address": "1200-38 LEOPOLD PL", "city": "NEW WESTMINSTER", "province": "BC", "country": "CA", "postalCode": "V3L2C6", "twitter": "None", "instagram": "None", "facebook": "None", "youtube": "None", "website": "None", "summary": "None", "logo": "None", "latitude": 49.2106533511165, "longitude": -122.89897808840666}, "138662002RR0001": {"name": "POTTERS HOUSE CHRISTIAN CHURCH INC-PARADISE HILL", "designationCode": "C", "categoryCode": "39", "address": "PO BOX 305", "city": "PARADISE HILL", "province": "SK", "country": "CA", "postalCode": "S0M2G0", "twitter": "None", "instagram": "None", "facebook": "None", "youtube": "None", "website": "None", "summary": "None", "logo": "None", "latitude": 53.53915000000006, "longitude": -109.45828999999998}, "841829328RR0001": {"name": "POTTERS WITHOUT BORDERS ASSOCIATION", "designationCode": "C", "categoryCode": "59", "address": "725 KNIGHT AVE                PO BOX 1006", "city": "ENDERBY", "province": "BC", "country": "CA", "postalCode": "V0E1V0", "twitter": "None", "instagram": "None", "facebook": "None", "youtube": "None", "website": "None", "summary": "None", "logo": "None", "latitude": 50.55359859465688, "longitude": -119.14084516714847}, "119097392RR0001": {"name": "POUCE COUPE AND DISTRICT NON-PROFIT RENTAL HOUSING SOCIETY", "designationCode": "C", "categoryCode": "01", "address": "P.O. BOX 498", "city": "POUCE COUPE", "province": "BC", "country": "CA", "postalCode": "V0C2C0", "twitter": "None", "instagram": "None", "facebook": "None", "youtube": "None", "website": "None", "summary": "None", "logo": "None", "latitude": 55.70472978090148, "longitude": -120.12463244743142}, "865435432RR0001": {"name": "POUCE COUPE COMMUNITY CHURCH", "designationCode": "C", "categoryCode": "39", "address": "PO BOX 183", "city": "POUCE COUPE", "province": "BC", "country": "CA", "postalCode": "V0C2C0", "twitter": "None", "instagram": "None", "facebook": "None", "youtube": "None", "website": "None", "summary": "None", "logo": "None", "latitude": 55.70472978090148, "longitude": -120.12463244743142}, "119097400RR0001": {"name": "POUCE COUPE COMMUNITY FOUNDATION SOCIETY", "designationCode": "A", "categoryCode": "13", "address": "BOX 354", "city": "POUCE COUPE", "province": "BC", "country": "CA", "postalCode": "V0C2C0", "twitter": "None", "instagram": "None", "facebook": "None", "youtube": "None", "website": "None", "summary": "None", "logo": "None", "latitude": 55.70472978090148, "longitude": -120.12463244743142}}