{"118933076RR0001": {"name": "FRIENDS OF THE GERMAN SCHOOL ALEXANDER VON HUMBOLDT INC./LES AMIS DE L'ECOLE ALLEMANCE ALEXANDER VON HUMBOLDT INC.", "designationCode": "A", "categoryCode": "23", "address": "216 VICTORIA DRIVE", "city": "BAIE-D'URFE", "province": "QC", "country": "CA", "postalCode": "H9X2H9", "twitter": "None", "instagram": "None", "facebook": "None", "youtube": "None", "website": "None", "summary": "None", "logo": "None", "latitude": 45.41707150813699, "longitude": -73.90906046318338}, "896009578RR0001": {"name": "FRIENDS OF THE GOW SCHOOL", "designationCode": "C", "categoryCode": "21", "address": "47 ROSEDALE RD", "city": "TORONTO", "province": "ON", "country": "CA", "postalCode": "M4W2P5", "twitter": "None", "instagram": "None", "facebook": "None", "youtube": "None", "website": "None", "summary": "None", "logo": "None", "latitude": 43.67719500305843, "longitude": -79.38477052619905}, "891741647RR0001": {"name": "FRIENDS OF THE GRAND FORKS PUBLIC LIBRARY SOCIETY", "designationCode": "A", "categoryCode": "53", "address": "P.O. BOX 1539", "city": "GRAND FORKS", "province": "BC", "country": "CA", "postalCode": "V0H1H0", "twitter": "None", "instagram": "None", "facebook": "None", "youtube": "None", "website": "None", "summary": "None", "logo": "None", "latitude": 49.03245000000004, "longitude": -118.44297999999998}, "898352877RR0001": {"name": "FRIENDS OF THE GRAND RIVER", "designationCode": "C", "categoryCode": "59", "address": "BOX 271", "city": "FERGUS", "province": "ON", "country": "CA", "postalCode": "N1M3E2", "twitter": "None", "instagram": "None", "facebook": "None", "youtube": "None", "website": "None", "summary": "None", "logo": "None", "latitude": 43.705428000000055, "longitude": -80.37816199999993}, "885150862RR0001": {"name": "FRIENDS OF THE GREATER SUDBURY PUBLIC LIBRARY", "designationCode": "C", "categoryCode": "50", "address": "1303 MARCEL STREET", "city": "SUDBURY", "province": "ON", "country": "CA", "postalCode": "P3E4G2", "twitter": "None", "instagram": "None", "facebook": "None", "youtube": "None", "website": "None", "summary": "None", "logo": "None", "latitude": 46.46401248182237, "longitude": -81.01429321694816}, "822521878RR0001": {"name": "FRIENDS OF THE GREENBELT FOUNDATION", "designationCode": "A", "categoryCode": "53", "address": "661 YONGE STREET              5TH FLOOR", "city": "TORONTO", "province": "ON", "country": "CA", "postalCode": "M4Y1Z9", "twitter": "None", "instagram": "None", "facebook": "None", "youtube": "None", "website": "None", "summary": "None", "logo": "None", "latitude": 43.66821130558595, "longitude": -79.38588872658569}, "858602501RR0001": {"name": "FRIENDS OF THE HAILEYBURY BRANCH OF THE TEMISKAMING SHORES PUBLIC LIBRARY", "designationCode": "A", "categoryCode": "55", "address": "545 LAKESHORE ROAD            P. O. BOX 2090", "city": "HAILEYBURY", "province": "ON", "country": "CA", "postalCode": "P0J1K0", "twitter": "None", "instagram": "None", "facebook": "None", "youtube": "None", "website": "None", "summary": "None", "logo": "None", "latitude": 47.451140652591015, "longitude": -79.63347516657056}, "870047669RR0001": {"name": "FRIENDS OF THE HAILEYBURY FIRE MUSEUM", "designationCode": "C", "categoryCode": "50", "address": "575 MAIN STREET               P.O. BOX 911", "city": "HAILEYBURY", "province": "ON", "country": "CA", "postalCode": "P0J1K0", "twitter": "None", "instagram": "None", "facebook": "None", "youtube": "None", "website": "None", "summary": "None", "logo": "None", "latitude": 47.449091767238784, "longitude": -79.64289482490848}, "853809671RR0001": {"name": "FRIENDS OF THE HALTON GARDEN FOUNDATION", "designationCode": "C", "categoryCode": "50", "address": "1151 BRONTE ROAD", "city": "OAKVILLE", "province": "ON", "country": "CA", "postalCode": "L6M3L1", "twitter": "None", "instagram": "None", "facebook": "None", "youtube": "None", "website": "None", "summary": "None", "logo": "None", "latitude": 43.413624993911824, "longitude": -79.74540880942378}, "861178804RR0001": {"name": "FRIENDS OF THE HALTON HILLS LIBRARIES", "designationCode": "C", "categoryCode": "59", "address": "9 CHURCH STREET", "city": "GEORGETOWN", "province": "ON", "country": "CA", "postalCode": "L7G2A3", "twitter": "None", "instagram": "None", "facebook": "None", "youtube": "None", "website": "None", "summary": "None", "logo": "None", "latitude": 43.64839822173828, "longitude": -79.9258565087139}, "889078440RR0001": {"name": "FRIENDS OF THE HAMILTON PUBLIC LIBRARY", "designationCode": "C", "categoryCode": "50", "address": "1070 MAIN ST W", "city": "HAMILTON", "province": "ON", "country": "CA", "postalCode": "L8S1B4", "twitter": "None", "instagram": "None", "facebook": "None", "youtube": "None", "website": "None", "summary": "None", "logo": "None", "latitude": 43.258314434935535, "longitude": -79.90887521885274}, "848989141RR0001": {"name": "FRIENDS OF THE HARWOOD WATERFRONT", "designationCode": "C", "categoryCode": "52", "address": "310 - 323 GEORGE ST", "city": "COBOURG", "province": "ON", "country": "CA", "postalCode": "K9A3L9", "twitter": "None", "instagram": "None", "facebook": "None", "youtube": "None", "website": "None", "summary": "None", "logo": "None", "latitude": 43.961648879248784, "longitude": -78.16910590071504}, "884017617RR0001": {"name": "FRIENDS OF THE HEAD HARBOUR LIGHTSTATION INC.", "designationCode": "C", "categoryCode": "50", "address": "210 LIGHTHOUSE ROAD", "city": "WILSON'S BEACH", "province": "NB", "country": "CA", "postalCode": "E5E1M2", "twitter": "None", "instagram": "None", "facebook": "None", "youtube": "None", "website": "None", "summary": "None", "logo": "None", "latitude": 44.95000585021805, "longitude": -66.91636116943899}, "889187449RR0001": {"name": "FRIENDS OF THE HEART-SOCIETY FOR TEACHING, EXPLORATION, PRACTICE AND SERVICE", "designationCode": "C", "categoryCode": "49", "address": "114 HUDSON DR", "city": "TORONTO", "province": "ON", "country": "CA", "postalCode": "M4T2K5", "twitter": "None", "instagram": "None", "facebook": "None", "youtube": "None", "website": "None", "summary": "None", "logo": "None", "latitude": 43.69207252761269, "longitude": -79.37677238302835}, "858515232RR0001": {"name": "FRIENDS OF THE HIGH RIVER PUBLIC LIBRARY SOCIETY", "designationCode": "A", "categoryCode": "53", "address": "909 1ST ST SW", "city": "HIGH RIVER", "province": "AB", "country": "CA", "postalCode": "T1V1A5", "twitter": "None", "instagram": "None", "facebook": "None", "youtube": "None", "website": "None", "summary": "None", "logo": "None", "latitude": 50.57426805773555, "longitude": -113.87307132119518}, "835333543RR0001": {"name": "FRIENDS OF THE HORN OF AFRICA", "designationCode": "A", "categoryCode": "03", "address": "P.O. BOX 309", "city": "ENDERBY", "province": "BC", "country": "CA", "postalCode": "V0E1V0", "twitter": "None", "instagram": "None", "facebook": "None", "youtube": "None", "website": "None", "summary": "None", "logo": "None", "latitude": 50.55260000000004, "longitude": -119.14013999999997}, "888319464RR0001": {"name": "FRIENDS OF THE HUNTSVILLE LIBRARY", "designationCode": "C", "categoryCode": "50", "address": "7 MINERVA ST E", "city": "HUNTSVILLE", "province": "ON", "country": "CA", "postalCode": "P1H1W4", "twitter": "None", "instagram": "None", "facebook": "None", "youtube": "None", "website": "None", "summary": "None", "logo": "None", "latitude": 45.32546169995395, "longitude": -79.21927604648282}, "873718670RR0001": {"name": "FRIENDS OF THE INNISFAIL LIBRARY SOCIETY", "designationCode": "C", "categoryCode": "50", "address": "5300A 55 ST CLOSE", "city": "INNISFAIL", "province": "AB", "country": "CA", "postalCode": "T4G1R6", "twitter": "None", "instagram": "None", "facebook": "None", "youtube": "None", "website": "None", "summary": "None", "logo": "None", "latitude": 52.02304901992883, "longitude": -113.96349694278607}, "890456197RR0001": {"name": "FRIENDS OF THE INNISFIL PUBLIC LIBRARY", "designationCode": "A", "categoryCode": "50", "address": "967 INNISFIL BEACH RD", "city": "INNISFIL", "province": "ON", "country": "CA", "postalCode": "L9S1V3", "twitter": "None", "instagram": "None", "facebook": "None", "youtube": "None", "website": "None", "summary": "None", "logo": "None", "latitude": 44.314790859801754, "longitude": -79.54824459212891}, "817096159RR0001": {"name": "FRIENDS OF THE INVERMERE PUBLIC LIBRARY", "designationCode": "C", "categoryCode": "53", "address": "P.O. BOX 989", "city": "INVERMERE", "province": "BC", "country": "CA", "postalCode": "V0A1K0", "twitter": "None", "instagram": "None", "facebook": "None", "youtube": "None", "website": "None", "summary": "None", "logo": "None", "latitude": 50.50916700000006, "longitude": -116.03037049999993}, "861305209RR0001": {"name": "FRIENDS OF THE JORDAN LIFECARE CENTRE FOUNDATION INC.", "designationCode": "A", "categoryCode": "13", "address": "747 SANATORIUM RD.", "city": "THE GLADES", "province": "NB", "country": "CA", "postalCode": "E4J1W6", "twitter": "None", "instagram": "None", "facebook": "None", "youtube": "None", "website": "None", "summary": "None", "logo": "None", "latitude": 45.94354274957672, "longitude": -65.07559099631005}, "893199562RR0001": {"name": "FRIENDS OF THE KINGSTON FRONTENAC PUBLIC LIBRARY", "designationCode": "A", "categoryCode": "55", "address": "130 JOHNSON ST.", "city": "KINGSTON", "province": "ON", "country": "CA", "postalCode": "K7L1X8", "twitter": "None", "instagram": "None", "facebook": "None", "youtube": "None", "website": "None", "summary": "None", "logo": "None", "latitude": 44.22987290285078, "longitude": -76.48488199001669}, "893969469RR0001": {"name": "FRIENDS OF THE KITIMAT LIBRARY", "designationCode": "A", "categoryCode": "53", "address": "940 WAKASHAN BLVD", "city": "KITIMAT", "province": "BC", "country": "CA", "postalCode": "V8C2G3", "twitter": "None", "instagram": "None", "facebook": "None", "youtube": "None", "website": "None", "summary": "None", "logo": "None", "latitude": 54.0512878980393, "longitude": -128.6518996915497}, "138661491RR0001": {"name": "FRIENDS OF THE LAUREATE ACADEMY INC", "designationCode": "C", "categoryCode": "21", "address": "100 VILLA MARIA PLACE", "city": "WPG", "province": "MB", "country": "CA", "postalCode": "R3V1A9", "twitter": "None", "instagram": "None", "facebook": "None", "youtube": "None", "website": "None", "summary": "None", "logo": "None", "latitude": 49.76933951000096, "longitude": -97.14274163118344}, "136552643RR0001": {"name": "FRIENDS OF THE LEARNING DISABLED, CAMP KIRK", "designationCode": "C", "categoryCode": "56", "address": "639A MOUNT PLEASANT ROAD", "city": "TORONTO", "province": "ON", "country": "CA", "postalCode": "M4S2M9", "twitter": "None", "instagram": "None", "facebook": "None", "youtube": "None", "website": "None", "summary": "None", "logo": "None", "latitude": 43.704929892011855, "longitude": -79.38873595528742}, "140621236RR0001": {"name": "FRIENDS OF THE LIBRARY", "designationCode": "C", "categoryCode": "53", "address": "461 LANGDON CRESCENT", "city": "MOOSE JAW", "province": "SK", "country": "CA", "postalCode": "S6H0X6", "twitter": "None", "instagram": "None", "facebook": "None", "youtube": "None", "website": "None", "summary": "None", "logo": "None", "latitude": 50.39462292648759, "longitude": -105.53291049263844}, "888788494RR0001": {"name": "FRIENDS OF THE LITTLE WHITE SCHOOL HOUSE ASSOCIATION", "designationCode": "C", "categoryCode": "21", "address": "PO BOX 25005", "city": "TRURO", "province": "NS", "country": "CA", "postalCode": "B2N7B8", "twitter": "None", "instagram": "None", "facebook": "None", "youtube": "None", "website": "None", "summary": "None", "logo": "None", "latitude": 45.36602700000006, "longitude": -63.289042999999936}, "893472886RR0001": {"name": "FRIENDS OF THE LONDON PUBLIC LIBRARY", "designationCode": "C", "categoryCode": "59", "address": "251 DUNDAS ST", "city": "LONDON", "province": "ON", "country": "CA", "postalCode": "N6A6H9", "twitter": "None", "instagram": "None", "facebook": "None", "youtube": "None", "website": "None", "summary": "None", "logo": "None", "latitude": 42.984609067978674, "longitude": -81.24632662724342}, "864858733RR0001": {"name": "FRIENDS OF THE LOYALIST COLLECTION AT BROCK UNIVERSITY", "designationCode": "C", "categoryCode": "21", "address": "P.O. BOX 23041 RPO SEAWAY     MALL 800 NIAGARA ST", "city": "WELLAND", "province": "ON", "country": "CA", "postalCode": "L3C7E7", "twitter": "None", "instagram": "None", "facebook": "None", "youtube": "None", "website": "None", "summary": "None", "logo": "None", "latitude": 43.01518000000004, "longitude": -79.24933999999996}, "868507682RR0001": {"name": "FRIENDS OF THE MAJESTIC THEATRE SOCIETY", "designationCode": "C", "categoryCode": "56", "address": "BOX 42", "city": "BASHAW", "province": "AB", "country": "CA", "postalCode": "T0B0H0", "twitter": "None", "instagram": "None", "facebook": "None", "youtube": "None", "website": "None", "summary": "None", "logo": "None", "latitude": 52.58378000000005, "longitude": -112.97087999999997}, "892137043RR0001": {"name": "FRIENDS OF THE MANITOUWADGE PUBLIC LIBRARY", "designationCode": "A", "categoryCode": "59", "address": "P.O. BOX 3061                 36 MOOSE DRIVE", "city": "MANITOUWADGE", "province": "ON", "country": "CA", "postalCode": "P0T2C0", "twitter": "None", "instagram": "None", "facebook": "None", "youtube": "None", "website": "None", "summary": "None", "logo": "None", "latitude": 49.125706103525886, "longitude": -85.82263584595194}, "862520426RR0001": {"name": "FRIENDS OF THE MARBLE RIVER", "designationCode": "C", "categoryCode": "52", "address": "2293 BAYVIEW DRIVE            P. O. BOX 594", "city": "PORT MCNEILL", "province": "BC", "country": "CA", "postalCode": "V0N2R0", "twitter": "None", "instagram": "None", "facebook": "None", "youtube": "None", "website": "None", "summary": "None", "logo": "None", "latitude": 50.587035498990396, "longitude": -127.07587277699233}, "889299376RR0001": {"name": "FRIENDS OF THE MARKDALE LIBRARY", "designationCode": "C", "categoryCode": "59", "address": "PO BOX 499", "city": "MARKDALE", "province": "ON", "country": "CA", "postalCode": "N0C1H0", "twitter": "None", "instagram": "None", "facebook": "None", "youtube": "None", "website": "None", "summary": "None", "logo": "None", "latitude": 44.31914000000006, "longitude": -80.64888999999994}, "861030286RR0001": {"name": "FRIENDS OF THE MEETING CREEK CEMETERY SOCIETY", "designationCode": "C", "categoryCode": "59", "address": "BOX 112", "city": "MEETING CREEK", "province": "AB", "country": "CA", "postalCode": "T0B2Z0", "twitter": "None", "instagram": "None", "facebook": "None", "youtube": "None", "website": "None", "summary": "None", "logo": "None", "latitude": 52.684376496964816, "longitude": -112.72999992825802}, "889454617RR0001": {"name": "FRIENDS OF THE MENNONITE CENTRE IN UKRAINE INC.", "designationCode": "C", "categoryCode": "01", "address": "3675 NORTH SERVICE ROAD", "city": "BEAMSVILLE", "province": "ON", "country": "CA", "postalCode": "L0R1B1", "twitter": "None", "instagram": "None", "facebook": "None", "youtube": "None", "website": "None", "summary": "None", "logo": "None", "latitude": 43.18727051889786, "longitude": -79.40896207409551}, "889153441RR0001": {"name": "FRIENDS OF THE MIDDLETON LIBRARY SOCIETY", "designationCode": "C", "categoryCode": "50", "address": "PO BOX 667", "city": "MIDDLETON", "province": "NS", "country": "CA", "postalCode": "B0S1P0", "twitter": "None", "instagram": "None", "facebook": "None", "youtube": "None", "website": "None", "summary": "None", "logo": "None", "latitude": 45.01449600000005, "longitude": -65.06449099999993}, "881045207RR0001": {"name": "FRIENDS OF THE MIDLAND PUBLIC LIBRARY (FOL)", "designationCode": "A", "categoryCode": "50", "address": "320 KING STREET", "city": "MIDLAND", "province": "ON", "country": "CA", "postalCode": "L4R3M6", "twitter": "None", "instagram": "None", "facebook": "None", "youtube": "None", "website": "None", "summary": "None", "logo": "None", "latitude": 44.7487514467443, "longitude": -79.88451023198667}, "877920967RR0001": {"name": "FRIENDS OF THE MILO MUNICIPAL LIBRARY SOCIETY", "designationCode": "C", "categoryCode": "59", "address": "BOX 30", "city": "MILO", "province": "AB", "country": "CA", "postalCode": "T0L1L0", "twitter": "None", "instagram": "None", "facebook": "None", "youtube": "None", "website": "None", "summary": "None", "logo": "None", "latitude": 50.56902000000001, "longitude": -112.88643074999999}, "118933134RR0001": {"name": "FRIENDS OF THE MONCTON HOSPITAL FOUNDATION, INC.", "designationCode": "A", "categoryCode": "13", "address": "HORIZON HEATH NETWORK         135 MACBEATH AVENUE", "city": "MONCTON", "province": "NB", "country": "CA", "postalCode": "E1C6Z8", "twitter": "None", "instagram": "None", "facebook": "None", "youtube": "None", "website": "None", "summary": "None", "logo": "None", "latitude": 46.105162983351576, "longitude": -64.80648690671725}, "881398101RR0001": {"name": "FRIENDS OF THE MORDEN MINE", "designationCode": "C", "categoryCode": "52", "address": "721 HALIBURTON ST", "city": "NANAIMO", "province": "BC", "country": "CA", "postalCode": "V9R4W8", "twitter": "None", "instagram": "None", "facebook": "None", "youtube": "None", "website": "None", "summary": "None", "logo": "None", "latitude": 49.149478760199656, "longitude": -123.93222109380234}, "118933142RR0001": {"name": "FRIENDS OF THE MOTHERWELL HOMESTEAD INC.", "designationCode": "A", "categoryCode": "52", "address": "BOX 252", "city": "ABERNETHY", "province": "SK", "country": "CA", "postalCode": "S0A0A0", "twitter": "None", "instagram": "None", "facebook": "None", "youtube": "None", "website": "None", "summary": "None", "logo": "None", "latitude": 50.74592000000007, "longitude": -103.42393999999996}, "897788022RR0001": {"name": "FRIENDS OF THE MOUNT ROYAL CEMETERY/LES AMIS DU CIMETIERE MONT-ROYAL", "designationCode": "C", "categoryCode": "59", "address": "1297 CHEMIN DE LA FOREST", "city": "OUTREMONT", "province": "QC", "country": "CA", "postalCode": "H2V2P9", "twitter": "None", "instagram": "None", "facebook": "None", "youtube": "None", "website": "None", "summary": "None", "logo": "None", "latitude": 45.510478966645856, "longitude": -73.60042144878531}, "119383073RR0001": {"name": "FRIENDS OF THE MOUNTED POLICE MUSEUM-LES AMIS DU MUSEE DE LA POLICE MONTEE", "designationCode": "A", "categoryCode": "53", "address": "5907 DEWDNEY AVENUE", "city": "REGINA", "province": "SK", "country": "CA", "postalCode": "S4T0P4", "twitter": "None", "instagram": "None", "facebook": "None", "youtube": "None", "website": "None", "summary": "None", "logo": "None", "latitude": 50.45503528864006, "longitude": -104.66614377550218}, "868613589RR0001": {"name": "FRIENDS OF THE MUSKOKA LAKES TOWNSHIP PUBLIC LIBRARY", "designationCode": "C", "categoryCode": "50", "address": "69 JOSEPH STREET              BOX 189", "city": "PORT CARLING", "province": "ON", "country": "CA", "postalCode": "P0B1J0", "twitter": "None", "instagram": "None", "facebook": "None", "youtube": "None", "website": "None", "summary": "None", "logo": "None", "latitude": 45.117391706330615, "longitude": -79.57716069709709}, "128955929RR0001": {"name": "FRIENDS OF THE NATIONAL ARTS CENTRE ORCHESTRA/LES AMIS DE L'ORCHSTRE DU CENTRE NATIONAL DES ARTS", "designationCode": "C", "categoryCode": "22", "address": "PO BOX 4839 STN E", "city": "OTTAWA", "province": "ON", "country": "CA", "postalCode": "K1S5H9", "twitter": "None", "instagram": "None", "facebook": "None", "youtube": "None", "website": "None", "summary": "None", "logo": "None", "latitude": 45.42177300000006, "longitude": -75.69115999999994}, "890360522RR0001": {"name": "FRIENDS OF THE NAVAL MUSEUM INC.", "designationCode": "A", "categoryCode": "53", "address": "1 NAVY WAY", "city": "WINNIPEG", "province": "MB", "country": "CA", "postalCode": "R3C4J7", "twitter": "None", "instagram": "None", "facebook": "None", "youtube": "None", "website": "None", "summary": "None", "logo": "None", "latitude": 49.88594685988772, "longitude": -97.13774032638932}, "118933191RR0001": {"name": "FRIENDS OF THE NELSON MUNICIPAL LIBRARY", "designationCode": "C", "categoryCode": "50", "address": "602 STANLEY ST", "city": "NELSON", "province": "BC", "country": "CA", "postalCode": "V1L1N4", "twitter": "None", "instagram": "None", "facebook": "None", "youtube": "None", "website": "None", "summary": "None", "logo": "None", "latitude": 49.49059578989724, "longitude": -117.29467597167177}, "124792474RR0001": {"name": "FRIENDS OF THE NEURO - LES AMIS DU NEURO", "designationCode": "A", "categoryCode": "15", "address": "3801 RUE UNIVERSITY", "city": "MONTREAL", "province": "QC", "country": "CA", "postalCode": "H3A2B4", "twitter": "None", "instagram": "None", "facebook": "None", "youtube": "None", "website": "None", "summary": "None", "logo": "None"}, "876425000RR0001": {"name": "FRIENDS OF THE NEW BRUNSWICK PUBLIC LIBRARIES FOUNDATION INC", "designationCode": "A", "categoryCode": "53", "address": "2 - 570 TWO NATIONS CROSS", "city": "FREDERICTON", "province": "NB", "country": "CA", "postalCode": "E3A0X9", "twitter": "None", "instagram": "None", "facebook": "None", "youtube": "None", "website": "None", "summary": "None", "logo": "None", "latitude": 45.983119454325234, "longitude": -66.61331315710648}, "840342729RR0001": {"name": "FRIENDS OF THE NORTH GRENVILLE PUBLIC LIBRARY", "designationCode": "C", "categoryCode": "50", "address": "P.O.BOX 538 1 WATER ST.", "city": "KEMPTVILLE", "province": "ON", "country": "CA", "postalCode": "K0G1J0", "twitter": "None", "instagram": "None", "facebook": "None", "youtube": "None", "website": "None", "summary": "None", "logo": "None", "latitude": 44.965447030526896, "longitude": -75.67838314224706}, "830777074RR0001": {"name": "FRIENDS OF THE NORTH VANCOUVER CITY LIBRARY SOCIETY", "designationCode": "A", "categoryCode": "53", "address": "120-14TH ST W", "city": "NORTH VANCOUVER", "province": "BC", "country": "CA", "postalCode": "V7M1N9", "twitter": "None", "instagram": "None", "facebook": "None", "youtube": "None", "website": "None", "summary": "None", "logo": "None", "latitude": 49.3211540927445, "longitude": -123.0745167481451}, "886510197RR0001": {"name": "FRIENDS OF THE NORTH VANCOUVER DISTRICT PUBLIC LIBRARY SOCIETY", "designationCode": "C", "categoryCode": "59", "address": "1277 LYNN VALLEY RD", "city": "NORTH VANCOUVER", "province": "BC", "country": "CA", "postalCode": "V7J2A1", "twitter": "None", "instagram": "None", "facebook": "None", "youtube": "None", "website": "None", "summary": "None", "logo": "None", "latitude": 49.33661381018311, "longitude": -123.03886393415115}, "890311772RR0001": {"name": "FRIENDS OF THE NORTH VANCOUVER MUSEUM AND ARCHIVES SOCIETY", "designationCode": "C", "categoryCode": "53", "address": "3203 INSTITUTE ROAD", "city": "NORTH VANCOUVER", "province": "BC", "country": "CA", "postalCode": "V7K3E5", "twitter": "None", "instagram": "None", "facebook": "None", "youtube": "None", "website": "None", "summary": "None", "logo": "None", "latitude": 49.338325204830056, "longitude": -123.03684605277253}, "880769021RR0001": {"name": "FRIENDS OF THE OLIVER LIBRARY", "designationCode": "A", "categoryCode": "53", "address": "OLIVER BR OKANAGAN REG LIBRARY35641 93RD STREET P.O. BOX 758", "city": "OLIVER", "province": "BC", "country": "CA", "postalCode": "V0H1T0", "twitter": "None", "instagram": "None", "facebook": "None", "youtube": "None", "website": "None", "summary": "None", "logo": "None", "latitude": 49.16367783329335, "longitude": -119.5561678520022}, "889680971RR0001": {"name": "FRIENDS OF THE ORILLIA PUBLIC LIBRARY", "designationCode": "A", "categoryCode": "53", "address": "36 MISSISSAUGA ST WEST", "city": "ORILLIA", "province": "ON", "country": "CA", "postalCode": "L3V3A6", "twitter": "None", "instagram": "None", "facebook": "None", "youtube": "None", "website": "None", "summary": "None", "logo": "None", "latitude": 44.607875893957456, "longitude": -79.42078172044486}, "118932730RR0001": {"name": "FRIENDS OF THE ORPHANS, CANADA", "designationCode": "C", "categoryCode": "09", "address": "3 - 392 SILVERCREEK PKY N", "city": "GUELPH", "province": "ON", "country": "CA", "postalCode": "N1H1E7", "twitter": "None", "instagram": "None", "facebook": "None", "youtube": "None", "website": "None", "summary": "None", "logo": "None", "latitude": 43.54773457475936, "longitude": -80.29125148326466}, "888360377RR0001": {"name": "FRIENDS OF THE OSHAWA PUBLIC LIBRARY", "designationCode": "A", "categoryCode": "55", "address": "65 BAGOT STREET", "city": "OSHAWA", "province": "ON", "country": "CA", "postalCode": "L1H1N2", "twitter": "None", "instagram": "None", "facebook": "None", "youtube": "None", "website": "None", "summary": "None", "logo": "None", "latitude": 43.895147775982714, "longitude": -78.8651377554678}, "119234193RR0001": {"name": "FRIENDS OF THE OTTAWA PUBLIC LIBRARY ASSOCIATION/L'ASSOCIATION DES AMIS DE LA BIBLIOTHEQUE PUBLIQUE D'OTTAWA", "designationCode": "C", "categoryCode": "50", "address": "120 METCALFE STREET           5TH FLOOR", "city": "OTTAWA", "province": "ON", "country": "CA", "postalCode": "K1P5M2", "twitter": "None", "instagram": "None", "facebook": "None", "youtube": "None", "website": "None", "summary": "None", "logo": "None", "latitude": 45.42039332304244, "longitude": -75.69541756111109}, "891885576RR0001": {"name": "FRIENDS OF THE OXFORD COUNTY MUSEUM SCHOOL", "designationCode": "C", "categoryCode": "50", "address": "PO BOX 232", "city": "INGERSOLL", "province": "ON", "country": "CA", "postalCode": "N5C3K5", "twitter": "None", "instagram": "None", "facebook": "None", "youtube": "None", "website": "None", "summary": "None", "logo": "None", "latitude": 43.03811400000005, "longitude": -80.88381349999993}, "118933209RR0001": {"name": "FRIENDS OF THE PARK PRINCE ALBERT NATIONAL PARK INCORPORATED", "designationCode": "C", "categoryCode": "52", "address": "PO BOX 11", "city": "WASKESIU LAKE", "province": "SK", "country": "CA", "postalCode": "S0J2Y0", "twitter": "None", "instagram": "None", "facebook": "None", "youtube": "None", "website": "None", "summary": "None", "logo": "None", "latitude": 53.93053497028967, "longitude": -106.07601754372335}, "892112970RR0001": {"name": "FRIENDS OF THE PEACE RIVER MUNICIPAL LIBRARY SOCIETY", "designationCode": "C", "categoryCode": "50", "address": "9807 - 97 AVENUE", "city": "PEACE RIVER", "province": "AB", "country": "CA", "postalCode": "T8S1H6", "twitter": "None", "instagram": "None", "facebook": "None", "youtube": "None", "website": "None", "summary": "None", "logo": "None", "latitude": 56.23637653621105, "longitude": -117.29320200000001}, "888123007RR0001": {"name": "FRIENDS OF THE PETAWAWA RESEARCH FOREST", "designationCode": "C", "categoryCode": "52", "address": "1000 CLOUTHIER ROAD           R.R.#1, P. O. BOX 2000", "city": "CHALK RIVER", "province": "ON", "country": "CA", "postalCode": "K0J1J0", "twitter": "None", "instagram": "None", "facebook": "None", "youtube": "None", "website": "None", "summary": "None", "logo": "None", "latitude": 45.997597727191284, "longitude": -77.44149879845857}, "888476595RR0001": {"name": "FRIENDS OF THE PRINCE GEORGE PUBLIC LIBRARY", "designationCode": "C", "categoryCode": "21", "address": "887 DOMINION STREET", "city": "PRINCE GEORGE", "province": "BC", "country": "CA", "postalCode": "V2L5L1", "twitter": "None", "instagram": "None", "facebook": "None", "youtube": "None", "website": "None", "summary": "None", "logo": "None", "latitude": 53.91347242744605, "longitude": -122.74707003847466}, "870355542RR0001": {"name": "FRIENDS OF THE PRINCE TOWNSHIP LIBRARY", "designationCode": "A", "categoryCode": "03", "address": "3042 SECOND LINE W", "city": "PRINCE TWP", "province": "ON", "country": "CA", "postalCode": "P6A6K4", "twitter": "None", "instagram": "None", "facebook": "None", "youtube": "None", "website": "None", "summary": "None", "logo": "None", "latitude": 46.53491247605132, "longitude": -84.50151274854291}, "884588211RR0001": {"name": "FRIENDS OF THE PRINCETON PARK", "designationCode": "C", "categoryCode": "56", "address": "687037 HWY 2 RR#1", "city": "PRINCETON", "province": "ON", "country": "CA", "postalCode": "N0J1V0", "twitter": "None", "instagram": "None", "facebook": "None", "youtube": "None", "website": "None", "summary": "None", "logo": "None", "latitude": 43.16613612313526, "longitude": -80.51557593185332}, "138641840RR0001": {"name": "FRIENDS OF THE PROVINCIAL ARCHIVES OF ALBERTA SOCIETY", "designationCode": "C", "categoryCode": "52", "address": "8555 ROPER ROAD NW", "city": "EDMONTON", "province": "AB", "country": "CA", "postalCode": "T6E5W1", "twitter": "None", "instagram": "None", "facebook": "None", "youtube": "None", "website": "None", "summary": "None", "logo": "None", "latitude": 53.48808166878744, "longitude": -113.4519169410769}, "886171503RR0001": {"name": "FRIENDS OF THE RALPH CONNOR HOUSE INC.", "designationCode": "C", "categoryCode": "52", "address": "54 WEST GATE", "city": "WINNIPEG", "province": "MB", "country": "CA", "postalCode": "R3C2E1", "twitter": "None", "instagram": "None", "facebook": "None", "youtube": "None", "website": "None", "summary": "None", "logo": "None", "latitude": 49.87752370356065, "longitude": -97.15868799422893}, "874602360RR0001": {"name": "FRIENDS OF THE RED ROCK PUBLIC LIBRARY", "designationCode": "C", "categoryCode": "59", "address": "BOX 285", "city": "RED ROCK", "province": "ON", "country": "CA", "postalCode": "P0T2P0", "twitter": "None", "instagram": "None", "facebook": "None", "youtube": "None", "website": "None", "summary": "None", "logo": "None", "latitude": 48.94418400000005, "longitude": -88.25941249999994}, "865553630RR0001": {"name": "FRIENDS OF THE REDWATER PUBLIC LIBRARY SOCIETY", "designationCode": "C", "categoryCode": "50", "address": "BOX 384 4915-48 STREET", "city": "REDWATER", "province": "AB", "country": "CA", "postalCode": "T0A2W0", "twitter": "None", "instagram": "None", "facebook": "None", "youtube": "None", "website": "None", "summary": "None", "logo": "None", "latitude": 53.95118537462699, "longitude": -113.1066778043982}, "118933233RR0001": {"name": "FRIENDS OF THE RICHMOND LIBRARY SOCIETY", "designationCode": "A", "categoryCode": "53", "address": "100-7700 MINORU GATE          MINORU PAK PLAZA", "city": "RICHMOND", "province": "BC", "country": "CA", "postalCode": "V6Y1R9", "twitter": "None", "instagram": "None", "facebook": "None", "youtube": "None", "website": "None", "summary": "None", "logo": "None", "latitude": 49.16285257439792, "longitude": -123.14297202308795}, "890495567RR0001": {"name": "FRIENDS OF THE ROCKINGHAM CHURCH", "designationCode": "C", "categoryCode": "52", "address": "PO BOX 271", "city": "COMBERMERE", "province": "ON", "country": "CA", "postalCode": "K0J1L0", "twitter": "None", "instagram": "None", "facebook": "None", "youtube": "None", "website": "None", "summary": "None", "logo": "None", "latitude": 45.374815513507876, "longitude": -77.61668356253622}, "892197849RR0001": {"name": "FRIENDS OF THE ROSS MEMORIAL MUSEUM", "designationCode": "C", "categoryCode": "23", "address": "188 MONTAGUE ST", "city": "ST ANDREWS", "province": "NB", "country": "CA", "postalCode": "E5B1J2", "twitter": "None", "instagram": "None", "facebook": "None", "youtube": "None", "website": "None", "summary": "None", "logo": "None", "latitude": 45.07582802603642, "longitude": -67.05184413189477}, "862498409RR0001": {"name": "FRIENDS OF THE ROSSLAND RANGE", "designationCode": "C", "categoryCode": "56", "address": "POST OFFICE BOX 701           1835 BUTTE STREET", "city": "ROSSLAND", "province": "BC", "country": "CA", "postalCode": "V0G1Y0", "twitter": "None", "instagram": "None", "facebook": "None", "youtube": "None", "website": "None", "summary": "None", "logo": "None", "latitude": 49.07554071071552, "longitude": -117.79405844686174}, "888781028RR0001": {"name": "FRIENDS OF THE ROUGE WATERSHED INC.", "designationCode": "C", "categoryCode": "52", "address": "2259 MEADOWVALE ROAD", "city": "SCARBOROUGH", "province": "ON", "country": "CA", "postalCode": "M1X1R2", "twitter": "None", "instagram": "None", "facebook": "None", "youtube": "None", "website": "None", "summary": "None", "logo": "None", "latitude": 43.82796395643139, "longitude": -79.17940146944444}, "107756223RR0001": {"name": "FRIENDS OF THE ROYAL SASKATCHEWAN MUSEUM INC.", "designationCode": "C", "categoryCode": "50", "address": "2445 ALBERT ST", "city": "REGINA", "province": "SK", "country": "CA", "postalCode": "S4P4W7", "twitter": "None", "instagram": "None", "facebook": "None", "youtube": "None", "website": "None", "summary": "None", "logo": "None", "latitude": 50.44035508477977, "longitude": -104.61807094894617}, "899558951RR0001": {"name": "FRIENDS OF THE RUINS OF ST RAPHAEL'S INC", "designationCode": "C", "categoryCode": "52", "address": "20000 COUNTY ROAD 18          BOX 190", "city": "WILLIAMSTOWN", "province": "ON", "country": "CA", "postalCode": "K0C2J0", "twitter": "None", "instagram": "None", "facebook": "None", "youtube": "None", "website": "None", "summary": "None", "logo": "None", "latitude": 45.21218158814348, "longitude": -74.59701284381224}, "859071110RR0001": {"name": "FRIENDS OF THE SALMO PUBLIC LIBRARY", "designationCode": "A", "categoryCode": "53", "address": "PO BOX 458", "city": "SALMO", "province": "BC", "country": "CA", "postalCode": "V0G1Z0", "twitter": "None", "instagram": "None", "facebook": "None", "youtube": "None", "website": "None", "summary": "None", "logo": "None", "latitude": 49.19366000000008, "longitude": -117.28050999999999}, "892786369RR0001": {"name": "FRIENDS OF THE SECHELT PUBLIC LIBRARY", "designationCode": "A", "categoryCode": "53", "address": "P.O. BOX 2104                 5797 COWRIE ST.", "city": "SECHELT", "province": "BC", "country": "CA", "postalCode": "V0N3A0", "twitter": "None", "instagram": "None", "facebook": "None", "youtube": "None", "website": "None", "summary": "None", "logo": "None", "latitude": 49.472416521207414, "longitude": -123.76308217055225}, "824564876RR0001": {"name": "FRIENDS OF THE SHEEP RIVER LIBRARY FOUNDATION", "designationCode": "A", "categoryCode": "03", "address": "131 MAIN STREET               PO BAG 10", "city": "TURNER VALLEY", "province": "AB", "country": "CA", "postalCode": "T0L2A0", "twitter": "None", "instagram": "None", "facebook": "None", "youtube": "None", "website": "None", "summary": "None", "logo": "None", "latitude": 50.67443069612731, "longitude": -114.27884222848553}, "867732257RR0001": {"name": "FRIENDS OF THE SIMCOE COUNTY MUSEUM", "designationCode": "A", "categoryCode": "50", "address": "1151 HIGHWAY 26 W RR #2", "city": "MINESING", "province": "ON", "country": "CA", "postalCode": "L0L1Y0", "twitter": "None", "instagram": "None", "facebook": "None", "youtube": "None", "website": "None", "summary": "None", "logo": "None", "latitude": 44.45858972425427, "longitude": -79.85627558222275}, "817201007RR0001": {"name": "FRIENDS OF THE SIX NATIONS PUBLIC LIBRARY FOUNDATION", "designationCode": "A", "categoryCode": "53", "address": "1679 CHIEFSWOOD RD,           PO BOX 149", "city": "OHSWEKEN", "province": "ON", "country": "CA", "postalCode": "N0A1M0", "twitter": "None", "instagram": "None", "facebook": "None", "youtube": "None", "website": "None", "summary": "None", "logo": "None", "latitude": 43.069392004271776, "longitude": -80.117648979709}, "869624114RR0001": {"name": "FRIENDS OF THE SMITHERS LIBRARY", "designationCode": "A", "categoryCode": "53", "address": "BOX 55", "city": "SMITHERS", "province": "BC", "country": "CA", "postalCode": "V0J2N0", "twitter": "None", "instagram": "None", "facebook": "None", "youtube": "None", "website": "None", "summary": "None", "logo": "None", "latitude": 54.78190002943043, "longitude": -127.16272999999995}, "890612849RR0001": {"name": "FRIENDS OF THE SMITHS FALLS PUBLIC LIBRARY", "designationCode": "A", "categoryCode": "55", "address": "81 BECKWITH ST N", "city": "SMITHS FALLS", "province": "ON", "country": "CA", "postalCode": "K7A2B9", "twitter": "None", "instagram": "None", "facebook": "None", "youtube": "None", "website": "None", "summary": "None", "logo": "None", "latitude": 44.903073419878304, "longitude": -76.02153505722978}, "862091634RR0001": {"name": "FRIENDS OF THE SOUTH MOUNTAIN BRANCH OF THE STORMONT, DUNDAS AND GLENGARRY COUNTY LIBRARY", "designationCode": "C", "categoryCode": "50", "address": "P.O. BOX 199", "city": "SOUTH MOUNTAIN", "province": "ON", "country": "CA", "postalCode": "K0E1W0", "twitter": "None", "instagram": "None", "facebook": "None", "youtube": "None", "website": "None", "summary": "None", "logo": "None", "latitude": 44.8427488126301, "longitude": -75.54693386273418}, "897976320RR0001": {"name": "FRIENDS OF THE SOUTH SLOPES", "designationCode": "C", "categoryCode": "56", "address": "P.O. BOX 28011                RPO E. KELOWNA", "city": "KELOWNA", "province": "BC", "country": "CA", "postalCode": "V1W4A6", "twitter": "None", "instagram": "None", "facebook": "None", "youtube": "None", "website": "None", "summary": "None", "logo": "None", "latitude": 49.86717421164053, "longitude": -119.4074060244115}, "890831621RR0001": {"name": "FRIENDS OF THE SOUTHAMPTON LIBRARY", "designationCode": "C", "categoryCode": "59", "address": "3 - 228 PALMERSTON ST", "city": "SOUTHAMPTON", "province": "ON", "country": "CA", "postalCode": "N0H2L0", "twitter": "None", "instagram": "None", "facebook": "None", "youtube": "None", "website": "None", "summary": "None", "logo": "None", "latitude": 44.49372835250146, "longitude": -81.37192208852224}, "892469149RR0001": {"name": "FRIENDS OF THE ST CLAIR RIVER", "designationCode": "C", "categoryCode": "59", "address": "514 CHRISTINA ST. N.", "city": "SARNIA", "province": "ON", "country": "CA", "postalCode": "N7T5W4", "twitter": "None", "instagram": "None", "facebook": "None", "youtube": "None", "website": "None", "summary": "None", "logo": "None", "latitude": 42.98326690811806, "longitude": -82.40124525094126}, "859076325RR0001": {"name": "FRIENDS OF THE ST. MARYS MUSEUM", "designationCode": "A", "categoryCode": "53", "address": "177 CHURCH STREET SOUTH       BOX 98", "city": "ST. MARYS", "province": "ON", "country": "CA", "postalCode": "N4X1A9", "twitter": "None", "instagram": "None", "facebook": "None", "youtube": "None", "website": "None", "summary": "None", "logo": "None", "latitude": 43.25513614793121, "longitude": -81.14125550346245}, "892676768RR0001": {"name": "FRIENDS OF THE STEINBACH PUBLIC LIBRARY INC.", "designationCode": "C", "categoryCode": "59", "address": "255 ELMDALE STREET", "city": "STEINBACH", "province": "MB", "country": "CA", "postalCode": "R5G0C9", "twitter": "None", "instagram": "None", "facebook": "None", "youtube": "None", "website": "None", "summary": "None", "logo": "None", "latitude": 49.52815135565327, "longitude": -96.68493125328592}, "893736066RR0001": {"name": "FRIENDS OF THE STRATHROY PUBLIC LIBRARY", "designationCode": "A", "categoryCode": "55", "address": "24 FRANK STREET", "city": "STRATHROY", "province": "ON", "country": "CA", "postalCode": "N7G2R4", "twitter": "None", "instagram": "None", "facebook": "None", "youtube": "None", "website": "None", "summary": "None", "logo": "None", "latitude": 42.95580107575386, "longitude": -81.6237108159609}, "890739089RR0001": {"name": "FRIENDS OF THE SUMMERLAND RESEARCH STATION GARDENS", "designationCode": "C", "categoryCode": "52", "address": "PO BOX 1363", "city": "SUMMERLAND", "province": "BC", "country": "CA", "postalCode": "V0H1Z0", "twitter": "None", "instagram": "None", "facebook": "None", "youtube": "None", "website": "None", "summary": "None", "logo": "None", "latitude": 49.60131900000006, "longitude": -119.67899299999993}, "892518812RR0001": {"name": "FRIENDS OF THE SURREY MUSEUM AND ARCHIVES", "designationCode": "A", "categoryCode": "53", "address": "17671 56 AVENUE", "city": "SURREY", "province": "BC", "country": "CA", "postalCode": "V3S1C9", "twitter": "None", "instagram": "None", "facebook": "None", "youtube": "None", "website": "None", "summary": "None", "logo": "None", "latitude": 49.10424925115899, "longitude": -122.73270472465231}, "118933258RR0001": {"name": "FRIENDS OF THE TABUSINTAC NURSING HOME INC.", "designationCode": "C", "categoryCode": "13", "address": "SECRETARY                     10 OLD MANSE ROAD", "city": "TABUSINTAC", "province": "NB", "country": "CA", "postalCode": "E9H1G4", "twitter": "None", "instagram": "None", "facebook": "None", "youtube": "None", "website": "None", "summary": "None", "logo": "None"}, "868181645RR0001": {"name": "FRIENDS OF THE TARA LIBRARY", "designationCode": "C", "categoryCode": "50", "address": "P.O BOX 59", "city": "TARA", "province": "ON", "country": "CA", "postalCode": "N0H2N0", "twitter": "None", "instagram": "None", "facebook": "None", "youtube": "None", "website": "None", "summary": "None", "logo": "None", "latitude": 44.63441100000001, "longitude": -81.26877149999999}, "873264212RR0001": {"name": "FRIENDS OF THE TAY WATERSHED ASSOCIATION", "designationCode": "C", "categoryCode": "52", "address": "PO BOX 2065                   57 FOSTER STREET", "city": "PERTH", "province": "ON", "country": "CA", "postalCode": "K7H3M9", "twitter": "None", "instagram": "None", "facebook": "None", "youtube": "None", "website": "None", "summary": "None", "logo": "None", "latitude": 44.900874324456105, "longitude": -76.25179620788846}, "890454309RR0001": {"name": "FRIENDS OF THE THREE LAKES FIRE DEPARTMENT INC.", "designationCode": "C", "categoryCode": "59", "address": "RAILWAY AVENUE                P.O. BOX 284", "city": "MIDDLE LAKE", "province": "SK", "country": "CA", "postalCode": "S0K2X0", "twitter": "None", "instagram": "None", "facebook": "None", "youtube": "None", "website": "None", "summary": "None", "logo": "None", "latitude": 52.483430544469115, "longitude": -105.30237066658735}, "888773546RR0001": {"name": "FRIENDS OF THE THUNDER BAY PUBLIC LIBRARY", "designationCode": "A", "categoryCode": "55", "address": "285 RED RIVER ROAD", "city": "THUNDER BAY", "province": "ON", "country": "CA", "postalCode": "P7B1A9", "twitter": "None", "instagram": "None", "facebook": "None", "youtube": "None", "website": "None", "summary": "None", "logo": "None", "latitude": 48.436051900766884, "longitude": -89.22302557655593}, "887912038RR0001": {"name": "FRIENDS OF THE UKRAINIAN FOLKLORE CENTRE", "designationCode": "C", "categoryCode": "21", "address": "MLCS, 200 ARTS BUILDING       UNIVERSITY OF ALBERTA", "city": "EDMONTON", "province": "AB", "country": "CA", "postalCode": "T6G2E6", "twitter": "None", "instagram": "None", "facebook": "None", "youtube": "None", "website": "None", "summary": "None", "logo": "None", "latitude": 53.524380000000065, "longitude": -113.51938999999999}, "118933290RR0001": {"name": "FRIENDS OF THE UKRAINIAN VILLAGE SOCIETY", "designationCode": "C", "categoryCode": "22", "address": "8820 112 STREET", "city": "EDMONTON", "province": "AB", "country": "CA", "postalCode": "T6G2P8", "twitter": "None", "instagram": "None", "facebook": "None", "youtube": "None", "website": "None", "summary": "None", "logo": "None", "latitude": 53.5245863801024, "longitude": -113.5208127563158}, "118933308RR0001": {"name": "FRIENDS OF THE UNIVERSITY OF ALBERTA DEVONIAN BOTANIC GARDEN", "designationCode": "C", "categoryCode": "21", "address": "BOX 69227                     13040 137 AVE", "city": "EDMONTON", "province": "AB", "country": "CA", "postalCode": "T5L5E3", "twitter": "None", "instagram": "None", "facebook": "None", "youtube": "None", "website": "None", "summary": "None", "logo": "None", "latitude": 53.59959451211811, "longitude": -113.54610149999999}}