{"106952757RR0001": {"name": "COLL\u00c8GE ANDR\u00c9-GRASSET (1973) INC.", "designationCode": "C", "categoryCode": "20", "address": "1001 BOUL. CR\u00c9MAZIE E", "city": "MONTR\u00c9AL", "province": "QC", "country": "CA", "postalCode": "H2M1M3", "twitter": "None", "instagram": "None", "facebook": "None", "youtube": "None", "website": "None", "summary": "None", "logo": "None", "latitude": 45.55025028287801, "longitude": -73.63257647143502}, "865442735RR0001": {"name": "COLL\u00c8GE B.M.C. POUR LES ENSEIGNANTS INC./B.M.C. TEACHER'S COLLEGE INC.", "designationCode": "C", "categoryCode": "20", "address": "33 RUE ST. VINCENT", "city": "STE. AGATHE", "province": "QC", "country": "CA", "postalCode": "J8C2A5", "twitter": "None", "instagram": "None", "facebook": "None", "youtube": "None", "website": "None", "summary": "None", "logo": "None", "latitude": 46.04758730169082, "longitude": -74.28853208808954}, "118801653RR0001": {"name": "COLL\u00c8GE BEAUBOIS", "designationCode": "C", "categoryCode": "20", "address": "4901 DU COLLEGE-BEAUBOIS", "city": "PIERREFONDS", "province": "QC", "country": "CA", "postalCode": "H8Y3T4", "twitter": "None", "instagram": "None", "facebook": "None", "youtube": "None", "website": "None", "summary": "None", "logo": "None", "latitude": 45.50716908526133, "longitude": -73.7803563428362}, "135861177RR0001": {"name": "COLL\u00c8GE D'ANJOU INC.", "designationCode": "C", "categoryCode": "20", "address": "11000 RUE RENAUDE-LAPOINTE", "city": "ANJOU", "province": "QC", "country": "CA", "postalCode": "H1J2V7", "twitter": "None", "instagram": "None", "facebook": "None", "youtube": "None", "website": "None", "summary": "None", "logo": "None", "latitude": 45.6119949108722, "longitude": -73.59254528668717}, "106953292RR0001": {"name": "COLL\u00c8GE D'ENSEIGNEMENT G\u00c9N\u00c9RAL ET PROFESSIONNEL EDOUARD-MONTPETIT", "designationCode": "C", "categoryCode": "20", "address": "945 CHEMIN DE CHAMBLY", "city": "LONGUEUIL", "province": "QC", "country": "CA", "postalCode": "J4H3M6", "twitter": "None", "instagram": "None", "facebook": "None", "youtube": "None", "website": "None", "summary": "None", "logo": "None", "latitude": 45.534942428913126, "longitude": -73.49479200807572}, "101051381RR0001": {"name": "COLL\u00c8GE DE CHAMPIGNY", "designationCode": "C", "categoryCode": "20", "address": "1400, RTE DE L'AEROPORT", "city": "QUEBEC", "province": "QC", "country": "CA", "postalCode": "G2G1G6", "twitter": "None", "instagram": "None", "facebook": "None", "youtube": "None", "website": "None", "summary": "None", "logo": "None", "latitude": 46.79254194537995, "longitude": -71.36051012648346}, "106953011RR0001": {"name": "COLL\u00c8GE DE L\u00c9VIS", "designationCode": "C", "categoryCode": "20", "address": "9 MGR GOSSELIN", "city": "LEVIS", "province": "QC", "country": "CA", "postalCode": "G6V5K1", "twitter": "None", "instagram": "None", "facebook": "None", "youtube": "None", "website": "None", "summary": "None", "logo": "None", "latitude": 46.81240508021236, "longitude": -71.1818075276127}, "101051407RR0001": {"name": "COLL\u00c8GE DE L'OUEST DE L'\u00ceLE INC. WEST ISLAND COLLEGE INC.", "designationCode": "C", "categoryCode": "20", "address": "851 TECUMSEH ROAD", "city": "DOLLARD-DES-ORMEAUX", "province": "QC", "country": "CA", "postalCode": "H9B2L2", "twitter": "None", "instagram": "None", "facebook": "None", "youtube": "None", "website": "None", "summary": "None", "logo": "None", "latitude": 45.478399209302104, "longitude": -73.81557882757275}, "106953052RR0001": {"name": "COLL\u00c8GE DE MONTR\u00c9AL", "designationCode": "C", "categoryCode": "20", "address": "1931 RUE SHERBROOKE OUEST", "city": "MONTREAL", "province": "QC", "country": "CA", "postalCode": "H3H1E3", "twitter": "None", "instagram": "None", "facebook": "None", "youtube": "None", "website": "None", "summary": "None", "logo": "None", "latitude": 45.493820526256386, "longitude": -73.58422348687135}, "118867894RR0001": {"name": "COLL\u00c8GE DU MONT-SAINTE-ANNE", "designationCode": "C", "categoryCode": "20", "address": "2100 CHEMIN STE-CATHERINE", "city": "ROCK FOREST", "province": "QC", "country": "CA", "postalCode": "J1N3V5", "twitter": "None", "instagram": "None", "facebook": "None", "youtube": "None", "website": "None", "summary": "None", "logo": "None", "latitude": 45.36718767536435, "longitude": -71.93414367536437}, "118867951RR0001": {"name": "COLL\u00c8GE LAFL\u00c8CHE", "designationCode": "C", "categoryCode": "20", "address": "1687, BOUL. DU CARMEL", "city": "TROIS-RIVIERES", "province": "QC", "country": "CA", "postalCode": "G8Z3R8", "twitter": "None", "instagram": "None", "facebook": "None", "youtube": "None", "website": "None", "summary": "None", "logo": "None", "latitude": 46.35107932574366, "longitude": -72.55786104847745}, "106953631RR0001": {"name": "COLL\u00c8GE MONT-SACR\u00c9-COEUR", "designationCode": "C", "categoryCode": "20", "address": "210, RUE DENISON E", "city": "GRANBY", "province": "QC", "country": "CA", "postalCode": "J2H2R6", "twitter": "None", "instagram": "None", "facebook": "None", "youtube": "None", "website": "None", "summary": "None", "logo": "None", "latitude": 45.393643497570736, "longitude": -72.70980180759786}, "106953698RR0001": {"name": "COLL\u00c8GE NOTRE-DAME", "designationCode": "C", "categoryCode": "20", "address": "3791 CHEMIN QUEEN-MARY", "city": "MONTREAL", "province": "QC", "country": "CA", "postalCode": "H3V1A8", "twitter": "None", "instagram": "None", "facebook": "None", "youtube": "None", "website": "None", "summary": "None", "logo": "None", "latitude": 45.4935819794851, "longitude": -73.62039663480257}, "107279978RR0001": {"name": "COLL\u00c8GE NOTRE-DAME DE RIVI\u00c8RE-DU-LOUP", "designationCode": "C", "categoryCode": "20", "address": "56, ST-HENRI                  C.P. 786", "city": "RIVIERE-DU-LOUP", "province": "QC", "country": "CA", "postalCode": "G5R3Z5", "twitter": "None", "instagram": "None", "facebook": "None", "youtube": "None", "website": "None", "summary": "None", "logo": "None", "latitude": 47.82182788703906, "longitude": -69.53502047821567}, "143475028RR0001": {"name": "COLL\u00c8GE PR\u00c9UNIVERSITAIRE NOUVELLES FRONTI\u00c8RES", "designationCode": "C", "categoryCode": "20", "address": "250 RUE GAMELIN", "city": "GATINEAU", "province": "QC", "country": "CA", "postalCode": "J8Y1W9", "twitter": "None", "instagram": "None", "facebook": "None", "youtube": "None", "website": "None", "summary": "None", "logo": "None", "latitude": 45.44303150158654, "longitude": -75.74890312920533}, "119131969RR0001": {"name": "COLL\u00c8GE SAINT-ALEXANDRE DE LA GATINEAU", "designationCode": "C", "categoryCode": "20", "address": "2425 RUE ST-LOUIS", "city": "GATINEAU", "province": "QC", "country": "CA", "postalCode": "J8V1E7", "twitter": "None", "instagram": "None", "facebook": "None", "youtube": "None", "website": "None", "summary": "None", "logo": "None", "latitude": 45.490983404768095, "longitude": -75.75040836287303}, "119144947RR0001": {"name": "COLL\u00c8GE SAINT-ALPHONSE", "designationCode": "C", "categoryCode": "20", "address": "97, AVE DE LA MONTAGNE", "city": "SAINT-TITE-DES-CAPS", "province": "QC", "country": "CA", "postalCode": "G0A4J0", "twitter": "None", "instagram": "None", "facebook": "None", "youtube": "None", "website": "None", "summary": "None", "logo": "None", "latitude": 47.11014986037865, "longitude": -70.79636240570763}, "118892686RR0001": {"name": "COLL\u00c8GE SAINT-JOSEPH DE HULL", "designationCode": "C", "categoryCode": "20", "address": "174 RUE NOTRE-DAME DE L'ILE", "city": "GATINEAU", "province": "QC", "country": "CA", "postalCode": "J8X3T4", "twitter": "None", "instagram": "None", "facebook": "None", "youtube": "None", "website": "None", "summary": "None", "logo": "None", "latitude": 45.43151832722606, "longitude": -75.71078348943975}, "125391912RR0001": {"name": "COLL\u00c8GE SAINT-MAURICE", "designationCode": "C", "categoryCode": "20", "address": "630 RUE GIROUARD OUEST", "city": "ST-HYACINTHE", "province": "QC", "country": "CA", "postalCode": "J2S2Y3", "twitter": "None", "instagram": "None", "facebook": "None", "youtube": "None", "website": "None", "summary": "None", "logo": "None", "latitude": 45.63069739170677, "longitude": -72.94320123878154}, "107280067RR0001": {"name": "COLL\u00c8GE SAINT-SACREMENT", "designationCode": "C", "categoryCode": "20", "address": "901, RUE ST-LOUIS", "city": "TERREBONNE", "province": "QC", "country": "CA", "postalCode": "J6W1K1", "twitter": "None", "instagram": "None", "facebook": "None", "youtube": "None", "website": "None", "summary": "None", "logo": "None", "latitude": 45.69490366893554, "longitude": -73.63751950998929}, "106954126RR0001": {"name": "COLL\u00c8GE ST-HILAIRE INC.", "designationCode": "C", "categoryCode": "20", "address": "800 CH ROUILLARD", "city": "MONT-SAINT-HILAIRE", "province": "QC", "country": "CA", "postalCode": "J3H0K4", "twitter": "None", "instagram": "None", "facebook": "None", "youtube": "None", "website": "None", "summary": "None", "logo": "None", "latitude": 45.5722362309516, "longitude": -73.15584395617982}, "106954266RR0001": {"name": "COLL\u00c8GE ST-JEAN-VIANNEY", "designationCode": "C", "categoryCode": "20", "address": "12630, BOUL. GOUIN E", "city": "MONTREAL", "province": "QC", "country": "CA", "postalCode": "H1C1B9", "twitter": "None", "instagram": "None", "facebook": "None", "youtube": "None", "website": "None", "summary": "None", "logo": "None", "latitude": 45.693827048228016, "longitude": -73.5217427939661}, "106954233RR0001": {"name": "COLL\u00c8GE STE-MARCELLINE", "designationCode": "C", "categoryCode": "20", "address": "9155 BOUL GOUIN O", "city": "MONTREAL", "province": "QC", "country": "CA", "postalCode": "H4K1C3", "twitter": "None", "instagram": "None", "facebook": "None", "youtube": "None", "website": "None", "summary": "None", "logo": "None", "latitude": 45.51607395340163, "longitude": -73.74571749924925}, "860400399RR0001": {"name": "COLLABORATION QUEBEC-PARAGUAY INC", "designationCode": "C", "categoryCode": "29", "address": "750,ROUTE DE LA SUETE", "city": "QUEBEC", "province": "QC", "country": "CA", "postalCode": "G1X2R2", "twitter": "None", "instagram": "None", "facebook": "None", "youtube": "None", "website": "None", "summary": "None", "logo": "None", "latitude": 46.777644283917226, "longitude": -71.31318096047073}, "106952559RR0001": {"name": "COLLABORATION SANTE INTERNATIONALE (C.S.I.)", "designationCode": "C", "categoryCode": "11", "address": "1001 CH. DE LA CANARDIERE", "city": "QUEBEC", "province": "QC", "country": "CA", "postalCode": "G1J5G5", "twitter": "None", "instagram": "None", "facebook": "None", "youtube": "None", "website": "None", "summary": "None", "logo": "None", "latitude": 46.830179462115524, "longitude": -71.22524751471518}, "845257278RR0001": {"name": "COLLATINES DE L'EPIPHANIE", "designationCode": "C", "categoryCode": "09", "address": "81 RUE DES SULPICIENS", "city": "EPIPHANIE", "province": "QC", "country": "CA", "postalCode": "J5X2Y2", "twitter": "None", "instagram": "None", "facebook": "None", "youtube": "None", "website": "None", "summary": "None", "logo": "None", "latitude": 45.848832735789635, "longitude": -73.48250048615019}, "857195341RR0001": {"name": "COLLECTIF ALIMENT-TERRE", "designationCode": "C", "categoryCode": "09", "address": "8A, BOUL G\u00c9RALD D.-L\u00c9VESQUE E", "city": "PASP\u00c9BIAC", "province": "QC", "country": "CA", "postalCode": "G0C2K0", "twitter": "None", "instagram": "None", "facebook": "None", "youtube": "None", "website": "None", "summary": "None", "logo": "None", "latitude": 48.029257333017334, "longitude": -65.24788310313025}, "892436270RR0001": {"name": "COLLECTIF D'ANIMATION URBAINE L'AUTRE MONTREAL", "designationCode": "C", "categoryCode": "29", "address": "310 - 3680 RUE JEANNE-MANCE", "city": "MONTREAL", "province": "QC", "country": "CA", "postalCode": "H2X2K5", "twitter": "None", "instagram": "None", "facebook": "None", "youtube": "None", "website": "None", "summary": "None", "logo": "None", "latitude": 45.51161383345846, "longitude": -73.57612466876323}, "101050417RR0001": {"name": "COLLECTIF DES FEMMES IMMIGRANTES DU QUEBEC", "designationCode": "C", "categoryCode": "09", "address": "7124, RUE BOYER", "city": "MONTREAL", "province": "QC", "country": "CA", "postalCode": "H2S2J8", "twitter": "None", "instagram": "None", "facebook": "None", "youtube": "None", "website": "None", "summary": "None", "logo": "None", "latitude": 45.541379756852805, "longitude": -73.61203408203001}, "107584260RR0001": {"name": "COLLECTIVE PAR ET POUR ELLE INC.", "designationCode": "C", "categoryCode": "09", "address": "119 BOUL DE DIEPPE", "city": "COWANSVILLE", "province": "QC", "country": "CA", "postalCode": "J2K1H1", "twitter": "None", "instagram": "None", "facebook": "None", "youtube": "None", "website": "None", "summary": "None", "logo": "None", "latitude": 45.20881076827841, "longitude": -72.74852963685137}, "897326401RR0001": {"name": "COLLEEN FINDLAY FOUNDATION", "designationCode": "B", "categoryCode": "03", "address": "7-20691 LOUGHEED HWY", "city": "MAPLE RIDGE", "province": "BC", "country": "CA", "postalCode": "V2X2P9", "twitter": "None", "instagram": "None", "facebook": "None", "youtube": "None", "website": "None", "summary": "None", "logo": "None", "latitude": 49.21840749379625, "longitude": -122.64905009088815}, "118867522RR0001": {"name": "COLLEGE AVENUE UNITED CHURCH", "designationCode": "C", "categoryCode": "44", "address": "22 WILSON ST", "city": "WOODSTOCK", "province": "ON", "country": "CA", "postalCode": "N4S3N4", "twitter": "None", "instagram": "None", "facebook": "None", "youtube": "None", "website": "None", "summary": "None", "logo": "None", "latitude": 43.13094907989524, "longitude": -80.74703753886541}, "101051282RR0001": {"name": "COLLEGE BART (1975) / BART COLLEGE (1975)", "designationCode": "B", "categoryCode": "20", "address": "751 COTE D'ABRAHAM", "city": "QU\u00c9BEC", "province": "QC", "country": "CA", "postalCode": "G1R1A2", "twitter": "None", "instagram": "None", "facebook": "None", "youtube": "None", "website": "None", "summary": "None", "logo": "None", "latitude": 46.81271250678068, "longitude": -71.2191417485429}, "119145019RR0002": {"name": "COLLEGE BETH JACOB POUR LES ENSEIGNANTS INC./BETH JACOB TEACHERS' COLLEGE INC.", "designationCode": "C", "categoryCode": "20", "address": "2195 RUE EKERS", "city": "MONTREAL", "province": "QC", "country": "CA", "postalCode": "H3S1C6", "twitter": "None", "instagram": "None", "facebook": "None", "youtube": "None", "website": "None", "summary": "None", "logo": "None", "latitude": 45.51573315932818, "longitude": -73.62722463601466}, "106952864RR0001": {"name": "COLLEGE CHARLES-LEMOYNE DE LONGUEUIL INC.", "designationCode": "C", "categoryCode": "20", "address": "901 CHEMIN TIFFIN", "city": "LONGUEUIL", "province": "QC", "country": "CA", "postalCode": "J4P3G6", "twitter": "None", "instagram": "None", "facebook": "None", "youtube": "None", "website": "None", "summary": "None", "logo": "None", "latitude": 45.5140547682784, "longitude": -73.51006094696766}, "121719421RR0001": {"name": "COLLEGE D'ARTS APPLIQUES ET DE TECHNOLOGIE LA CITE COLLEGIALE", "designationCode": "C", "categoryCode": "20", "address": "801 PROMENADE DE LAVIATION    PIECE C3090", "city": "OTTAWA", "province": "ON", "country": "CA", "postalCode": "K1K4R3", "twitter": "None", "instagram": "None", "facebook": "None", "youtube": "None", "website": "None", "summary": "None", "logo": "None", "latitude": 45.435854944683165, "longitude": -75.63460764279753}, "106953003RR0001": {"name": "COLLEGE D'ENSEIGNEMENT ET PROFESSIONEL DE L'ABITIBI-TEMISCAMINGNE", "designationCode": "C", "categoryCode": "20", "address": "425 BOUL DU COLLEGE CP 1500", "city": "ROUYN", "province": "QC", "country": "CA", "postalCode": "J9X5E5", "twitter": "None", "instagram": "None", "facebook": "None", "youtube": "None", "website": "None", "summary": "None", "logo": "None", "latitude": 48.22798334817296, "longitude": -79.00729320412923}, "106883747RR0001": {"name": "COLLEGE D'ENSEIGNEMENT GENERAL & PROFESSIONNEL DE JONQUIERE", "designationCode": "C", "categoryCode": "20", "address": "DIRECTION DES SERVICES ADMINS", "city": "JONQUIERE", "province": "QC", "country": "CA", "postalCode": "G7X7W2", "twitter": "None", "instagram": "None", "facebook": "None", "youtube": "None", "website": "None", "summary": "None", "logo": "None", "latitude": 48.40562400000006, "longitude": -71.24911099999993}, "106883663RR0001": {"name": "COLLEGE D'ENSEIGNEMENT GENERAL ET PROFESSIONNEL ANDRE-LAURENDEAU", "designationCode": "C", "categoryCode": "20", "address": "1111 RUE LAPIERRE", "city": "LASALLE", "province": "QC", "country": "CA", "postalCode": "H8N2J4", "twitter": "None", "instagram": "None", "facebook": "None", "youtube": "None", "website": "None", "summary": "None", "logo": "None", "latitude": 45.43528724681121, "longitude": -73.60580767788119}, "106883655RR0001": {"name": "COLLEGE D'ENSEIGNEMENT GENERAL ET PROFESSIONNEL D'AHUNTSIC", "designationCode": "C", "categoryCode": "20", "address": "9155 RUE SAINT-HUBERT", "city": "MONTREAL", "province": "QC", "country": "CA", "postalCode": "H2M1Y8", "twitter": "None", "instagram": "None", "facebook": "None", "youtube": "None", "website": "None", "summary": "None", "logo": "None", "latitude": 45.55147279445193, "longitude": -73.64302256752633}, "106952922RR0001": {"name": "COLLEGE D'ENSEIGNEMENT GENERAL ET PROFESSIONNEL D'ALMA", "designationCode": "C", "categoryCode": "20", "address": "675 BOUL. AUGER OUEST", "city": "ALMA", "province": "QC", "country": "CA", "postalCode": "G8B2B7", "twitter": "None", "instagram": "None", "facebook": "None", "youtube": "None", "website": "None", "summary": "None", "logo": "None", "latitude": 48.54423504512577, "longitude": -71.65463081428082}, "106952815RR0001": {"name": "COLLEGE D'ENSEIGNEMENT GENERAL ET PROFESSIONNEL DE BOIS-DE-BOULOGNE", "designationCode": "C", "categoryCode": "20", "address": "10555 AV DE BOIS-DE-BOULOGNE", "city": "MONTR\u00c9AL", "province": "QC", "country": "CA", "postalCode": "H4N1L4", "twitter": "None", "instagram": "None", "facebook": "None", "youtube": "None", "website": "None", "summary": "None", "logo": "None", "latitude": 45.53739597703225, "longitude": -73.67658325474666}, "118867720RR0001": {"name": "COLLEGE D'ENSEIGNEMENT GENERAL ET PROFESSIONNEL DE CHICOUTIMI", "designationCode": "C", "categoryCode": "20", "address": "534, RUE JACQUES-CARTIER E", "city": "CHICOUTIMI", "province": "QC", "country": "CA", "postalCode": "G7H1Z6", "twitter": "None", "instagram": "None", "facebook": "None", "youtube": "None", "website": "None", "summary": "None", "logo": "None", "latitude": 48.42537619302888, "longitude": -71.05218586638489}, "106883705RR0001": {"name": "COLLEGE D'ENSEIGNEMENT GENERAL ET PROFESSIONNEL DE DRUMMONDVILLE", "designationCode": "C", "categoryCode": "20", "address": "960 RUE SAINT-GEORGES", "city": "DRUMMONDVILLE", "province": "QC", "country": "CA", "postalCode": "J2C6A2", "twitter": "None", "instagram": "None", "facebook": "None", "youtube": "None", "website": "None", "summary": "None", "logo": "None", "latitude": 45.87415953727415, "longitude": -72.50711751288861}, "106953029RR0001": {"name": "COLLEGE D'ENSEIGNEMENT GENERAL ET PROFESSIONNEL DE L'OUTAOUAIS", "designationCode": "C", "categoryCode": "20", "address": "333 BOUL CITE DES JEUNES", "city": "GATINEAU", "province": "QC", "country": "CA", "postalCode": "J8Y6M4", "twitter": "None", "instagram": "None", "facebook": "None", "youtube": "None", "website": "None", "summary": "None", "logo": "None", "latitude": 45.458615880938716, "longitude": -75.76692605114108}, "106883796RR0001": {"name": "COLLEGE D'ENSEIGNEMENT GENERAL ET PROFESSIONNEL DE LA POCATIERE", "designationCode": "C", "categoryCode": "20", "address": "140 4 IEME AVENUE", "city": "LA POCATIERE", "province": "QC", "country": "CA", "postalCode": "G0R1Z0", "twitter": "None", "instagram": "None", "facebook": "None", "youtube": "None", "website": "None", "summary": "None", "logo": "None", "latitude": 47.36021100000005, "longitude": -70.05913099999994}, "106884117RR0001": {"name": "COLLEGE D'ENSEIGNEMENT GENERAL ET PROFESSIONNEL DE LEVIS-LAUZON", "designationCode": "C", "categoryCode": "20", "address": "205 MGR BOURGET", "city": "LAUZON", "province": "QC", "country": "CA", "postalCode": "G6V6Z9", "twitter": "None", "instagram": "None", "facebook": "None", "youtube": "None", "website": "None", "summary": "None", "logo": "None", "latitude": 46.81692322621033, "longitude": -71.15371747556131}, "106883804RR0001": {"name": "COLLEGE D'ENSEIGNEMENT GENERAL ET PROFESSIONNEL DE LIMOILOU", "designationCode": "C", "categoryCode": "20", "address": "1300, 8E AVENUE", "city": "QUEBEC", "province": "QC", "country": "CA", "postalCode": "G1J5L5", "twitter": "None", "instagram": "None", "facebook": "None", "youtube": "None", "website": "None", "summary": "None", "logo": "None", "latitude": 46.829775026660414, "longitude": -71.22772646831928}, "106953037RR0001": {"name": "COLLEGE D'ENSEIGNEMENT GENERAL ET PROFESSIONNEL DE MAISONNEUVE", "designationCode": "C", "categoryCode": "20", "address": "3800 RUE SHERBROOKE EST", "city": "MONTREAL", "province": "QC", "country": "CA", "postalCode": "H1X2A2", "twitter": "None", "instagram": "None", "facebook": "None", "youtube": "None", "website": "None", "summary": "None", "logo": "None", "latitude": 45.55086089425243, "longitude": -73.5549014015527}, "106884141RR0001": {"name": "COLLEGE D'ENSEIGNEMENT GENERAL ET PROFESSIONNEL DE RIVIERE-DU-LOUP", "designationCode": "C", "categoryCode": "20", "address": "80 RUE FRONTENAC", "city": "RIVIERE-DU-LOUP", "province": "QC", "country": "CA", "postalCode": "G5R1R1", "twitter": "None", "instagram": "None", "facebook": "None", "youtube": "None", "website": "None", "summary": "None", "logo": "None", "latitude": 47.82714655176295, "longitude": -69.53773842576025}, "106953128RR0001": {"name": "COLLEGE D'ENSEIGNEMENT GENERAL ET PROFESSIONNEL DE SAINT-JEROME", "designationCode": "C", "categoryCode": "20", "address": "455, RUE FOURNIER", "city": "ST-JEROME", "province": "QC", "country": "CA", "postalCode": "J7Z4V2", "twitter": "None", "instagram": "None", "facebook": "None", "youtube": "None", "website": "None", "summary": "None", "logo": "None", "latitude": 45.77986404360637, "longitude": -74.00101809399733}, "118867761RR0001": {"name": "COLLEGE D'ENSEIGNEMENT GENERAL ET PROFESSIONNEL DE SAINT-LAURENT", "designationCode": "C", "categoryCode": "20", "address": "625 AVENUE SAINTE-CROIX", "city": "SAINT-LAURENT", "province": "QC", "country": "CA", "postalCode": "H4L3X7", "twitter": "None", "instagram": "None", "facebook": "None", "youtube": "None", "website": "None", "summary": "None", "logo": "None", "latitude": 45.512593990569705, "longitude": -73.67392814798066}, "106883887RR0001": {"name": "COLLEGE D'ENSEIGNEMENT GENERAL ET PROFESSIONNEL DE SEPT-ILES", "designationCode": "C", "categoryCode": "20", "address": "175 RUE DE LA VERENDRYE", "city": "SEPT-ILES", "province": "QC", "country": "CA", "postalCode": "G4R5B7", "twitter": "None", "instagram": "None", "facebook": "None", "youtube": "None", "website": "None", "summary": "None", "logo": "None", "latitude": 50.2261766208686, "longitude": -66.35283598037758}, "106953151RR0001": {"name": "COLLEGE D'ENSEIGNEMENT GENERAL ET PROFESSIONNEL DE SHERBROOKE", "designationCode": "C", "categoryCode": "20", "address": "475 RUE DU CEGEP", "city": "SHERBROOKE", "province": "QC", "country": "CA", "postalCode": "J1E4K1", "twitter": "None", "instagram": "None", "facebook": "None", "youtube": "None", "website": "None", "summary": "None", "logo": "None", "latitude": 45.41149537298773, "longitude": -71.88561362551174}, "106953078RR0001": {"name": "COLLEGE D'ENSEIGNEMENT GENERAL ET PROFESSIONNEL DE SOREL-TRACY", "designationCode": "C", "categoryCode": "20", "address": "3000 BOUL DE TRACY", "city": "SOREL-TRACY", "province": "QC", "country": "CA", "postalCode": "J3R5B9", "twitter": "None", "instagram": "None", "facebook": "None", "youtube": "None", "website": "None", "summary": "None", "logo": "None", "latitude": 46.01554949783656, "longitude": -73.14889028559065}, "106883978RR0001": {"name": "COLLEGE D'ENSEIGNEMENT GENERAL ET PROFESSIONNEL DE ST-HYACINTHE", "designationCode": "C", "categoryCode": "20", "address": "3000 AV BOULLE", "city": "SAINT-HYACINTHE", "province": "QC", "country": "CA", "postalCode": "J2S1H9", "twitter": "None", "instagram": "None", "facebook": "None", "youtube": "None", "website": "None", "summary": "None", "logo": "None", "latitude": 45.617154032228996, "longitude": -72.97457397616688}, "106883960RR0001": {"name": "COLLEGE D'ENSEIGNEMENT GENERAL ET PROFESSIONNEL DE STE-FOY", "designationCode": "C", "categoryCode": "20", "address": "2410 CHEMIN STE-FOY", "city": "STE-FOY", "province": "QC", "country": "CA", "postalCode": "G1V1T3", "twitter": "None", "instagram": "None", "facebook": "None", "youtube": "None", "website": "None", "summary": "None", "logo": "None", "latitude": 46.78537358869306, "longitude": -71.28405324182565}, "106884190RR0001": {"name": "COLLEGE D'ENSEIGNEMENT GENERAL ET PROFESSIONNEL DE TROIS-RIVIERES", "designationCode": "C", "categoryCode": "20", "address": "3500 DE COURVAL CP 97", "city": "TROIS-RIVIERES", "province": "QC", "country": "CA", "postalCode": "G9A5E6", "twitter": "None", "instagram": "None", "facebook": "None", "youtube": "None", "website": "None", "summary": "None", "logo": "None", "latitude": 46.35491085431915, "longitude": -72.57354779343919}, "106884026RR0001": {"name": "COLLEGE D'ENSEIGNEMENT GENERAL ET PROFESSIONNEL DE VICTORIALILLE", "designationCode": "C", "categoryCode": "20", "address": "475 RUE NOTRE-DAME EST", "city": "VICTORIAVILLE", "province": "QC", "country": "CA", "postalCode": "G6P4B3", "twitter": "None", "instagram": "None", "facebook": "None", "youtube": "None", "website": "None", "summary": "None", "logo": "None", "latitude": 46.06021858099208, "longitude": -71.94470306723088}, "106884059RR0001": {"name": "COLLEGE D'ENSEIGNEMENT GENERAL ET PROFESSIONNEL DU VIEUX MONTREAL", "designationCode": "C", "categoryCode": "20", "address": "255 RUE ONTARIO EST", "city": "MONTREAL", "province": "QC", "country": "CA", "postalCode": "H2X1X6", "twitter": "None", "instagram": "None", "facebook": "None", "youtube": "None", "website": "None", "summary": "None", "logo": "None", "latitude": 45.51430967167743, "longitude": -73.56577688934674}, "106884075RR0001": {"name": "COLLEGE D'ENSEIGNEMENT GENERAL ET PROFESSIONNEL FRANCOIS-XAVIER GARNEAU", "designationCode": "C", "categoryCode": "20", "address": "1660 BOUL DE L'ENTENTE", "city": "QUEBEC", "province": "QC", "country": "CA", "postalCode": "G1S4S3", "twitter": "None", "instagram": "None", "facebook": "None", "youtube": "None", "website": "None", "summary": "None", "logo": "None", "latitude": 46.792968768652855, "longitude": -71.26234561838434}, "118867779RR0001": {"name": "COLLEGE D'ENSEIGNEMENT GENERAL ET PROFESSIONNEL MONTMORENCY", "designationCode": "C", "categoryCode": "20", "address": "475 BOULEVARD DE L'AVENIR", "city": "LAVAL", "province": "QC", "country": "CA", "postalCode": "H7N5H9", "twitter": "None", "instagram": "None", "facebook": "None", "youtube": "None", "website": "None", "summary": "None", "logo": "None", "latitude": 45.55908715813502, "longitude": -73.71985652015795}, "106884158RR0001": {"name": "COLLEGE D'ENSEIGNEMENT GENERAL ET PROFESSIONNEL ST-JEAN-SUR-RICHELIEU", "designationCode": "C", "categoryCode": "20", "address": "30 BOUL. DU SEMINAIRE", "city": "ST-JEAN-SUR-RICHELIEU", "province": "QC", "country": "CA", "postalCode": "J3B7B1", "twitter": "None", "instagram": "None", "facebook": "None", "youtube": "None", "website": "None", "summary": "None", "logo": "None", "latitude": 45.297200086074675, "longitude": -73.26675905139663}, "125752147RR0001": {"name": "COLLEGE DAWSON", "designationCode": "C", "categoryCode": "20", "address": "3040 SHERBROOKE OUEST         ROOM 487", "city": "WESTMOUNT", "province": "QC", "country": "CA", "postalCode": "H3Z1A4", "twitter": "None", "instagram": "None", "facebook": "None", "youtube": "None", "website": "None", "summary": "None", "logo": "None", "latitude": 45.49085410514201, "longitude": -73.58838131020318}, "118867613RR0001": {"name": "COLLEGE DE MONT-ROYAL", "designationCode": "C", "categoryCode": "20", "address": "2165 RUE BALDWIN", "city": "MONTREAL", "province": "QC", "country": "CA", "postalCode": "H1L5A7", "twitter": "None", "instagram": "None", "facebook": "None", "youtube": "None", "website": "None", "summary": "None", "logo": "None", "latitude": 45.598873880950876, "longitude": -73.51609537287214}, "106953235RR0001": {"name": "COLLEGE DINA BELANGER", "designationCode": "C", "categoryCode": "20", "address": "1 ST GEORGES                  CP 897", "city": "ST MICHEL", "province": "QC", "country": "CA", "postalCode": "G0R3S0", "twitter": "None", "instagram": "None", "facebook": "None", "youtube": "None", "website": "None", "summary": "None", "logo": "None", "latitude": 46.8766470369322, "longitude": -70.90612915892414}, "106953250RR0001": {"name": "COLLEGE DOMINICAIN DE PHILOSOPHIE ET DE THEOLOGIE", "designationCode": "C", "categoryCode": "20", "address": "96 AVE EMPRESS", "city": "OTTAWA", "province": "ON", "country": "CA", "postalCode": "K1R7G3", "twitter": "None", "instagram": "None", "facebook": "None", "youtube": "None", "website": "None", "summary": "None", "logo": "None", "latitude": 45.411189077702204, "longitude": -75.70929188902963}, "106953268RR0001": {"name": "COLLEGE DRIVE COMMUNITY CHURCH", "designationCode": "C", "categoryCode": "34", "address": "2710 COLLEGE DR", "city": "LETHBRIDGE", "province": "AB", "country": "CA", "postalCode": "T1K6K5", "twitter": "None", "instagram": "None", "facebook": "None", "youtube": "None", "website": "None", "summary": "None", "logo": "None", "latitude": 49.6659065029142, "longitude": -112.80883647244463}, "106953284RR0001": {"name": "COLLEGE DU SACRE-COEUR, COOPERATIVE DE SOLIDARITE", "designationCode": "C", "categoryCode": "20", "address": "155 RUE BELV\u00c9D\u00c8RE N", "city": "SHERBROOKE", "province": "QC", "country": "CA", "postalCode": "J1H4A7", "twitter": "None", "instagram": "None", "facebook": "None", "youtube": "None", "website": "None", "summary": "None", "logo": "None", "latitude": 45.40013224756196, "longitude": -71.89782722012214}, "139702211RR0001": {"name": "COLLEGE DUROCHER SAINT-LAMBERT", "designationCode": "C", "categoryCode": "20", "address": "857 PROM. RIVERSIDE", "city": "SAINT-LAMBERT", "province": "QC", "country": "CA", "postalCode": "J4P1C2", "twitter": "None", "instagram": "None", "facebook": "None", "youtube": "None", "website": "None", "summary": "None", "logo": "None", "latitude": 45.51552710242935, "longitude": -73.5183482322412}, "138837521RR0001": {"name": "COLLEGE EDUCACENTRE COLLEGE", "designationCode": "C", "categoryCode": "21", "address": "896 8TH AVE W", "city": "VANCOUVER", "province": "BC", "country": "CA", "postalCode": "V5Z1E2", "twitter": "None", "instagram": "None", "facebook": "None", "youtube": "None", "website": "None", "summary": "None", "logo": "None", "latitude": 49.26418248375186, "longitude": -123.12404484454056}, "118969518RR0001": {"name": "COLLEGE ESTHER-BLONDIN", "designationCode": "C", "categoryCode": "20", "address": "101 RUE STE-ANNE", "city": "ST-JACQUES", "province": "QC", "country": "CA", "postalCode": "J0K2R0", "twitter": "None", "instagram": "None", "facebook": "None", "youtube": "None", "website": "None", "summary": "None", "logo": "None", "latitude": 45.954887569931934, "longitude": -73.56450225718811}, "107613622RR0001": {"name": "COLLEGE FRANCOIS-DE-LAVAL", "designationCode": "C", "categoryCode": "20", "address": "6,RUE DE LA VIEILLE UNIVERSIT\u00c9", "city": "QUEBEC", "province": "QC", "country": "CA", "postalCode": "G1R5X8", "twitter": "None", "instagram": "None", "facebook": "None", "youtube": "None", "website": "None", "summary": "None", "logo": "None", "latitude": 46.81521938718329, "longitude": -71.20631801610017}, "106953326RR0001": {"name": "COLLEGE FRANCOIS-DELAPLACE", "designationCode": "C", "categoryCode": "20", "address": "365 RUE COMPTON E", "city": "WATERVILLE", "province": "QC", "country": "CA", "postalCode": "J0B3H0", "twitter": "None", "instagram": "None", "facebook": "None", "youtube": "None", "website": "None", "summary": "None", "logo": "None", "latitude": 45.27613539519535, "longitude": -71.88624558296877}, "106953342RR0001": {"name": "COLLEGE HEIGHTS BAPTIST CHURCH", "designationCode": "C", "categoryCode": "31", "address": "5401 MORIARTY CRESCENT", "city": "PRINCE GEORGE", "province": "BC", "country": "CA", "postalCode": "V2N4C5", "twitter": "None", "instagram": "None", "facebook": "None", "youtube": "None", "website": "None", "summary": "None", "logo": "None", "latitude": 53.86850012770478, "longitude": -122.77332803087266}, "106693047RR0035": {"name": "COLLEGE HEIGHTS CHRISTIAN SCHOOL", "designationCode": "C", "categoryCode": "41", "address": "5201 COLLEGE AVE.", "city": "LACOMBE", "province": "AB", "country": "CA", "postalCode": "T4L1Z6", "twitter": "None", "instagram": "None", "facebook": "None", "youtube": "None", "website": "None", "summary": "None", "logo": "None", "latitude": 52.4890312081193, "longitude": -113.73417676589567}, "119288918RR1433": {"name": "COLLEGE HEIGHTS CONGREGATION OF JEHOVAH'S WITNESSES, MISSION, BRITISH COLUMBIA", "designationCode": "C", "categoryCode": "61", "address": "8145 DOROTHEA COURT", "city": "MISSION", "province": "BC", "country": "CA", "postalCode": "V2V6Z9", "twitter": "None", "instagram": "None", "facebook": "None", "youtube": "None", "website": "None", "summary": "None", "logo": "None", "latitude": 49.15042325856947, "longitude": -122.29154285948015}, "106693047RR0019": {"name": "COLLEGE HEIGHTS SEVENTH-DAY ADVENTISTS CHURCH", "designationCode": "C", "categoryCode": "41", "address": "5816 HIGHWAY, 2A", "city": "LACOMBE", "province": "AB", "country": "CA", "postalCode": "T4L2G5", "twitter": "None", "instagram": "None", "facebook": "None", "youtube": "None", "website": "None", "summary": "None", "logo": "None", "latitude": 52.474063600197404, "longitude": -113.71692568401835}, "124658634RR0001": {"name": "COLLEGE HERITAGE DE CHATEAUGUAY INC", "designationCode": "C", "categoryCode": "20", "address": "270 BOUL. D'YOUVILLE          C.P.80036", "city": "CHATEAUGUAY", "province": "QC", "country": "CA", "postalCode": "J6J5X2", "twitter": "None", "instagram": "None", "facebook": "None", "youtube": "None", "website": "None", "summary": "None", "logo": "None", "latitude": 45.37399454954124, "longitude": -73.75410447466726}, "106953367RR0001": {"name": "COLLEGE HILL UNITED CHURCH", "designationCode": "C", "categoryCode": "44", "address": "16 NORTH PARK STREET", "city": "BELLEVILLE", "province": "ON", "country": "CA", "postalCode": "K8P2X9", "twitter": "None", "instagram": "None", "facebook": "None", "youtube": "None", "website": "None", "summary": "None", "logo": "None", "latitude": 44.17824851511922, "longitude": -77.38904523192313}, "143653509RR0001": {"name": "COLLEGE JACQUES-PREVERT", "designationCode": "C", "categoryCode": "20", "address": "12349, RUE DE SERRES", "city": "MONTREAL", "province": "QC", "country": "CA", "postalCode": "H4J2H1", "twitter": "None", "instagram": "None", "facebook": "None", "youtube": "None", "website": "None", "summary": "None", "logo": "None", "latitude": 45.533637386635036, "longitude": -73.71966543031922}, "107279937RR0001": {"name": "COLLEGE JEAN-DE-LA-MENNAIS (LA PRAIRIE)", "designationCode": "C", "categoryCode": "20", "address": "870 CH DE SAINT-JEAN", "city": "LA PRAIRIE", "province": "QC", "country": "CA", "postalCode": "J5R2L5", "twitter": "None", "instagram": "None", "facebook": "None", "youtube": "None", "website": "None", "summary": "None", "logo": "None", "latitude": 45.4136204272915, "longitude": -73.48291245716955}, "118867860RR0001": {"name": "COLLEGE JEAN-EUDES", "designationCode": "C", "categoryCode": "20", "address": "3535 BOUL ROSEMONT", "city": "MONTREAL", "province": "QC", "country": "CA", "postalCode": "H1X1K7", "twitter": "None", "instagram": "None", "facebook": "None", "youtube": "None", "website": "None", "summary": "None", "logo": "None", "latitude": 45.55521949099763, "longitude": -73.57872494356252}, "106953441RR0001": {"name": "COLLEGE LAVAL", "designationCode": "C", "categoryCode": "20", "address": "1275 AVENUE DU COLL\u00c8GE", "city": "LAVAL", "province": "QC", "country": "CA", "postalCode": "H7C1W8", "twitter": "None", "instagram": "None", "facebook": "None", "youtube": "None", "website": "None", "summary": "None", "logo": "None", "latitude": 45.614574398147795, "longitude": -73.64945031564508}, "118892603RR0001": {"name": "COLLEGE LETENDRE", "designationCode": "C", "categoryCode": "20", "address": "1000 BOUL. DE L'AVENIR", "city": "LAVAL", "province": "QC", "country": "CA", "postalCode": "H7N6J6", "twitter": "None", "instagram": "None", "facebook": "None", "youtube": "None", "website": "None", "summary": "None", "logo": "None", "latitude": 45.56044156867116, "longitude": -73.72152678550374}, "106953516RR0001": {"name": "COLLEGE MARIE DE FRANCE", "designationCode": "C", "categoryCode": "20", "address": "4635, CHEMIN REINE MARIE", "city": "MONTREAL", "province": "QC", "country": "CA", "postalCode": "H3W1W3", "twitter": "None", "instagram": "None", "facebook": "None", "youtube": "None", "website": "None", "summary": "None", "logo": "None", "latitude": 45.489273000000054, "longitude": -73.62429649999993}, "106953607RR0001": {"name": "COLLEGE MONT NOTRE-DAME DE SHERBROOKE INC.", "designationCode": "C", "categoryCode": "20", "address": "114 CATH\u00c9DRALE", "city": "SHERBROOKE", "province": "QC", "country": "CA", "postalCode": "J1H4M1", "twitter": "None", "instagram": "None", "facebook": "None", "youtube": "None", "website": "None", "summary": "None", "logo": "None", "latitude": 45.4012619278664, "longitude": -71.89280493525357}, "118867993RR0001": {"name": "COLLEGE NOTRE-DAME-DE-L'ASSOMPTION", "designationCode": "C", "categoryCode": "20", "address": "225 RUE ST-JEAN-BAPTISTE", "city": "NICOLET", "province": "QC", "country": "CA", "postalCode": "J3T0A2", "twitter": "None", "instagram": "None", "facebook": "None", "youtube": "None", "website": "None", "summary": "None", "logo": "None", "latitude": 46.22824998782363, "longitude": -72.6223705195053}, "107508954RR0001": {"name": "COLLEGE NOTRE-DAME-DE-LOURDES", "designationCode": "C", "categoryCode": "20", "address": "845 TIFFIN", "city": "LONGUEUIL", "province": "QC", "country": "CA", "postalCode": "J4P3G5", "twitter": "None", "instagram": "None", "facebook": "None", "youtube": "None", "website": "None", "summary": "None", "logo": "None", "latitude": 45.51490174274319, "longitude": -73.51254388868384}, "106954027RR0001": {"name": "COLLEGE O'SULLIVAN DE MONTREAL INC.", "designationCode": "B", "categoryCode": "20", "address": "1191 RUE DE LA MONTAGNE", "city": "MONTREAL", "province": "QC", "country": "CA", "postalCode": "H3G1Z2", "twitter": "None", "instagram": "None", "facebook": "None", "youtube": "None", "website": "None", "summary": "None", "logo": "None", "latitude": 45.49723913379295, "longitude": -73.57357913806347}, "107805228RR0001": {"name": "COLLEGE O'SULLIVAN DE QUEBEC INC.", "designationCode": "C", "categoryCode": "20", "address": "840 RUE SAINT-JEAN", "city": "QUEBEC", "province": "QC", "country": "CA", "postalCode": "G1R1R3", "twitter": "None", "instagram": "None", "facebook": "None", "youtube": "None", "website": "None", "summary": "None", "logo": "None", "latitude": 46.81146535971484, "longitude": -71.21694410756524}, "118868009RR0001": {"name": "COLLEGE OF CHURCHES OF CHRIST IN CANADA", "designationCode": "C", "categoryCode": "21", "address": "45 MOFFAT CRES", "city": "AURORA", "province": "ON", "country": "CA", "postalCode": "L4G4Z9", "twitter": "None", "instagram": "None", "facebook": "None", "youtube": "None", "website": "None", "summary": "None", "logo": "None", "latitude": 44.00423979127481, "longitude": -79.48803606621831}, "128923307RR0001": {"name": "COLLEGE OF EMMANUEL AND ST CHAD", "designationCode": "C", "categoryCode": "20", "address": "114 SEMINARY CRES", "city": "SASKATOON", "province": "SK", "country": "CA", "postalCode": "S7N0X3", "twitter": "None", "instagram": "None", "facebook": "None", "youtube": "None", "website": "None", "summary": "None", "logo": "None", "latitude": 52.13737003188567, "longitude": -106.63470439257208}, "118868041RR0001": {"name": "COLLEGE OF NEW CALEDONIA", "designationCode": "C", "categoryCode": "20", "address": "3330-22ND AVE", "city": "PRINCE GEORGE", "province": "BC", "country": "CA", "postalCode": "V2N1P8", "twitter": "None", "instagram": "None", "facebook": "None", "youtube": "None", "website": "None", "summary": "None", "logo": "None", "latitude": 53.90362948600597, "longitude": -122.78364355536962}, "882053721RR0001": {"name": "COLLEGE OF PRAYER CANADA INC.", "designationCode": "C", "categoryCode": "20", "address": "38 HOESCHEN CRES.", "city": "SASKATOON", "province": "SK", "country": "CA", "postalCode": "S7J2T1", "twitter": "None", "instagram": "None", "facebook": "None", "youtube": "None", "website": "None", "summary": "None", "logo": "None", "latitude": 52.10420876686478, "longitude": -106.62434929055365}, "107273989RR0001": {"name": "COLLEGE OF THE ROCKIES", "designationCode": "C", "categoryCode": "20", "address": "2700 COLLEGE WAY              PO BOX 8500", "city": "CRANBROOK", "province": "BC", "country": "CA", "postalCode": "V1C5L7", "twitter": "None", "instagram": "None", "facebook": "None", "youtube": "None", "website": "None", "summary": "None", "logo": "None", "latitude": 49.51648598223141, "longitude": -115.74429151975558}, "119288918RR1333": {"name": "COLLEGE PARK CONGREGATION OF JEHOVAH'S WITNESSES, GRANDE PRAIRIE, ALBERTA", "designationCode": "C", "categoryCode": "61", "address": "721046 RANGE ROAD 64", "city": "COUNTY OF GRANDE PRAIRIE NO. 1", "province": "AB", "country": "CA", "postalCode": "T8X4K1", "twitter": "None", "instagram": "None", "facebook": "None", "youtube": "None", "website": "None", "summary": "None", "logo": "None", "latitude": 55.24053000000005, "longitude": -118.87212049999994}, "118868082RR0001": {"name": "COLLEGE PARK COVENANT CHURCH OF SASKATOON", "designationCode": "C", "categoryCode": "39", "address": "909 ACADIA DRIVE", "city": "SASKATOON", "province": "SK", "country": "CA", "postalCode": "S7H5N4", "twitter": "None", "instagram": "None", "facebook": "None", "youtube": "None", "website": "None", "summary": "None", "logo": "None", "latitude": 52.11586674271453, "longitude": -106.59887732272533}, "129515466RR0001": {"name": "COLLEGE PARK ELEMENTARY SCHOOL", "designationCode": "C", "categoryCode": "20", "address": "220 TOWLINE ROAD NORTH", "city": "OSHAWA", "province": "ON", "country": "CA", "postalCode": "L1K2J6", "twitter": "None", "instagram": "None", "facebook": "None", "youtube": "None", "website": "None", "summary": "None", "logo": "None", "latitude": 43.91261288412344, "longitude": -78.81611240504424}, "107797383RR0093": {"name": "COLLEGE PARK SEVENTH-DAY ADVENTIST CHURCH", "designationCode": "C", "categoryCode": "41", "address": "1164 KING STREET EAST", "city": "OSHAWA", "province": "ON", "country": "CA", "postalCode": "L1H1H9", "twitter": "None", "instagram": "None", "facebook": "None", "youtube": "None", "website": "None", "summary": "None", "logo": "None", "latitude": 43.9058404177675, "longitude": -78.82093624089684}}