{"118886407RR0001": {"name": "DOAKTOWN UNITED BAPTIST CHURCH", "designationCode": "C", "categoryCode": "31", "address": "406 MAIN ST", "city": "DOAKTOWN", "province": "NB", "country": "CA", "postalCode": "E9C1E7", "twitter": "None", "instagram": "None", "facebook": "None", "youtube": "None", "website": "None", "summary": "None", "logo": "None", "latitude": 46.55593300837815, "longitude": -66.12780329828894}, "140337437RR0001": {"name": "DOANE HOUSE HOSPICE INC.", "designationCode": "C", "categoryCode": "01", "address": "17100 YONGE ST", "city": "NEWMARKET", "province": "ON", "country": "CA", "postalCode": "L3Y8V3", "twitter": "None", "instagram": "None", "facebook": "None", "youtube": "None", "website": "None", "summary": "None", "logo": "None", "latitude": 44.04545866212899, "longitude": -79.47819199043067}, "888204245RR0001": {"name": "DOCTOR JOHN WATERS COMMUNITY HEALTH CENTRE", "designationCode": "C", "categoryCode": "11", "address": "30 WATER STREET               P.O. BOX 188", "city": "PORT HOOD", "province": "NS", "country": "CA", "postalCode": "B0E2W0", "twitter": "None", "instagram": "None", "facebook": "None", "youtube": "None", "website": "None", "summary": "None", "logo": "None", "latitude": 46.01986383787441, "longitude": -61.53797175802087}, "866627128RR0001": {"name": "DOCTORS LIONS CHARITABLE TRUST", "designationCode": "A", "categoryCode": "03", "address": "1606 AVONMORE SQUARE", "city": "PICKERING", "province": "ON", "country": "CA", "postalCode": "L1V7H5", "twitter": "None", "instagram": "None", "facebook": "None", "youtube": "None", "website": "None", "summary": "None", "logo": "None", "latitude": 43.84159800000006, "longitude": -79.07922349999993}, "135275857RR0001": {"name": "DOCTORS WITHOUT BORDERS CANADA MEDECINS SANS FRONTIERES CANADA", "designationCode": "C", "categoryCode": "11", "address": "551 ADELAIDE ST W", "city": "TORONTO", "province": "ON", "country": "CA", "postalCode": "M5V0N8", "twitter": "None", "instagram": "None", "facebook": "None", "youtube": "None", "website": "None", "summary": "None", "logo": "None", "latitude": 43.64523502551069, "longitude": -79.40263714408051}, "131739245RR0001": {"name": "DOCUMENTARY ORGANIZATION OF CANADA/DOCUMENTARISTES DU CANADA", "designationCode": "C", "categoryCode": "81", "address": "126-215 SPADINA AVE", "city": "TORONTO", "province": "ON", "country": "CA", "postalCode": "M5T2C7", "twitter": "None", "instagram": "None", "facebook": "None", "youtube": "None", "website": "None", "summary": "None", "logo": "None", "latitude": 43.65063316348313, "longitude": -79.39697013165816}, "893341560RR0001": {"name": "DODSLAND & DISTRICT MUSEUM SOCIETY", "designationCode": "C", "categoryCode": "50", "address": "BOX 171", "city": "DODSLAND", "province": "SK", "country": "CA", "postalCode": "S0L0V0", "twitter": "None", "instagram": "None", "facebook": "None", "youtube": "None", "website": "None", "summary": "None", "logo": "None", "latitude": 51.800110000000075, "longitude": -108.81814999999995}, "118886514RR0001": {"name": "DODSLAND UNITED CHURCH", "designationCode": "C", "categoryCode": "44", "address": "BOX 340", "city": "DODSLAND", "province": "SK", "country": "CA", "postalCode": "S0L0V0", "twitter": "None", "instagram": "None", "facebook": "None", "youtube": "None", "website": "None", "summary": "None", "logo": "None", "latitude": 51.800110000000075, "longitude": -108.81814999999995}, "890279466RR0001": {"name": "DOE RIVER RECREATION COMMISSION", "designationCode": "C", "categoryCode": "56", "address": "RR 2 SITE 6 BOX 16", "city": "DAWSON", "province": "BC", "country": "CA", "postalCode": "V1G4E8", "twitter": "None", "instagram": "None", "facebook": "None", "youtube": "None", "website": "None", "summary": "None", "logo": "None", "latitude": 55.76171100000006, "longitude": -120.23704249999994}, "118886530RR0001": {"name": "DOFASCO EMPLOYEE DONATIONS FUND DOFASCO INC.", "designationCode": "C", "categoryCode": "75", "address": "BOX 2460", "city": "HAMILTON", "province": "ON", "country": "CA", "postalCode": "L8N3J5", "twitter": "None", "instagram": "None", "facebook": "None", "youtube": "None", "website": "None", "summary": "None", "logo": "None", "latitude": 43.261962000000054, "longitude": -79.88800399999994}, "118837046RR0001": {"name": "DOG GUIDES CANADA/CHIENS-GUIDES CANADA", "designationCode": "C", "categoryCode": "63", "address": "152 WILSON STREET", "city": "OAKVILLE", "province": "ON", "country": "CA", "postalCode": "L6K0G6", "twitter": "None", "instagram": "None", "facebook": "None", "youtube": "None", "website": "None", "summary": "None", "logo": "None", "latitude": 43.44171437301638, "longitude": -79.67578425021635}, "888677234RR0001": {"name": "DOGS WITH WINGS ASSISTANCE DOG SOCIETY", "designationCode": "C", "categoryCode": "59", "address": "11343 174 STREET NW", "city": "EDMONTON", "province": "AB", "country": "CA", "postalCode": "T5S0B7", "twitter": "None", "instagram": "None", "facebook": "None", "youtube": "None", "website": "None", "summary": "None", "logo": "None", "latitude": 53.56168196863641, "longitude": -113.62136425728642}, "125320382RR0001": {"name": "DOGWOOD HERITAGE SOCIETY OF B.C.", "designationCode": "C", "categoryCode": "52", "address": "1459 BARCLAY ST", "city": "VANCOUVER", "province": "BC", "country": "CA", "postalCode": "V6G1J6", "twitter": "None", "instagram": "None", "facebook": "None", "youtube": "None", "website": "None", "summary": "None", "logo": "None", "latitude": 49.28714843358832, "longitude": -123.13295523921751}, "139645014RR0001": {"name": "DOGWOOD INDEPENDENT SCHOOL SOCIETY", "designationCode": "C", "categoryCode": "20", "address": "22282 47TH AVE", "city": "LANGLEY", "province": "BC", "country": "CA", "postalCode": "V2Z1M5", "twitter": "None", "instagram": "None", "facebook": "None", "youtube": "None", "website": "None", "summary": "None", "logo": "None", "latitude": 49.087457498182324, "longitude": -122.60610998638133}, "888952504RR0001": {"name": "DOGWOOD PAVILION SENIORS SOCIETY", "designationCode": "C", "categoryCode": "56", "address": "1655 WINSLOW AVE", "city": "COQUITLAM", "province": "BC", "country": "CA", "postalCode": "V3J0E7", "twitter": "None", "instagram": "None", "facebook": "None", "youtube": "None", "website": "None", "summary": "None", "logo": "None", "latitude": 49.25394651469926, "longitude": -122.84663151469925}, "123311482RR0001": {"name": "DOMAINE DE L'AMITI\u00c9 INC.", "designationCode": "C", "categoryCode": "56", "address": "6939, BOUL. TALBOT", "city": "LATERRI\u00c8RE", "province": "QC", "country": "CA", "postalCode": "G7N1W2", "twitter": "None", "instagram": "None", "facebook": "None", "youtube": "None", "website": "None", "summary": "None", "logo": "None", "latitude": 48.29476992741618, "longitude": -71.15692472961184}, "142281963RR0001": {"name": "DOMAINE DE L'HIRONDELLE", "designationCode": "C", "categoryCode": "01", "address": "204 RUE PRINCIPALE            C.P.238", "city": "SAINTE-GERMAINE DE BOULE", "province": "QC", "country": "CA", "postalCode": "J0Z1M0", "twitter": "None", "instagram": "None", "facebook": "None", "youtube": "None", "website": "None", "summary": "None", "logo": "None", "latitude": 48.60248952712177, "longitude": -79.11398330682671}, "861463677RR0001": {"name": "DOMAINE DES PIVOINES", "designationCode": "C", "categoryCode": "09", "address": "6000 RUE AD\u00c9LARD-LAPOINTE", "city": "SAINTE-H\u00c9L\u00c8NE", "province": "QC", "country": "CA", "postalCode": "G0L3J0", "twitter": "None", "instagram": "None", "facebook": "None", "youtube": "None", "website": "None", "summary": "None", "logo": "None", "latitude": 47.590664757129005, "longitude": -69.73272470287826}, "124801374RR0001": {"name": "DOMAINE DES PRES D'OR", "designationCode": "C", "categoryCode": "56", "address": "967 RTE 309                   RR 1", "city": "LAC-DES-\u00ceLES", "province": "QC", "country": "CA", "postalCode": "J0W1J0", "twitter": "None", "instagram": "None", "facebook": "None", "youtube": "None", "website": "None", "summary": "None", "logo": "None", "latitude": 46.41348333424561, "longitude": -75.5075778014039}, "881384614RR0002": {"name": "DOMAINE ENFANTASTIQUE", "designationCode": "C", "categoryCode": "09", "address": "3575 DE LA SAVANE", "city": "SAINTE-AD\u00c8LE", "province": "QC", "country": "CA", "postalCode": "J8B2H4", "twitter": "None", "instagram": "None", "facebook": "None", "youtube": "None", "website": "None", "summary": "None", "logo": "None", "latitude": 45.973459621732175, "longitude": -74.17071228749523}, "893129296RR0001": {"name": "DOMAINE PERCE-NEIGE", "designationCode": "C", "categoryCode": "57", "address": "142, CHEMIN MOULTON HILL", "city": "SHERBROOKE", "province": "QC", "country": "CA", "postalCode": "J1M0A7", "twitter": "None", "instagram": "None", "facebook": "None", "youtube": "None", "website": "None", "summary": "None", "logo": "None", "latitude": 45.3762704842752, "longitude": -71.83957952308332}, "118886605RR0001": {"name": "DOMAINE PORTE-A-JOIE INC.", "designationCode": "C", "categoryCode": "01", "address": "515 RTE DU FLEUVE             C P 72", "city": "NOTRE-DAME-DU-PORTAGE", "province": "QC", "country": "CA", "postalCode": "G0L1Y0", "twitter": "None", "instagram": "None", "facebook": "None", "youtube": "None", "website": "None", "summary": "None", "logo": "None", "latitude": 47.76959002138029, "longitude": -69.60839593132883}, "889674370RR0001": {"name": "DOME PORCUPINE TRANSITIONAL LIVING CENTRE", "designationCode": "C", "categoryCode": "09", "address": "200 BRUCE AVE WEST", "city": "SOUTH PORCUPINE", "province": "ON", "country": "CA", "postalCode": "P0N1H0", "twitter": "None", "instagram": "None", "facebook": "None", "youtube": "None", "website": "None", "summary": "None", "logo": "None", "latitude": 48.47793997301706, "longitude": -81.22002182298998}, "842386146RR0001": {"name": "DOMENIC MOBILIO FOUNDATION", "designationCode": "B", "categoryCode": "23", "address": "2560 GEORGIA ST E", "city": "VANCOUVER", "province": "BC", "country": "CA", "postalCode": "V5K2J7", "twitter": "None", "instagram": "None", "facebook": "None", "youtube": "None", "website": "None", "summary": "None", "logo": "None", "latitude": 49.27831750288554, "longitude": -123.05307438634658}, "108219767RR0001": {"name": "DOMESTIC ABUSE SERVICES OXFORD", "designationCode": "C", "categoryCode": "01", "address": "975 JAMES ST", "city": "WOODSTOCK", "province": "ON", "country": "CA", "postalCode": "N4S0A5", "twitter": "None", "instagram": "None", "facebook": "None", "youtube": "None", "website": "None", "summary": "None", "logo": "None", "latitude": 43.132573277280784, "longitude": -80.73010779990182}, "889025193RR0001": {"name": "DOMESTIC ABUSE SERVICES-OUR LADY OF GOOD COUNSEL SOCIETY", "designationCode": "C", "categoryCode": "59", "address": "201-14045 104 AVENUE", "city": "SURREY", "province": "BC", "country": "CA", "postalCode": "V3T1X4", "twitter": "None", "instagram": "None", "facebook": "None", "youtube": "None", "website": "None", "summary": "None", "logo": "None", "latitude": 49.19152447489747, "longitude": -122.83292152553523}, "118886647RR0001": {"name": "DOMINICAN INSTITUTE OF HIGH PARK", "designationCode": "C", "categoryCode": "49", "address": "2200 - 145 KING ST W", "city": "TORONTO", "province": "ON", "country": "CA", "postalCode": "M5H4G2", "twitter": "None", "instagram": "None", "facebook": "None", "youtube": "None", "website": "None", "summary": "None", "logo": "None", "latitude": 43.64813467004466, "longitude": -79.38254906728791}, "854281524RR0001": {"name": "DOMINICAN SISTERS OF FUNING INCORPORATED", "designationCode": "C", "categoryCode": "38", "address": "141 CHLOE CRESCENT", "city": "MARKHAM", "province": "ON", "country": "CA", "postalCode": "L3S2J3", "twitter": "None", "instagram": "None", "facebook": "None", "youtube": "None", "website": "None", "summary": "None", "logo": "None", "latitude": 43.84109338386507, "longitude": -79.26826635192455}, "891692469RR0001": {"name": "DOMINION BROADCASTING SOCIETY", "designationCode": "C", "categoryCode": "47", "address": "90 - 550 WT HILL BLVD S", "city": "LETHBRIDGE", "province": "AB", "country": "CA", "postalCode": "T1J4Z9", "twitter": "None", "instagram": "None", "facebook": "None", "youtube": "None", "website": "None", "summary": "None", "logo": "None", "latitude": 49.69308862331963, "longitude": -112.78629881037514}, "899805600RR0001": {"name": "DOMINION CHURCH INTERNATIONAL", "designationCode": "C", "categoryCode": "39", "address": "52 BARTOR RD", "city": "NORTH YORK", "province": "ON", "country": "CA", "postalCode": "M9M2G5", "twitter": "None", "instagram": "None", "facebook": "None", "youtube": "None", "website": "None", "summary": "None", "logo": "None", "latitude": 43.72180007649511, "longitude": -79.52338115285599}, "101436061RR0001": {"name": "DOMINION CITY RECREATION INCORPORATED", "designationCode": "C", "categoryCode": "56", "address": "BOX 36", "city": "DOMINION CITY", "province": "MB", "country": "CA", "postalCode": "R0A0H0", "twitter": "None", "instagram": "None", "facebook": "None", "youtube": "None", "website": "None", "summary": "None", "logo": "None", "latitude": 49.00686300000001, "longitude": -97.21055465947204}, "134114420RR0001": {"name": "DOMINION CITY UNITED CHURCH", "designationCode": "C", "categoryCode": "44", "address": "BOX 128", "city": "DOMINION CITY", "province": "MB", "country": "CA", "postalCode": "R0A0H0", "twitter": "None", "instagram": "None", "facebook": "None", "youtube": "None", "website": "None", "summary": "None", "logo": "None", "latitude": 49.00686300000001, "longitude": -97.21055465947204}, "889017208RR0001": {"name": "DOMINION GATEWAY CENTER CHURCH", "designationCode": "C", "categoryCode": "39", "address": "733 13 ST N", "city": "LETHBRIDGE", "province": "AB", "country": "CA", "postalCode": "T1H2T2", "twitter": "None", "instagram": "None", "facebook": "None", "youtube": "None", "website": "None", "summary": "None", "logo": "None", "latitude": 49.70981328413307, "longitude": -112.82406228587539}, "832682736RR0001": {"name": "DOMINION GOSPEL ASSEMBLY CENTRE", "designationCode": "C", "categoryCode": "39", "address": "1120 PANORAMA HILLS DRIVE NW", "city": "CALGARY", "province": "AB", "country": "CA", "postalCode": "T3K5V2", "twitter": "None", "instagram": "None", "facebook": "None", "youtube": "None", "website": "None", "summary": "None", "logo": "None", "latitude": 51.15654836081134, "longitude": -114.08486090547649}, "118886712RR0001": {"name": "DOMINION GOSPEL HALL", "designationCode": "C", "categoryCode": "39", "address": "UNIT 11-441 BARRIE ROAD", "city": "ORILLIA", "province": "ON", "country": "CA", "postalCode": "L3V6T9", "twitter": "None", "instagram": "None", "facebook": "None", "youtube": "None", "website": "None", "summary": "None", "logo": "None", "latitude": 44.592658097363774, "longitude": -79.43917512649078}, "840119952RR0001": {"name": "DOMINION IN CHRIST INTERNATIONAL MINISTRIES", "designationCode": "C", "categoryCode": "39", "address": "5359 TIMBERLEA BLVD           UNIT 61", "city": "MISSISSAUGA", "province": "ON", "country": "CA", "postalCode": "L4W4N5", "twitter": "None", "instagram": "None", "facebook": "None", "youtube": "None", "website": "None", "summary": "None", "logo": "None", "latitude": 43.63022866172277, "longitude": -79.64348998505461}, "865351209RR0001": {"name": "DOMINION MODERN, MUSEUM OF MODERN ARCHITECTURE & DESIGN", "designationCode": "C", "categoryCode": "50", "address": "B-008 401 RICHMOND STR  W", "city": "TORONTO", "province": "ON", "country": "CA", "postalCode": "M5V3A8", "twitter": "None", "instagram": "None", "facebook": "None", "youtube": "None", "website": "None", "summary": "None", "logo": "None", "latitude": 43.64803297305114, "longitude": -79.39483379779568}, "107026809RR0001": {"name": "DOMINION-CHALMERS UNITED CHURCH", "designationCode": "C", "categoryCode": "44", "address": "355 COOPER STREET", "city": "OTTAWA", "province": "ON", "country": "CA", "postalCode": "K2P0G8", "twitter": "None", "instagram": "None", "facebook": "None", "youtube": "None", "website": "None", "summary": "None", "logo": "None", "latitude": 45.416675469646, "longitude": -75.69545309120528}, "866891666RR0001": {"name": "DOMINION-LIFE INTERNATIONAL MINISTRIES", "designationCode": "C", "categoryCode": "39", "address": "PO BOX 44078                  KENSINGTON SQUARE", "city": "BURNABY", "province": "BC", "country": "CA", "postalCode": "V5B4Y2", "twitter": "None", "instagram": "None", "facebook": "None", "youtube": "None", "website": "None", "summary": "None", "logo": "None", "latitude": 49.25648063107403, "longitude": -122.96738126833266}, "131273567RR0001": {"name": "DOMINO THEATRE INCORPORATED", "designationCode": "C", "categoryCode": "22", "address": "PO BOX 884", "city": "KINGSTON", "province": "ON", "country": "CA", "postalCode": "K7L4X9", "twitter": "None", "instagram": "None", "facebook": "None", "youtube": "None", "website": "None", "summary": "None", "logo": "None", "latitude": 44.23153200000006, "longitude": -76.47933049999993}, "869444752RR0001": {"name": "DON AND AUDREY WILLIAMS FOUNDATION", "designationCode": "B", "categoryCode": "03", "address": "11 OAKRIDGE DRIVE             RR 4", "city": "STIRLING", "province": "ON", "country": "CA", "postalCode": "K0K3E0", "twitter": "None", "instagram": "None", "facebook": "None", "youtube": "None", "website": "None", "summary": "None", "logo": "None", "latitude": 44.27163002043596, "longitude": -77.50359006130792}, "889389243RR0001": {"name": "DON AND HAZEL WILLIAMS FOUNDATION", "designationCode": "B", "categoryCode": "53", "address": "167 WOODWORTH AVE", "city": "ST THOMAS", "province": "ON", "country": "CA", "postalCode": "N5P3K6", "twitter": "None", "instagram": "None", "facebook": "None", "youtube": "None", "website": "None", "summary": "None", "logo": "None", "latitude": 42.789829499999996, "longitude": -81.17843514940277}, "118887082RR0001": {"name": "DON CLOWERS EVANGELISTIC ASSOCIATION OF CANADA", "designationCode": "C", "categoryCode": "39", "address": "BOX 250", "city": "UXBRIDGE", "province": "ON", "country": "CA", "postalCode": "L9P1M7", "twitter": "None", "instagram": "None", "facebook": "None", "youtube": "None", "website": "None", "summary": "None", "logo": "None", "latitude": 44.10619800000005, "longitude": -79.12382299999993}, "118887090RR0001": {"name": "DON DISTRICT TRAINING PROGRAM INC", "designationCode": "C", "categoryCode": "21", "address": "333 QUEEN ST E", "city": "TORONTO", "province": "ON", "country": "CA", "postalCode": "M5A1S9", "twitter": "None", "instagram": "None", "facebook": "None", "youtube": "None", "website": "None", "summary": "None", "logo": "None", "latitude": 43.65542282041673, "longitude": -79.36510778198398}, "107029563RR0001": {"name": "DON HEIGHTS UNITARIAN CONGREGATION", "designationCode": "C", "categoryCode": "39", "address": "18 WYNFORD DRIVE              APT 102", "city": "TORONTO", "province": "ON", "country": "CA", "postalCode": "M3C3S2", "twitter": "None", "instagram": "None", "facebook": "None", "youtube": "None", "website": "None", "summary": "None", "logo": "None", "latitude": 43.72400484289353, "longitude": -79.33688895951845}, "118887140RR0001": {"name": "DON HENDERSON MEMORIAL SPORTSPLEX", "designationCode": "C", "categoryCode": "56", "address": "55 CARTER RD", "city": "BROOKFIELD", "province": "NS", "country": "CA", "postalCode": "B0N1C0", "twitter": "None", "instagram": "None", "facebook": "None", "youtube": "None", "website": "None", "summary": "None", "logo": "None", "latitude": 45.257837262248465, "longitude": -63.27306561134388}, "865552681RR0001": {"name": "DON MILLS BAPTIST CHURCH", "designationCode": "C", "categoryCode": "39", "address": "99 SCARSDALE ROAD", "city": "TORONTO", "province": "ON", "country": "CA", "postalCode": "M3B2R2", "twitter": "None", "instagram": "None", "facebook": "None", "youtube": "None", "website": "None", "summary": "None", "logo": "None", "latitude": 43.75099403831717, "longitude": -79.35534130495172}, "119288918RR0247": {"name": "DON MILLS CONGREGATION OF JEHOVAH'S WITNESSES", "designationCode": "C", "categoryCode": "61", "address": "64 TIAGO AVE", "city": "TORONTO", "province": "ON", "country": "CA", "postalCode": "M4B2A3", "twitter": "None", "instagram": "None", "facebook": "None", "youtube": "None", "website": "None", "summary": "None", "logo": "None", "latitude": 43.71189715794319, "longitude": -79.30332920358929}, "107029779RR0001": {"name": "DON MILLS UNITED CHURCH", "designationCode": "C", "categoryCode": "44", "address": "77 O'CONNOR DR", "city": "TORONTO", "province": "ON", "country": "CA", "postalCode": "M4K2K4", "twitter": "None", "instagram": "None", "facebook": "None", "youtube": "None", "website": "None", "summary": "None", "logo": "None", "latitude": 43.69304680209485, "longitude": -79.35101623382772}, "133233569RR0001": {"name": "DON STEWART EVANGELISTIC ASSOCIATION OF CANADA", "designationCode": "C", "categoryCode": "47", "address": "8376-133 STREET", "city": "SURREY", "province": "BC", "country": "CA", "postalCode": "V3W1E4", "twitter": "None", "instagram": "None", "facebook": "None", "youtube": "None", "website": "None", "summary": "None", "logo": "None", "latitude": 49.154695323619364, "longitude": -122.8539690427319}, "118887306RR0001": {"name": "DON VALLEY BIBLE CHAPEL", "designationCode": "C", "categoryCode": "39", "address": "25 AXSMITH CRESCENT", "city": "TORONTO", "province": "ON", "country": "CA", "postalCode": "M2J3K2", "twitter": "None", "instagram": "None", "facebook": "None", "youtube": "None", "website": "None", "summary": "None", "logo": "None", "latitude": 43.78888782373494, "longitude": -79.35224796113458}, "888923943RR0001": {"name": "DON VALLEY REACT INC", "designationCode": "C", "categoryCode": "59", "address": "245 CONNAUGHT AVE.", "city": "NORTH YORK", "province": "ON", "country": "CA", "postalCode": "M2M1H7", "twitter": "None", "instagram": "None", "facebook": "None", "youtube": "None", "website": "None", "summary": "None", "logo": "None", "latitude": 43.78649680930822, "longitude": -79.43056401220501}, "118887314RR0001": {"name": "DON WALLIS MINISTRIES INC.", "designationCode": "C", "categoryCode": "47", "address": "5670-186A STREET", "city": "CLOVER DALE", "province": "BC", "country": "CA", "postalCode": "V3S7N2", "twitter": "None", "instagram": "None", "facebook": "None", "youtube": "None", "website": "None", "summary": "None", "logo": "None", "latitude": 49.10592937440136, "longitude": -122.70622132497569}, "118886928RR0001": {"name": "DONALD AND FLORENCE FORRESTER FOUNDATION", "designationCode": "B", "categoryCode": "03", "address": "PO BOX 457                    HALIFAX CENTRAL", "city": "HALIFAX", "province": "NS", "country": "CA", "postalCode": "B3J2P8", "twitter": "None", "instagram": "None", "facebook": "None", "youtube": "None", "website": "None", "summary": "None", "logo": "None", "latitude": 44.643410000000074, "longitude": -63.57542999999998}, "889046678RR0001": {"name": "DONALD BERMAN FOUNDATION", "designationCode": "B", "categoryCode": "03", "address": "105 MAIN STREET E             7TH FLOOR", "city": "HAMILTON", "province": "ON", "country": "CA", "postalCode": "L8N1G6", "twitter": "None", "instagram": "None", "facebook": "None", "youtube": "None", "website": "None", "summary": "None", "logo": "None", "latitude": 43.254462297192646, "longitude": -79.8655056154101}, "118886951RR0001": {"name": "DONALD F HUNTER CHARITABLE FOUNDATION", "designationCode": "B", "categoryCode": "03", "address": "120 ADELAIDE STREET WEST      SUITE 2105", "city": "TORONTO", "province": "ON", "country": "CA", "postalCode": "M5H1T1", "twitter": "None", "instagram": "None", "facebook": "None", "youtube": "None", "website": "None", "summary": "None", "logo": "None", "latitude": 43.65023081652159, "longitude": -79.38329812877264}, "888759065RR0001": {"name": "DONALD WILLIAM FREDERICK MCDONALD CHARITABLE TRUST", "designationCode": "B", "categoryCode": "15", "address": "155 WELLNGTON ST W 20TH FLOOR", "city": "TORONTO", "province": "ON", "country": "CA", "postalCode": "M5V3K7", "twitter": "None", "instagram": "None", "facebook": "None", "youtube": "None", "website": "None", "summary": "None", "logo": "None", "latitude": 43.64596585316531, "longitude": -79.38574575644876}, "132545708RR0001": {"name": "DONALDA AND DISTRICT AGRICULTURAL SOCIETY", "designationCode": "C", "categoryCode": "56", "address": "PO BOX 248", "city": "DONALDA", "province": "AB", "country": "CA", "postalCode": "T0B1H0", "twitter": "None", "instagram": "None", "facebook": "None", "youtube": "None", "website": "None", "summary": "None", "logo": "None", "latitude": 52.58343000000008, "longitude": -112.56860999999998}, "724692090RR0001": {"name": "DONALDA ANIMAL RESCUE SOCIETY", "designationCode": "C", "categoryCode": "54", "address": "BOX 244", "city": "DONALDA", "province": "AB", "country": "CA", "postalCode": "T0B1H0", "twitter": "None", "instagram": "None", "facebook": "None", "youtube": "None", "website": "None", "summary": "None", "logo": "None", "latitude": 52.58343000000008, "longitude": -112.56860999999998}, "889406971RR0001": {"name": "DONALDA CEMETERY CLUB", "designationCode": "C", "categoryCode": "59", "address": "BOX 3", "city": "DONALDA", "province": "AB", "country": "CA", "postalCode": "T0B1H0", "twitter": "None", "instagram": "None", "facebook": "None", "youtube": "None", "website": "None", "summary": "None", "logo": "None", "latitude": 52.58343000000008, "longitude": -112.56860999999998}, "138444294RR0001": {"name": "DONALDA CHARITABLE TRUST", "designationCode": "B", "categoryCode": "39", "address": "3425 - 2 AVENUE SOUTH", "city": "LETHBRIDGE", "province": "AB", "country": "CA", "postalCode": "T1J4V1", "twitter": "None", "instagram": "None", "facebook": "None", "youtube": "None", "website": "None", "summary": "None", "logo": "None", "latitude": 49.696839530439966, "longitude": -112.78914308381903}, "867933384RR0001": {"name": "DONALDA COMMUNITY ARTS SOCIETY", "designationCode": "C", "categoryCode": "22", "address": "PO BOX 72", "city": "DONALDA", "province": "AB", "country": "CA", "postalCode": "T0B1H0", "twitter": "None", "instagram": "None", "facebook": "None", "youtube": "None", "website": "None", "summary": "None", "logo": "None", "latitude": 52.58343000000008, "longitude": -112.56860999999998}, "861345015RR0001": {"name": "DONEGAL MENNONITE FELLOWSHIP CHURCH", "designationCode": "C", "categoryCode": "34", "address": "6566 PERTH RD 121             RR#1", "city": "MILVERTON", "province": "ON", "country": "CA", "postalCode": "N0K1M0", "twitter": "None", "instagram": "None", "facebook": "None", "youtube": "None", "website": "None", "summary": "None", "logo": "None", "latitude": 43.54315386214731, "longitude": -80.8616969042342}, "886111798RR0001": {"name": "DONG SAN PRESBYTERIAN CHURCH", "designationCode": "C", "categoryCode": "37", "address": "2822 KEELE STREET", "city": "DOWNSVIEW", "province": "ON", "country": "CA", "postalCode": "M3M2G4", "twitter": "None", "instagram": "None", "facebook": "None", "youtube": "None", "website": "None", "summary": "None", "logo": "None", "latitude": 43.73013296197131, "longitude": -79.48288747784031}, "119288918RR0193": {"name": "DONLANDS CONGREGATION OF JEHOVAH'S WITNESSES, TORONTO, ONTARIO", "designationCode": "C", "categoryCode": "61", "address": "172 DONLANDS AVE", "city": "TORONTO", "province": "ON", "country": "CA", "postalCode": "M4J3P8", "twitter": "None", "instagram": "None", "facebook": "None", "youtube": "None", "website": "None", "summary": "None", "logo": "None", "latitude": 43.68602851956261, "longitude": -79.33963662741631}, "868097296RR0001": {"name": "DONMAR FOUNDATION", "designationCode": "B", "categoryCode": "53", "address": "250 - 1319 EDMONTON TRAIL NE", "city": "CALGARY", "province": "AB", "country": "CA", "postalCode": "T2E4Y8", "twitter": "None", "instagram": "None", "facebook": "None", "youtube": "None", "website": "None", "summary": "None", "logo": "None", "latitude": 51.06406307216227, "longitude": -114.05635558257829}, "129826210RR0001": {"name": "DONNER CANADIAN FOUNDATION", "designationCode": "B", "categoryCode": "13", "address": "3RD FLOOR                     8 PRINCE ARTHUR AVE", "city": "TORONTO", "province": "ON", "country": "CA", "postalCode": "M5R1A9", "twitter": "None", "instagram": "None", "facebook": "None", "youtube": "None", "website": "None", "summary": "None", "logo": "None", "latitude": 43.6697791690517, "longitude": -79.3953656708407}, "879917763RR0001": {"name": "DONNES-TOI UNE CHANCE", "designationCode": "C", "categoryCode": "09", "address": "1939 ST-LOUIS, LOCAL 4", "city": "GATINEAU", "province": "QC", "country": "CA", "postalCode": "J8T4H5", "twitter": "None", "instagram": "None", "facebook": "None", "youtube": "None", "website": "None", "summary": "None", "logo": "None", "latitude": 45.47532031975289, "longitude": -75.73057070217565}, "118887264RR0001": {"name": "DONOR'S CHOICE COMBINED APPEAL OF ROULEAU SASKATCHEWAN", "designationCode": "A", "categoryCode": "05", "address": "BOX 99", "city": "ROULEAU", "province": "SK", "country": "CA", "postalCode": "S0G4H0", "twitter": "None", "instagram": "None", "facebook": "None", "youtube": "None", "website": "None", "summary": "None", "logo": "None", "latitude": 49.730711113382405, "longitude": -104.01338147757869}, "889070165RR0001": {"name": "DONUM OPTIMI (GREATEST GIFT) CHORAL SOCIETY OF PICTOU DISTRICT", "designationCode": "C", "categoryCode": "22", "address": "548 NELSON ST", "city": "NEW GLASGOW", "province": "NS", "country": "CA", "postalCode": "B2H3C7", "twitter": "None", "instagram": "None", "facebook": "None", "youtube": "None", "website": "None", "summary": "None", "logo": "None", "latitude": 45.57870512378098, "longitude": -62.647323334843435}, "118887322RR0001": {"name": "DONWAY BAPTIST CHURCH", "designationCode": "C", "categoryCode": "31", "address": "235 THE DONWAY EAST", "city": "DON MILLS", "province": "ON", "country": "CA", "postalCode": "M3B2Y8", "twitter": "None", "instagram": "None", "facebook": "None", "youtube": "None", "website": "None", "summary": "None", "logo": "None", "latitude": 43.740496915921184, "longitude": -79.34264140588051}, "885085761RR0001": {"name": "DONWOOD MANOR FOUNDATION INC", "designationCode": "C", "categoryCode": "19", "address": "171 DONWOOD DRIVE", "city": "WINNIPEG", "province": "MB", "country": "CA", "postalCode": "R2G0V9", "twitter": "None", "instagram": "None", "facebook": "None", "youtube": "None", "website": "None", "summary": "None", "logo": "None", "latitude": 49.945262874314444, "longitude": -97.07808365067253}, "107030488RR0001": {"name": "DONWOOD MANOR PERSONAL CARE HOME INC.", "designationCode": "C", "categoryCode": "01", "address": "171 DONWOOD DRIVE", "city": "WINNIPEG", "province": "MB", "country": "CA", "postalCode": "R2G0V9", "twitter": "None", "instagram": "None", "facebook": "None", "youtube": "None", "website": "None", "summary": "None", "logo": "None", "latitude": 49.945262874314444, "longitude": -97.07808365067253}, "783824691RR0001": {"name": "DOOKH NIVAARAN GURDWARA SAAHIB", "designationCode": "C", "categoryCode": "62", "address": "18 CLEOPHAS DR", "city": "TECUMSEH", "province": "ON", "country": "CA", "postalCode": "N8N4J9", "twitter": "None", "instagram": "None", "facebook": "None", "youtube": "None", "website": "None", "summary": "None", "logo": "None", "latitude": 42.315865260892174, "longitude": -82.8372417912748}, "118887363RR0001": {"name": "DOON PRESBYTERIAN CHURCH", "designationCode": "C", "categoryCode": "37", "address": "35 ROOS ST.", "city": "KITCHENER", "province": "ON", "country": "CA", "postalCode": "N2P2B9", "twitter": "None", "instagram": "None", "facebook": "None", "youtube": "None", "website": "None", "summary": "None", "logo": "None", "latitude": 43.39449625617364, "longitude": -80.41748707957254}, "880364963RR0001": {"name": "DOOR OF HOPE COUNSELLING SERVICES", "designationCode": "C", "categoryCode": "09", "address": "1027 KING'S HWY", "city": "FORT FRANCES", "province": "ON", "country": "CA", "postalCode": "P9A2X7", "twitter": "None", "instagram": "None", "facebook": "None", "youtube": "None", "website": "None", "summary": "None", "logo": "None", "latitude": 48.607176608130004, "longitude": -93.42832202067368}, "892944190RR0001": {"name": "DOORSTEPS NEIGHBOURHOOD SERVICES", "designationCode": "C", "categoryCode": "59", "address": "211 - 1700 WILSON AVE", "city": "NORTH YORK", "province": "ON", "country": "CA", "postalCode": "M3L1B2", "twitter": "None", "instagram": "None", "facebook": "None", "youtube": "None", "website": "None", "summary": "None", "logo": "None", "latitude": 43.72009113962135, "longitude": -79.5127202647873}, "141381434RR0001": {"name": "DOPAMINE", "designationCode": "C", "categoryCode": "09", "address": "3591, STE-CATHERINE EST", "city": "MONTR\u00c9AL", "province": "QC", "country": "CA", "postalCode": "H1W2E6", "twitter": "None", "instagram": "None", "facebook": "None", "youtube": "None", "website": "None", "summary": "None", "logo": "None", "latitude": 45.5433203602631, "longitude": -73.53862920624368}, "891205940RR0001": {"name": "DOPOMOHA UKRAINI - AID UKRAINE", "designationCode": "C", "categoryCode": "09", "address": "503 - 2 JANE ST", "city": "YORK", "province": "ON", "country": "CA", "postalCode": "M6S4W3", "twitter": "None", "instagram": "None", "facebook": "None", "youtube": "None", "website": "None", "summary": "None", "logo": "None", "latitude": 43.64948793282939, "longitude": -79.4846052011078}, "860301480RR0001": {"name": "DORCAS FAMILY MINISTRY", "designationCode": "C", "categoryCode": "47", "address": "2555 NORTH RD", "city": "BURNABY", "province": "BC", "country": "CA", "postalCode": "V3J1R4", "twitter": "None", "instagram": "None", "facebook": "None", "youtube": "None", "website": "None", "summary": "None", "logo": "None", "latitude": 49.261162852674936, "longitude": -122.89314523191081}, "140171950RR0001": {"name": "DORCHESTER CHRISTIAN FAMILY CENTRE INC", "designationCode": "C", "categoryCode": "39", "address": "4149 CATHERINE ST             PO BOX 114", "city": "DORCHESTER", "province": "ON", "country": "CA", "postalCode": "N0L1G0", "twitter": "None", "instagram": "None", "facebook": "None", "youtube": "None", "website": "None", "summary": "None", "logo": "None", "latitude": 42.989931925298905, "longitude": -81.06432558921472}, "135071074RR0001": {"name": "DORCHESTER CO-OPERATIVE NURSERY SCHOOL INC", "designationCode": "C", "categoryCode": "20", "address": "2023 DORCHESTER RD", "city": "DORCHESTER", "province": "ON", "country": "CA", "postalCode": "N0L1G2", "twitter": "None", "instagram": "None", "facebook": "None", "youtube": "None", "website": "None", "summary": "None", "logo": "None", "latitude": 42.987467200386654, "longitude": -81.05824856968077}, "129886362RR0001": {"name": "DORCHESTER COMMUNITY CHURCH", "designationCode": "C", "categoryCode": "36", "address": "P.O.BOX 130", "city": "DORCHESTER", "province": "ON", "country": "CA", "postalCode": "N0L1G0", "twitter": "None", "instagram": "None", "facebook": "None", "youtube": "None", "website": "None", "summary": "None", "logo": "None", "latitude": 42.98611200000006, "longitude": -81.04994449999994}, "118887421RR0001": {"name": "DORCHESTER PASTORAL CHARGE", "designationCode": "C", "categoryCode": "44", "address": "4100 CATHERINE ST BOX 99", "city": "DORCHESTER", "province": "ON", "country": "CA", "postalCode": "N0L1G0", "twitter": "None", "instagram": "None", "facebook": "None", "youtube": "None", "website": "None", "summary": "None", "logo": "None", "latitude": 42.989541085232666, "longitude": -81.06615711838528}, "118887439RR0001": {"name": "DORCHESTER PRESBYTERIAN CHURCH", "designationCode": "C", "categoryCode": "37", "address": "171 SHERWOOD CR", "city": "DORCHESTER", "province": "ON", "country": "CA", "postalCode": "N0L1G3", "twitter": "None", "instagram": "None", "facebook": "None", "youtube": "None", "website": "None", "summary": "None", "logo": "None", "latitude": 42.981775681632115, "longitude": -81.05377868858565}, "870204922RR0001": {"name": "DORCHESTER PUBLIC LIBRARY BOARD", "designationCode": "C", "categoryCode": "50", "address": "3516 CAPE ROAD", "city": "DORCHESTER", "province": "NB", "country": "CA", "postalCode": "E4K2X5", "twitter": "None", "instagram": "None", "facebook": "None", "youtube": "None", "website": "None", "summary": "None", "logo": "None", "latitude": 45.89925759922672, "longitude": -64.51676178463838}, "832516744RR0001": {"name": "DOREMI PRENATAL WELLNESS OUTREACH INC.", "designationCode": "C", "categoryCode": "11", "address": "PO BOX 268", "city": "VAL MARIE", "province": "SK", "country": "CA", "postalCode": "S0N2T0", "twitter": "None", "instagram": "None", "facebook": "None", "youtube": "None", "website": "None", "summary": "None", "logo": "None", "latitude": 49.233340000000055, "longitude": -107.73460999999998}, "873998363RR0001": {"name": "DORINTOSH COMMUNITY CO-OPERATIVE", "designationCode": "C", "categoryCode": "56", "address": "P.O. BOX 119", "city": "DORINTOSH", "province": "SK", "country": "CA", "postalCode": "S0M0T0", "twitter": "None", "instagram": "None", "facebook": "None", "youtube": "None", "website": "None", "summary": "None", "logo": "None", "latitude": 54.36689000000007, "longitude": -108.63475999999997}, "891438863RR0001": {"name": "DORION BIBLE FELLOWSHIP", "designationCode": "C", "categoryCode": "39", "address": "R.R. #1", "city": "DORION", "province": "ON", "country": "CA", "postalCode": "P0T1K0", "twitter": "None", "instagram": "None", "facebook": "None", "youtube": "None", "website": "None", "summary": "None", "logo": "None", "latitude": 48.86167906119109, "longitude": -89.12771894420808}, "107031148RR0001": {"name": "DORION EVANGELICAL CHURCH", "designationCode": "C", "categoryCode": "36", "address": "490 CHICOINE", "city": "VAUDREUIL-DORION", "province": "QC", "country": "CA", "postalCode": "J7V7E4", "twitter": "None", "instagram": "None", "facebook": "None", "youtube": "None", "website": "None", "summary": "None", "logo": "None", "latitude": 45.376528957239444, "longitude": -74.02233097763876}, "890069396RR0001": {"name": "DORMITION OF THE BLESSED VIRGIN MARY GREEK ORTHODOX CHURCH", "designationCode": "A", "categoryCode": "39", "address": "PO BOX 9", "city": "MACNUTT", "province": "SK", "country": "CA", "postalCode": "S0A2K0", "twitter": "None", "instagram": "None", "facebook": "None", "youtube": "None", "website": "None", "summary": "None", "logo": "None", "latitude": 51.08230000000003, "longitude": -101.60347999999999}, "119274157RR0001": {"name": "DORMITION OF THE BLESSED VIRGIN MARY UKRAINIAN CATHOLIC CHURCH SOCIETY OF ATHABASCA", "designationCode": "C", "categoryCode": "38", "address": "BOX 1195", "city": "ATHABASCA", "province": "AB", "country": "CA", "postalCode": "T9S2A9", "twitter": "None", "instagram": "None", "facebook": "None", "youtube": "None", "website": "None", "summary": "None", "logo": "None", "latitude": 54.721284000000054, "longitude": -113.28321049999994}, "119274173RR0001": {"name": "DORMITION OF THE MOST HOLY MOTHER OF GOD UKRAINIAN CATHOLIC PARISH", "designationCode": "C", "categoryCode": "38", "address": "15608-104 AVENUE", "city": "EDMONTON", "province": "AB", "country": "CA", "postalCode": "T5P4G5", "twitter": "None", "instagram": "None", "facebook": "None", "youtube": "None", "website": "None", "summary": "None", "logo": "None", "latitude": 53.54642547879262, "longitude": -113.59095202553523}, "893190579RR0001": {"name": "DORN RIDGE CEMETERY INC.", "designationCode": "C", "categoryCode": "59", "address": "40 SLEEPY HOLLOW LANE", "city": "BURTTS CORNER", "province": "NB", "country": "CA", "postalCode": "E6L2E9", "twitter": "None", "instagram": "None", "facebook": "None", "youtube": "None", "website": "None", "summary": "None", "logo": "None", "latitude": 46.05941138412487, "longitude": -66.86597161852951}, "118887496RR0001": {"name": "DOROHA PRAWDY", "designationCode": "C", "categoryCode": "47", "address": "14 COULAS CRESCENT            RR 5", "city": "WATERFORD", "province": "ON", "country": "CA", "postalCode": "N0E1Y0", "twitter": "None", "instagram": "None", "facebook": "None", "youtube": "None", "website": "None", "summary": "None", "logo": "None", "latitude": 42.92320171106246, "longitude": -80.28447623244273}, "890841372RR0001": {"name": "DOROTHY AND HUGH COLE FOUNDATION", "designationCode": "B", "categoryCode": "15", "address": "SUITE 418, PO BOX 11602       650 WEST GEORGIA STREET", "city": "VANCOUVER", "province": "BC", "country": "CA", "postalCode": "V6B4N9", "twitter": "None", "instagram": "None", "facebook": "None", "youtube": "None", "website": "None", "summary": "None", "logo": "None", "latitude": 49.282095217179936, "longitude": -123.11767129779695}, "894685387RR0001": {"name": "DOROTHY ISABELLA WEBB TRUST", "designationCode": "A", "categoryCode": "21", "address": "155 WELLINGTON ST. W.         20TH FLOOR", "city": "TORONTO", "province": "ON", "country": "CA", "postalCode": "M5V3K7", "twitter": "None", "instagram": "None", "facebook": "None", "youtube": "None", "website": "None", "summary": "None", "logo": "None", "latitude": 43.64596585316531, "longitude": -79.38574575644876}, "119098572RR0001": {"name": "DOROTHY LUKES AUXILIARY, WOMENS MISSIONARY SOCIETY, WESTERN DIVISION, KNOX PRESBYTERIAN CHURCH", "designationCode": "C", "categoryCode": "47", "address": "539 HUGEL AVENUE", "city": "MIDLAND", "province": "ON", "country": "CA", "postalCode": "L4R1W1", "twitter": "None", "instagram": "None", "facebook": "None", "youtube": "None", "website": "None", "summary": "None", "logo": "None", "latitude": 44.74933268780919, "longitude": -79.88683576055676}, "822809802RR0001": {"name": "DORSET COLLEGIATE FUND", "designationCode": "C", "categoryCode": "21", "address": "PO BOX 10", "city": "PILLEYS ISLAND", "province": "NL", "country": "CA", "postalCode": "A0J1M0", "twitter": "None", "instagram": "None", "facebook": "None", "youtube": "None", "website": "None", "summary": "None", "logo": "None", "latitude": 49.48513633811197, "longitude": -55.753572249395376}, "107032195RR0001": {"name": "DORSET PARK BAPTIST CHURCH", "designationCode": "C", "categoryCode": "31", "address": "1428 KENNEDY RD", "city": "TORONTO", "province": "ON", "country": "CA", "postalCode": "M1P2L7", "twitter": "None", "instagram": "None", "facebook": "None", "youtube": "None", "website": "None", "summary": "None", "logo": "None", "latitude": 43.764593113509214, "longitude": -79.2807771492293}}