{"845616853RR0001": {"name": "Graham W. Dennis Foundation", "designationCode": "B", "categoryCode": "05", "address": "101 - 120 EILEEN STUBBS AVE", "city": "DARTMOUTH", "province": "NS", "country": "CA", "postalCode": "B3B1Y1", "twitter": "None", "instagram": "None", "facebook": "None", "youtube": "None", "website": "None", "summary": "None", "logo": "None", "latitude": 44.69607583816166, "longitude": -63.57429891508445}, "832667604RR0001": {"name": "Grand Bend Art Centre", "designationCode": "C", "categoryCode": "22", "address": "16 MUNICIPAL DR               PO BOX 523", "city": "GRAND BEND", "province": "ON", "country": "CA", "postalCode": "N0M1T0", "twitter": "None", "instagram": "None", "facebook": "None", "youtube": "None", "website": "None", "summary": "None", "logo": "None", "latitude": 43.31222359674522, "longitude": -81.75482206451622}, "119288918RR0105": {"name": "Grand Falls Congregation of Jehovah's Witnesses, Grand Falls-Windsor, Newfoundland", "designationCode": "C", "categoryCode": "61", "address": "8 QUEEN ST", "city": "GRAND FALLS-WINDSOR", "province": "NL", "country": "CA", "postalCode": "A2A1H7", "twitter": "None", "instagram": "None", "facebook": "None", "youtube": "None", "website": "None", "summary": "None", "logo": "None", "latitude": 48.929473253839305, "longitude": -55.6564469893205}, "119246635RR0089": {"name": "Grand Falls-Windsor Branch of the Navy League of Canada", "designationCode": "C", "categoryCode": "29", "address": "160 MAIN ST", "city": "GRAND FALLS-WINDSOR", "province": "NL", "country": "CA", "postalCode": "A2B1A2", "twitter": "None", "instagram": "None", "facebook": "None", "youtube": "None", "website": "None", "summary": "None", "logo": "None", "latitude": 48.947175793461255, "longitude": -55.667387108203094}, "140171281RR0001": {"name": "Grand Falls-Windsor, Bishop's Falls Community Food Bank Inc.", "designationCode": "C", "categoryCode": "09", "address": "P.O. BOX 821", "city": "GRAND FALLS WINDSOR", "province": "NL", "country": "CA", "postalCode": "A2H2P7", "twitter": "None", "instagram": "None", "facebook": "None", "youtube": "None", "website": "None", "summary": "None", "logo": "None", "latitude": 48.92779000000007, "longitude": -55.65880999999996}, "118945781RR0001": {"name": "Grand Manan Historical Society, Limited", "designationCode": "C", "categoryCode": "50", "address": "B - 1141 ROUTE 776", "city": "GRAND MANAN", "province": "NB", "country": "CA", "postalCode": "E5G4E9", "twitter": "None", "instagram": "None", "facebook": "None", "youtube": "None", "website": "None", "summary": "None", "logo": "None", "latitude": 44.6869382524865, "longitude": -66.76454276150976}, "855885810RR0001": {"name": "Grand Manan Hospital Foundation Inc./ La Fondation de l'hopital Grand Manan inc.", "designationCode": "A", "categoryCode": "13", "address": "196 ROUTE 776", "city": "GRAND MANAN", "province": "NB", "country": "CA", "postalCode": "E5G1A3", "twitter": "None", "instagram": "None", "facebook": "None", "youtube": "None", "website": "None", "summary": "None", "logo": "None", "latitude": 44.76249255705738, "longitude": -66.76328145521632}, "119288918RR0601": {"name": "Grand Pre Congregation of Jehovah's Witnesses, Grand Pre, Nova Scotia", "designationCode": "C", "categoryCode": "61", "address": "1 - 48 PLEASANT STREET", "city": "WOLFVILLE", "province": "NS", "country": "CA", "postalCode": "B4P1M7", "twitter": "None", "instagram": "None", "facebook": "None", "youtube": "None", "website": "None", "summary": "None", "logo": "None", "latitude": 45.08485033279463, "longitude": -64.3473745088868}, "119288918RR1623": {"name": "Grand River Chinese Congregation of Jehovah's Witnesses, Kitchener, Ontario", "designationCode": "C", "categoryCode": "61", "address": "35 SPENCER CRES", "city": "GUELPH", "province": "ON", "country": "CA", "postalCode": "N1L1M2", "twitter": "None", "instagram": "None", "facebook": "None", "youtube": "None", "website": "None", "summary": "None", "logo": "None", "latitude": 43.50673050709779, "longitude": -80.19348928293627}, "829367556RR0001": {"name": "Grand River Community Health Centre", "designationCode": "C", "categoryCode": "11", "address": "363 COLBORNE ST", "city": "BRANTFORD", "province": "ON", "country": "CA", "postalCode": "N3S3N2", "twitter": "None", "instagram": "None", "facebook": "None", "youtube": "None", "website": "None", "summary": "None", "logo": "None", "latitude": 43.13894828343655, "longitude": -80.25565931269882}, "829866805RR0001": {"name": "Grand River Council On Aging", "designationCode": "C", "categoryCode": "09", "address": "363 COLBORNE STREET", "city": "BRANTFORD", "province": "ON", "country": "CA", "postalCode": "N3S3N2", "twitter": "None", "instagram": "None", "facebook": "None", "youtube": "None", "website": "None", "summary": "None", "logo": "None", "latitude": 43.13894828343655, "longitude": -80.25565931269882}, "891340796RR0001": {"name": "Grand River Employment & Training Inc.", "designationCode": "C", "categoryCode": "59", "address": "16 SUNRISE COURT              PO BOX 69", "city": "OHSWEKEN", "province": "ON", "country": "CA", "postalCode": "N0A1M0", "twitter": "None", "instagram": "None", "facebook": "None", "youtube": "None", "website": "None", "summary": "None", "logo": "None", "latitude": 43.07082944246962, "longitude": -80.11466592406664}, "846214179RR0001": {"name": "Grand River Mennonite Church", "designationCode": "C", "categoryCode": "34", "address": "128 MAIN STREET SOUTH", "city": "PRINCETON", "province": "ON", "country": "CA", "postalCode": "N0J1V0", "twitter": "None", "instagram": "None", "facebook": "None", "youtube": "None", "website": "None", "summary": "None", "logo": "None", "latitude": 43.165455422153585, "longitude": -80.52487806907519}, "885889915RR0001": {"name": "Grand River Ministries", "designationCode": "C", "categoryCode": "39", "address": "135 BAILEY DRIVE", "city": "CAMBRIDGE", "province": "ON", "country": "CA", "postalCode": "N1P0A2", "twitter": "None", "instagram": "None", "facebook": "None", "youtube": "None", "website": "None", "summary": "None", "logo": "None", "latitude": 43.33833255785113, "longitude": -80.28265247830167}, "119289049RR0001": {"name": "Grand River Unitarian Congregation", "designationCode": "C", "categoryCode": "47", "address": "299 SYDNEY STREET SOUTH", "city": "KITCHENER", "province": "ON", "country": "CA", "postalCode": "N2G3V8", "twitter": "None", "instagram": "None", "facebook": "None", "youtube": "None", "website": "None", "summary": "None", "logo": "None", "latitude": 43.43457200859835, "longitude": -80.47588879055365}, "867098246RR0001": {"name": "Grande Prairie and Area Safe Communities Committee", "designationCode": "C", "categoryCode": "59", "address": "10318  92 STREET", "city": "GRANDE PRAIRIE", "province": "AB", "country": "CA", "postalCode": "T8V5K9", "twitter": "None", "instagram": "None", "facebook": "None", "youtube": "None", "website": "None", "summary": "None", "logo": "None", "latitude": 55.17389700000001, "longitude": -118.76927858052947}, "806876710RR0001": {"name": "Grande Prairie Hindu Association", "designationCode": "C", "categoryCode": "48", "address": "12702 LAKESHORE DR", "city": "GRANDE PRAIRIE", "province": "AB", "country": "CA", "postalCode": "T8X8C7", "twitter": "None", "instagram": "None", "facebook": "None", "youtube": "None", "website": "None", "summary": "None", "logo": "None", "latitude": 55.19473069135563, "longitude": -118.76155815877992}, "812288470RR0001": {"name": "Grande Prairie Hospice Palliative Care Society", "designationCode": "C", "categoryCode": "11", "address": "P.O. BOX 21215", "city": "GRANDE PRAIRIE", "province": "AB", "country": "CA", "postalCode": "T8V6W7", "twitter": "None", "instagram": "None", "facebook": "None", "youtube": "None", "website": "None", "summary": "None", "logo": "None", "latitude": 55.171122000000054, "longitude": -118.79491399999993}, "806493466RR0001": {"name": "Grande Prairie Pathway Christian Communities", "designationCode": "C", "categoryCode": "31", "address": "BOX 822", "city": "SEXSMITH", "province": "AB", "country": "CA", "postalCode": "T0H3C0", "twitter": "None", "instagram": "None", "facebook": "None", "youtube": "None", "website": "None", "summary": "None", "logo": "None", "latitude": 55.348520000000065, "longitude": -118.78230999999994}, "119107175RR0001": {"name": "Grande Prairie Regional Hospital Foundation", "designationCode": "A", "categoryCode": "11", "address": "10409 98 AVE", "city": "GRAND PRAIRIE", "province": "AB", "country": "CA", "postalCode": "T8V2E8", "twitter": "None", "instagram": "None", "facebook": "None", "youtube": "None", "website": "None", "summary": "None", "logo": "None", "latitude": 55.168783445913235, "longitude": -118.8108948882423}, "830562732RR0001": {"name": "Grande Prairie Unida Christian Church", "designationCode": "C", "categoryCode": "39", "address": "9861 66 AVE", "city": "GRANDE PRAIRIE", "province": "AB", "country": "CA", "postalCode": "T8W2S1", "twitter": "None", "instagram": "None", "facebook": "None", "youtube": "None", "website": "None", "summary": "None", "logo": "None", "latitude": 55.13925539327147, "longitude": -118.78868841739305}, "891768392RR0001": {"name": "Grande Prairie Voice for Life Association", "designationCode": "C", "categoryCode": "21", "address": "11449 92 ST", "city": "GRANDE PRAIRIE", "province": "AB", "country": "CA", "postalCode": "T8X1P4", "twitter": "None", "instagram": "None", "facebook": "None", "youtube": "None", "website": "None", "summary": "None", "logo": "None", "latitude": 55.18431950291421, "longitude": -118.76918542048107}, "139947642RR0001": {"name": "Grande Yellowhead Public School Division No. 77", "designationCode": "C", "categoryCode": "20", "address": "3656 - 1ST AVENUE", "city": "EDSON", "province": "AB", "country": "CA", "postalCode": "T7E1S8", "twitter": "None", "instagram": "None", "facebook": "None", "youtube": "None", "website": "None", "summary": "None", "logo": "None", "latitude": 53.5856913961274, "longitude": -116.40313627924267}, "106732274RR0001": {"name": "Grands Fr\u00e8res Grandes Soeurs de Rouyn-Noranda", "designationCode": "C", "categoryCode": "09", "address": "225 - 380 AV RICHARD", "city": "ROUYN-NORANDA", "province": "QC", "country": "CA", "postalCode": "J9X4L3", "twitter": "None", "instagram": "None", "facebook": "None", "youtube": "None", "website": "None", "summary": "None", "logo": "None", "latitude": 48.232449115182646, "longitude": -79.01576169294215}, "132389453RR0001": {"name": "Grands Fr\u00e8res Grandes Soeurs des Appalaches", "designationCode": "C", "categoryCode": "09", "address": "202-733 BOUL.FRONTENAC OUEST", "city": "THETFORD MINES", "province": "QC", "country": "CA", "postalCode": "G6G7X9", "twitter": "None", "instagram": "None", "facebook": "None", "youtube": "None", "website": "None", "summary": "None", "logo": "None", "latitude": 46.09474969614479, "longitude": -71.32697030506637}, "814027892RR0001": {"name": "Grandview Apostolic Pentecostal Church", "designationCode": "C", "categoryCode": "39", "address": "337-2416 MAIN STREET", "city": "VANCOUVER", "province": "BC", "country": "CA", "postalCode": "V5T3E2", "twitter": "None", "instagram": "None", "facebook": "None", "youtube": "None", "website": "None", "summary": "None", "logo": "None", "latitude": 49.26360968476619, "longitude": -123.10089177547198}, "839815891RR0001": {"name": "Grandview Charitable Trust", "designationCode": "B", "categoryCode": "45", "address": "3425 - 2 AVE S", "city": "LETHBRIDGE", "province": "AB", "country": "CA", "postalCode": "T1J4V1", "twitter": "None", "instagram": "None", "facebook": "None", "youtube": "None", "website": "None", "summary": "None", "logo": "None", "latitude": 49.696839530439966, "longitude": -112.78914308381903}, "120246145RR0001": {"name": "Grandview Gateways Inc.", "designationCode": "C", "categoryCode": "01", "address": "BOX 307", "city": "GRANDVIEW", "province": "MB", "country": "CA", "postalCode": "R0L0Y0", "twitter": "None", "instagram": "None", "facebook": "None", "youtube": "None", "website": "None", "summary": "None", "logo": "None", "latitude": 51.17220000000003, "longitude": -100.69866999999994}, "846776250RR0001": {"name": "Grandview Sport and Leisure", "designationCode": "C", "categoryCode": "54", "address": "BOX 224", "city": "GRANDVIEW", "province": "MB", "country": "CA", "postalCode": "R0L0Y0", "twitter": "None", "instagram": "None", "facebook": "None", "youtube": "None", "website": "None", "summary": "None", "logo": "None", "latitude": 51.17220000000003, "longitude": -100.69866999999994}, "119288918RR1356": {"name": "Grandview Tagalog Congregation of Jehovah's Witnesses, Vancouver, British Columbia", "designationCode": "C", "categoryCode": "61", "address": "3280 GRANDVIEW HIGHWAY", "city": "VANCOUVER", "province": "BC", "country": "CA", "postalCode": "V5M2G2", "twitter": "None", "instagram": "None", "facebook": "None", "youtube": "None", "website": "None", "summary": "None", "logo": "None", "latitude": 49.25813950288553, "longitude": -123.03475102553523}, "119288918RR1646": {"name": "Grandview Vietnamese Congregation of Jehovah's Witnesses, Vancouver, British Columbia", "designationCode": "C", "categoryCode": "61", "address": "2462 GRANDVIEW HWY S", "city": "VANCOUVER", "province": "BC", "country": "CA", "postalCode": "V5M2C7", "twitter": "None", "instagram": "None", "facebook": "None", "youtube": "None", "website": "None", "summary": "None", "logo": "None", "latitude": 49.257504446362226, "longitude": -123.05554401906922}, "837683358RR0001": {"name": "Granite Education Fund Inc.", "designationCode": "C", "categoryCode": "59", "address": "338 PARKER STREET             P.O. BOX 294", "city": "WOODLANDS", "province": "MB", "country": "CA", "postalCode": "R0C3H0", "twitter": "None", "instagram": "None", "facebook": "None", "youtube": "None", "website": "None", "summary": "None", "logo": "None", "latitude": 50.207100379625665, "longitude": -97.65471790934886}, "820082006RR0001": {"name": "Grannies Gone Global", "designationCode": "C", "categoryCode": "09", "address": "34-2655 MAIN ST", "city": "WINNIPEG", "province": "MB", "country": "CA", "postalCode": "R2V4V8", "twitter": "None", "instagram": "None", "facebook": "None", "youtube": "None", "website": "None", "summary": "None", "logo": "None", "latitude": 49.96041671293557, "longitude": -97.08804952019756}, "107448219RR0001": {"name": "Grant MacEwan University", "designationCode": "C", "categoryCode": "20", "address": "10700 104 AVENUE", "city": "EDMONTON", "province": "AB", "country": "CA", "postalCode": "T5J4S2", "twitter": "None", "instagram": "None", "facebook": "None", "youtube": "None", "website": "None", "summary": "None", "logo": "None", "latitude": 53.54633411260271, "longitude": -113.50482911260269}, "842129082RR0001": {"name": "Grant Thornton Foundation", "designationCode": "B", "categoryCode": "03", "address": "50 BAY STREET                 12TH FLOOR", "city": "TORONTO", "province": "ON", "country": "CA", "postalCode": "M5J2Z8", "twitter": "None", "instagram": "None", "facebook": "None", "youtube": "None", "website": "None", "summary": "None", "logo": "None", "latitude": 43.644068005539935, "longitude": -79.37832571279321}, "871416905RR0001": {"name": "Grantham's Wharf Association", "designationCode": "C", "categoryCode": "56", "address": "496 CENTRAL AVE", "city": "GIBSONS", "province": "BC", "country": "CA", "postalCode": "V0N1V1", "twitter": "None", "instagram": "None", "facebook": "None", "youtube": "None", "website": "None", "summary": "None", "logo": "None", "latitude": 49.413184478792594, "longitude": -123.49731086081135}, "118946342RR0001": {"name": "Granton Cemetery", "designationCode": "C", "categoryCode": "59", "address": "444 QUEEN STREET              PO BOX 865", "city": "GRANTON", "province": "ON", "country": "CA", "postalCode": "N0M1V0", "twitter": "None", "instagram": "None", "facebook": "None", "youtube": "None", "website": "None", "summary": "None", "logo": "None", "latitude": 43.219740782128206, "longitude": -81.30043691768151}, "856791751RR0001": {"name": "Grassland Community Church", "designationCode": "C", "categoryCode": "39", "address": "4907 50TH STREET", "city": "ATHABASCA", "province": "AB", "country": "CA", "postalCode": "T9S1E1", "twitter": "None", "instagram": "None", "facebook": "None", "youtube": "None", "website": "None", "summary": "None", "logo": "None", "latitude": 54.719955, "longitude": -113.28590104097155}, "811607399RR0001": {"name": "Grasslands Church", "designationCode": "C", "categoryCode": "39", "address": "210 - 640 3 ST SE", "city": "MEDICINE HAT", "province": "AB", "country": "CA", "postalCode": "T1A0H5", "twitter": "None", "instagram": "None", "facebook": "None", "youtube": "None", "website": "None", "summary": "None", "logo": "None", "latitude": 50.040165782128206, "longitude": -110.67467154815625}, "119288918RR1655": {"name": "Grasslands Low German Congregation of Jehovah's Witnesses, Taber, Alberta", "designationCode": "C", "categoryCode": "61", "address": "6004 51 ST", "city": "TABER", "province": "AB", "country": "CA", "postalCode": "T1G1K5", "twitter": "None", "instagram": "None", "facebook": "None", "youtube": "None", "website": "None", "summary": "None", "logo": "None", "latitude": 49.796465160638014, "longitude": -112.14799078021359}, "855373924RR0001": {"name": "Grassroots Assistance in Rural Development", "designationCode": "C", "categoryCode": "11", "address": "35832 HEATHERSTONE PLACE", "city": "ABBOTSFORD", "province": "BC", "country": "CA", "postalCode": "V3G1E6", "twitter": "None", "instagram": "None", "facebook": "None", "youtube": "None", "website": "None", "summary": "None", "logo": "None", "latitude": 49.04332146681873, "longitude": -122.23211094601535}, "852573633RR0001": {"name": "Grassroots Gospel Ministries Inc.", "designationCode": "B", "categoryCode": "39", "address": "473 GRANARY LAKE ROAD", "city": "BLIND RIVER", "province": "ON", "country": "CA", "postalCode": "P0R1B0", "twitter": "None", "instagram": "None", "facebook": "None", "youtube": "None", "website": "None", "summary": "None", "logo": "None", "latitude": 46.24038772567419, "longitude": -82.90640695246375}, "828804559RR0001": {"name": "Grassy Hill Charitable Trust", "designationCode": "B", "categoryCode": "39", "address": "50-1ST AVE NE", "city": "SWIFT CURRENT", "province": "SK", "country": "CA", "postalCode": "S9H4W4", "twitter": "None", "instagram": "None", "facebook": "None", "youtube": "None", "website": "None", "summary": "None", "logo": "None", "latitude": 50.282664378132, "longitude": -107.79863205289816}, "814605069RR0001": {"name": "Gravelbourg and District Donor's Choice Inc.", "designationCode": "A", "categoryCode": "03", "address": "PO BOX 951", "city": "GRAVELBOURG", "province": "SK", "country": "CA", "postalCode": "S0H1X0", "twitter": "None", "instagram": "None", "facebook": "None", "youtube": "None", "website": "None", "summary": "None", "logo": "None", "latitude": 49.87668000000008, "longitude": -106.55736999999999}, "805711553RR0001": {"name": "Gravelbourg Play and Learn Daycare Inc.", "designationCode": "C", "categoryCode": "01", "address": "BOX 876", "city": "GRAVELBOURG", "province": "SK", "country": "CA", "postalCode": "S0H1X0", "twitter": "None", "instagram": "None", "facebook": "None", "youtube": "None", "website": "None", "summary": "None", "logo": "None", "latitude": 49.87668000000008, "longitude": -106.55736999999999}, "823438791RR0001": {"name": "Gray Family Foundation", "designationCode": "B", "categoryCode": "03", "address": "20 GREAT GEORGE STREET", "city": "CHARLOTTETOWN", "province": "PE", "country": "CA", "postalCode": "C1A4J6", "twitter": "None", "instagram": "None", "facebook": "None", "youtube": "None", "website": "None", "summary": "None", "logo": "None", "latitude": 46.23287089814757, "longitude": -63.12321472119}, "837820281RR0001": {"name": "Great Anointing Chapel (World Wide)", "designationCode": "C", "categoryCode": "39", "address": "913-2999 JANE STREET", "city": "NORTH YORK", "province": "ON", "country": "CA", "postalCode": "M3M2J9", "twitter": "None", "instagram": "None", "facebook": "None", "youtube": "None", "website": "None", "summary": "None", "logo": "None", "latitude": 43.725678218144964, "longitude": -79.50979302655806}, "812202620RR0001": {"name": "Great Commission Church", "designationCode": "C", "categoryCode": "31", "address": "954 WESTVIEW CRES", "city": "NORTH VANCOUVER", "province": "BC", "country": "CA", "postalCode": "V7N3Y2", "twitter": "None", "instagram": "None", "facebook": "None", "youtube": "None", "website": "None", "summary": "None", "logo": "None", "latitude": 49.335356980922505, "longitude": -123.08910630726592}, "799285895RR0001": {"name": "Great Commission International Ministry", "designationCode": "C", "categoryCode": "39", "address": "31 BAYARD AVE,", "city": "SCARBOROUGH", "province": "ON", "country": "CA", "postalCode": "M1R4A4", "twitter": "None", "instagram": "None", "facebook": "None", "youtube": "None", "website": "None", "summary": "None", "logo": "None", "latitude": 43.74878302663174, "longitude": -79.29225140492824}, "828649467RR0001": {"name": "Great Commission Media Ministries", "designationCode": "C", "categoryCode": "47", "address": "200 - 2121 CLEARBROOK RD", "city": "ABBOTSFORD", "province": "BC", "country": "CA", "postalCode": "V2T4H6", "twitter": "None", "instagram": "None", "facebook": "None", "youtube": "None", "website": "None", "summary": "None", "logo": "None", "latitude": 49.04064936663974, "longitude": -122.33725234574946}, "852476282RR0001": {"name": "Great Commission Network Worldwide Association", "designationCode": "C", "categoryCode": "47", "address": "ZION LUTHERAN CHURCH          5950-179 STREET", "city": "SURREY", "province": "BC", "country": "CA", "postalCode": "V3S4J9", "twitter": "None", "instagram": "None", "facebook": "None", "youtube": "None", "website": "None", "summary": "None", "logo": "None", "latitude": 49.110490043857155, "longitude": -122.72691997388785}, "801765793RR0001": {"name": "Great Commission Training Society", "designationCode": "C", "categoryCode": "47", "address": "1250-1500 GEORGIA W ST        PO BOX 62", "city": "VANCOUVER", "province": "BC", "country": "CA", "postalCode": "V6G2Z6", "twitter": "None", "instagram": "None", "facebook": "None", "youtube": "None", "website": "None", "summary": "None", "logo": "None", "latitude": 49.29013479542975, "longitude": -123.1300069287031}, "843532136RR0001": {"name": "Great Compassion Bodhi Prajna Temple", "designationCode": "C", "categoryCode": "35", "address": "19 HIDDEN FOREST DRIVE", "city": "STOUVILLE", "province": "ON", "country": "CA", "postalCode": "L0G1E0", "twitter": "None", "instagram": "None", "facebook": "None", "youtube": "None", "website": "None", "summary": "None", "logo": "None", "latitude": 44.06179906275587, "longitude": -79.33288221383148}, "837671320RR0001": {"name": "Great Enlightenment Buddhist Institute Society", "designationCode": "C", "categoryCode": "35", "address": "12174 SHORE ROAD", "city": "LITTLE SANDS", "province": "PE", "country": "CA", "postalCode": "C0A1W0", "twitter": "None", "instagram": "None", "facebook": "None", "youtube": "None", "website": "None", "summary": "None", "logo": "None", "latitude": 45.96634732889949, "longitude": -62.698089148623716}, "824357990RR0001": {"name": "Great Enlightenment Buddhist Institute Society (GEBIS) Toronto", "designationCode": "C", "categoryCode": "35", "address": "150 NORTH RIVERMEDE RD", "city": "CONCORD", "province": "ON", "country": "CA", "postalCode": "L4K5B1", "twitter": "None", "instagram": "None", "facebook": "None", "youtube": "None", "website": "None", "summary": "None", "logo": "None", "latitude": 43.818469219256784, "longitude": -79.48395755014681}, "808462360RR0001": {"name": "Great Grace Ministries", "designationCode": "B", "categoryCode": "39", "address": "46 KEMPSFORD CRES", "city": "BRAMPTON", "province": "ON", "country": "CA", "postalCode": "L7A4M5", "twitter": "None", "instagram": "None", "facebook": "None", "youtube": "None", "website": "None", "summary": "None", "logo": "None", "latitude": 43.6854386670048, "longitude": -79.84432557764292}, "851285031RR0001": {"name": "Great Harvest Ministries International", "designationCode": "C", "categoryCode": "39", "address": "P.O. BOX 60164                FRASER R.P.O.", "city": "VANCOUVER", "province": "BC", "country": "CA", "postalCode": "V5W4B5", "twitter": "None", "instagram": "None", "facebook": "None", "youtube": "None", "website": "None", "summary": "None", "logo": "None", "latitude": 49.23284580727792, "longitude": -123.09059392308654}, "119302073RR0001": {"name": "Great Lakes Copper Employees Charitable Contributions Organization", "designationCode": "B", "categoryCode": "75", "address": "1010 CLARKE ROAD              BOX 7515", "city": "LONDON", "province": "ON", "country": "CA", "postalCode": "N5Y5S6", "twitter": "None", "instagram": "None", "facebook": "None", "youtube": "None", "website": "None", "summary": "None", "logo": "None", "latitude": 43.02219565407137, "longitude": -81.18449539761974}, "814622106RR0001": {"name": "Great Lakes Faith Impact Ministries", "designationCode": "C", "categoryCode": "47", "address": "P.O. BOX 21017                R.P.O. UNIVERSITY MALL", "city": "WINDSOR", "province": "ON", "country": "CA", "postalCode": "N9B3T4", "twitter": "None", "instagram": "None", "facebook": "None", "youtube": "None", "website": "None", "summary": "None", "logo": "None", "latitude": 42.310475521183285, "longitude": -83.06290067585856}, "846187086RR0001": {"name": "Great Light Healing Ministries Int'l: City of Faith", "designationCode": "C", "categoryCode": "39", "address": "12057 88 AVE", "city": "SURREY", "province": "BC", "country": "CA", "postalCode": "V3W3J3", "twitter": "None", "instagram": "None", "facebook": "None", "youtube": "None", "website": "None", "summary": "None", "logo": "None", "latitude": 49.16325945657562, "longitude": -122.88887002553523}, "809442064RR0001": {"name": "Great Multitude Presbyterian Church of Woodbridge", "designationCode": "C", "categoryCode": "39", "address": "4561 LANGSTAFF ROAD", "city": "WOODBRIDGE", "province": "ON", "country": "CA", "postalCode": "L4L2B2", "twitter": "None", "instagram": "None", "facebook": "None", "youtube": "None", "website": "None", "summary": "None", "logo": "None", "latitude": 43.80262701298444, "longitude": -79.58014927904114}, "824838247RR0001": {"name": "Great War Centenary Association - Brantford - Brant County - Six Nations (GWCA)", "designationCode": "C", "categoryCode": "50", "address": "PO BOX 252", "city": "BRANTFORD", "province": "ON", "country": "CA", "postalCode": "N3T5M8", "twitter": "None", "instagram": "None", "facebook": "None", "youtube": "None", "website": "None", "summary": "None", "logo": "None", "latitude": 43.14136200000006, "longitude": -80.26173349999993}, "818232480RR0001": {"name": "Great Wisdom Buddhist Institute Inc.", "designationCode": "C", "categoryCode": "35", "address": "46 E. UIGG ROAD", "city": "VERNON BRIDGE", "province": "PE", "country": "CA", "postalCode": "C0A2E0", "twitter": "None", "instagram": "None", "facebook": "None", "youtube": "None", "website": "None", "summary": "None", "logo": "None", "latitude": 46.183106725489196, "longitude": -62.824087708292495}, "825092844RR0001": {"name": "Greater Blackville Resource Center Inc.", "designationCode": "C", "categoryCode": "09", "address": "12073 ROUTE 8", "city": "UPPER BLACKVILLE", "province": "NB", "country": "CA", "postalCode": "E9B1Z8", "twitter": "None", "instagram": "None", "facebook": "None", "youtube": "None", "website": "None", "summary": "None", "logo": "None", "latitude": 46.63489172972568, "longitude": -65.87234258320842}, "819798562RR0001": {"name": "Greater Destiny Apostolic Church", "designationCode": "C", "categoryCode": "39", "address": "6 - 321 REXDALE BLVD", "city": "ETOBICOKE", "province": "ON", "country": "CA", "postalCode": "M9W1R8", "twitter": "None", "instagram": "None", "facebook": "None", "youtube": "None", "website": "None", "summary": "None", "logo": "None", "latitude": 43.714545918085555, "longitude": -79.58433923593385}, "822791430RR0001": {"name": "Greater Edmonton Animal Rescue Society (GEARS)", "designationCode": "C", "categoryCode": "54", "address": "POST OFFICE BOX 69013 SKYVIEW", "city": "EDMONTON", "province": "AB", "country": "CA", "postalCode": "T6V1G7", "twitter": "None", "instagram": "None", "facebook": "None", "youtube": "None", "website": "None", "summary": "None", "logo": "None", "latitude": 53.613495000000015, "longitude": -113.55777}, "823888292RR0001": {"name": "Greater Fredericton Social Innovation Inc.", "designationCode": "C", "categoryCode": "09", "address": "POST OFFICE BOX 30069", "city": "FREDERICTON", "province": "NB", "country": "CA", "postalCode": "E3B0H8", "twitter": "None", "instagram": "None", "facebook": "None", "youtube": "None", "website": "None", "summary": "None", "logo": "None", "latitude": 45.96062100000006, "longitude": -66.63911299999994}, "859039067RR0001": {"name": "Greater Grace Christian Fellowship", "designationCode": "C", "categoryCode": "39", "address": "130 MEDLAND AVENUE", "city": "WHITBY", "province": "ON", "country": "CA", "postalCode": "L1P1W7", "twitter": "None", "instagram": "None", "facebook": "None", "youtube": "None", "website": "None", "summary": "None", "logo": "None", "latitude": 43.906389106872766, "longitude": -78.9765175417796}, "811652932RR0001": {"name": "Greater Life Christian Ministries", "designationCode": "C", "categoryCode": "47", "address": "POST OFFICE BOX 52", "city": "CHATHAM", "province": "ON", "country": "CA", "postalCode": "N7M5K1", "twitter": "None", "instagram": "None", "facebook": "None", "youtube": "None", "website": "None", "summary": "None", "logo": "None", "latitude": 42.404613000000055, "longitude": -82.18960099999994}, "801655283RR0001": {"name": "Greater Life Community Church", "designationCode": "C", "categoryCode": "39", "address": "15 MOONEY STREET,", "city": "BRADFORD", "province": "ON", "country": "CA", "postalCode": "L3Z0K7", "twitter": "None", "instagram": "None", "facebook": "None", "youtube": "None", "website": "None", "summary": "None", "logo": "None", "latitude": 44.106135874805396, "longitude": -79.59451535178032}, "868505314RR0001": {"name": "Greater Life Tabernacle United Pentecostal Church Inc.", "designationCode": "C", "categoryCode": "39", "address": "PO BOX 21121", "city": "CHARLOTTETOWN", "province": "PE", "country": "CA", "postalCode": "C1A9H6", "twitter": "None", "instagram": "None", "facebook": "None", "youtube": "None", "website": "None", "summary": "None", "logo": "None", "latitude": 46.23659700000006, "longitude": -63.12815449999994}, "817579568RR0001": {"name": "Greater Saint John Field House Inc.", "designationCode": "A", "categoryCode": "03", "address": "PO BOX 6370                   RPO BRUNSWICK SQUARE", "city": "SAINT JOHN", "province": "NB", "country": "CA", "postalCode": "E2L4R8", "twitter": "None", "instagram": "None", "facebook": "None", "youtube": "None", "website": "None", "summary": "None", "logo": "None", "latitude": 45.27306008050087, "longitude": -66.06129006939226}, "809643596RR0001": {"name": "Greater St. Albert Catholic Schools Education Foundation", "designationCode": "C", "categoryCode": "23", "address": "6 ST VITAL AVE", "city": "ST. ALBERT", "province": "AB", "country": "CA", "postalCode": "T8N1K2", "twitter": "None", "instagram": "None", "facebook": "None", "youtube": "None", "website": "None", "summary": "None", "logo": "None", "latitude": 53.63744915843415, "longitude": -113.63285123628057}, "836612606RR0001": {"name": "Greater Sudbury Sports Hall of Fame Foundation", "designationCode": "C", "categoryCode": "50", "address": "2531 IDA ST", "city": "SUDBURY", "province": "ON", "country": "CA", "postalCode": "P3E4W9", "twitter": "None", "instagram": "None", "facebook": "None", "youtube": "None", "website": "None", "summary": "None", "logo": "None", "latitude": 46.43692049738018, "longitude": -80.97123781599855}, "825558281RR0001": {"name": "Greater Toronto Collector Car Museum", "designationCode": "C", "categoryCode": "50", "address": "SUITE 155                     157 ADELAIDE STREET WEST", "city": "TORONTO", "province": "ON", "country": "CA", "postalCode": "M5H4E7", "twitter": "None", "instagram": "None", "facebook": "None", "youtube": "None", "website": "None", "summary": "None", "logo": "None", "latitude": 43.64893585316531, "longitude": -79.38507597945643}, "810084319RR0001": {"name": "Greater Trail Hospice Society", "designationCode": "C", "categoryCode": "10", "address": "7-1500 COLUMBIA AVE", "city": "TRAIL", "province": "BC", "country": "CA", "postalCode": "V1R1J9", "twitter": "None", "instagram": "None", "facebook": "None", "youtube": "None", "website": "None", "summary": "None", "logo": "None", "latitude": 49.098044714669136, "longitude": -117.70329504902163}, "801625914RR0001": {"name": "Greater Vancouver Christian Assembly", "designationCode": "C", "categoryCode": "39", "address": "19045 86 AVE", "city": "SURREY", "province": "BC", "country": "CA", "postalCode": "V4N6E3", "twitter": "None", "instagram": "None", "facebook": "None", "youtube": "None", "website": "None", "summary": "None", "logo": "None", "latitude": 49.15922252207279, "longitude": -122.69481219317329}, "133986455RR0001": {"name": "Greater Vancouver Professional Theatre Alliance Society", "designationCode": "C", "categoryCode": "22", "address": "1405 ANDERSON STREET          3RD FLOOR", "city": "VANCOUVER", "province": "BC", "country": "CA", "postalCode": "V6H3R5", "twitter": "None", "instagram": "None", "facebook": "None", "youtube": "None", "website": "None", "summary": "None", "logo": "None", "latitude": 49.271285565566785, "longitude": -123.13529005940113}, "842615221RR0001": {"name": "Greater Victoria Coalition to End Homelessness Society", "designationCode": "C", "categoryCode": "09", "address": "1125 PEMBROKE ST", "city": "VICTORIA", "province": "BC", "country": "CA", "postalCode": "V8T1J3", "twitter": "None", "instagram": "None", "facebook": "None", "youtube": "None", "website": "None", "summary": "None", "logo": "None", "latitude": 48.4318085683827, "longitude": -123.35127430405676}, "852298355RR0001": {"name": "Greater Victoria Ethiopian Orthodox Tewahido Menbere Brehan Dagmawi Kulibi St. Gabriel Church", "designationCode": "C", "categoryCode": "39", "address": "POST OFFICE BOX 36039", "city": "VICTORIA", "province": "BC", "country": "CA", "postalCode": "V9A7J5", "twitter": "None", "instagram": "None", "facebook": "None", "youtube": "None", "website": "None", "summary": "None", "logo": "None", "latitude": 48.42854700000005, "longitude": -123.36445249999994}, "898572706RR0001": {"name": "Greater Victoria Pink Salmon Festival Society", "designationCode": "C", "categoryCode": "09", "address": "1043 FASHODA PL", "city": "VICTORIA", "province": "BC", "country": "CA", "postalCode": "V9C0E9", "twitter": "None", "instagram": "None", "facebook": "None", "youtube": "None", "website": "None", "summary": "None", "logo": "None", "latitude": 48.41339793690404, "longitude": -123.53515795344826}, "834325607RR0001": {"name": "Greaterworks Community Church", "designationCode": "C", "categoryCode": "39", "address": "22 HILLSON CRT", "city": "BRAMPTON", "province": "ON", "country": "CA", "postalCode": "L6P1C4", "twitter": "None", "instagram": "None", "facebook": "None", "youtube": "None", "website": "None", "summary": "None", "logo": "None", "latitude": 43.7820236622137, "longitude": -79.74640797671513}, "811055920RR0001": {"name": "Greatlife Christian Community", "designationCode": "C", "categoryCode": "39", "address": "50 HOMESTEAD RD", "city": "SCARBOROUGH", "province": "ON", "country": "CA", "postalCode": "M1E3R9", "twitter": "None", "instagram": "None", "facebook": "None", "youtube": "None", "website": "None", "summary": "None", "logo": "None", "latitude": 43.76264607493225, "longitude": -79.17719581046204}, "119288918RR1521": {"name": "Greek Circuit MD - 8C of Jehovah's Witnesses", "designationCode": "C", "categoryCode": "61", "address": "172 DONLANDS AVE", "city": "EAST YORK", "province": "ON", "country": "CA", "postalCode": "M4J3P8", "twitter": "None", "instagram": "None", "facebook": "None", "youtube": "None", "website": "None", "summary": "None", "logo": "None", "latitude": 43.68602851956261, "longitude": -79.33963662741631}, "790253884RR0001": {"name": "Greek Community of Winnipeg Foundation Inc.", "designationCode": "A", "categoryCode": "03", "address": "2255 GRANT AVENUE", "city": "WINNIPEG", "province": "MB", "country": "CA", "postalCode": "R3P0S2", "twitter": "None", "instagram": "None", "facebook": "None", "youtube": "None", "website": "None", "summary": "None", "logo": "None", "latitude": 49.857982519331486, "longitude": -97.22987108950318}, "823654926RR0001": {"name": "Greely Village Recreational/Charitable Foundation Inc.", "designationCode": "C", "categoryCode": "56", "address": "6598 PEBBLE TRAIL WAY", "city": "GREELY", "province": "ON", "country": "CA", "postalCode": "K4P0B6", "twitter": "None", "instagram": "None", "facebook": "None", "youtube": "None", "website": "None", "summary": "None", "logo": "None", "latitude": 45.259649038548325, "longitude": -75.59547644849685}, "894945633RR0017": {"name": "Green valley Alliance Church of the Christian and MissionaryAlliance in Canada", "designationCode": "C", "categoryCode": "39", "address": "P.O.BOX 24                    758 SIMCOE RD", "city": "BRADFORD", "province": "ON", "country": "CA", "postalCode": "L3Z2A7", "twitter": "None", "instagram": "None", "facebook": "None", "youtube": "None", "website": "None", "summary": "None", "logo": "None", "latitude": 44.09026548930898, "longitude": -79.56665182427909}, "859016552RR0001": {"name": "Green Bay Heritage Cemetery Association", "designationCode": "C", "categoryCode": "50", "address": "4740 LATIMER ROAD             P.O. BOX 63", "city": "INVERARY", "province": "ON", "country": "CA", "postalCode": "K0H1X0", "twitter": "None", "instagram": "None", "facebook": "None", "youtube": "None", "website": "None", "summary": "None", "logo": "None", "latitude": 44.38862449177702, "longitude": -76.47211002692019}, "803133016RR0001": {"name": "Green Bricks Education Society", "designationCode": "C", "categoryCode": "21", "address": "3031 ARMADA STREET", "city": "COQUITLAM", "province": "BC", "country": "CA", "postalCode": "V3C3S4", "twitter": "None", "instagram": "None", "facebook": "None", "youtube": "None", "website": "None", "summary": "None", "logo": "None", "latitude": 49.26528032500435, "longitude": -122.81099606116933}, "815264890RR0001": {"name": "Green Communities Foundation", "designationCode": "C", "categoryCode": "21", "address": "2ND FL-416 CHAMBERS ST", "city": "PETERBOROUGH", "province": "ON", "country": "CA", "postalCode": "K9H3V1", "twitter": "None", "instagram": "None", "facebook": "None", "youtube": "None", "website": "None", "summary": "None", "logo": "None", "latitude": 44.30637117346646, "longitude": -78.3206626286284}, "802219469RR0001": {"name": "Green Learning Canada Foundation", "designationCode": "C", "categoryCode": "21", "address": "PO BOX 7019 STN MAIN", "city": "DRAYTON VALLEY", "province": "AB", "country": "CA", "postalCode": "T7A1S3", "twitter": "None", "instagram": "None", "facebook": "None", "youtube": "None", "website": "None", "summary": "None", "logo": "None", "latitude": 53.22798600000006, "longitude": -114.98692399999993}, "734668890RR0001": {"name": "Green Municipal Fund", "designationCode": "B", "categoryCode": "55", "address": "24 CLARENCE ST", "city": "OTTAWA", "province": "ON", "country": "CA", "postalCode": "K1N5P3", "twitter": "None", "instagram": "None", "facebook": "None", "youtube": "None", "website": "None", "summary": "None", "logo": "None", "latitude": 45.428356530930905, "longitude": -75.69466189104976}, "803441120RR0001": {"name": "Green Sanderson Family Foundation", "designationCode": "B", "categoryCode": "05", "address": "64 MERTON ST", "city": "TORONTO", "province": "ON", "country": "CA", "postalCode": "M4S1A1", "twitter": "None", "instagram": "None", "facebook": "None", "youtube": "None", "website": "None", "summary": "None", "logo": "None", "latitude": 43.696549191268716, "longitude": -79.39413654705973}, "809488448RR0001": {"name": "Green Teams of Canada", "designationCode": "C", "categoryCode": "52", "address": "15678 24 AVENUE", "city": "SURREY", "province": "BC", "country": "CA", "postalCode": "V4A2J7", "twitter": "None", "instagram": "None", "facebook": "None", "youtube": "None", "website": "None", "summary": "None", "logo": "None", "latitude": 49.045540485140606, "longitude": -122.78806102553523}, "806962353RR0001": {"name": "Green Thumbs Growing Kids", "designationCode": "C", "categoryCode": "59", "address": "3RD FLOOR                     585 DUNDAS STREET EAST", "city": "TORONTO", "province": "ON", "country": "CA", "postalCode": "M5A2B7", "twitter": "None", "instagram": "None", "facebook": "None", "youtube": "None", "website": "None", "summary": "None", "logo": "None", "latitude": 43.66027180930821, "longitude": -79.36201567984308}, "829945708RR0001": {"name": "Green View Cemetery Society", "designationCode": "C", "categoryCode": "59", "address": "P.O. BOX #108", "city": "ROSALIND", "province": "AB", "country": "CA", "postalCode": "T0B3Y0", "twitter": "None", "instagram": "None", "facebook": "None", "youtube": "None", "website": "None", "summary": "None", "logo": "None", "latitude": 52.78343000000007, "longitude": -112.45186999999999}, "835935263RR0001": {"name": "Green Wood Coalition", "designationCode": "C", "categoryCode": "09", "address": "POST OFFICE BOX 61", "city": "PORT HOPE", "province": "ON", "country": "CA", "postalCode": "L1A2Z2", "twitter": "None", "instagram": "None", "facebook": "None", "youtube": "None", "website": "None", "summary": "None", "logo": "None", "latitude": 43.94963400000006, "longitude": -78.29517049999993}, "811853050RR0001": {"name": "Greenbank United Cemeteries Board", "designationCode": "C", "categoryCode": "59", "address": "1530 CRAGG ROAD RR 2", "city": "SEAGRAVE", "province": "ON", "country": "CA", "postalCode": "L0C1G0", "twitter": "None", "instagram": "None", "facebook": "None", "youtube": "None", "website": "None", "summary": "None", "logo": "None", "latitude": 44.157237877546685, "longitude": -78.99186797166615}, "133503326RR0001": {"name": "Greenfield and District Fire Department", "designationCode": "C", "categoryCode": "59", "address": "PO BOX 132", "city": "GREENFIELD", "province": "NS", "country": "CA", "postalCode": "B0T1E0", "twitter": "None", "instagram": "None", "facebook": "None", "youtube": "None", "website": "None", "summary": "None", "logo": "None", "latitude": 45.00940000000003, "longitude": -64.32401999999996}, "118947449RR0001": {"name": "Greenfield Community Church", "designationCode": "C", "categoryCode": "31", "address": "3712-114 ST", "city": "EDMONTON", "province": "AB", "country": "CA", "postalCode": "T6J1M1", "twitter": "None", "instagram": "None", "facebook": "None", "youtube": "None", "website": "None", "summary": "None", "logo": "None", "latitude": 53.47195344546709, "longitude": -113.52798772970145}}