{"886605997RR0001": {"name": "C T I CANADIAN TRAINING INSTITUTE, INSTITUT CANADIEN DE FORMATION INC", "designationCode": "C", "categoryCode": "59", "address": "901 KING STREET WEST          SUITE 400", "city": "TORONTO", "province": "ON", "country": "CA", "postalCode": "M5V3H5", "twitter": "None", "instagram": "None", "facebook": "None", "youtube": "None", "website": "None", "summary": "None", "logo": "None", "latitude": 43.642136830948296, "longitude": -79.41129648958398}, "135709236RR0001": {"name": "C T RELIGIOUS COMMUNICATION GROUP ASSOCIATION", "designationCode": "C", "categoryCode": "39", "address": "202-402 DUNLEVY AVE", "city": "VANCOUVER", "province": "BC", "country": "CA", "postalCode": "V6A3A7", "twitter": "None", "instagram": "None", "facebook": "None", "youtube": "None", "website": "None", "summary": "None", "logo": "None", "latitude": 49.2809275320561, "longitude": -123.09537243961006}, "886431162RR0001": {"name": "C The Visual Arts Foundation", "designationCode": "C", "categoryCode": "22", "address": "P.O. BOX 5,                   STATION B,", "city": "TORONTO", "province": "ON", "country": "CA", "postalCode": "M5T2T2", "twitter": "None", "instagram": "None", "facebook": "None", "youtube": "None", "website": "None", "summary": "None", "logo": "None", "latitude": 43.64868300000006, "longitude": -79.38544399999994}, "133867333RR0001": {"name": "C. G. JUNG FOUNDATION OF ONTARIO", "designationCode": "C", "categoryCode": "21", "address": "14 ELM STREET", "city": "TORONTO", "province": "ON", "country": "CA", "postalCode": "M5G1G7", "twitter": "None", "instagram": "None", "facebook": "None", "youtube": "None", "website": "None", "summary": "None", "logo": "None", "latitude": 43.65774714351647, "longitude": -79.382377864014}, "864541701RR0001": {"name": "C. L. Nelligan Clergy Fund", "designationCode": "A", "categoryCode": "45", "address": "188 RENFREW STREET", "city": "PEMBROKE", "province": "ON", "country": "CA", "postalCode": "K8A6X1", "twitter": "None", "instagram": "None", "facebook": "None", "youtube": "None", "website": "None", "summary": "None", "logo": "None", "latitude": 45.82408544949359, "longitude": -77.11675287406864}, "138721899RR0001": {"name": "C. R. YOUNGER FOUNDATION", "designationCode": "B", "categoryCode": "13", "address": "5421 BLEZARD DR", "city": "BEAMSVILLE", "province": "ON", "country": "CA", "postalCode": "L0R1B3", "twitter": "None", "instagram": "None", "facebook": "None", "youtube": "None", "website": "None", "summary": "None", "logo": "None", "latitude": 43.19542751543634, "longitude": -79.49805291618097}, "102990538RR0001": {"name": "C.A.D.O. CENTRE D'APPRENTISSAGE POUR LA D\u00c9FICIENCE-INTELLECTUELLE DE L'OUTAOUAIS", "designationCode": "C", "categoryCode": "01", "address": "410 BOUL. MALONEY O", "city": "GATINEAU", "province": "QC", "country": "CA", "postalCode": "J8P6W2", "twitter": "None", "instagram": "None", "facebook": "None", "youtube": "None", "website": "None", "summary": "None", "logo": "None", "latitude": 45.48440775766086, "longitude": -75.66488687650748}, "893279968RR0001": {"name": "C.A.D.R.E. CENTRE D'ACTION, DE DEVELOPPEMENT ET DE RECHERCHE EN EMPLOYABILITE", "designationCode": "C", "categoryCode": "01", "address": "7491,RUE CORDNER", "city": "MONTREAL", "province": "QC", "country": "CA", "postalCode": "H8N2R5", "twitter": "None", "instagram": "None", "facebook": "None", "youtube": "None", "website": "None", "summary": "None", "logo": "None", "latitude": 45.44321263808915, "longitude": -73.6279573016549}, "139297105RR0001": {"name": "C.A.L.A.C.S COUP DE COEUR (CENTRE D'AIDE ET DE LUTTE CONTRE LES AGRESSIONS SEXUEL)", "designationCode": "C", "categoryCode": "09", "address": "CP 31", "city": "JOLIETTE", "province": "QC", "country": "CA", "postalCode": "J6E3Z3", "twitter": "None", "instagram": "None", "facebook": "None", "youtube": "None", "website": "None", "summary": "None", "logo": "None", "latitude": 46.07504085446259, "longitude": -73.49508799514682}, "875994519RR0001": {"name": "C.A.L.A.C.S. LA CHRYSALIDE (CENTRE D'AIDE ET DE LUTTE CONTRE LES AGRESSIONS A CARACTERE SEXUEL)", "designationCode": "C", "categoryCode": "09", "address": "CASIER POSTAL 82080", "city": "LACHENAIE", "province": "QC", "country": "CA", "postalCode": "J6X4B2", "twitter": "None", "instagram": "None", "facebook": "None", "youtube": "None", "website": "None", "summary": "None", "logo": "None", "latitude": 45.69158400000006, "longitude": -73.63320199999993}, "120401864RR0001": {"name": "C.A.P. ACCUEIL JEUNESSE", "designationCode": "C", "categoryCode": "59", "address": "9 RUE DU COLLEGE", "city": "ST-ANDRE", "province": "QC", "country": "CA", "postalCode": "G0W2K0", "twitter": "None", "instagram": "None", "facebook": "None", "youtube": "None", "website": "None", "summary": "None", "logo": "None", "latitude": 48.314907281724196, "longitude": -71.98891862738765}, "879618700RR0001": {"name": "C.A.P.A.C.S. DE L'ABITIBI-OUEST (CENTRE D'AIDE ET DE PREVENTION DES AGRESSIONS A CARACTERE SEXUEL)", "designationCode": "C", "categoryCode": "09", "address": "C.P. 62", "city": "LASARRE", "province": "QC", "country": "CA", "postalCode": "J9Z2X4", "twitter": "None", "instagram": "None", "facebook": "None", "youtube": "None", "website": "None", "summary": "None", "logo": "None", "latitude": 48.797934000000055, "longitude": -79.20033199999993}, "136650769RR0001": {"name": "C.A.R.E (CREATING ACCESSIBLE RESIDENTIAL ENVIRONMENTS) HOUSING SOCIETY", "designationCode": "C", "categoryCode": "01", "address": "532,9768-170 STREET", "city": "EDMONTON", "province": "AB", "country": "CA", "postalCode": "T5T5L4", "twitter": "None", "instagram": "None", "facebook": "None", "youtube": "None", "website": "None", "summary": "None", "logo": "None", "latitude": 53.535195000000016, "longitude": -113.61546671270631}, "894179449RR0001": {"name": "C.A.R.E. (CENTRE D'ACTIVITES RECREATIVES ET EDUCATIVES)", "designationCode": "C", "categoryCode": "09", "address": "5785 PARKHAVEN AVE.", "city": "COTE ST. LUC", "province": "QC", "country": "CA", "postalCode": "H4W1X8", "twitter": "None", "instagram": "None", "facebook": "None", "youtube": "None", "website": "None", "summary": "None", "logo": "None", "latitude": 45.46906547547439, "longitude": -73.66889444324539}, "877835306RR0001": {"name": "C.A.R.T.S. OUTREACH", "designationCode": "C", "categoryCode": "09", "address": "1892 CARNARVON STREET", "city": "VICTORIA", "province": "BC", "country": "CA", "postalCode": "V8R2T8", "twitter": "None", "instagram": "None", "facebook": "None", "youtube": "None", "website": "None", "summary": "None", "logo": "None", "latitude": 48.43951251154118, "longitude": -123.32521919455826}, "119097475RR0001": {"name": "C.B. POWELL FOUNDATION", "designationCode": "B", "categoryCode": "03", "address": "2475 SKYMARK AVENUE           SUITE #1", "city": "MISSISSAUGA", "province": "ON", "country": "CA", "postalCode": "L4W4Y6", "twitter": "None", "instagram": "None", "facebook": "None", "youtube": "None", "website": "None", "summary": "None", "logo": "None", "latitude": 43.65597575607338, "longitude": -79.60117484283526}, "801100330RR0001": {"name": "C.B.H.C.N.S. Cemeteries Society", "designationCode": "C", "categoryCode": "59", "address": "3438 HIGHWAY 215", "city": "CENTRE BURLINGTON", "province": "NS", "country": "CA", "postalCode": "B0N1E0", "twitter": "None", "instagram": "None", "facebook": "None", "youtube": "None", "website": "None", "summary": "None", "logo": "None", "latitude": 45.06880042984875, "longitude": -64.10772272228024}, "873236574RR0001": {"name": "C.C. INTERNATIONAL CHRISTIAN VISION SOCIETY/C.C. VISION CRISTIANA INTERNACIONAL SOCIETY", "designationCode": "C", "categoryCode": "39", "address": "3198 GEORGIA STREET EAST", "city": "VANCOUVER", "province": "BC", "country": "CA", "postalCode": "V5K2L1", "twitter": "None", "instagram": "None", "facebook": "None", "youtube": "None", "website": "None", "summary": "None", "logo": "None", "latitude": 49.27817044213834, "longitude": -123.03622105786165}, "866696255RR0001": {"name": "C.C.I. CHINESE - CANADIAN INTERCULTURAL ASSOCIATION", "designationCode": "C", "categoryCode": "20", "address": "35 STONEHEATH CRES", "city": "MARKHAM", "province": "ON", "country": "CA", "postalCode": "L6C2K9", "twitter": "None", "instagram": "None", "facebook": "None", "youtube": "None", "website": "None", "summary": "None", "logo": "None", "latitude": 43.88044422344037, "longitude": -79.36633856618965}, "118841600RR0001": {"name": "C.C.M.C. MUSIC GALLERY", "designationCode": "C", "categoryCode": "22", "address": "197 JOHN ST @ STEPHANIE", "city": "TORONTO", "province": "ON", "country": "CA", "postalCode": "M5T1X6", "twitter": "None", "instagram": "None", "facebook": "None", "youtube": "None", "website": "None", "summary": "None", "logo": "None", "latitude": 43.6512022151305, "longitude": -79.39160822932699}, "890843857RR0001": {"name": "C.C.S.O. BREAD OF LIFE RENEWAL CENTRE", "designationCode": "C", "categoryCode": "47", "address": "5100 SOUTH SERVICE ROAD       UNIT #35, PO BOX 127", "city": "BURLINGTON", "province": "ON", "country": "CA", "postalCode": "L7R3X5", "twitter": "None", "instagram": "None", "facebook": "None", "youtube": "None", "website": "None", "summary": "None", "logo": "None", "latitude": 43.381671799996354, "longitude": -79.76964224203674}, "881802029RR0001": {"name": "C.C.S.P.C.A. INC.", "designationCode": "C", "categoryCode": "54", "address": "P.O. BOX 334", "city": "ST. STEPHEN", "province": "NB", "country": "CA", "postalCode": "E3L2X2", "twitter": "None", "instagram": "None", "facebook": "None", "youtube": "None", "website": "None", "summary": "None", "logo": "None", "latitude": 45.19456800000006, "longitude": -67.27532299999993}, "118841626RR0001": {"name": "C.D. HOWE INSTITUTE", "designationCode": "C", "categoryCode": "21", "address": "67 YONGE ST, SUITE 300", "city": "TORONTO", "province": "ON", "country": "CA", "postalCode": "M5E1J8", "twitter": "None", "instagram": "None", "facebook": "None", "youtube": "None", "website": "None", "summary": "None", "logo": "None", "latitude": 43.64874566778231, "longitude": -79.37768028585046}, "127184737RR0001": {"name": "C.D. Spectacles inc.", "designationCode": "C", "categoryCode": "22", "address": "85. BOUL, GASP\u00c9 PORTE 1,      C.P.6230", "city": "GASP\u00c9", "province": "QC", "country": "CA", "postalCode": "G4X2R8", "twitter": "None", "instagram": "None", "facebook": "None", "youtube": "None", "website": "None", "summary": "None", "logo": "None", "latitude": 48.83799034191577, "longitude": -64.4773932696731}, "118841733RR0001": {"name": "C.E.D.A. CREATIVE EMPLOYMENT DEVELOPMENT ASSOCIATION", "designationCode": "C", "categoryCode": "59", "address": "248 - 3210 118 AVE NW", "city": "EDMONTON", "province": "AB", "country": "CA", "postalCode": "T5W4W1", "twitter": "None", "instagram": "None", "facebook": "None", "youtube": "None", "website": "None", "summary": "None", "logo": "None", "latitude": 53.57043899999999, "longitude": -113.39050007210844}, "119111946RR0001": {"name": "C.E.L.A.M. (CONSEIL POUR L'ENSEIGNEMENT DE LA LECTURE AUX ANALPHABETES DE MONTREAL)", "designationCode": "C", "categoryCode": "20", "address": "1001 LENOIR RM A2-10", "city": "MONTREAL", "province": "QC", "country": "CA", "postalCode": "H4C2Z6", "twitter": "None", "instagram": "None", "facebook": "None", "youtube": "None", "website": "None", "summary": "None", "logo": "None", "latitude": 45.47701380630713, "longitude": -73.59315707337436}, "808899587RR0001": {"name": "C.E.Y.S. BRANDON INC.", "designationCode": "C", "categoryCode": "59", "address": "9 - 940 PRINCESS AVE", "city": "BRANDON", "province": "MB", "country": "CA", "postalCode": "R7A0P6", "twitter": "None", "instagram": "None", "facebook": "None", "youtube": "None", "website": "None", "summary": "None", "logo": "None", "latitude": 49.8468187062484, "longitude": -99.9508932348881}, "890796642RR0001": {"name": "C.F.U.W. - SUDBURY CHARITABLE TRUST", "designationCode": "B", "categoryCode": "21", "address": "747 DRY PINE BAY ROAD         SITE 3, BOX 44", "city": "ALBAN", "province": "ON", "country": "CA", "postalCode": "P0M1A0", "twitter": "None", "instagram": "None", "facebook": "None", "youtube": "None", "website": "None", "summary": "None", "logo": "None", "latitude": 46.05222161348539, "longitude": -80.5737691735669}, "118848985RR0001": {"name": "C.G. JUNG SOCIETY OF VICTORIA", "designationCode": "C", "categoryCode": "20", "address": "#1-434 FRASER ST", "city": "VICTORIA", "province": "BC", "country": "CA", "postalCode": "V9A6G9", "twitter": "None", "instagram": "None", "facebook": "None", "youtube": "None", "website": "None", "summary": "None", "logo": "None", "latitude": 48.42570621954523, "longitude": -123.4149733003345}, "118859024RR0001": {"name": "C.H. STILLER MEMORIAL FOUNDATION INCORPORATED", "designationCode": "B", "categoryCode": "01", "address": "528 WATERLOO STREET", "city": "LONDON", "province": "ON", "country": "CA", "postalCode": "N6B2P9", "twitter": "None", "instagram": "None", "facebook": "None", "youtube": "None", "website": "None", "summary": "None", "logo": "None", "latitude": 42.98996050320264, "longitude": -81.24461099301779}, "872317169RR0001": {"name": "C.H.I. - ASSOCIATION FOR CONSERVANCY OF HORNBY ISLAND", "designationCode": "C", "categoryCode": "53", "address": "PO BOX 55", "city": "HORNBY ISLAND", "province": "BC", "country": "CA", "postalCode": "V0R1Z0", "twitter": "None", "instagram": "None", "facebook": "None", "youtube": "None", "website": "None", "summary": "None", "logo": "None", "latitude": 49.51271000000003, "longitude": -124.70406999999994}, "890020266RR0001": {"name": "C.I.V.A.S. L'EXPRESSION LIBRE DU HAUT-RICHELIEU", "designationCode": "C", "categoryCode": "09", "address": "CP 24", "city": "SAINT-JEAN", "province": "QC", "country": "CA", "postalCode": "J3B6Z1", "twitter": "None", "instagram": "None", "facebook": "None", "youtube": "None", "website": "None", "summary": "None", "logo": "None", "latitude": 45.30610500000006, "longitude": -73.25031049999993}, "890838543RR0001": {"name": "C.K.Choi Foundation", "designationCode": "C", "categoryCode": "03", "address": "550-650 41 AVE W              NORTH TOWER", "city": "VANCOUVER", "province": "BC", "country": "CA", "postalCode": "V5Z2M9", "twitter": "None", "instagram": "None", "facebook": "None", "youtube": "None", "website": "None", "summary": "None", "logo": "None", "latitude": 49.233563999999994, "longitude": -123.1169895}, "118822055RR0001": {"name": "C.L. BURTON TRUST - ST. MICHAEL'S COLLEGE", "designationCode": "B", "categoryCode": "25", "address": "PO BOX 10085                  LCD PACIFIC CENTRE", "city": "VANCOUVER", "province": "BC", "country": "CA", "postalCode": "V7Y1B6", "twitter": "None", "instagram": "None", "facebook": "None", "youtube": "None", "website": "None", "summary": "None", "logo": "None", "latitude": 49.28299000000004, "longitude": -123.11890999999997}, "118822063RR0001": {"name": "C.L. BURTON TRUST - UNIVERSITY COLLEGE & E.F. BURTON FELLOWSHIP FUND", "designationCode": "B", "categoryCode": "25", "address": "THE CANADA TRUST CO.          PO BOX 10085", "city": "VANCOUVER", "province": "BC", "country": "CA", "postalCode": "V7Y1B6", "twitter": "None", "instagram": "None", "facebook": "None", "youtube": "None", "website": "None", "summary": "None", "logo": "None", "latitude": 49.28294993392596, "longitude": -123.11892994113924}, "118866359RR0001": {"name": "C.M. HARDING FOUNDATION", "designationCode": "B", "categoryCode": "23", "address": "70 SHAFTESBURY AVENUE         UNIT 10", "city": "TORONTO", "province": "ON", "country": "CA", "postalCode": "M4T1A3", "twitter": "None", "instagram": "None", "facebook": "None", "youtube": "None", "website": "None", "summary": "None", "logo": "None", "latitude": 43.682575241762244, "longitude": -79.38873606578564}, "792380891RR0001": {"name": "C.M. Odette Philanthropic Foundation", "designationCode": "B", "categoryCode": "03", "address": "71 CASTLEFIELD AVENUE", "city": "TORONTO", "province": "ON", "country": "CA", "postalCode": "M4R1G5", "twitter": "None", "instagram": "None", "facebook": "None", "youtube": "None", "website": "None", "summary": "None", "logo": "None", "latitude": 43.711009827630086, "longitude": -79.4031658956374}, "891629396RR0001": {"name": "C.M.C. - CONCOURS DE MUSIQUE DU CANADA INC. / C.M.C. - CANADIAN MUSIC COMPETITIONS INC.", "designationCode": "C", "categoryCode": "22", "address": "69 RUE SHERBROOKE OUEST", "city": "MONTREAL", "province": "QC", "country": "CA", "postalCode": "H2X1X2", "twitter": "None", "instagram": "None", "facebook": "None", "youtube": "None", "website": "None", "summary": "None", "logo": "None", "latitude": 45.511618336949574, "longitude": -73.5698855032313}, "118867266RR0001": {"name": "C.O.L.D. RESPIRATORY PROBLEMS CLUB", "designationCode": "C", "categoryCode": "59", "address": "11111 JASPER AVE NW", "city": "EDMONTON", "province": "AB", "country": "CA", "postalCode": "T5K0L4", "twitter": "None", "instagram": "None", "facebook": "None", "youtube": "None", "website": "None", "summary": "None", "logo": "None", "latitude": 53.54089750836813, "longitude": -113.51300302553523}, "896771417RR0001": {"name": "C.O.P.E. CANINE OPPORTUNITY, PEOPLE EMPOWERMENT", "designationCode": "C", "categoryCode": "09", "address": "P.O. BOX 20035", "city": "BARRIE", "province": "ON", "country": "CA", "postalCode": "L4M6E9", "twitter": "None", "instagram": "None", "facebook": "None", "youtube": "None", "website": "None", "summary": "None", "logo": "None", "latitude": 44.38929300000005, "longitude": -79.68626449999994}, "118878453RR0001": {"name": "C.P. LOEWEN FAMILY FOUNDATION INC.", "designationCode": "B", "categoryCode": "03", "address": "BOX 330", "city": "STEINBACH", "province": "MB", "country": "CA", "postalCode": "R5G1M3", "twitter": "None", "instagram": "None", "facebook": "None", "youtube": "None", "website": "None", "summary": "None", "logo": "None", "latitude": 49.52572800000006, "longitude": -96.68393449999994}, "107412850RR0001": {"name": "C.P.E. A LA CLAIRE FONTAINE", "designationCode": "C", "categoryCode": "20", "address": "7403 RUE HOCHELAGA", "city": "MONTR\u00c9AL", "province": "QC", "country": "CA", "postalCode": "H1N3M5", "twitter": "None", "instagram": "None", "facebook": "None", "youtube": "None", "website": "None", "summary": "None", "logo": "None", "latitude": 45.58798396717064, "longitude": -73.52661499924012}, "107417834RR0001": {"name": "C.P.E. LA PUCE A L'OREILLE", "designationCode": "C", "categoryCode": "20", "address": "321, RUE PRINCIPALE", "city": "GRENVILLE", "province": "QC", "country": "CA", "postalCode": "J0V1J0", "twitter": "None", "instagram": "None", "facebook": "None", "youtube": "None", "website": "None", "summary": "None", "logo": "None", "latitude": 45.625826642218414, "longitude": -74.60387814296823}, "107414450RR0001": {"name": "C.P.E. LE HIBOU", "designationCode": "C", "categoryCode": "01", "address": "148, RUE MOREAU", "city": "ST-MARC-SUR-RICHELIEU", "province": "QC", "country": "CA", "postalCode": "J0L2E0", "twitter": "None", "instagram": "None", "facebook": "None", "youtube": "None", "website": "None", "summary": "None", "logo": "None", "latitude": 45.679858511252746, "longitude": -73.19762143046346}, "140828054RR0001": {"name": "C.P.E. LES PETITS SOLEILS DE DANVILLE C.C.C.", "designationCode": "C", "categoryCode": "01", "address": "70 RUE DU CARMEL              CP 219", "city": "DANVILLE", "province": "QC", "country": "CA", "postalCode": "J0A1A0", "twitter": "None", "instagram": "None", "facebook": "None", "youtube": "None", "website": "None", "summary": "None", "logo": "None", "latitude": 45.78326108436728, "longitude": -72.01506253938503}, "107418766RR0001": {"name": "C.P.E. SAUTE-MOUTON INC.", "designationCode": "C", "categoryCode": "01", "address": "3525, BOULEVARD LAVIOLETTE", "city": "TROIS-RIVIERES", "province": "QC", "country": "CA", "postalCode": "G8Z1E9", "twitter": "None", "instagram": "None", "facebook": "None", "youtube": "None", "website": "None", "summary": "None", "logo": "None", "latitude": 46.359811605026444, "longitude": -72.56945328005074}, "896994472RR0001": {"name": "C.P.E. Technoflos", "designationCode": "C", "categoryCode": "01", "address": "531 RUE JEAN-D'ESTREES", "city": "MONTREAL", "province": "QC", "country": "CA", "postalCode": "H3C6T7", "twitter": "None", "instagram": "None", "facebook": "None", "youtube": "None", "website": "None", "summary": "None", "logo": "None", "latitude": 45.49467341078527, "longitude": -73.56445897916798}, "119009744RR0001": {"name": "C.P.E. TOPINAMBOUR", "designationCode": "C", "categoryCode": "20", "address": "2315 RUE FULLUM", "city": "MONTREAL", "province": "QC", "country": "CA", "postalCode": "H2K3P3", "twitter": "None", "instagram": "None", "facebook": "None", "youtube": "None", "website": "None", "summary": "None", "logo": "None", "latitude": 45.532445163223336, "longitude": -73.55939082734162}, "894565795RR0001": {"name": "C.PP.S. MISSION PROJECTS", "designationCode": "C", "categoryCode": "46", "address": "540 ST CLAIR AVE W", "city": "TORONTO", "province": "ON", "country": "CA", "postalCode": "M6C1A4", "twitter": "None", "instagram": "None", "facebook": "None", "youtube": "None", "website": "None", "summary": "None", "logo": "None", "latitude": 43.68286218347843, "longitude": -79.42015803595123}, "118880509RR0001": {"name": "C.R. VINT FOUNDATION", "designationCode": "B", "categoryCode": "01", "address": "10 FOREST TRAIL", "city": "STOUFFVILLE", "province": "ON", "country": "CA", "postalCode": "L4A2E6", "twitter": "None", "instagram": "None", "facebook": "None", "youtube": "None", "website": "None", "summary": "None", "logo": "None", "latitude": 44.00558714467033, "longitude": -79.37890743008809}, "107826893RR0001": {"name": "C.R.C. LE PAVILLON INC.", "designationCode": "C", "categoryCode": "59", "address": "3894 BOUL SAINTE-ANNE", "city": "QUEBEC", "province": "QC", "country": "CA", "postalCode": "G1E0K5", "twitter": "None", "instagram": "None", "facebook": "None", "youtube": "None", "website": "None", "summary": "None", "logo": "None", "latitude": 46.85925868275727, "longitude": -71.1728983874431}, "898951660RR0001": {"name": "C.R.R.S. CULTURE REGENERATION RESEARCH SOCIETY", "designationCode": "C", "categoryCode": "21", "address": "#202-6960 ROYAL OAK AVE.,", "city": "BURNABY", "province": "BC", "country": "CA", "postalCode": "V5J4J2", "twitter": "None", "instagram": "None", "facebook": "None", "youtube": "None", "website": "None", "summary": "None", "logo": "None", "latitude": 49.22039865528881, "longitude": -122.98859129693031}, "855512273RR0001": {"name": "C.Russell Isnor Estate", "designationCode": "B", "categoryCode": "15", "address": "155 WELLINGTON ST WEST        20TH FLOOR", "city": "TORONTO", "province": "ON", "country": "CA", "postalCode": "M5V3K7", "twitter": "None", "instagram": "None", "facebook": "None", "youtube": "None", "website": "None", "summary": "None", "logo": "None", "latitude": 43.64596585316531, "longitude": -79.38574575644876}, "889144374RR0001": {"name": "C.S.A.C. CREATIVE SPIRIT ART CENTRE", "designationCode": "C", "categoryCode": "22", "address": "999 DOVERCOURT ROAD", "city": "TORONTO", "province": "ON", "country": "CA", "postalCode": "M6H2X7", "twitter": "None", "instagram": "None", "facebook": "None", "youtube": "None", "website": "None", "summary": "None", "logo": "None", "latitude": 43.667567873997335, "longitude": -79.43183120064644}, "118880673RR0001": {"name": "C.S.A.C. EDUCATION TRUST FOUNDATION", "designationCode": "C", "categoryCode": "21", "address": "103 KEATS WALK", "city": "WATERLOO", "province": "ON", "country": "CA", "postalCode": "N2L5H2", "twitter": "None", "instagram": "None", "facebook": "None", "youtube": "None", "website": "None", "summary": "None", "logo": "None", "latitude": 43.46001842408683, "longitude": -80.54828871155246}, "809778848RR0001": {"name": "C.S.I. (CHURCH OF SOUTH INDIA) CHURCH, TORONTO INC.", "designationCode": "C", "categoryCode": "39", "address": "1315 KIPLING AVENUE", "city": "TORONTO", "province": "ON", "country": "CA", "postalCode": "M9B3N7", "twitter": "None", "instagram": "None", "facebook": "None", "youtube": "None", "website": "None", "summary": "None", "logo": "None", "latitude": 43.666018511801, "longitude": -79.54588772909585}, "118880723RR0001": {"name": "C.T.F. TRUST FUND", "designationCode": "C", "categoryCode": "29", "address": "2490 DON REID DRIVE", "city": "OTTAWA", "province": "ON", "country": "CA", "postalCode": "K1H1E1", "twitter": "None", "instagram": "None", "facebook": "None", "youtube": "None", "website": "None", "summary": "None", "logo": "None", "latitude": 45.37761366082872, "longitude": -75.63706760121725}, "107607889RR0001": {"name": "C\u00e9gep de Thetford", "designationCode": "C", "categoryCode": "20", "address": "671 BOULEVARD FRONTENAC OUEST", "city": "THETFORD-MINES", "province": "QC", "country": "CA", "postalCode": "G6G1N1", "twitter": "None", "instagram": "None", "facebook": "None", "youtube": "None", "website": "None", "summary": "None", "logo": "None", "latitude": 46.097582117177026, "longitude": -71.32218017328836}, "835783663RR0001": {"name": "C\u00e9line & Jacques Lamarre Foundation / Fondation C\u00e9line & Jacques Lamarre", "designationCode": "B", "categoryCode": "03", "address": "1485 SHERBROOKE OUEST,APP.10-B", "city": "MONTR\u00c9AL", "province": "QC", "country": "CA", "postalCode": "H3G0A3", "twitter": "None", "instagram": "None", "facebook": "None", "youtube": "None", "website": "None", "summary": "None", "logo": "None", "latitude": 45.49730933250616, "longitude": -73.58107393034788}, "890352891RR0001": {"name": "C-TA-C (CHOIX, TRANSITION, ACTION, CHANGEMENT)", "designationCode": "C", "categoryCode": "11", "address": "01-158 RUE BELZILE", "city": "RIMOUSKI", "province": "QC", "country": "CA", "postalCode": "G5L3E4", "twitter": "None", "instagram": "None", "facebook": "None", "youtube": "None", "website": "None", "summary": "None", "logo": "None", "latitude": 48.45341289231918, "longitude": -68.5232695331526}, "118876804RR0001": {"name": "C\u00c9GEP BEAUCE APPALACHES", "designationCode": "C", "categoryCode": "20", "address": "1055, 116 E RUE", "city": "ST-GEORGES", "province": "QC", "country": "CA", "postalCode": "G5Y3G1", "twitter": "None", "instagram": "None", "facebook": "None", "youtube": "None", "website": "None", "summary": "None", "logo": "None", "latitude": 46.12605986987104, "longitude": -70.66877744760188}, "855481198RR0001": {"name": "C\u00c9NACLE SAINT-JOSEPH", "designationCode": "C", "categoryCode": "49", "address": "237 - 2281 CH DE LA CANARDIERE", "city": "QUEBEC", "province": "QC", "country": "CA", "postalCode": "G1J0B8", "twitter": "None", "instagram": "None", "facebook": "None", "youtube": "None", "website": "None", "summary": "None", "logo": "None", "latitude": 46.84230286011887, "longitude": -71.21999381378028}, "123613523RR0078": {"name": "Cadets de l'Air Escadron 646 La Tuque", "designationCode": "C", "categoryCode": "29", "address": "POST OFFICE BOX 815", "city": "LA TUQUE", "province": "QC", "country": "CA", "postalCode": "G9X3P6", "twitter": "None", "instagram": "None", "facebook": "None", "youtube": "None", "website": "None", "summary": "None", "logo": "None", "latitude": 47.43777300000005, "longitude": -72.78446149999994}, "853782456RR0001": {"name": "Caf\u00e9 Church Kingston", "designationCode": "C", "categoryCode": "39", "address": "333 PRINCESS ST. SUITE 200", "city": "KINGSTON", "province": "ON", "country": "CA", "postalCode": "K7L1B7", "twitter": "None", "instagram": "None", "facebook": "None", "youtube": "None", "website": "None", "summary": "None", "logo": "None", "latitude": 44.23273732168614, "longitude": -76.48988733790186}, "805130317RR0001": {"name": "Caf\u00e9 Communautaire coup de coeur", "designationCode": "C", "categoryCode": "09", "address": "210 - 24 RUE SAINT-DAVID", "city": "SAINTE-AGATHE-DES-MONTS", "province": "QC", "country": "CA", "postalCode": "J8C3L2", "twitter": "None", "instagram": "None", "facebook": "None", "youtube": "None", "website": "None", "summary": "None", "logo": "None", "latitude": 46.04825326977896, "longitude": -74.28221927938691}, "824147409RR0001": {"name": "Caf\u00e9 Partage d'Argenteuil", "designationCode": "C", "categoryCode": "09", "address": "232 AV BETHANY", "city": "LACHUTE", "province": "QC", "country": "CA", "postalCode": "J8H2M8", "twitter": "None", "instagram": "None", "facebook": "None", "youtube": "None", "website": "None", "summary": "None", "logo": "None", "latitude": 45.65132818789316, "longitude": -74.33057022791243}, "770955524RR0001": {"name": "Caisse du presbyterium et d'entraide sacerdotale", "designationCode": "C", "categoryCode": "49", "address": "602 RUE RACINE E", "city": "CHICOUTIMI", "province": "QC", "country": "CA", "postalCode": "G7H1V1", "twitter": "None", "instagram": "None", "facebook": "None", "youtube": "None", "website": "None", "summary": "None", "logo": "None", "latitude": 48.42955548009162, "longitude": -71.04963086081135}, "801727306RR0001": {"name": "Caisse Beth Yossef", "designationCode": "C", "categoryCode": "09", "address": "5750 PARKHAVEN AVE", "city": "COTE ST LUC", "province": "QC", "country": "CA", "postalCode": "H4W1X5", "twitter": "None", "instagram": "None", "facebook": "None", "youtube": "None", "website": "None", "summary": "None", "logo": "None", "latitude": 45.4685605053957, "longitude": -73.6658314668474}, "801035007RR0001": {"name": "Cajole Inn Foundation", "designationCode": "B", "categoryCode": "03", "address": "1802 - 108 LISGAR ST", "city": "OTTAWA", "province": "ON", "country": "CA", "postalCode": "K2P1E1", "twitter": "None", "instagram": "None", "facebook": "None", "youtube": "None", "website": "None", "summary": "None", "logo": "None", "latitude": 45.4180797231873, "longitude": -75.69419136988672}, "840440432RR0001": {"name": "Cal Bombay Foundation / Foundation Cal Bombay", "designationCode": "B", "categoryCode": "03", "address": "471 OLD ONONDAGA ROAD         RURAL ROUTE 1", "city": "BRANTFORD", "province": "ON", "country": "CA", "postalCode": "N3T5L4", "twitter": "None", "instagram": "None", "facebook": "None", "youtube": "None", "website": "None", "summary": "None", "logo": "None", "latitude": 43.12135773745923, "longitude": -80.13399123330224}, "799789110RR0001": {"name": "Calabogie Food Bank", "designationCode": "C", "categoryCode": "09", "address": "PO BOX 149", "city": "CALABOGIE", "province": "ON", "country": "CA", "postalCode": "K0J1H0", "twitter": "None", "instagram": "None", "facebook": "None", "youtube": "None", "website": "None", "summary": "None", "logo": "None", "latitude": 45.390308555409, "longitude": -76.57315519536785}, "803520360RR0001": {"name": "Calabrian Benevolent Foundation", "designationCode": "A", "categoryCode": "03", "address": "17 - 21 ROYSUN RD", "city": "WOODBRIDGE", "province": "ON", "country": "CA", "postalCode": "L4L8R3", "twitter": "None", "instagram": "None", "facebook": "None", "youtube": "None", "website": "None", "summary": "None", "logo": "None", "latitude": 43.76912865551994, "longitude": -79.60870750845412}, "895867810RR0001": {"name": "Calacs Unies-Vers-Elles", "designationCode": "C", "categoryCode": "09", "address": "C.P. 532", "city": "VICTORIAVILLE", "province": "QC", "country": "CA", "postalCode": "G6P6T3", "twitter": "None", "instagram": "None", "facebook": "None", "youtube": "None", "website": "None", "summary": "None", "logo": "None", "latitude": 46.05566100000006, "longitude": -71.95945399999994}, "844683342RR0001": {"name": "Calcutta Mercy Ministries", "designationCode": "C", "categoryCode": "49", "address": "406 1055 W. BROADWAY", "city": "VANCOUVER", "province": "BC", "country": "CA", "postalCode": "V6H1E2", "twitter": "None", "instagram": "None", "facebook": "None", "youtube": "None", "website": "None", "summary": "None", "logo": "None", "latitude": 49.2634524532574, "longitude": -123.1278027485429}, "808399810RR0001": {"name": "Caleb's Hope Society", "designationCode": "C", "categoryCode": "09", "address": "46 MADISON AVE", "city": "MONCTON", "province": "NB", "country": "CA", "postalCode": "E1E1R6", "twitter": "None", "instagram": "None", "facebook": "None", "youtube": "None", "website": "None", "summary": "None", "logo": "None", "latitude": 46.07972971827582, "longitude": -64.81341582056095}, "859683120RR0001": {"name": "Caledon Heritage Foundation", "designationCode": "C", "categoryCode": "50", "address": "BOX 83                        STATION CALEDON EAST", "city": "CALEDON", "province": "ON", "country": "CA", "postalCode": "L7C3L8", "twitter": "None", "instagram": "None", "facebook": "None", "youtube": "None", "website": "None", "summary": "None", "logo": "None", "latitude": 43.7573660834971, "longitude": -79.91556969199306}, "106704794RR0001": {"name": "Caledon Village Pastoral Charge", "designationCode": "C", "categoryCode": "44", "address": "2976 CHARLESTON SDRD", "city": "CALEDON", "province": "ON", "country": "CA", "postalCode": "L7K0V8", "twitter": "None", "instagram": "None", "facebook": "None", "youtube": "None", "website": "None", "summary": "None", "logo": "None", "latitude": 43.859758523111694, "longitude": -79.99650286469641}, "830359162RR0001": {"name": "Caledonia Adaptive Snowsports Society", "designationCode": "C", "categoryCode": "56", "address": "8421 TOOMBS DRIVE", "city": "PRINCE GEORGE", "province": "BC", "country": "CA", "postalCode": "V2K5A3", "twitter": "None", "instagram": "None", "facebook": "None", "youtube": "None", "website": "None", "summary": "None", "logo": "None", "latitude": 53.974799789081786, "longitude": -122.86747244027295}, "861019743RR0001": {"name": "Caledonia Community Foundation", "designationCode": "A", "categoryCode": "03", "address": "103 INVERNESS ST", "city": "CALEDONIA", "province": "ON", "country": "CA", "postalCode": "N3W1B1", "twitter": "None", "instagram": "None", "facebook": "None", "youtube": "None", "website": "None", "summary": "None", "logo": "None", "latitude": 43.07695952152451, "longitude": -79.95590353641259}, "810209221RR0001": {"name": "Caledonia Ramblers Trust Friends of the Ancient Forest", "designationCode": "C", "categoryCode": "56", "address": "1530 ELM ST", "city": "PRINCE GEORGE", "province": "BC", "country": "CA", "postalCode": "V2L1C8", "twitter": "None", "instagram": "None", "facebook": "None", "youtube": "None", "website": "None", "summary": "None", "logo": "None", "latitude": 53.91006408964742, "longitude": -122.73512640267786}, "777333899RR0001": {"name": "Calgary for Christ Ministrys", "designationCode": "C", "categoryCode": "39", "address": "140 - 1717 60 ST SE", "city": "CALGARY", "province": "AB", "country": "CA", "postalCode": "T2A7Y7", "twitter": "None", "instagram": "None", "facebook": "None", "youtube": "None", "website": "None", "summary": "None", "logo": "None", "latitude": 51.03867379922461, "longitude": -113.94694874602114}, "821097086RR0001": {"name": "Calgary Academy Education and Research Foundation", "designationCode": "C", "categoryCode": "21", "address": "1677-93 ST SW", "city": "CALGARY", "province": "AB", "country": "CA", "postalCode": "T3H0R3", "twitter": "None", "instagram": "None", "facebook": "None", "youtube": "None", "website": "None", "summary": "None", "logo": "None", "latitude": 51.04104520038664, "longitude": -114.22264617750581}, "806476263RR0001": {"name": "Calgary All Nations Community (hanwoori) Church", "designationCode": "C", "categoryCode": "39", "address": "4703 10 AVE SW", "city": "CALGARY", "province": "AB", "country": "CA", "postalCode": "T3C0M1", "twitter": "None", "instagram": "None", "facebook": "None", "youtube": "None", "website": "None", "summary": "None", "logo": "None", "latitude": 51.043250557851124, "longitude": -114.15294338926077}, "790916696RR0001": {"name": "Calgary Anesthesia Academic Council", "designationCode": "C", "categoryCode": "21", "address": "1403 29 ST NW", "city": "CALGARY", "province": "AB", "country": "CA", "postalCode": "T2N2T9", "twitter": "None", "instagram": "None", "facebook": "None", "youtube": "None", "website": "None", "summary": "None", "logo": "None", "latitude": 51.06459220705175, "longitude": -114.1308253065669}, "848383055RR0001": {"name": "Calgary Arts Academy Foundation", "designationCode": "A", "categoryCode": "23", "address": "4931 GROVE HILL RD SW", "city": "CALGARY", "province": "AB", "country": "CA", "postalCode": "T3E4G4", "twitter": "None", "instagram": "None", "facebook": "None", "youtube": "None", "website": "None", "summary": "None", "logo": "None", "latitude": 51.035461250620365, "longitude": -114.15851037621901}, "813713161RR0001": {"name": "Calgary Bible Training Centers Ltd.", "designationCode": "C", "categoryCode": "39", "address": "30 EVANSBROOKE PK NW", "city": "CALGARY", "province": "AB", "country": "CA", "postalCode": "T3P1E4", "twitter": "None", "instagram": "None", "facebook": "None", "youtube": "None", "website": "None", "summary": "None", "logo": "None", "latitude": 51.16219336164808, "longitude": -114.11919518082404}, "820582294RR0001": {"name": "Calgary Catholic Education Foundation", "designationCode": "A", "categoryCode": "03", "address": "1000 5 AVENUE SW", "city": "CALGARY", "province": "AB", "country": "CA", "postalCode": "T2P4T9", "twitter": "None", "instagram": "None", "facebook": "None", "youtube": "None", "website": "None", "summary": "None", "logo": "None", "latitude": 51.0490155004327, "longitude": -114.0838930269202}, "890976194RR0001": {"name": "Calgary Central Christadelphian Ecclesia", "designationCode": "C", "categoryCode": "39", "address": "740 WOODPARK BLVD SW", "city": "CALGARY", "province": "AB", "country": "CA", "postalCode": "T2W3R8", "twitter": "None", "instagram": "None", "facebook": "None", "youtube": "None", "website": "None", "summary": "None", "logo": "None", "latitude": 50.935670528997676, "longitude": -114.11607124854291}, "106693047RR0029": {"name": "Calgary Central Spanish Seventh-day Adventist Church", "designationCode": "C", "categoryCode": "41", "address": "5816 HIGHWAY, 2A", "city": "LACOMBE", "province": "AB", "country": "CA", "postalCode": "T4L2G5", "twitter": "None", "instagram": "None", "facebook": "None", "youtube": "None", "website": "None", "summary": "None", "logo": "None", "latitude": 52.474063600197404, "longitude": -113.71692568401835}, "814921029RR0001": {"name": "Calgary Centre for Global Community", "designationCode": "C", "categoryCode": "21", "address": "1320 1 ST SW", "city": "CALGARY", "province": "AB", "country": "CA", "postalCode": "T2R0V7", "twitter": "None", "instagram": "None", "facebook": "None", "youtube": "None", "website": "None", "summary": "None", "logo": "None", "latitude": 51.04029507493802, "longitude": -114.06577660510806}, "889098935RR0001": {"name": "Calgary Children's International Summer Village's Association", "designationCode": "C", "categoryCode": "56", "address": "223 -12 AVE SW", "city": "CALGARY", "province": "AB", "country": "CA", "postalCode": "T2R0G9", "twitter": "None", "instagram": "None", "facebook": "None", "youtube": "None", "website": "None", "summary": "None", "logo": "None", "latitude": 51.04147448845882, "longitude": -114.0671642216227}, "851206763RR0001": {"name": "Calgary Childrens Theatre Society", "designationCode": "C", "categoryCode": "22", "address": "115-10 COPPERSTONE STREET SE", "city": "CALGARY", "province": "AB", "country": "CA", "postalCode": "T2Z0V4", "twitter": "None", "instagram": "None", "facebook": "None", "youtube": "None", "website": "None", "summary": "None", "logo": "None", "latitude": 50.915376439638734, "longitude": -113.93369967040802}, "767600927RR0001": {"name": "Calgary Chin Evangelical Fellowship", "designationCode": "C", "categoryCode": "39", "address": "5923 TEMPLEHILL RD NE", "city": "CALGARY", "province": "AB", "country": "CA", "postalCode": "T1Y4C1", "twitter": "None", "instagram": "None", "facebook": "None", "youtube": "None", "website": "None", "summary": "None", "logo": "None", "latitude": 51.085684477927224, "longitude": -113.94845983236193}, "739059095RR0001": {"name": "Calgary Chinese Community Service Society", "designationCode": "C", "categoryCode": "59", "address": "1406 CENTRE ST NE", "city": "CALGARY", "province": "AB", "country": "CA", "postalCode": "T2E2R9", "twitter": "None", "instagram": "None", "facebook": "None", "youtube": "None", "website": "None", "summary": "None", "logo": "None", "latitude": 51.064486378297815, "longitude": -114.0610859882365}, "829147503RR0001": {"name": "Calgary Chodae Community Church", "designationCode": "C", "categoryCode": "39", "address": "5940 LAKEVIEW DR SW", "city": "CALGARY", "province": "AB", "country": "CA", "postalCode": "T3E5S8", "twitter": "None", "instagram": "None", "facebook": "None", "youtube": "None", "website": "None", "summary": "None", "logo": "None", "latitude": 51.00099018096828, "longitude": -114.13347840201405}, "891607921RR0001": {"name": "Calgary Christian Fellowship Church", "designationCode": "C", "categoryCode": "39", "address": "703 - 325 10 ST NW", "city": "CALGARY", "province": "AB", "country": "CA", "postalCode": "T2N4J5", "twitter": "None", "instagram": "None", "facebook": "None", "youtube": "None", "website": "None", "summary": "None", "logo": "None", "latitude": 51.055172999999996, "longitude": -114.08598623636654}, "815012752RR0001": {"name": "Calgary Christian Tamil Church", "designationCode": "C", "categoryCode": "39", "address": "137 ASPEN SUMMIT HEATH SW", "city": "CALGARY", "province": "AB", "country": "CA", "postalCode": "T3H0T5", "twitter": "None", "instagram": "None", "facebook": "None", "youtube": "None", "website": "None", "summary": "None", "logo": "None", "latitude": 51.048307529286134, "longitude": -114.20973356607409}, "866178064RR0001": {"name": "Calgary Community of Faith Church", "designationCode": "C", "categoryCode": "39", "address": "PO BOX 91083                  ROP ROYAL OAKS", "city": "CALGARY", "province": "AB", "country": "CA", "postalCode": "T3G5W6", "twitter": "None", "instagram": "None", "facebook": "None", "youtube": "None", "website": "None", "summary": "None", "logo": "None", "latitude": 51.13528800000006, "longitude": -114.20159299999993}, "809027105RR0001": {"name": "Calgary Community Eruv Society", "designationCode": "C", "categoryCode": "49", "address": "11 BROOKPARK BAY SW", "city": "CALGARY", "province": "AB", "country": "CA", "postalCode": "T2W2R7", "twitter": "None", "instagram": "None", "facebook": "None", "youtube": "None", "website": "None", "summary": "None", "logo": "None", "latitude": 50.9571250402504, "longitude": -114.10964257715393}, "836955492RR0001": {"name": "Calgary Community Kollel Society", "designationCode": "C", "categoryCode": "49", "address": "PO BOX 72060                  RPO GLENMORE LANDNG", "city": "CALGARY", "province": "AB", "country": "CA", "postalCode": "T2V5H9", "twitter": "None", "instagram": "None", "facebook": "None", "youtube": "None", "website": "None", "summary": "None", "logo": "None", "latitude": 50.994305999999995, "longitude": -114.07152574813585}}