{"118924083RR0001": {"name": "Fondation Mariannhill / Mariannhill Foundation", "designationCode": "C", "categoryCode": "23", "address": "2075 CH. DE SAINTE-CATHERINE", "city": "SHERBROOKE", "province": "QC", "country": "CA", "postalCode": "J1N1E7", "twitter": "None", "instagram": "None", "facebook": "None", "youtube": "None", "website": "None", "summary": "None", "logo": "None", "latitude": 45.349892964121274, "longitude": -71.953714268044}, "805160694RR0001": {"name": "Fondation Marichette", "designationCode": "C", "categoryCode": "21", "address": "UNIVERSITE DE MONCTON         B.P.60, 18 AVE ANTOINE MAILLET", "city": "MONCTON", "province": "NB", "country": "CA", "postalCode": "E1A3E9", "twitter": "None", "instagram": "None", "facebook": "None", "youtube": "None", "website": "None", "summary": "None", "logo": "None", "latitude": 46.10445000000004, "longitude": -64.78059999999994}, "799227699RR0001": {"name": "Fondation Marie Pag\u00e9", "designationCode": "A", "categoryCode": "03", "address": "250 RANG PARISEAU", "city": "VICTORIAVILLE", "province": "QC", "country": "CA", "postalCode": "G6T0J6", "twitter": "None", "instagram": "None", "facebook": "None", "youtube": "None", "website": "None", "summary": "None", "logo": "None", "latitude": 46.06380983873858, "longitude": -72.00997478198398}, "735210494RR0001": {"name": "Fondation Marie-Reine", "designationCode": "C", "categoryCode": "13", "address": "102 - 640 RUE DORCHESTER", "city": "SAINT-JEAN-SUR-RICHELIEU", "province": "QC", "country": "CA", "postalCode": "J3B5A4", "twitter": "None", "instagram": "None", "facebook": "None", "youtube": "None", "website": "None", "summary": "None", "logo": "None", "latitude": 45.320148282820696, "longitude": -73.2692590547631}, "834281370RR0001": {"name": "Fondation Mark et Christine Bruneau pour le R\u00e9ussite des Jeunes", "designationCode": "C", "categoryCode": "21", "address": "5775 AV PANNETON", "city": "BROSSARD", "province": "QC", "country": "CA", "postalCode": "J4W1J7", "twitter": "None", "instagram": "None", "facebook": "None", "youtube": "None", "website": "None", "summary": "None", "logo": "None", "latitude": 45.47385162392521, "longitude": -73.48263898032181}, "836580688RR0001": {"name": "Fondation Martin Roberge", "designationCode": "B", "categoryCode": "03", "address": "200, 4E AVENUE", "city": "GRAND-MERE", "province": "QC", "country": "CA", "postalCode": "G9T2R3", "twitter": "None", "instagram": "None", "facebook": "None", "youtube": "None", "website": "None", "summary": "None", "logo": "None", "latitude": 46.62038950637944, "longitude": -72.68117385405388}, "829591981RR0001": {"name": "Fondation MarIsa/ MarIsa Foundation", "designationCode": "B", "categoryCode": "03", "address": "3700 - 800 PLACE VICTORIA", "city": "MONTREAL", "province": "QC", "country": "CA", "postalCode": "H4Z1E9", "twitter": "None", "instagram": "None", "facebook": "None", "youtube": "None", "website": "None", "summary": "None", "logo": "None", "latitude": 45.51239400000006, "longitude": -73.55469049999994}, "804963585RR0001": {"name": "Fondation Mathieu-Froment-Savoie / Mathieu-Froment-Savoie Foundation", "designationCode": "A", "categoryCode": "13", "address": "170 RUE SHERBROOKE", "city": "GATINEAU", "province": "QC", "country": "CA", "postalCode": "J8Y2L6", "twitter": "None", "instagram": "None", "facebook": "None", "youtube": "None", "website": "None", "summary": "None", "logo": "None", "latitude": 45.438047474897466, "longitude": -75.74292377699231}, "829916691RR0001": {"name": "Fondation Melkite Joseph et Sandra Chalhoub / Joseph and Sandra Chalhoub Melkite Trust", "designationCode": "B", "categoryCode": "45", "address": "2035, AVENUE VICTORIA, BUR 203", "city": "SAINT-LAMBERT", "province": "QC", "country": "CA", "postalCode": "J4S1H1", "twitter": "None", "instagram": "None", "facebook": "None", "youtube": "None", "website": "None", "summary": "None", "logo": "None", "latitude": 45.47764961529822, "longitude": -73.47588204388573}, "891572349RR0001": {"name": "Fondation Memoria - Memoria Foundation", "designationCode": "B", "categoryCode": "09", "address": "1115 RUE LAURIER O", "city": "OUTREMONT", "province": "QC", "country": "CA", "postalCode": "H2V2L3", "twitter": "None", "instagram": "None", "facebook": "None", "youtube": "None", "website": "None", "summary": "None", "logo": "None", "latitude": 45.51726684791385, "longitude": -73.59792432350379}, "850192709RR0001": {"name": "Fondation Michel Bernard", "designationCode": "B", "categoryCode": "09", "address": "1551 AV. PAPINEAU", "city": "MONTR\u00c9AL", "province": "QC", "country": "CA", "postalCode": "H2K4H7", "twitter": "None", "instagram": "None", "facebook": "None", "youtube": "None", "website": "None", "summary": "None", "logo": "None", "latitude": 45.52339914821969, "longitude": -73.55402087509384}, "824150338RR0001": {"name": "Fondation Michel Raymond Lakah", "designationCode": "B", "categoryCode": "03", "address": "701-999 WHITE BUREAU", "city": "ST-LAURENT", "province": "QC", "country": "CA", "postalCode": "H4M2X8", "twitter": "None", "instagram": "None", "facebook": "None", "youtube": "None", "website": "None", "summary": "None", "logo": "None", "latitude": 45.500198666137514, "longitude": -73.6983020048761}, "794817288RR0001": {"name": "Fondation Miclo", "designationCode": "A", "categoryCode": "03", "address": "505 BOUL DE MAISONNEUVE O     APP 1001", "city": "MONTREAL", "province": "QC", "country": "CA", "postalCode": "H3A3C2", "twitter": "None", "instagram": "None", "facebook": "None", "youtube": "None", "website": "None", "summary": "None", "logo": "None", "latitude": 45.50548035749312, "longitude": -73.57047988582697}, "804594430RR0001": {"name": "Fondation Miro", "designationCode": "C", "categoryCode": "11", "address": "6226 RUE DE LA ROCHE", "city": "MONTREAL", "province": "QC", "country": "CA", "postalCode": "H2S2E1", "twitter": "None", "instagram": "None", "facebook": "None", "youtube": "None", "website": "None", "summary": "None", "logo": "None", "latitude": 45.53744271299569, "longitude": -73.59825462588711}, "830673067RR0001": {"name": "Fondation Mobilys Foundation", "designationCode": "C", "categoryCode": "59", "address": "301 - 5555 AV CASGRAIN", "city": "MONTREAL", "province": "QC", "country": "CA", "postalCode": "H2T1Y1", "twitter": "None", "instagram": "None", "facebook": "None", "youtube": "None", "website": "None", "summary": "None", "logo": "None", "latitude": 45.52729206108242, "longitude": -73.59821815249019}, "886676592RR0001": {"name": "Fondation Moelle \u00e9pini\u00e8re et motricit\u00e9 Qu\u00e9bec", "designationCode": "A", "categoryCode": "11", "address": "400 - 6020 RUE JEAN-TALON E", "city": "SAINT-LEONARD", "province": "QC", "country": "CA", "postalCode": "H1S3B1", "twitter": "None", "instagram": "None", "facebook": "None", "youtube": "None", "website": "None", "summary": "None", "logo": "None", "latitude": 45.58218820629318, "longitude": -73.58052829407441}, "803823681RR0001": {"name": "Fondation Mon \u00c9toile pour le financement de la recherche curative du cancer / My Star for curative cancer research funding", "designationCode": "A", "categoryCode": "13", "address": "6 - 1095 RUE CHARCOT", "city": "BOUCHERVILLE", "province": "QC", "country": "CA", "postalCode": "J4B0G2", "twitter": "None", "instagram": "None", "facebook": "None", "youtube": "None", "website": "None", "summary": "None", "logo": "None", "latitude": 45.58985100000001, "longitude": -73.423863}, "771062528RR0001": {"name": "Fondation Mon Nouveau Bercail", "designationCode": "C", "categoryCode": "09", "address": "1012 CH SAINT-CLARE", "city": "MONT-ROYAL", "province": "QC", "country": "CA", "postalCode": "H3R2N1", "twitter": "None", "instagram": "None", "facebook": "None", "youtube": "None", "website": "None", "summary": "None", "logo": "None", "latitude": 45.50638698084142, "longitude": -73.64628718679664}, "805194792RR0001": {"name": "Fondation Mondiale Tarmak Tarmak Worldwide Foundation", "designationCode": "A", "categoryCode": "13", "address": "1700 AVENUE PAPINEAU          SUITE 300, SECTION 23", "city": "MONTREAL", "province": "QC", "country": "CA", "postalCode": "H2K4H9", "twitter": "None", "instagram": "None", "facebook": "None", "youtube": "None", "website": "None", "summary": "None", "logo": "None", "latitude": 45.52421091006414, "longitude": -73.55591384361466}, "850792326RR0001": {"name": "Fondation Monique Fitz-Back pour l'\u00e9ducation au d\u00e9veloppement durable", "designationCode": "C", "categoryCode": "53", "address": "320, RU ST-JOSEPH E SS-035", "city": "QU\u00c9BEC", "province": "QC", "country": "CA", "postalCode": "G1K8G5", "twitter": "None", "instagram": "None", "facebook": "None", "youtube": "None", "website": "None", "summary": "None", "logo": "None", "latitude": 46.81386394702496, "longitude": -71.22569026299828}, "836144204RR0001": {"name": "Fondation Mont-de-La Salle", "designationCode": "C", "categoryCode": "21", "address": "125 BOULEVARD DES PRAIRIES", "city": "LAVAL", "province": "QC", "country": "CA", "postalCode": "H7N2T6", "twitter": "None", "instagram": "None", "facebook": "None", "youtube": "None", "website": "None", "summary": "None", "logo": "None", "latitude": 45.55320359796889, "longitude": -73.68624219308889}, "141138073RR0001": {"name": "Fondation Montr\u00e9al Inc. de demain", "designationCode": "C", "categoryCode": "21", "address": "1550 RUE METCALFE             BUREAU 603", "city": "MONTREAL", "province": "QC", "country": "CA", "postalCode": "H3A3P1", "twitter": "None", "instagram": "None", "facebook": "None", "youtube": "None", "website": "None", "summary": "None", "logo": "None", "latitude": 45.50198999388317, "longitude": -73.57481434652885}, "763487493RR0001": {"name": "Fondation MFR Inc.", "designationCode": "C", "categoryCode": "21", "address": "49 RUE DU COLLEGE", "city": "SAINT-LOUIS-DE-KENT", "province": "NB", "country": "CA", "postalCode": "E4X1C2", "twitter": "None", "instagram": "None", "facebook": "None", "youtube": "None", "website": "None", "summary": "None", "logo": "None", "latitude": 46.739749600323364, "longitude": -64.97427115202339}, "101836401RR0001": {"name": "Fondation MGR H. Belleau/MGR. H. Belleau Foundation", "designationCode": "A", "categoryCode": "49", "address": "460 1RE RUE", "city": "RICHELIEU", "province": "QC", "country": "CA", "postalCode": "J3L4B5", "twitter": "None", "instagram": "None", "facebook": "None", "youtube": "None", "website": "None", "summary": "None", "logo": "None", "latitude": 45.44870556942925, "longitude": -73.2618040494552}, "753443290RR0001": {"name": "Fondation MICA", "designationCode": "B", "categoryCode": "03", "address": "500 - 797 BOUL LEBOURGNEUF", "city": "QUEBEC", "province": "QC", "country": "CA", "postalCode": "G2J0B5", "twitter": "None", "instagram": "None", "facebook": "None", "youtube": "None", "website": "None", "summary": "None", "logo": "None", "latitude": 46.84104139575298, "longitude": -71.28192865119212}, "825619133RR0001": {"name": "Fondation N\u00e9z pour vivre", "designationCode": "A", "categoryCode": "13", "address": "201 - 1850 BOUL LE CORBUSIER", "city": "LAVAL", "province": "QC", "country": "CA", "postalCode": "H7S2K1", "twitter": "None", "instagram": "None", "facebook": "None", "youtube": "None", "website": "None", "summary": "None", "logo": "None", "latitude": 45.56838884122007, "longitude": -73.73662125829507}, "801580523RR0001": {"name": "Fondation Nationex Pour L'enfance", "designationCode": "B", "categoryCode": "09", "address": "3505 BOUL LOSCH", "city": "SAINT-HUBERT", "province": "QC", "country": "CA", "postalCode": "J3Y5T7", "twitter": "None", "instagram": "None", "facebook": "None", "youtube": "None", "website": "None", "summary": "None", "logo": "None", "latitude": 45.501002487910554, "longitude": -73.44295393681143}, "899494843RR0001": {"name": "Fondation Neurotrauma Marie-Robert / Marie-Robert Neurotrauma Foundation", "designationCode": "A", "categoryCode": "13", "address": "200-6450 NOTRE-DAME O", "city": "MONTREAL", "province": "QC", "country": "CA", "postalCode": "H4C1V4", "twitter": "None", "instagram": "None", "facebook": "None", "youtube": "None", "website": "None", "summary": "None", "logo": "None", "latitude": 45.46458845462303, "longitude": -73.60377495523645}, "827718438RR0001": {"name": "Fondation Nick Michel", "designationCode": "A", "categoryCode": "05", "address": "1000 AVENUE BEAUVOIR", "city": "ALMA", "province": "QC", "country": "CA", "postalCode": "G8B7N9", "twitter": "None", "instagram": "None", "facebook": "None", "youtube": "None", "website": "None", "summary": "None", "logo": "None", "latitude": 48.53514209132084, "longitude": -71.64395469501962}, "805048287RR0001": {"name": "Fondation Nicolas-Hamann", "designationCode": "C", "categoryCode": "52", "address": "160 RUE SAINTE-GENEVIEVE", "city": "SAINT-ISIDORE", "province": "QC", "country": "CA", "postalCode": "G0S2S0", "twitter": "None", "instagram": "None", "facebook": "None", "youtube": "None", "website": "None", "summary": "None", "logo": "None", "latitude": 46.58368771357263, "longitude": -71.08981136355266}, "801386483RR0001": {"name": "Fondation Normand Brie", "designationCode": "B", "categoryCode": "09", "address": "2335 BOULEVARD BASTIEN", "city": "QU\u00c9BEC", "province": "QC", "country": "CA", "postalCode": "G2B1B3", "twitter": "None", "instagram": "None", "facebook": "None", "youtube": "None", "website": "None", "summary": "None", "logo": "None", "latitude": 46.85765269409691, "longitude": -71.33901868757604}, "878039916RR0001": {"name": "Fondation Normandin", "designationCode": "B", "categoryCode": "75", "address": "445 RUE VACHON", "city": "TROIS-RIVIERES", "province": "QC", "country": "CA", "postalCode": "G8T8P6", "twitter": "None", "instagram": "None", "facebook": "None", "youtube": "None", "website": "None", "summary": "None", "logo": "None", "latitude": 46.371564892838805, "longitude": -72.55494036130229}, "827219379RR0001": {"name": "Fondation Notre Home Foundation", "designationCode": "A", "categoryCode": "03", "address": "1819 REN\u00c9-L\u00c9VESQUE WEST       SUITE 400", "city": "MONTREAL", "province": "QC", "country": "CA", "postalCode": "H3H2P5", "twitter": "None", "instagram": "None", "facebook": "None", "youtube": "None", "website": "None", "summary": "None", "logo": "None", "latitude": 45.49214219040333, "longitude": -73.57677614184304}, "897627246RR0001": {"name": "Fondation Notre-Dame de Zeitoun / Notre-Dame de Zeitoun Foundation", "designationCode": "A", "categoryCode": "13", "address": "PH2 - 5999, AVENUE DE MONKLAND", "city": "MONTREAL", "province": "QC", "country": "CA", "postalCode": "H4A1H1", "twitter": "None", "instagram": "None", "facebook": "None", "youtube": "None", "website": "None", "summary": "None", "logo": "None", "latitude": 45.47140064752719, "longitude": -73.62668811881797}, "815215892RR0001": {"name": "Fondation Nouveaux Sentiers / New Pathways Foundation", "designationCode": "C", "categoryCode": "03", "address": "250, PLACE CHEF MICHEL LAVEAU LOCAL 102", "city": "WENDAKE", "province": "QC", "country": "CA", "postalCode": "G0A4V0", "twitter": "None", "instagram": "None", "facebook": "None", "youtube": "None", "website": "None", "summary": "None", "logo": "None", "latitude": 46.86211049792254, "longitude": -71.35733271440934}, "899721567RR0001": {"name": "Fondation Olangi Wosho - Canada / Olangi Wosho Foundation - Canada", "designationCode": "C", "categoryCode": "39", "address": "1177-M NEW MARKET ST", "city": "OTTAWA", "province": "ON", "country": "CA", "postalCode": "K1B3V1", "twitter": "None", "instagram": "None", "facebook": "None", "youtube": "None", "website": "None", "summary": "None", "logo": "None", "latitude": 45.41104500000006, "longitude": -75.61995649999993}, "853423192RR0001": {"name": "Fondation One Drop / One Drop Foundation", "designationCode": "C", "categoryCode": "09", "address": "550 RUE BEAUMONT, SUITE 400", "city": "MONTR\u00c9AL", "province": "QC", "country": "CA", "postalCode": "H3N1V1", "twitter": "None", "instagram": "None", "facebook": "None", "youtube": "None", "website": "None", "summary": "None", "logo": "None", "latitude": 45.52730730861573, "longitude": -73.6195984028221}, "726885494RR0001": {"name": "Fondation Operenzy / Operenzy Foundation", "designationCode": "B", "categoryCode": "59", "address": "14 CH DE L'AIGLE", "city": "STONEHAM-ET-TEWKESBURY", "province": "QC", "country": "CA", "postalCode": "G3C0S7", "twitter": "None", "instagram": "None", "facebook": "None", "youtube": "None", "website": "None", "summary": "None", "logo": "None", "latitude": 47.004797984476745, "longitude": -71.36932679505438}, "828651356RR0001": {"name": "Fondation Option des Am\u00e9riques", "designationCode": "A", "categoryCode": "23", "address": "101, RUE L\u00c9GAR\u00c9", "city": "SAINTE-AGATHE-DES-MONTS", "province": "QC", "country": "CA", "postalCode": "J8C2T6", "twitter": "None", "instagram": "None", "facebook": "None", "youtube": "None", "website": "None", "summary": "None", "logo": "None", "latitude": 46.0524223133476, "longitude": -74.27708300467455}, "865929491RR0001": {"name": "Fondation Otis Grant & Amis - Otis Grant & Friends Foundation", "designationCode": "A", "categoryCode": "03", "address": "22 RUE BANFF", "city": "DOLLARD-DES-ORMEAUX", "province": "QC", "country": "CA", "postalCode": "H9A2C1", "twitter": "None", "instagram": "None", "facebook": "None", "youtube": "None", "website": "None", "summary": "None", "logo": "None", "latitude": 45.49967045599868, "longitude": -73.81560254068309}, "824452296RR0001": {"name": "Fondation OLI / OLI Foundation", "designationCode": "A", "categoryCode": "13", "address": "2706 PLACE GUY SANCHE", "city": "SAINT LAURENT", "province": "QC", "country": "CA", "postalCode": "H4R2T5", "twitter": "None", "instagram": "None", "facebook": "None", "youtube": "None", "website": "None", "summary": "None", "logo": "None", "latitude": 45.504536428790026, "longitude": -73.73118388343238}, "132004375RR0001": {"name": "Fondation P.-Rodolphe-Baril", "designationCode": "A", "categoryCode": "03", "address": "CP 1018", "city": "WARWICK", "province": "QC", "country": "CA", "postalCode": "J0A1M0", "twitter": "None", "instagram": "None", "facebook": "None", "youtube": "None", "website": "None", "summary": "None", "logo": "None", "latitude": 45.96919366709546, "longitude": -72.19551960257701}, "805693108RR0001": {"name": "Fondation P\u00e9n\u00e9lope Bouchard", "designationCode": "C", "categoryCode": "01", "address": "44 RUE OUELLET", "city": "DOLBEAU-MISTASSINI", "province": "QC", "country": "CA", "postalCode": "G8L4E6", "twitter": "None", "instagram": "None", "facebook": "None", "youtube": "None", "website": "None", "summary": "None", "logo": "None", "latitude": 48.88534986095557, "longitude": -72.21064019773225}, "821434347RR0001": {"name": "Fondation P\u00e8re Lionel Dehoux", "designationCode": "C", "categoryCode": "09", "address": "1683 RUE LUCERNE", "city": "LAVAL", "province": "QC", "country": "CA", "postalCode": "H7M2E8", "twitter": "None", "instagram": "None", "facebook": "None", "youtube": "None", "website": "None", "summary": "None", "logo": "None", "latitude": 45.59837224897559, "longitude": -73.71632904356862}, "118924497RR0001": {"name": "Fondation P\u00e8re Raymond-Bernier, s. v.", "designationCode": "A", "categoryCode": "03", "address": "945 RUE DES SOEURS-DE-LA CHARIT\u00c9", "city": "QU\u00c9BEC", "province": "QC", "country": "CA", "postalCode": "G1R1H8", "twitter": "None", "instagram": "None", "facebook": "None", "youtube": "None", "website": "None", "summary": "None", "logo": "None", "latitude": 46.81337857868314, "longitude": -71.21607016610885}, "885542720RR0001": {"name": "Fondation P\u00e8re Sablon", "designationCode": "A", "categoryCode": "03", "address": "4265 AV. PAPINEAU", "city": "MONTR\u00c9AL", "province": "QC", "country": "CA", "postalCode": "H2H1T3", "twitter": "None", "instagram": "None", "facebook": "None", "youtube": "None", "website": "None", "summary": "None", "logo": "None", "latitude": 45.531162123261375, "longitude": -73.57075917413027}, "861116739RR0001": {"name": "Fondation P\u00e8re-M\u00e9nard", "designationCode": "C", "categoryCode": "49", "address": "306 - 3774 CH QUEEN-MARY", "city": "MONTREAL", "province": "QC", "country": "CA", "postalCode": "H3V1A6", "twitter": "None", "instagram": "None", "facebook": "None", "youtube": "None", "website": "None", "summary": "None", "logo": "None", "latitude": 45.49398420647483, "longitude": -73.6199380410298}, "810029371RR0001": {"name": "Fondation Pallia-Vie", "designationCode": "A", "categoryCode": "13", "address": "385 RUE LEBEAU", "city": "SAINT-JEROME", "province": "QC", "country": "CA", "postalCode": "J7Y2M8", "twitter": "None", "instagram": "None", "facebook": "None", "youtube": "None", "website": "None", "summary": "None", "logo": "None", "latitude": 45.77438564383454, "longitude": -74.0152839151131}, "806810685RR0001": {"name": "Fondation Pas \u00e0 Pas / Step by Step Foundation", "designationCode": "A", "categoryCode": "03", "address": "4-8649, 24E AVENUE", "city": "MONTR\u00c9AL", "province": "QC", "country": "CA", "postalCode": "H1Z3Z5", "twitter": "None", "instagram": "None", "facebook": "None", "youtube": "None", "website": "None", "summary": "None", "logo": "None", "latitude": 45.57730808847969, "longitude": -73.61222882346084}, "845956184RR0001": {"name": "Fondation Patrick Madore", "designationCode": "B", "categoryCode": "05", "address": "1440-1981, MCGILL COLLEGE AVE.", "city": "MONTREAL", "province": "QC", "country": "CA", "postalCode": "H3A2Y1", "twitter": "None", "instagram": "None", "facebook": "None", "youtube": "None", "website": "None", "summary": "None", "logo": "None", "latitude": 45.50305997394517, "longitude": -73.57323951800474}, "755204526RR0001": {"name": "Fondation Paul Boisvenu", "designationCode": "C", "categoryCode": "03", "address": "880 CH DES MERLES", "city": "RAPIDE-DANSEUR", "province": "QC", "country": "CA", "postalCode": "J0Z3G0", "twitter": "None", "instagram": "None", "facebook": "None", "youtube": "None", "website": "None", "summary": "None", "logo": "None", "latitude": 48.51940434026779, "longitude": -79.30333842368279}, "804894053RR0001": {"name": "Fondation Pauline Beaudry", "designationCode": "B", "categoryCode": "09", "address": "209, RUE DES \u00c9RABLES", "city": "WEEDON", "province": "QC", "country": "CA", "postalCode": "J0B3J0", "twitter": "None", "instagram": "None", "facebook": "None", "youtube": "None", "website": "None", "summary": "None", "logo": "None", "latitude": 45.70103446324071, "longitude": -71.46192516345447}, "761347095RR0001": {"name": "Fondation Petites-Mains", "designationCode": "A", "categoryCode": "03", "address": "7595 BOUL SAINT-LAURENT", "city": "MONTREAL", "province": "QC", "country": "CA", "postalCode": "H2R1W9", "twitter": "None", "instagram": "None", "facebook": "None", "youtube": "None", "website": "None", "summary": "None", "logo": "None", "latitude": 45.53674194644807, "longitude": -73.62360309158065}, "801538513RR0001": {"name": "Fondation Phila", "designationCode": "B", "categoryCode": "03", "address": "60 MAPLEWOOD", "city": "OUTREMONT", "province": "QC", "country": "CA", "postalCode": "H2V2M1", "twitter": "None", "instagram": "None", "facebook": "None", "youtube": "None", "website": "None", "summary": "None", "logo": "None", "latitude": 45.51517871438068, "longitude": -73.59855766305043}, "836125781RR0001": {"name": "Fondation Physio Extra", "designationCode": "C", "categoryCode": "11", "address": "2171 RUE FLEURY E", "city": "MONTREAL", "province": "QC", "country": "CA", "postalCode": "H2B1J9", "twitter": "None", "instagram": "None", "facebook": "None", "youtube": "None", "website": "None", "summary": "None", "logo": "None", "latitude": 45.57204837053487, "longitude": -73.65051823829977}, "802345868RR0001": {"name": "Fondation Pier-Yves Bouchard", "designationCode": "B", "categoryCode": "11", "address": "30,RUE NAPOL\u00c9ON", "city": "L\u00c9VIS", "province": "QC", "country": "CA", "postalCode": "G6V5Z9", "twitter": "None", "instagram": "None", "facebook": "None", "youtube": "None", "website": "None", "summary": "None", "logo": "None", "latitude": 46.80209929502571, "longitude": -71.18367768249747}, "731400297RR0001": {"name": "Fondation Pierre Breton Pierre Breton Foundation", "designationCode": "C", "categoryCode": "09", "address": "7 RUE DU CARREFOUR-DE-LA-SANTE", "city": "ROXTON POND", "province": "QC", "country": "CA", "postalCode": "J0E1Z0", "twitter": "None", "instagram": "None", "facebook": "None", "youtube": "None", "website": "None", "summary": "None", "logo": "None", "latitude": 45.473352580068116, "longitude": -72.66455039860891}, "817028681RR0001": {"name": "Fondation Pierre Marchand", "designationCode": "C", "categoryCode": "11", "address": "841-3E RUE OUEST", "city": "AMOS", "province": "QC", "country": "CA", "postalCode": "J9T2T4", "twitter": "None", "instagram": "None", "facebook": "None", "youtube": "None", "website": "None", "summary": "None", "logo": "None", "latitude": 48.57737344463038, "longitude": -78.12404548609194}, "842045437RR0001": {"name": "Fondation Pierre R. Brosseau", "designationCode": "B", "categoryCode": "03", "address": "2901 - 1 PLACE VILLE-MARIE", "city": "MONTREAL", "province": "QC", "country": "CA", "postalCode": "H3B0E9", "twitter": "None", "instagram": "None", "facebook": "None", "youtube": "None", "website": "None", "summary": "None", "logo": "None", "latitude": 45.50188724476333, "longitude": -73.56787382018557}, "118922244RR0001": {"name": "Fondation Pinel", "designationCode": "C", "categoryCode": "11", "address": "10905 BOUL HENRI-BOURASSA E", "city": "MONTREAL", "province": "QC", "country": "CA", "postalCode": "H1C1H1", "twitter": "None", "instagram": "None", "facebook": "None", "youtube": "None", "website": "None", "summary": "None", "logo": "None", "latitude": 45.65436950780353, "longitude": -73.53245333252805}, "829960392RR0001": {"name": "Fondation Polaris Polaris Foundation", "designationCode": "B", "categoryCode": "21", "address": "950 RUE ELODIE-BOUCHER", "city": "LAVAL", "province": "QC", "country": "CA", "postalCode": "H7W0C6", "twitter": "None", "instagram": "None", "facebook": "None", "youtube": "None", "website": "None", "summary": "None", "logo": "None", "latitude": 45.53069940824645, "longitude": -73.78013391026568}, "768310922RR0001": {"name": "Fondation Portraits d'\u00c9tincelles", "designationCode": "C", "categoryCode": "11", "address": "3900 - 1 PLACE VILLE-MARIE", "city": "MONTREAL", "province": "QC", "country": "CA", "postalCode": "H3B4M7", "twitter": "None", "instagram": "None", "facebook": "None", "youtube": "None", "website": "None", "summary": "None", "logo": "None", "latitude": 45.50188724476333, "longitude": -73.56787382018557}, "838321628RR0001": {"name": "Fondation Prince Albert II de Monaco (Canada) / The Prince Albert II of Monaco Foundation (Canada)", "designationCode": "A", "categoryCode": "53", "address": "1000 RUE DE LA GAUCHETIERE O  BUREAU 2100", "city": "MONTREAL", "province": "QC", "country": "CA", "postalCode": "H3B4W5", "twitter": "None", "instagram": "None", "facebook": "None", "youtube": "None", "website": "None", "summary": "None", "logo": "None", "latitude": 45.49846698248619, "longitude": -73.56698518102652}, "889957882RR0001": {"name": "Fondation Projet Chance Inc.", "designationCode": "A", "categoryCode": "03", "address": "17 - 3950 BOUL CAVENDISH", "city": "MONTREAL", "province": "QC", "country": "CA", "postalCode": "H4B2N3", "twitter": "None", "instagram": "None", "facebook": "None", "youtube": "None", "website": "None", "summary": "None", "logo": "None", "latitude": 45.46490061806817, "longitude": -73.63169316683}, "797799921RR0001": {"name": "Fondation Prosodie", "designationCode": "C", "categoryCode": "22", "address": "260 BOUL DE MAISONNEUVE O", "city": "MONTREAL", "province": "QC", "country": "CA", "postalCode": "H2X1Y9", "twitter": "None", "instagram": "None", "facebook": "None", "youtube": "None", "website": "None", "summary": "None", "logo": "None", "latitude": 45.508406327708435, "longitude": -73.56812827526383}, "798663894RR0001": {"name": "Fondation PEI - CSDC", "designationCode": "C", "categoryCode": "23", "address": "1225 RUE VICTORIN", "city": "DRUMMONDVILLE", "province": "QC", "country": "CA", "postalCode": "J2C7Z9", "twitter": "None", "instagram": "None", "facebook": "None", "youtube": "None", "website": "None", "summary": "None", "logo": "None", "latitude": 45.90370672217098, "longitude": -72.48377902192854}, "829543115RR0001": {"name": "Fondation PSI", "designationCode": "A", "categoryCode": "13", "address": "2828, BOUL. LAURIER           PORTE 1500", "city": "QUEBEC", "province": "QC", "country": "CA", "postalCode": "G1V0B9", "twitter": "None", "instagram": "None", "facebook": "None", "youtube": "None", "website": "None", "summary": "None", "logo": "None", "latitude": 46.76745081020227, "longitude": -71.28815594454348}, "882756000RR0001": {"name": "Fondation Qu\u00e9b\u00e9coise de la Sant\u00e9 Reiki", "designationCode": "C", "categoryCode": "20", "address": "657, RUE BEAUPORT", "city": "REPENTIGNY", "province": "QC", "country": "CA", "postalCode": "J6A2E9", "twitter": "None", "instagram": "None", "facebook": "None", "youtube": "None", "website": "None", "summary": "None", "logo": "None", "latitude": 45.757020603670114, "longitude": -73.44133737359329}, "888088242RR0001": {"name": "Fondation Qu\u00e9b\u00e9coise Aidons Un Enfant", "designationCode": "C", "categoryCode": "09", "address": "2900, CHEMIN QUATRE-BOURGEOIS BUREAU 203", "city": "SAINTE-FOY", "province": "QC", "country": "CA", "postalCode": "G1V1Y4", "twitter": "None", "instagram": "None", "facebook": "None", "youtube": "None", "website": "None", "summary": "None", "logo": "None", "latitude": 46.773220765768244, "longitude": -71.3013651915285}, "127803872RR0001": {"name": "Fondation Qu\u00e9bec Cin\u00e9ma / Qu\u00e9bec Cinema Foundation", "designationCode": "C", "categoryCode": "22", "address": "1680 RUE ONTARIO EST", "city": "MONTR\u00c9AL", "province": "QC", "country": "CA", "postalCode": "H2L1S7", "twitter": "None", "instagram": "None", "facebook": "None", "youtube": "None", "website": "None", "summary": "None", "logo": "None", "latitude": 45.52547313099435, "longitude": -73.55961538201873}, "831172424RR0001": {"name": "Fondation Qu\u00e9bec La Tortue(F.Q.L.T.)", "designationCode": "C", "categoryCode": "21", "address": "1003 RUE DE LA VOIE-DU-BOIS", "city": "PREVOST", "province": "QC", "country": "CA", "postalCode": "J0R1T0", "twitter": "None", "instagram": "None", "facebook": "None", "youtube": "None", "website": "None", "summary": "None", "logo": "None", "latitude": 45.859664453488534, "longitude": -74.04788395299758}, "132644006RR0001": {"name": "Fondation Qu\u00e9bec Philanthrope", "designationCode": "A", "categoryCode": "03", "address": "100 - 1040 AV BELVEDERE", "city": "QUEBEC", "province": "QC", "country": "CA", "postalCode": "G1S3G3", "twitter": "None", "instagram": "None", "facebook": "None", "youtube": "None", "website": "None", "summary": "None", "logo": "None", "latitude": 46.79633028585047, "longitude": -71.23855425261092}, "835713785RR0001": {"name": "Fondation R\u00e9giment de Maisonneuve", "designationCode": "C", "categoryCode": "50", "address": "721, RUE RAYMOND-MARTEL", "city": "TERREBONNE", "province": "QC", "country": "CA", "postalCode": "J6V1J7", "twitter": "None", "instagram": "None", "facebook": "None", "youtube": "None", "website": "None", "summary": "None", "logo": "None", "latitude": 45.71962377047145, "longitude": -73.51802925829507}, "817772445RR0001": {"name": "Fondation R\u00e9pit Qu\u00e9bec / R\u00e9pit Qu\u00e9bec Foundation", "designationCode": "C", "categoryCode": "09", "address": "677-B RUE PRINCIPALE", "city": "PIEDMONT", "province": "QC", "country": "CA", "postalCode": "J0R1K0", "twitter": "None", "instagram": "None", "facebook": "None", "youtube": "None", "website": "None", "summary": "None", "logo": "None", "latitude": 45.899439847098954, "longitude": -74.13275362553}, "833560998RR0001": {"name": "Fondation R\u00eave Congo", "designationCode": "C", "categoryCode": "09", "address": "764 RUE GRANGER", "city": "SAINT-JEAN-SUR-RICHELIEU", "province": "QC", "country": "CA", "postalCode": "J3B4T2", "twitter": "None", "instagram": "None", "facebook": "None", "youtube": "None", "website": "None", "summary": "None", "logo": "None", "latitude": 45.32531641020837, "longitude": -73.28440648392849}, "769277898RR0001": {"name": "Fondation R\u00eaves d'Avenir", "designationCode": "C", "categoryCode": "21", "address": "7060 AV BLOOMFIELD", "city": "MONTREAL", "province": "QC", "country": "CA", "postalCode": "H3N2G8", "twitter": "None", "instagram": "None", "facebook": "None", "youtube": "None", "website": "None", "summary": "None", "logo": "None", "latitude": 45.527130053551964, "longitude": -73.6232683246003}, "119114783RR0003": {"name": "Fondation R\u00c9A / REA Foundation", "designationCode": "A", "categoryCode": "11", "address": "6300, AV. DARLINGTON", "city": "MONTREAL", "province": "QC", "country": "CA", "postalCode": "H3S2J4", "twitter": "None", "instagram": "None", "facebook": "None", "youtube": "None", "website": "None", "summary": "None", "logo": "None", "latitude": 45.50846119507788, "longitude": -73.62850295478658}, "803161900RR0001": {"name": "Fondation Rayon de soleil MMA / MMA's Ray of Light Charity", "designationCode": "C", "categoryCode": "09", "address": "12354 RUE GRANGER", "city": "PIERREFONDS", "province": "QC", "country": "CA", "postalCode": "H8Z1V3", "twitter": "None", "instagram": "None", "facebook": "None", "youtube": "None", "website": "None", "summary": "None", "logo": "None", "latitude": 45.506871546742616, "longitude": -73.83100273524136}, "836650580RR0001": {"name": "Fondation Regard Vers l'Avenir - RVA / Foundation Reachin g My Goal - RMG", "designationCode": "B", "categoryCode": "21", "address": "6345 AVENUE CAIRNS", "city": "VILLE ANJOU", "province": "QC", "country": "CA", "postalCode": "H1K4B1", "twitter": "None", "instagram": "None", "facebook": "None", "youtube": "None", "website": "None", "summary": "None", "logo": "None", "latitude": 45.601622644180324, "longitude": -73.55326938132626}, "811466424RR0001": {"name": "Fondation Ren\u00e9 L\u00e9vesque", "designationCode": "C", "categoryCode": "21", "address": "CASE POSTALE 48587            SUCCURSALE OUTREMONT", "city": "MONTR\u00c9AL", "province": "QC", "country": "CA", "postalCode": "H2V4T9", "twitter": "None", "instagram": "None", "facebook": "None", "youtube": "None", "website": "None", "summary": "None", "logo": "None", "latitude": 45.51412200000006, "longitude": -73.61097199999993}, "816274963RR0001": {"name": "Fondation Richard Morin Inc.", "designationCode": "B", "categoryCode": "21", "address": "3920 BOUL DES CHENAUX", "city": "TROIS-RIVIERES", "province": "QC", "country": "CA", "postalCode": "G8Y1A4", "twitter": "None", "instagram": "None", "facebook": "None", "youtube": "None", "website": "None", "summary": "None", "logo": "None", "latitude": 46.3663413675051, "longitude": -72.57188265442342}, "852673391RR0001": {"name": "Fondation Richelieu Laurentienne", "designationCode": "A", "categoryCode": "03", "address": "2817 DES CH\u00c8VREFEUILLES", "city": "VAL-DAVID", "province": "QC", "country": "CA", "postalCode": "J0T2N0", "twitter": "None", "instagram": "None", "facebook": "None", "youtube": "None", "website": "None", "summary": "None", "logo": "None", "latitude": 46.04349070748445, "longitude": -74.21173463324469}, "832408256RR0001": {"name": "Fondation Richelieu Montmagny", "designationCode": "A", "categoryCode": "03", "address": "144-777, BOUL. TACH\u00c9 OUEST", "city": "MONTMAGNY", "province": "QC", "country": "CA", "postalCode": "G5V3R8", "twitter": "None", "instagram": "None", "facebook": "None", "youtube": "None", "website": "None", "summary": "None", "logo": "None", "latitude": 46.96896848486307, "longitude": -70.61857551122398}, "118924935RR0001": {"name": "Fondation Richelieu Qu\u00e9bec-Ancienne-Lorette", "designationCode": "A", "categoryCode": "63", "address": "2341 CHEMIN DE LA CANARDI\u00c8RE  APP. 304", "city": "QU\u00c9BEC", "province": "QC", "country": "CA", "postalCode": "G1V0A3", "twitter": "None", "instagram": "None", "facebook": "None", "youtube": "None", "website": "None", "summary": "None", "logo": "None", "latitude": 46.84345436747644, "longitude": -71.21933095671983}, "831335856RR0001": {"name": "Fondation Richelieu Saint-Jean", "designationCode": "A", "categoryCode": "03", "address": "14 AV LIONEL-MENARD", "city": "SAINT-JEAN-SUR-RICHELIEU", "province": "QC", "country": "CA", "postalCode": "J2X2K6", "twitter": "None", "instagram": "None", "facebook": "None", "youtube": "None", "website": "None", "summary": "None", "logo": "None", "latitude": 45.29903046768412, "longitude": -73.24423272300767}, "850212374RR0001": {"name": "Fondation Robert Desforges", "designationCode": "B", "categoryCode": "03", "address": "325, 41IEME AVENUE", "city": "LACHINE", "province": "QC", "country": "CA", "postalCode": "H8T2G8", "twitter": "None", "instagram": "None", "facebook": "None", "youtube": "None", "website": "None", "summary": "None", "logo": "None", "latitude": 45.43737047515726, "longitude": -73.70192187916187}, "860456938RR0001": {"name": "Fondation Robert-Sauv\u00e9", "designationCode": "C", "categoryCode": "21", "address": "1830 RUE SIMARD", "city": "SHERBROOKE", "province": "QC", "country": "CA", "postalCode": "J1J3X6", "twitter": "None", "instagram": "None", "facebook": "None", "youtube": "None", "website": "None", "summary": "None", "logo": "None", "latitude": 45.42508875327476, "longitude": -71.91915999806675}, "812374684RR0001": {"name": "Fondation Robin des Bois / Robin des Bois Foundation", "designationCode": "A", "categoryCode": "03", "address": "4653 BOUL SAINT-LAURENT", "city": "MONTREAL", "province": "QC", "country": "CA", "postalCode": "H2T1R2", "twitter": "None", "instagram": "None", "facebook": "None", "youtube": "None", "website": "None", "summary": "None", "logo": "None", "latitude": 45.521272141006335, "longitude": -73.588841440591}, "891069684RR0001": {"name": "Fondation Roger Lamont", "designationCode": "C", "categoryCode": "23", "address": "1711 BOUL VALCARTIER", "city": "SAINT-GABRIEL-DE-VALCARTIER", "province": "QC", "country": "CA", "postalCode": "G0A4S0", "twitter": "None", "instagram": "None", "facebook": "None", "youtube": "None", "website": "None", "summary": "None", "logo": "None", "latitude": 46.928792546482825, "longitude": -71.45863196240398}, "851451054RR0001": {"name": "Fondation S.O.S. Riz / S.O.S. Rice Foundation", "designationCode": "C", "categoryCode": "09", "address": "130 RUE DE L'OREE-DES-BOIS", "city": "TROIS-RIVIERES", "province": "QC", "country": "CA", "postalCode": "G9B6S7", "twitter": "None", "instagram": "None", "facebook": "None", "youtube": "None", "website": "None", "summary": "None", "logo": "None", "latitude": 46.28142853173897, "longitude": -72.6705241917883}, "828720227RR0001": {"name": "Fondation S\u00e9n\u00e9gal Sant\u00e9 Mobile", "designationCode": "C", "categoryCode": "09", "address": "4100 BENNY AVENUE, #111", "city": "MONTR\u00c9AL", "province": "QC", "country": "CA", "postalCode": "H4B2R8", "twitter": "None", "instagram": "None", "facebook": "None", "youtube": "None", "website": "None", "summary": "None", "logo": "None", "latitude": 45.46616374963944, "longitude": -73.62977414031383}, "854406758RR0001": {"name": "Fondation Saint-Martial", "designationCode": "C", "categoryCode": "21", "address": "32, FRONTENAC EST", "city": "SAINT-BRUNO", "province": "QC", "country": "CA", "postalCode": "J3V1B4", "twitter": "None", "instagram": "None", "facebook": "None", "youtube": "None", "website": "None", "summary": "None", "logo": "None", "latitude": 45.53885127921401, "longitude": -73.3579452995847}, "118925247RR0001": {"name": "Fondation Sainte-Croix / Heriot", "designationCode": "A", "categoryCode": "13", "address": "570 RUE HERIOT", "city": "DRUMMONDVILLE", "province": "QC", "country": "CA", "postalCode": "J2B1C1", "twitter": "None", "instagram": "None", "facebook": "None", "youtube": "None", "website": "None", "summary": "None", "logo": "None", "latitude": 45.87954375731457, "longitude": -72.47858764576445}, "800680282RR0001": {"name": "Fondation Samuel-de-Champlain Inc.", "designationCode": "C", "categoryCode": "21", "address": "67 RAGGED POINT RD", "city": "SAINT JOHN", "province": "NB", "country": "CA", "postalCode": "E2K5C3", "twitter": "None", "instagram": "None", "facebook": "None", "youtube": "None", "website": "None", "summary": "None", "logo": "None", "latitude": 45.29454225809355, "longitude": -66.11450077234643}, "835074907RR0001": {"name": "Fondation Sandra et Alain Bouchard / Sandra and Alain Bouchard Foundation", "designationCode": "C", "categoryCode": "03", "address": "200 - 1130 RUE SHERBROOKE O", "city": "MONTREAL", "province": "QC", "country": "CA", "postalCode": "H3A2M8", "twitter": "None", "instagram": "None", "facebook": "None", "youtube": "None", "website": "None", "summary": "None", "logo": "None", "latitude": 45.50420051526984, "longitude": -73.57425178965626}, "871420410RR0001": {"name": "Fondation Sandra Schmirler Foundation", "designationCode": "A", "categoryCode": "13", "address": "18 BURNDALE RD", "city": "GLOUCESTER", "province": "ON", "country": "CA", "postalCode": "K1B3Y5", "twitter": "None", "instagram": "None", "facebook": "None", "youtube": "None", "website": "None", "summary": "None", "logo": "None", "latitude": 45.43644327615559, "longitude": -75.56272507911582}, "803068899RR0001": {"name": "Fondation Sandy Burgess", "designationCode": "C", "categoryCode": "21", "address": "533, RUE GILLES-HOCQUART", "city": "RIMOUSKI", "province": "QC", "country": "CA", "postalCode": "G5L1H3", "twitter": "None", "instagram": "None", "facebook": "None", "youtube": "None", "website": "None", "summary": "None", "logo": "None", "latitude": 48.43470791866248, "longitude": -68.55542951194522}, "129133989RR0001": {"name": "Fondation Sant\u00e9 de Papineau", "designationCode": "C", "categoryCode": "03", "address": "155 RUE MACLAREN EST", "city": "GATINEAU", "province": "QC", "country": "CA", "postalCode": "J8L0C2", "twitter": "None", "instagram": "None", "facebook": "None", "youtube": "None", "website": "None", "summary": "None", "logo": "None", "latitude": 45.588281446044014, "longitude": -75.41142408396325}, "118922442RR0001": {"name": "Fondation Sant\u00e9 Beauce-Etchemin", "designationCode": "A", "categoryCode": "13", "address": "1515. 17E RUE                 ST-GEORGES,", "city": "BEAUCE", "province": "QC", "country": "CA", "postalCode": "G5Y4T8", "twitter": "None", "instagram": "None", "facebook": "None", "youtube": "None", "website": "None", "summary": "None", "logo": "None", "latitude": 46.11059071037873, "longitude": -70.68394169995638}, "107588477RR0001": {"name": "Fondation Sant\u00e9 Gatineau", "designationCode": "A", "categoryCode": "13", "address": "116 BOUL LIONEL-EMOND", "city": "GATINEAU", "province": "QC", "country": "CA", "postalCode": "J8Y1W7", "twitter": "None", "instagram": "None", "facebook": "None", "youtube": "None", "website": "None", "summary": "None", "logo": "None", "latitude": 45.444103588819274, "longitude": -75.74735805368944}}