{"129375994RR0001": {"name": "THE HOMESTEAD MUSEUM SOCIETY", "designationCode": "C", "categoryCode": "50", "address": "BOX 3154", "city": "DRUMHELLER", "province": "AB", "country": "CA", "postalCode": "T0J0Y0", "twitter": "None", "instagram": "None", "facebook": "None", "youtube": "None", "website": "None", "summary": "None", "logo": "None", "latitude": 51.46154700000005, "longitude": -112.70878099999993}, "890740178RR0001": {"name": "THE HOMEWOOD FOUNDATION", "designationCode": "A", "categoryCode": "25", "address": "150 DELHI STREET", "city": "GUELPH", "province": "ON", "country": "CA", "postalCode": "N1E6K9", "twitter": "None", "instagram": "None", "facebook": "None", "youtube": "None", "website": "None", "summary": "None", "logo": "None", "latitude": 43.55771150926216, "longitude": -80.25654988833712}, "119237857RR0001": {"name": "THE HONOURABLE G I SMITH MEMORIAL TRUST", "designationCode": "C", "categoryCode": "21", "address": "3 - 800 PRINCE ST", "city": "TRURO", "province": "NS", "country": "CA", "postalCode": "B2N1H1", "twitter": "None", "instagram": "None", "facebook": "None", "youtube": "None", "website": "None", "summary": "None", "logo": "None", "latitude": 45.3645967202313, "longitude": -63.27722088968559}, "890741192RR0001": {"name": "THE HONOURABLE NANCY ELIZABETH CLARK TEED CHARITABLE FOUNDATION INC.", "designationCode": "B", "categoryCode": "23", "address": "POST OFFICE BOX 1324 STN MAIN", "city": "SAINT JOHN", "province": "NB", "country": "CA", "postalCode": "E2L4H8", "twitter": "None", "instagram": "None", "facebook": "None", "youtube": "None", "website": "None", "summary": "None", "logo": "None", "latitude": 45.274774384642015, "longitude": -66.0653109102771}, "892983768RR0001": {"name": "THE HOOPER FAMILY FOUNDATION", "designationCode": "B", "categoryCode": "03", "address": "1479 DOGWOOD AVE", "city": "VANCOUVER", "province": "BC", "country": "CA", "postalCode": "V6P1J9", "twitter": "None", "instagram": "None", "facebook": "None", "youtube": "None", "website": "None", "summary": "None", "logo": "None", "latitude": 49.22353948600596, "longitude": -123.1391112485429}, "119290591RR0001": {"name": "THE HOPE CENTRE: COMMUNITY RESOURCES IN ADVOCACY", "designationCode": "C", "categoryCode": "01", "address": "570 KING ST", "city": "WELLAND", "province": "ON", "country": "CA", "postalCode": "L3B3L2", "twitter": "None", "instagram": "None", "facebook": "None", "youtube": "None", "website": "None", "summary": "None", "logo": "None", "latitude": 42.97807700389516, "longitude": -79.25124289684949}, "119237865RR0002": {"name": "THE HOPE CHARITABLE FOUNDATION", "designationCode": "B", "categoryCode": "03", "address": "130 KING STREET WEST 20TH FLO BOX 430, STN FIRST CANADIAN PL", "city": "TORONTO", "province": "ON", "country": "CA", "postalCode": "M5X1K1", "twitter": "None", "instagram": "None", "facebook": "None", "youtube": "None", "website": "None", "summary": "None", "logo": "None", "latitude": 43.64826932503962, "longitude": -79.38190945606182}, "888536869RR0001": {"name": "THE HOPEWELL CEMETERY COMPANY", "designationCode": "C", "categoryCode": "59", "address": "13 MEMEL ROAD", "city": "HOPEWELL HILL", "province": "NB", "country": "CA", "postalCode": "E4H3L1", "twitter": "None", "instagram": "None", "facebook": "None", "youtube": "None", "website": "None", "summary": "None", "logo": "None", "latitude": 45.767354165964626, "longitude": -64.68400555000258}, "855623450RR0001": {"name": "THE HORATIO ALGER ASSOCIATION OF CANADA", "designationCode": "C", "categoryCode": "23", "address": "5800 - 40 KING ST W", "city": "TORONTO", "province": "ON", "country": "CA", "postalCode": "M5H3S1", "twitter": "None", "instagram": "None", "facebook": "None", "youtube": "None", "website": "None", "summary": "None", "logo": "None", "latitude": 43.64813467004466, "longitude": -79.38254906728791}, "889102281RR0001": {"name": "THE HORNBY ISLAND ELDER HOUSING SOCIETY", "designationCode": "C", "categoryCode": "01", "address": "PO BOX 33", "city": "HORNBY ISLAND", "province": "BC", "country": "CA", "postalCode": "V0R1Z0", "twitter": "None", "instagram": "None", "facebook": "None", "youtube": "None", "website": "None", "summary": "None", "logo": "None", "latitude": 49.51271000000003, "longitude": -124.70406999999994}, "810197749RR0001": {"name": "THE HORNE FAMILY CHARITABLE FOUNDATION", "designationCode": "B", "categoryCode": "03", "address": "1600-700 2ND ST SW", "city": "CALGARY", "province": "AB", "country": "CA", "postalCode": "T2P2W1", "twitter": "None", "instagram": "None", "facebook": "None", "youtube": "None", "website": "None", "summary": "None", "logo": "None", "latitude": 51.04920186667524, "longitude": -114.0676309458328}, "871051611RR0001": {"name": "THE HORSE CONNECTION INC.", "designationCode": "C", "categoryCode": "09", "address": "35 BARKER BLVD", "city": "WINNIPEG", "province": "MB", "country": "CA", "postalCode": "R3R2C8", "twitter": "None", "instagram": "None", "facebook": "None", "youtube": "None", "website": "None", "summary": "None", "logo": "None", "latitude": 49.86498451234926, "longitude": -97.31327872851894}, "891522864RR0001": {"name": "THE HORSEFLY HISTORICAL SOCIETY", "designationCode": "C", "categoryCode": "50", "address": "BOX 11", "city": "HORSEFLY", "province": "BC", "country": "CA", "postalCode": "V0L1L0", "twitter": "None", "instagram": "None", "facebook": "None", "youtube": "None", "website": "None", "summary": "None", "logo": "None", "latitude": 52.317951503520185, "longitude": -121.51292664881109}, "889814778RR0001": {"name": "THE HOSKIN GROUP", "designationCode": "C", "categoryCode": "30", "address": "6 HAMILTON ST", "city": "STRATFORD", "province": "ON", "country": "CA", "postalCode": "N5A7P4", "twitter": "None", "instagram": "None", "facebook": "None", "youtube": "None", "website": "None", "summary": "None", "logo": "None", "latitude": 43.37387083095724, "longitude": -80.98338895432458}, "898788948RR0001": {"name": "THE HOSPICE FOR EATING DISORDERS OF TORONTO", "designationCode": "C", "categoryCode": "01", "address": "87 SPADINA RD", "city": "TORONTO", "province": "ON", "country": "CA", "postalCode": "M5R2T1", "twitter": "None", "instagram": "None", "facebook": "None", "youtube": "None", "website": "None", "summary": "None", "logo": "None", "latitude": 43.67047314516127, "longitude": -79.40531962112658}, "108084393RR0001": {"name": "THE HOSPICE OF WINDSOR AND ESSEX COUNTY INC.", "designationCode": "C", "categoryCode": "11", "address": "6038 EMPRESS STREET", "city": "WINDSOR", "province": "ON", "country": "CA", "postalCode": "N8T1B5", "twitter": "None", "instagram": "None", "facebook": "None", "youtube": "None", "website": "None", "summary": "None", "logo": "None", "latitude": 42.31194936786899, "longitude": -82.95407021623117}, "889270971RR0001": {"name": "THE HOSPITAL ART FOUNDATION", "designationCode": "C", "categoryCode": "59", "address": "200-1275 BROAD ST", "city": "REGINA", "province": "SK", "country": "CA", "postalCode": "S4R1Y2", "twitter": "None", "instagram": "None", "facebook": "None", "youtube": "None", "website": "None", "summary": "None", "logo": "None", "latitude": 50.458716251457105, "longitude": -104.60626931040473}, "886972991RR0001": {"name": "THE HOSPITAL AUXILIARY OF MILTON DISTRICT HOSPITAL", "designationCode": "C", "categoryCode": "19", "address": "30 DERRY RD E", "city": "MILTON", "province": "ON", "country": "CA", "postalCode": "L9T2X5", "twitter": "None", "instagram": "None", "facebook": "None", "youtube": "None", "website": "None", "summary": "None", "logo": "None", "latitude": 43.49767207587156, "longitude": -79.8696889589029}, "107492928RR0001": {"name": "THE HOSPITAL FOR SICK CHILDREN", "designationCode": "C", "categoryCode": "10", "address": "555 UNIVERSITY AVENUE", "city": "TORONTO", "province": "ON", "country": "CA", "postalCode": "M5G1X8", "twitter": "None", "instagram": "None", "facebook": "None", "youtube": "None", "website": "None", "summary": "None", "logo": "None", "latitude": 43.65701607885604, "longitude": -79.3890803209659}, "108084419RR0001": {"name": "THE HOSPITAL FOR SICK CHILDREN FOUNDATION", "designationCode": "A", "categoryCode": "13", "address": "525 UNIVERSITY AVENUE         14 FLOOR", "city": "TORONTO", "province": "ON", "country": "CA", "postalCode": "M5G2L3", "twitter": "None", "instagram": "None", "facebook": "None", "youtube": "None", "website": "None", "summary": "None", "logo": "None", "latitude": 43.65612035527144, "longitude": -79.38867854977238}, "814806675RR0001": {"name": "THE HOTCHKISS FAMILY FOUNDATION", "designationCode": "B", "categoryCode": "03", "address": "810 - 135 26 AVE SW", "city": "CALGARY", "province": "AB", "country": "CA", "postalCode": "T2S0M2", "twitter": "None", "instagram": "None", "facebook": "None", "youtube": "None", "website": "None", "summary": "None", "logo": "None", "latitude": 51.02946649624909, "longitude": -114.06600050291419}, "119237915RR0001": {"name": "THE HOUGH MEMORIAL CANCER FUND SOCIETY", "designationCode": "C", "categoryCode": "13", "address": "PO BOX 4311", "city": "WILLIAMS LAKE", "province": "BC", "country": "CA", "postalCode": "V2G2V4", "twitter": "None", "instagram": "None", "facebook": "None", "youtube": "None", "website": "None", "summary": "None", "logo": "None", "latitude": 52.12864500000006, "longitude": -122.14108249999992}, "119265346RR0001": {"name": "THE HOUSE MINISTRIES OF TOFIELD, ALBERTA", "designationCode": "C", "categoryCode": "34", "address": "BOX 930", "city": "TOFIELD", "province": "AB", "country": "CA", "postalCode": "T0B4J0", "twitter": "None", "instagram": "None", "facebook": "None", "youtube": "None", "website": "None", "summary": "None", "logo": "None", "latitude": 53.36988000000008, "longitude": -112.66557999999998}, "867736704RR0001": {"name": "THE HOUSE OF FAITH PRAYER ASSEMBLY", "designationCode": "C", "categoryCode": "31", "address": "1215 - 5 BELLEVUE CRESCENT", "city": "WESTON", "province": "ON", "country": "CA", "postalCode": "M9N1G5", "twitter": "None", "instagram": "None", "facebook": "None", "youtube": "None", "website": "None", "summary": "None", "logo": "None", "latitude": 43.6992260194184, "longitude": -79.51561251133964}, "892167644RR0001": {"name": "THE HOUSE OF GOD", "designationCode": "C", "categoryCode": "39", "address": "18 COUNTRY RD", "city": "BISHOPS FALLS", "province": "NL", "country": "CA", "postalCode": "A0H1C0", "twitter": "None", "instagram": "None", "facebook": "None", "youtube": "None", "website": "None", "summary": "None", "logo": "None", "latitude": 49.020284513545604, "longitude": -55.46988350677024}, "890207996RR0001": {"name": "THE HOUSE OF GOD, CHURCH OF THE LIVING GOD(TORONTO)", "designationCode": "C", "categoryCode": "39", "address": "610 - 6020 BATHURST ST", "city": "NORTH YORK", "province": "ON", "country": "CA", "postalCode": "M2R1Z8", "twitter": "None", "instagram": "None", "facebook": "None", "youtube": "None", "website": "None", "summary": "None", "logo": "None", "latitude": 43.787189976398025, "longitude": -79.44639950452938}, "134396621RR0001": {"name": "THE HOUSE OF HOPE/MAISON DE L'ESPERANCE", "designationCode": "C", "categoryCode": "59", "address": "32 GILMOUR ST", "city": "OTTAWA", "province": "ON", "country": "CA", "postalCode": "K2P0W3", "twitter": "None", "instagram": "None", "facebook": "None", "youtube": "None", "website": "None", "summary": "None", "logo": "None", "latitude": 45.41865856396795, "longitude": -75.68414800594395}, "890796196RR0001": {"name": "THE HOUSE OF PRAYER FELLOWSHIP (CALGARY)", "designationCode": "C", "categoryCode": "39", "address": "211 MADEIRA CLOSE NE", "city": "CALGARY", "province": "AB", "country": "CA", "postalCode": "T2A4N7", "twitter": "None", "instagram": "None", "facebook": "None", "youtube": "None", "website": "None", "summary": "None", "logo": "None", "latitude": 51.0617774074384, "longitude": -113.94878414086209}, "855405643RR0001": {"name": "THE HOUSE OF REFUGE MINISTRIES", "designationCode": "C", "categoryCode": "39", "address": "37 CALMIST CRESENT", "city": "BRAMPTON", "province": "ON", "country": "CA", "postalCode": "L6Y4L5", "twitter": "None", "instagram": "None", "facebook": "None", "youtube": "None", "website": "None", "summary": "None", "logo": "None", "latitude": 43.656265066910805, "longitude": -79.76062398805477}, "892165135RR0001": {"name": "THE HOUSE OF THE LORD", "designationCode": "B", "categoryCode": "39", "address": "6066 RTE 10", "city": "UPPER SALMON CREEK", "province": "NB", "country": "CA", "postalCode": "E4A1C1", "twitter": "None", "instagram": "None", "facebook": "None", "youtube": "None", "website": "None", "summary": "None", "logo": "None", "latitude": 46.18118241023923, "longitude": -66.01756524369954}, "860041888RR0001": {"name": "THE HOUSE UPON THE ROCK OF DELIVERANCE CHURCH", "designationCode": "C", "categoryCode": "39", "address": "63 TIERRA AVE", "city": "MAPLE", "province": "ON", "country": "CA", "postalCode": "L6A2Z6", "twitter": "None", "instagram": "None", "facebook": "None", "youtube": "None", "website": "None", "summary": "None", "logo": "None", "latitude": 43.85676256506448, "longitude": -79.54085010629584}, "889534244RR0001": {"name": "THE HOWARD AND CAROLE TANENBAUM FAMILY CHARITABLE FOUNDATION", "designationCode": "B", "categoryCode": "03", "address": "1050 FINCH AVE W STE 201", "city": "NORTH YORK", "province": "ON", "country": "CA", "postalCode": "M3J2E2", "twitter": "None", "instagram": "None", "facebook": "None", "youtube": "None", "website": "None", "summary": "None", "logo": "None", "latitude": 43.76778116515656, "longitude": -79.47180618096827}, "858624190RR0001": {"name": "THE HOWARD FOUNDATION", "designationCode": "B", "categoryCode": "03", "address": "200-1450 CREEKSIDE DR", "city": "VANCOUVER", "province": "BC", "country": "CA", "postalCode": "V6J5B2", "twitter": "None", "instagram": "None", "facebook": "None", "youtube": "None", "website": "None", "summary": "None", "logo": "None", "latitude": 49.2730658598304, "longitude": -123.14067372574898}, "105219638RR0001": {"name": "THE HOWARD J. REES FOUNDATION", "designationCode": "B", "categoryCode": "13", "address": "PO BOX 1150", "city": "BLENHEIM", "province": "ON", "country": "CA", "postalCode": "N0P1A0", "twitter": "None", "instagram": "None", "facebook": "None", "youtube": "None", "website": "None", "summary": "None", "logo": "None", "latitude": 42.335210000000075, "longitude": -81.99768999999998}, "863635892RR0001": {"name": "THE HOWITT/DUNBAR FOUNDATION", "designationCode": "B", "categoryCode": "03", "address": "70 ROSEHILL AVENUE            SUITE 606", "city": "TORONTO", "province": "ON", "country": "CA", "postalCode": "M4T2W7", "twitter": "None", "instagram": "None", "facebook": "None", "youtube": "None", "website": "None", "summary": "None", "logo": "None", "latitude": 43.6878898670151, "longitude": -79.39014689895562}, "860140540RR0001": {"name": "THE HUB FAMILY RESOURCE CENTRE", "designationCode": "C", "categoryCode": "09", "address": "#6-118 MILLENNIUM DRIVE", "city": "FORT MCMURRAY", "province": "AB", "country": "CA", "postalCode": "T9K2S8", "twitter": "None", "instagram": "None", "facebook": "None", "youtube": "None", "website": "None", "summary": "None", "logo": "None", "latitude": 56.75574744323816, "longitude": -111.46393106909328}, "852095074RR0001": {"name": "THE HUBBELL AWARDS INCORPORATED", "designationCode": "C", "categoryCode": "21", "address": "190 680 WHYTEWOLD RD          PO BOX 17000 STN FORCES", "city": "WINNIPEG", "province": "MB", "country": "CA", "postalCode": "R3J3Y5", "twitter": "None", "instagram": "None", "facebook": "None", "youtube": "None", "website": "None", "summary": "None", "logo": "None", "latitude": 49.89242720927344, "longitude": -97.25334361610533}, "119237972RR0001": {"name": "THE HUDSON BAY HEALTH CARE ASSOCIATION AUXILIARY", "designationCode": "C", "categoryCode": "19", "address": "PO BOX 1721", "city": "HUDSON BAY", "province": "SK", "country": "CA", "postalCode": "S0E0Y0", "twitter": "None", "instagram": "None", "facebook": "None", "youtube": "None", "website": "None", "summary": "None", "logo": "None", "latitude": 52.862685000000056, "longitude": -102.38924149999994}, "119237980RR0001": {"name": "THE HUDSON BURNBRAE FOUNDATION", "designationCode": "B", "categoryCode": "03", "address": "25 VICTORIA AVE", "city": "BROCKVILLE", "province": "ON", "country": "CA", "postalCode": "K6V2A9", "twitter": "None", "instagram": "None", "facebook": "None", "youtube": "None", "website": "None", "summary": "None", "logo": "None", "latitude": 44.591146626435375, "longitude": -75.68374214152593}, "107496432RR0001": {"name": "THE HUDSON'S HOPE HISTORICAL SOCIETY", "designationCode": "C", "categoryCode": "50", "address": "9510 BEATTIE DRIVE            BOX 98", "city": "HUDSON HOPE", "province": "BC", "country": "CA", "postalCode": "V0C1V0", "twitter": "None", "instagram": "None", "facebook": "None", "youtube": "None", "website": "None", "summary": "None", "logo": "None", "latitude": 56.02882535923161, "longitude": -121.90899844704688}, "725943724RR0001": {"name": "THE HUGH AND ILENE LAWSON CHARITABLE ORGANIZATION", "designationCode": "B", "categoryCode": "21", "address": "1607-170 SUMACH STREET,", "city": "TORONTO", "province": "ON", "country": "CA", "postalCode": "M5A0C3", "twitter": "None", "instagram": "None", "facebook": "None", "youtube": "None", "website": "None", "summary": "None", "logo": "None", "latitude": 43.65818114953585, "longitude": -79.35953395015471}, "871425633RR0001": {"name": "THE HUGO NOORT FAMILY FOUNDATION", "designationCode": "B", "categoryCode": "03", "address": "101-403 6TH ST", "city": "NEW WESTMINSTER", "province": "BC", "country": "CA", "postalCode": "V3L3B1", "twitter": "None", "instagram": "None", "facebook": "None", "youtube": "None", "website": "None", "summary": "None", "logo": "None", "latitude": 49.21038208371541, "longitude": -122.91674673083386}, "889499802RR0001": {"name": "THE HUMAN DEVELOPMENT FOUNDATION OF NORTH AMERICA", "designationCode": "C", "categoryCode": "09", "address": "4208 RAMSAY ROAD", "city": "EDMONTON", "province": "AB", "country": "CA", "postalCode": "T6H5R2", "twitter": "None", "instagram": "None", "facebook": "None", "youtube": "None", "website": "None", "summary": "None", "logo": "None", "latitude": 53.48092558563669, "longitude": -113.58409468417092}, "893337568RR0001": {"name": "THE HUMAN FAMILY IN CHRIST", "designationCode": "C", "categoryCode": "49", "address": "5440 DURIE ROAD", "city": "MISSISSAUGA", "province": "ON", "country": "CA", "postalCode": "L5M2J5", "twitter": "None", "instagram": "None", "facebook": "None", "youtube": "None", "website": "None", "summary": "None", "logo": "None", "latitude": 43.58129700940641, "longitude": -79.70216528939888}, "893072785RR0001": {"name": "THE HUMAN LEAGUE ASSOCIATION", "designationCode": "C", "categoryCode": "03", "address": "236 CEDAR ST", "city": "SUDBURY", "province": "ON", "country": "CA", "postalCode": "P3B1M7", "twitter": "None", "instagram": "None", "facebook": "None", "youtube": "None", "website": "None", "summary": "None", "logo": "None", "latitude": 46.492318984342674, "longitude": -80.98886951565731}, "119238020RR0001": {"name": "THE HUMANE SOCIETY OF THE BATTLEFORDS", "designationCode": "C", "categoryCode": "54", "address": "PO BOX 645 STN MAIN", "city": "NORTH BATTLEFORD", "province": "SK", "country": "CA", "postalCode": "S9A2Y7", "twitter": "None", "instagram": "None", "facebook": "None", "youtube": "None", "website": "None", "summary": "None", "logo": "None", "latitude": 52.77640200000006, "longitude": -108.29903299999994}, "119238038RR0001": {"name": "THE HUMANIST ASSOCIATION OF CANADA/ASSOCIATION HUMANISTE DU CANADA", "designationCode": "C", "categoryCode": "29", "address": "45 O'CONNOR STREET            SUITE 1150", "city": "OTTAWA", "province": "ON", "country": "CA", "postalCode": "K1P1A4", "twitter": "None", "instagram": "None", "facebook": "None", "youtube": "None", "website": "None", "summary": "None", "logo": "None", "latitude": 45.421524000000005, "longitude": -75.6975825}, "119238004RR0001": {"name": "THE HUMBER COLLEGE EDUCATIONAL FOUNDATION", "designationCode": "C", "categoryCode": "21", "address": "205 HUMBER COLLEGE BLVD", "city": "ETOBICOKE", "province": "ON", "country": "CA", "postalCode": "M9W5L7", "twitter": "None", "instagram": "None", "facebook": "None", "youtube": "None", "website": "None", "summary": "None", "logo": "None", "latitude": 43.72983369286928, "longitude": -79.60472424156168}, "857769475RR0001": {"name": "THE HUMBOLDT & DISTRICT FOOD BANK INC.", "designationCode": "C", "categoryCode": "09", "address": "BOX 2021", "city": "HUMBOLDT", "province": "SK", "country": "CA", "postalCode": "S0K2A0", "twitter": "None", "instagram": "None", "facebook": "None", "youtube": "None", "website": "None", "summary": "None", "logo": "None", "latitude": 51.7871843348964, "longitude": -104.71638483007007}, "890260110RR0001": {"name": "THE HUMBOLDT ALLIANCE CHURCH INC.", "designationCode": "C", "categoryCode": "39", "address": "BOX 3610", "city": "HUMBOLDT", "province": "SK", "country": "CA", "postalCode": "S0K2A0", "twitter": "None", "instagram": "None", "facebook": "None", "youtube": "None", "website": "None", "summary": "None", "logo": "None", "latitude": 51.7871843348964, "longitude": -104.71638483007007}, "130303829RR0001": {"name": "THE HUNGER PROJECT", "designationCode": "C", "categoryCode": "09", "address": "17 - 5160 EXPLORER DR", "city": "MISSISSAUGA", "province": "ON", "country": "CA", "postalCode": "L4W4T7", "twitter": "None", "instagram": "None", "facebook": "None", "youtube": "None", "website": "None", "summary": "None", "logo": "None", "latitude": 43.66230239601279, "longitude": -79.59771749145897}, "891107344RR0001": {"name": "THE HUNTERS: DOWN TO EARTH", "designationCode": "C", "categoryCode": "47", "address": "6675 TRUDEAU TERRACE", "city": "BRENTWOOD BAY", "province": "BC", "country": "CA", "postalCode": "V8M1A3", "twitter": "None", "instagram": "None", "facebook": "None", "youtube": "None", "website": "None", "summary": "None", "logo": "None", "latitude": 48.56397169217862, "longitude": -123.45632151206354}, "118965540RR0001": {"name": "THE HUNTINGVILLE COMMUNITY CHURCH", "designationCode": "C", "categoryCode": "39", "address": "102 QUEEN STREET", "city": "SHERBROOKE", "province": "QC", "country": "CA", "postalCode": "J1M1J6", "twitter": "None", "instagram": "None", "facebook": "None", "youtube": "None", "website": "None", "summary": "None", "logo": "None", "latitude": 45.366534398003346, "longitude": -71.85648404463647}, "118965557RR0001": {"name": "THE HUNTSMAN MARINE SCIENCE CENTRE", "designationCode": "C", "categoryCode": "20", "address": "1 LOWER CAMPUS ROAD", "city": "ST. ANDREWS", "province": "NB", "country": "CA", "postalCode": "E5B2L7", "twitter": "None", "instagram": "None", "facebook": "None", "youtube": "None", "website": "None", "summary": "None", "logo": "None", "latitude": 45.08531983239584, "longitude": -67.07646666239773}, "119238095RR0001": {"name": "THE HUNTSVILLE CHRISTADELPHIAN ECCLESIA", "designationCode": "C", "categoryCode": "39", "address": "707 MUSKOKA ROAD 3 NORTH", "city": "HUNTSVILLE", "province": "ON", "country": "CA", "postalCode": "P1H1E1", "twitter": "None", "instagram": "None", "facebook": "None", "youtube": "None", "website": "None", "summary": "None", "logo": "None", "latitude": 45.35053576180608, "longitude": -79.20141597864108}, "888785540RR0001": {"name": "THE HURON COUNTY HISTORICAL SOCIETY", "designationCode": "C", "categoryCode": "52", "address": "P.O. BOX 3", "city": "GODERICH", "province": "ON", "country": "CA", "postalCode": "N7A3Y5", "twitter": "None", "instagram": "None", "facebook": "None", "youtube": "None", "website": "None", "summary": "None", "logo": "None", "latitude": 43.74263400000005, "longitude": -81.70775449999994}, "119238129RR0001": {"name": "THE HUSTLER YOUNG MEN'S BIBLE CLASS FOUNDATION", "designationCode": "A", "categoryCode": "49", "address": "1075 MONTROSE ABBEY DR", "city": "OAKVILLE", "province": "ON", "country": "CA", "postalCode": "L6M1E7", "twitter": "None", "instagram": "None", "facebook": "None", "youtube": "None", "website": "None", "summary": "None", "logo": "None", "latitude": 43.44208263809213, "longitude": -79.71063968039134}, "855689733RR0001": {"name": "THE HUTTERIAN BRETHREN CHURCH OF PRAIRIE BLOSSOM TRUST", "designationCode": "B", "categoryCode": "39", "address": "2500-201 PORTAGE AVENUE", "city": "WINNIPEG", "province": "MB", "country": "CA", "postalCode": "R3B3K6", "twitter": "None", "instagram": "None", "facebook": "None", "youtube": "None", "website": "None", "summary": "None", "logo": "None", "latitude": 49.895359615067065, "longitude": -97.13919299627776}, "891636664RR0001": {"name": "THE HVS HERITAGE VANCOUVER SOCIETY", "designationCode": "C", "categoryCode": "52", "address": "PO BOX 74123                  RPO HILLCREST PARK", "city": "VANCOUVER", "province": "BC", "country": "CA", "postalCode": "V5V5C8", "twitter": "None", "instagram": "None", "facebook": "None", "youtube": "None", "website": "None", "summary": "None", "logo": "None", "latitude": 49.24365000000006, "longitude": -123.10983999999996}, "812178747RR0001": {"name": "THE HYLANDS FUND", "designationCode": "B", "categoryCode": "03", "address": "15 BIRCH AVENUE", "city": "TORONTO", "province": "ON", "country": "CA", "postalCode": "M4V1E1", "twitter": "None", "instagram": "None", "facebook": "None", "youtube": "None", "website": "None", "summary": "None", "logo": "None", "latitude": 43.68123782763008, "longitude": -79.3920747053783}, "118966019RR0001": {"name": "THE HYLCAN FOUNDATION / LA FONDATION HYLCAN", "designationCode": "B", "categoryCode": "03", "address": "24 WINDSOR AVENUE", "city": "WESTMOUNT", "province": "QC", "country": "CA", "postalCode": "H3Y2L6", "twitter": "None", "instagram": "None", "facebook": "None", "youtube": "None", "website": "None", "summary": "None", "logo": "None", "latitude": 45.479599701627386, "longitude": -73.606953186768}, "131259400RR0001": {"name": "THE I E ARTSPEAK GALLERY SOCIETY", "designationCode": "C", "categoryCode": "22", "address": "233 CARRALL ST", "city": "VANCOUVER", "province": "BC", "country": "CA", "postalCode": "V6B2J2", "twitter": "None", "instagram": "None", "facebook": "None", "youtube": "None", "website": "None", "summary": "None", "logo": "None", "latitude": 49.28283262004152, "longitude": -123.10434774917503}, "118966159RR0001": {"name": "THE ICELANDIC FESTIVAL OF MANITOBA - ISLENDINGADAGURINN", "designationCode": "C", "categoryCode": "22", "address": "107 94 FIRST AVE.", "city": "GIMLI", "province": "MB", "country": "CA", "postalCode": "R0C1B1", "twitter": "None", "instagram": "None", "facebook": "None", "youtube": "None", "website": "None", "summary": "None", "logo": "None", "latitude": 50.63046277625336, "longitude": -96.98567325000658}, "862254190RR0001": {"name": "THE IDLEWYLD MANOR FOUNDATION", "designationCode": "A", "categoryCode": "03", "address": "449 SANATORIUM RD", "city": "HAMILTON", "province": "ON", "country": "CA", "postalCode": "L9C2A7", "twitter": "None", "instagram": "None", "facebook": "None", "youtube": "None", "website": "None", "summary": "None", "logo": "None", "latitude": 43.236822937994866, "longitude": -79.91432757568204}, "887830867RR0001": {"name": "THE IEMELIF CHURCH OF CANADA", "designationCode": "C", "categoryCode": "39", "address": "590 GARDEN WALK", "city": "MISSISSAUGA", "province": "ON", "country": "CA", "postalCode": "L5W1W1", "twitter": "None", "instagram": "None", "facebook": "None", "youtube": "None", "website": "None", "summary": "None", "logo": "None", "latitude": 43.63733696973291, "longitude": -79.72091561573089}, "891805574RR0001": {"name": "THE ILLAHIE FOUNDATION", "designationCode": "B", "categoryCode": "03", "address": "#1701-1888 ALBERNI STREET", "city": "VANCOUVER", "province": "BC", "country": "CA", "postalCode": "V6G1B3", "twitter": "None", "instagram": "None", "facebook": "None", "youtube": "None", "website": "None", "summary": "None", "logo": "None", "latitude": 49.292967678862155, "longitude": -123.13564996575086}, "802228916RR0001": {"name": "THE IMAGE OF GOD CHURCH", "designationCode": "C", "categoryCode": "39", "address": "925 TENTH ST", "city": "NEW WESTMINSTER", "province": "BC", "country": "CA", "postalCode": "V3M4A8", "twitter": "None", "instagram": "None", "facebook": "None", "youtube": "None", "website": "None", "summary": "None", "logo": "None", "latitude": 49.214825996000656, "longitude": -122.93324978860267}, "119238178RR0001": {"name": "THE IMMACULATE HEART SOCIETY OF BRITISH COLUMBIA", "designationCode": "C", "categoryCode": "47", "address": "BOX 180", "city": "TOFINO", "province": "BC", "country": "CA", "postalCode": "V0R2Z0", "twitter": "None", "instagram": "None", "facebook": "None", "youtube": "None", "website": "None", "summary": "None", "logo": "None", "latitude": 49.15262000000007, "longitude": -125.90403999999995}, "118967231RR0001": {"name": "THE IMMANUEL CHRISTIAN SCHOOL SOCIETY OF EAST TORONTO", "designationCode": "C", "categoryCode": "39", "address": "21 CHANNEL NINE COURT", "city": "SCARBOROUGH", "province": "ON", "country": "CA", "postalCode": "M1S4B5", "twitter": "None", "instagram": "None", "facebook": "None", "youtube": "None", "website": "None", "summary": "None", "logo": "None", "latitude": 43.78397501664843, "longitude": -79.2563147482831}, "134811793RR0001": {"name": "THE IMMANUEL ORTHODOX REFORMED CHURCH OF NIAGARA INC", "designationCode": "C", "categoryCode": "39", "address": "PO BOX 279                    2900 FOURTH AVE", "city": "JORDAN STATION", "province": "ON", "country": "CA", "postalCode": "L0R1S0", "twitter": "None", "instagram": "None", "facebook": "None", "youtube": "None", "website": "None", "summary": "None", "logo": "None", "latitude": 43.15216074439219, "longitude": -79.36910170053417}, "864510995RR0001": {"name": "THE IMMANUEL PRESBYTERIAN CHURCH OF TORONTO", "designationCode": "C", "categoryCode": "37", "address": "1272 WESTON ROAD", "city": "TORONTO", "province": "ON", "country": "CA", "postalCode": "M6M4R1", "twitter": "None", "instagram": "None", "facebook": "None", "youtube": "None", "website": "None", "summary": "None", "logo": "None", "latitude": 43.68874522119001, "longitude": -79.49457013004205}, "860608652RR0001": {"name": "THE IMMANUEL UNITED REFORMED CHURCH, LISTOWEL, ONTARIO", "designationCode": "C", "categoryCode": "39", "address": "P. O. BOX 55", "city": "LISTOWEL", "province": "ON", "country": "CA", "postalCode": "N4W3H2", "twitter": "None", "instagram": "None", "facebook": "None", "youtube": "None", "website": "None", "summary": "None", "logo": "None", "latitude": 43.73203200000006, "longitude": -80.95433299999993}, "130724222RR0001": {"name": "THE IMMIGRANT SERVICES SOCIETY OF BRITISH COLUMBIA", "designationCode": "C", "categoryCode": "09", "address": "2610 VICTORIA DR", "city": "VANCOUVER", "province": "BC", "country": "CA", "postalCode": "V5N4L2", "twitter": "None", "instagram": "None", "facebook": "None", "youtube": "None", "website": "None", "summary": "None", "logo": "None", "latitude": 49.261066878989, "longitude": -123.06589849440276}, "893595686RR0001": {"name": "THE IMPACT SOCIETY FOR CHILDREN & FAMILIES IN TURMOIL", "designationCode": "C", "categoryCode": "09", "address": "PO BOX 64213 THORNCLIFFE PO", "city": "CALGARY", "province": "AB", "country": "CA", "postalCode": "T2K6J7", "twitter": "None", "instagram": "None", "facebook": "None", "youtube": "None", "website": "None", "summary": "None", "logo": "None", "latitude": 51.103360846180706, "longitude": -114.06522155769314}, "887407195RR0001": {"name": "THE IN-DEFINITE ARTS", "designationCode": "C", "categoryCode": "59", "address": "8038 FAIRMOUNT DR SE", "city": "CALGARY", "province": "AB", "country": "CA", "postalCode": "T2H0Y1", "twitter": "None", "instagram": "None", "facebook": "None", "youtube": "None", "website": "None", "summary": "None", "logo": "None", "latitude": 50.982745452680454, "longitude": -114.05996979695897}, "119238202RR0001": {"name": "THE INCORPORATED SYNOD OF THE DIOCESE OF ALGOMA", "designationCode": "C", "categoryCode": "30", "address": "PO BOX 1168", "city": "SAULT STE MARIE", "province": "ON", "country": "CA", "postalCode": "P6A5N7", "twitter": "None", "instagram": "None", "facebook": "None", "youtube": "None", "website": "None", "summary": "None", "logo": "None", "latitude": 46.517883000000054, "longitude": -84.34795399999993}, "119238210RR0001": {"name": "THE INCORPORATED SYNOD OF THE DIOCESE OF CALEDONIA", "designationCode": "C", "categoryCode": "30", "address": "201-4716 LAZELLE AVENUE", "city": "TERRACE", "province": "BC", "country": "CA", "postalCode": "V8G1T2", "twitter": "None", "instagram": "None", "facebook": "None", "youtube": "None", "website": "None", "summary": "None", "logo": "None", "latitude": 54.51782229706824, "longitude": -128.59378356925882}, "108084658RR0030": {"name": "THE INCORPORATED SYNOD OF THE DIOCESE OF OTTAWA", "designationCode": "C", "categoryCode": "30", "address": "71 BRONSON AVE", "city": "OTTAWA", "province": "ON", "country": "CA", "postalCode": "K1R6G6", "twitter": "None", "instagram": "None", "facebook": "None", "youtube": "None", "website": "None", "summary": "None", "logo": "None", "latitude": 45.41739558756995, "longitude": -75.7091518756421}, "138124573RR0001": {"name": "THE INCUMBENT AND CHURCH-WARDENS OF THE PARISH OF ST. GEORGE OF DRUMMONDVILLE / LE RECTEUR ET MARGUILLIERS DE LA PAROISSE DE STE-GEORGES DE DRUMMONDVILLE", "designationCode": "C", "categoryCode": "30", "address": "276 HERIOT", "city": "DRUMMONDVILLE", "province": "QC", "country": "CA", "postalCode": "J2C1K1", "twitter": "None", "instagram": "None", "facebook": "None", "youtube": "None", "website": "None", "summary": "None", "logo": "None", "latitude": 45.88447290397595, "longitude": -72.48758975269784}, "119238251RR0001": {"name": "THE INDEPENDENT UNITED ORDER OF SOLOMON TRUST ASSOCIATION", "designationCode": "C", "categoryCode": "65", "address": "WESTERN MASONIC BUILDING      2040 WESTON ROAD", "city": "WESTON", "province": "ON", "country": "CA", "postalCode": "M9N1X4", "twitter": "None", "instagram": "None", "facebook": "None", "youtube": "None", "website": "None", "summary": "None", "logo": "None", "latitude": 43.70151088923212, "longitude": -79.52127057842334}, "119238285RR0001": {"name": "THE INDIA CULTURAL CENTRE OF CANADA", "designationCode": "C", "categoryCode": "39", "address": "8600 #5 ROAD", "city": "RICHMOND", "province": "BC", "country": "CA", "postalCode": "V6Y2V4", "twitter": "None", "instagram": "None", "facebook": "None", "youtube": "None", "website": "None", "summary": "None", "logo": "None", "latitude": 49.150250302354756, "longitude": -123.09177039541902}, "129336558RR0001": {"name": "THE INDIAN FRIENDSHIP CENTRE IN SAULT STE. MARIE", "designationCode": "C", "categoryCode": "09", "address": "122 EAST ST", "city": "SAULT STE. MARIE", "province": "ON", "country": "CA", "postalCode": "P6A3C6", "twitter": "None", "instagram": "None", "facebook": "None", "youtube": "None", "website": "None", "summary": "None", "logo": "None", "latitude": 46.50818863168683, "longitude": -84.32709613890019}, "864478391RR0001": {"name": "THE INDIAN HEAD AND DISTRICT HOSPITAL FOUNDATION INC.", "designationCode": "A", "categoryCode": "03", "address": "P.O. BOX 1547", "city": "INDIAN HEAD", "province": "SK", "country": "CA", "postalCode": "S0G2K0", "twitter": "None", "instagram": "None", "facebook": "None", "youtube": "None", "website": "None", "summary": "None", "logo": "None", "latitude": 50.52675000000005, "longitude": -103.66901999999999}, "119238319RR0001": {"name": "THE INDUSTRY-EDUCATION COUNCIL (HAMILTON-WENTWORTH)", "designationCode": "C", "categoryCode": "29", "address": "225 KING WILLIAM STREET #217", "city": "HAMILTON", "province": "ON", "country": "CA", "postalCode": "L8R1B1", "twitter": "None", "instagram": "None", "facebook": "None", "youtube": "None", "website": "None", "summary": "None", "logo": "None", "latitude": 43.25533113962134, "longitude": -79.86085359310985}, "119238327RR0001": {"name": "THE INFANT & TODDLER SAFETY INFORMATION EDUCATION ASSOCIATION OF KITCHENER-WATERLOO", "designationCode": "C", "categoryCode": "59", "address": "23-500 FAIRWAY ROAD SOUTH     SUITE 154", "city": "KITCHENER", "province": "ON", "country": "CA", "postalCode": "N2C1X3", "twitter": "None", "instagram": "None", "facebook": "None", "youtube": "None", "website": "None", "summary": "None", "logo": "None", "latitude": 43.42014444581175, "longitude": -80.4482654612814}, "891615668RR0001": {"name": "THE INGLIS EDUCATION FOUNDATION", "designationCode": "C", "categoryCode": "25", "address": "33 KING'S-EDGEHILL LANE", "city": "WINDSOR", "province": "NS", "country": "CA", "postalCode": "B0N2T0", "twitter": "None", "instagram": "None", "facebook": "None", "youtube": "None", "website": "None", "summary": "None", "logo": "None", "latitude": 44.98329948040873, "longitude": -64.13607905265697}, "131312092RR0001": {"name": "THE INN OF THE GOOD SHEPHERD (SARNIA) INC", "designationCode": "C", "categoryCode": "01", "address": "115 JOHN STREET", "city": "SARNIA", "province": "ON", "country": "CA", "postalCode": "N7T2Z1", "twitter": "None", "instagram": "None", "facebook": "None", "youtube": "None", "website": "None", "summary": "None", "logo": "None", "latitude": 42.96388868413355, "longitude": -82.40287376062801}, "108084765RR0001": {"name": "THE INN OF WINDSOR", "designationCode": "C", "categoryCode": "01", "address": "1687 WYANDOTTE ST E", "city": "WINDSOR", "province": "ON", "country": "CA", "postalCode": "N8Y1C8", "twitter": "None", "instagram": "None", "facebook": "None", "youtube": "None", "website": "None", "summary": "None", "logo": "None", "latitude": 42.32191053814428, "longitude": -83.0151507846097}, "107507394RR0001": {"name": "THE INNERKIP PRESBYTERIAN CHURCH", "designationCode": "C", "categoryCode": "37", "address": "PO BOX 99", "city": "INNERKIP", "province": "ON", "country": "CA", "postalCode": "N0J1M0", "twitter": "None", "instagram": "None", "facebook": "None", "youtube": "None", "website": "None", "summary": "None", "logo": "None", "latitude": 43.20965000000007, "longitude": -80.69663999999995}, "871515995RR0001": {"name": "THE INSIDE OUT LESBIAN AND GAY FILM FESTIVAL INC", "designationCode": "C", "categoryCode": "22", "address": "401 RICHMOND STREET WEST      SUITE 219", "city": "TORONTO", "province": "ON", "country": "CA", "postalCode": "M5V3A8", "twitter": "None", "instagram": "None", "facebook": "None", "youtube": "None", "website": "None", "summary": "None", "logo": "None", "latitude": 43.64803297305114, "longitude": -79.39483379779568}, "103342010RR0001": {"name": "THE INSTITUTE FOR FAMILY LIFE, DEVELOPMENT AND CULTURE/L'INSTITUT POUR LA VIE FAMILIALE, LE DEVELOPPEMENT ET LA CULTURE", "designationCode": "C", "categoryCode": "20", "address": "630 SHERBROOKE WEST           SUITE 400", "city": "MONTREAL", "province": "QC", "country": "CA", "postalCode": "H3A1E4", "twitter": "None", "instagram": "None", "facebook": "None", "youtube": "None", "website": "None", "summary": "None", "logo": "None", "latitude": 45.505404, "longitude": -73.5724035}, "135871069RR0001": {"name": "THE INSTITUTE FOR HUMAN SERVICES EDUCATION", "designationCode": "C", "categoryCode": "20", "address": "60 LORNE ST.                  SUITE 1", "city": "TRURO", "province": "NS", "country": "CA", "postalCode": "B2N3K3", "twitter": "None", "instagram": "None", "facebook": "None", "youtube": "None", "website": "None", "summary": "None", "logo": "None", "latitude": 45.367912926741205, "longitude": -63.27964891618002}, "853638245RR0001": {"name": "THE INSTITUTE FOR THE STUDY OF MARRIAGE, LAW AND CULTURE", "designationCode": "C", "categoryCode": "23", "address": "3484 PEEL ST.", "city": "MONTREAL", "province": "QC", "country": "CA", "postalCode": "H3A1W8", "twitter": "None", "instagram": "None", "facebook": "None", "youtube": "None", "website": "None", "summary": "None", "logo": "None", "latitude": 45.502899183161325, "longitude": -73.57864696269245}, "860878636RR0001": {"name": "THE INSTITUTE OF ISLAMIC LEARNING", "designationCode": "C", "categoryCode": "60", "address": "88 CABRIOLET CRESCENT", "city": "ANCASTER", "province": "ON", "country": "CA", "postalCode": "L9K1K6", "twitter": "None", "instagram": "None", "facebook": "None", "youtube": "None", "website": "None", "summary": "None", "logo": "None", "latitude": 43.21826999999999, "longitude": -79.95966170860962}, "107508673RR0001": {"name": "THE INSTITUTE OF PUBLIC ADMINISTRATION OF CANADA", "designationCode": "C", "categoryCode": "59", "address": "401-1075 BAY ST", "city": "TORONTO", "province": "ON", "country": "CA", "postalCode": "M5S2B1", "twitter": "None", "instagram": "None", "facebook": "None", "youtube": "None", "website": "None", "summary": "None", "logo": "None", "latitude": 43.66706909132086, "longitude": -79.38833126807685}, "119238400RR0001": {"name": "THE INSTITUTE OF SPECULATIVE PHILOSOPHY", "designationCode": "C", "categoryCode": "20", "address": "168 HENDERSON AVENUE", "city": "OTTAWA", "province": "ON", "country": "CA", "postalCode": "K1N7P6", "twitter": "None", "instagram": "None", "facebook": "None", "youtube": "None", "website": "None", "summary": "None", "logo": "None", "latitude": 45.42161694503443, "longitude": -75.6786703121355}, "132056631RR0001": {"name": "THE INSTITUTE ON GOVERNANCE", "designationCode": "C", "categoryCode": "50", "address": "60 GEORGE STREET,             SUITE 203", "city": "OTTAWA", "province": "ON", "country": "CA", "postalCode": "K1N1J4", "twitter": "None", "instagram": "None", "facebook": "None", "youtube": "None", "website": "None", "summary": "None", "logo": "None", "latitude": 45.42689119758803, "longitude": -75.69218646791525}, "892781162RR0001": {"name": "THE INTEGRATED POST SECONDARY EDUCATION SOCIETY OF ALBERTA", "designationCode": "C", "categoryCode": "20", "address": "RPO BRENTWOOD                 PO BOX 45029", "city": "CALGARY", "province": "AB", "country": "CA", "postalCode": "T2L1Y4", "twitter": "None", "instagram": "None", "facebook": "None", "youtube": "None", "website": "None", "summary": "None", "logo": "None", "latitude": 51.08684945853404, "longitude": -114.12899703898803}, "891210148RR0001": {"name": "THE INTERCHURCH REFUGEE GROUP", "designationCode": "C", "categoryCode": "09", "address": "1460 LAURIN CRESCENT", "city": "OTTAWA", "province": "ON", "country": "CA", "postalCode": "K1E3G7", "twitter": "None", "instagram": "None", "facebook": "None", "youtube": "None", "website": "None", "summary": "None", "logo": "None", "latitude": 45.477387511541195, "longitude": -75.49999402706443}, "875378226RR0001": {"name": "THE INTERCONTINENTAL CHURCH OF GOD, CANADIAN DIVISION", "designationCode": "C", "categoryCode": "47", "address": "808 - 33 ERSKINE", "city": "TORONTO", "province": "ON", "country": "CA", "postalCode": "M4P1Y6", "twitter": "None", "instagram": "None", "facebook": "None", "youtube": "None", "website": "None", "summary": "None", "logo": "None", "latitude": 43.71133677266449, "longitude": -79.39786521550586}}