{"877796805RR0001": {"name": "CANDLELIGHTERS CHILDHOOD CANCER SUPPORT PROGRAMS INC.", "designationCode": "C", "categoryCode": "15", "address": "9 - 21 CONCOURSE GATE", "city": "NEPEAN", "province": "ON", "country": "CA", "postalCode": "K2E7S4", "twitter": "None", "instagram": "None", "facebook": "None", "youtube": "None", "website": "None", "summary": "None", "logo": "None", "latitude": 45.34469153756736, "longitude": -75.7089119415433}, "856380845RR0001": {"name": "CANDO CHILD CARE & DEVELOPMENT CENTRE INC.", "designationCode": "C", "categoryCode": "01", "address": "BOX 250", "city": "CANDO", "province": "SK", "country": "CA", "postalCode": "S0K0V0", "twitter": "None", "instagram": "None", "facebook": "None", "youtube": "None", "website": "None", "summary": "None", "logo": "None", "latitude": 52.37361000000004, "longitude": -108.21553999999998}, "888581246RR0001": {"name": "CANED FOUNDATION", "designationCode": "A", "categoryCode": "25", "address": "P.O BOX 1600", "city": "MAPLE CREEK", "province": "SK", "country": "CA", "postalCode": "S0N1N0", "twitter": "None", "instagram": "None", "facebook": "None", "youtube": "None", "website": "None", "summary": "None", "logo": "None", "latitude": 49.91416000000004, "longitude": -109.46959999999996}, "118842699RR0001": {"name": "CANES COMMUNITY CARE", "designationCode": "C", "categoryCode": "11", "address": "400-135 QUEENS PLATE DR", "city": "TORONTO", "province": "ON", "country": "CA", "postalCode": "M9W6V1", "twitter": "None", "instagram": "None", "facebook": "None", "youtube": "None", "website": "None", "summary": "None", "logo": "None", "latitude": 43.716945259218726, "longitude": -79.59252500424185}, "106869654RR0001": {"name": "CANFIELD UNITED CHURCH", "designationCode": "C", "categoryCode": "44", "address": "R.R. #1                       1001 CONCESSION RD 1", "city": "CANFIELD", "province": "ON", "country": "CA", "postalCode": "N0A1C0", "twitter": "None", "instagram": "None", "facebook": "None", "youtube": "None", "website": "None", "summary": "None", "logo": "None", "latitude": 43.003986000000054, "longitude": -79.66479499999993}, "889928396RR0001": {"name": "CANHAVE CHILDREN'S CENTRE INC", "designationCode": "C", "categoryCode": "09", "address": "10 CHESTERTON DR", "city": "OTTAWA", "province": "ON", "country": "CA", "postalCode": "K2E5S9", "twitter": "None", "instagram": "None", "facebook": "None", "youtube": "None", "website": "None", "summary": "None", "logo": "None", "latitude": 45.35309530417233, "longitude": -75.72942177855018}, "890067978RR0001": {"name": "CANIM LAKE COMMUNITY CLUB", "designationCode": "C", "categoryCode": "56", "address": "P.O. BOX 46", "city": "EAGLE CREEK", "province": "BC", "country": "CA", "postalCode": "V0K1L0", "twitter": "None", "instagram": "None", "facebook": "None", "youtube": "None", "website": "None", "summary": "None", "logo": "None", "latitude": 51.84464808807675, "longitude": -121.0139818408338}, "827557679RR0001": {"name": "CANINE BENEFACTORS SOCIETY", "designationCode": "C", "categoryCode": "29", "address": "6088 12TH AVE", "city": "BURNABY", "province": "BC", "country": "CA", "postalCode": "V3N2J1", "twitter": "None", "instagram": "None", "facebook": "None", "youtube": "None", "website": "None", "summary": "None", "logo": "None", "latitude": 49.19829042826213, "longitude": -122.97004628253889}, "851427831RR0001": {"name": "CANLAT FOUNDATION", "designationCode": "B", "categoryCode": "09", "address": "1622 CARLING AVENUE", "city": "OTTAWA", "province": "ON", "country": "CA", "postalCode": "K2A1C5", "twitter": "None", "instagram": "None", "facebook": "None", "youtube": "None", "website": "None", "summary": "None", "logo": "None", "latitude": 45.38012974242608, "longitude": -75.74750957118133}, "118837079RR0001": {"name": "CANMORE ALTA CONGREGATION OF JEHOVAHS WITNESSES", "designationCode": "C", "categoryCode": "61", "address": "122-15 ST", "city": "CANMORE", "province": "AB", "country": "CA", "postalCode": "T1W1M2", "twitter": "None", "instagram": "None", "facebook": "None", "youtube": "None", "website": "None", "summary": "None", "logo": "None", "latitude": 51.096196486005965, "longitude": -115.3532115}, "898300306RR0001": {"name": "CANMORE AND AREA HEALTH CARE FOUNDATION", "designationCode": "A", "categoryCode": "15", "address": "1100 HOSPITAL PL", "city": "CANMORE", "province": "AB", "country": "CA", "postalCode": "T1W1N2", "twitter": "None", "instagram": "None", "facebook": "None", "youtube": "None", "website": "None", "summary": "None", "logo": "None", "latitude": 51.09236991608785, "longitude": -115.3517424573539}, "118837103RR0001": {"name": "CANMORE COMMUNITY CHURCH", "designationCode": "C", "categoryCode": "36", "address": "10307 EAMON ROAD NW", "city": "CALGARY", "province": "AB", "country": "CA", "postalCode": "T3G5H2", "twitter": "None", "instagram": "None", "facebook": "None", "youtube": "None", "website": "None", "summary": "None", "logo": "None", "latitude": 51.136373064660454, "longitude": -114.23727894699631}, "106869977RR0001": {"name": "CANMORE COMMUNITY DAY CARE SOCIETY", "designationCode": "C", "categoryCode": "01", "address": "606B 7TH AVE", "city": "CANMORE", "province": "AB", "country": "CA", "postalCode": "T1W2H5", "twitter": "None", "instagram": "None", "facebook": "None", "youtube": "None", "website": "None", "summary": "None", "logo": "None", "latitude": 51.0873312658633, "longitude": -115.36078976570388}, "131513913RR0001": {"name": "CANMORE FOLK MUSIC FESTIVAL SOCIETY", "designationCode": "C", "categoryCode": "22", "address": "2B - 110 KANANASKIS WAY", "city": "CANMORE", "province": "AB", "country": "CA", "postalCode": "T1W2X2", "twitter": "None", "instagram": "None", "facebook": "None", "youtube": "None", "website": "None", "summary": "None", "logo": "None", "latitude": 51.086568801026985, "longitude": -115.34402056996922}, "886557990RR0001": {"name": "CANMORE HOSPITAL LADIES AUXILIARY", "designationCode": "C", "categoryCode": "13", "address": "P.O. BOX 40016", "city": "CANMORE", "province": "AB", "country": "CA", "postalCode": "T1W3H9", "twitter": "None", "instagram": "None", "facebook": "None", "youtube": "None", "website": "None", "summary": "None", "logo": "None", "latitude": 51.08960400000005, "longitude": -115.36085149999994}, "882149784RR0001": {"name": "CANMORE PRESCHOOL SOCIETY", "designationCode": "C", "categoryCode": "20", "address": "606A - 7TH AVE", "city": "CANMORE", "province": "AB", "country": "CA", "postalCode": "T1W2H5", "twitter": "None", "instagram": "None", "facebook": "None", "youtube": "None", "website": "None", "summary": "None", "logo": "None", "latitude": 51.0873312658633, "longitude": -115.36078976570388}, "118837137RR0001": {"name": "CANMORE PUBLIC LIBRARY", "designationCode": "C", "categoryCode": "50", "address": "101 - 700 RAILWAY AVE", "city": "CANMORE", "province": "AB", "country": "CA", "postalCode": "T1W1P4", "twitter": "None", "instagram": "None", "facebook": "None", "youtube": "None", "website": "None", "summary": "None", "logo": "None", "latitude": 51.08802744445657, "longitude": -115.34919500767377}, "863715520RR0001": {"name": "CANMORE ROTARY CLUB CHARITABLE FOUNDATION", "designationCode": "C", "categoryCode": "09", "address": "P.O. BOX 8025", "city": "CANMORE", "province": "AB", "country": "CA", "postalCode": "T1W2T8", "twitter": "None", "instagram": "None", "facebook": "None", "youtube": "None", "website": "None", "summary": "None", "logo": "None", "latitude": 51.08960400000005, "longitude": -115.36085149999994}, "892830985RR0001": {"name": "CANMORE SENIORS ASSOCIATION", "designationCode": "C", "categoryCode": "56", "address": "BOX 8809                      600B 9TH STREET", "city": "CANMORE", "province": "AB", "country": "CA", "postalCode": "T1W3L9", "twitter": "None", "instagram": "None", "facebook": "None", "youtube": "None", "website": "None", "summary": "None", "logo": "None", "latitude": 51.08992047655096, "longitude": -115.35710433483281}, "888144797RR0001": {"name": "CANNING AREA FOOD BANK", "designationCode": "C", "categoryCode": "09", "address": "PO BOX 257", "city": "CANNING", "province": "NS", "country": "CA", "postalCode": "B0P1H0", "twitter": "None", "instagram": "None", "facebook": "None", "youtube": "None", "website": "None", "summary": "None", "logo": "None", "latitude": 45.15015000000005, "longitude": -64.41545999999994}, "118837194RR0001": {"name": "CANNING UNITED BAPTIST CHURCH", "designationCode": "C", "categoryCode": "31", "address": "P.O. BOX 88", "city": "CANNING", "province": "NS", "country": "CA", "postalCode": "B0P1H0", "twitter": "None", "instagram": "None", "facebook": "None", "youtube": "None", "website": "None", "summary": "None", "logo": "None", "latitude": 45.15015000000005, "longitude": -64.41545999999994}, "118837160RR0001": {"name": "CANNINGTON AND AREA HISTORICAL SOCIETY", "designationCode": "C", "categoryCode": "50", "address": "21 LAIDLAW STREET SOUTH       PO BOX 196", "city": "CANNINGTON", "province": "ON", "country": "CA", "postalCode": "L0E1E0", "twitter": "None", "instagram": "None", "facebook": "None", "youtube": "None", "website": "None", "summary": "None", "logo": "None", "latitude": 44.34966976519133, "longitude": -79.03841686874587}, "118837178RR0001": {"name": "CANNINGTON BAPTIST CHURCH", "designationCode": "C", "categoryCode": "31", "address": "BOX 345", "city": "CANNINGTON", "province": "ON", "country": "CA", "postalCode": "L0E1E0", "twitter": "None", "instagram": "None", "facebook": "None", "youtube": "None", "website": "None", "summary": "None", "logo": "None", "latitude": 44.350370000000055, "longitude": -79.03788999999995}, "119288918RR0989": {"name": "CANOE CONGREGATION OF JEHOVAH'S WITNESSES", "designationCode": "C", "categoryCode": "61", "address": "3190 16 AVE NE", "city": "SALMON ARM", "province": "BC", "country": "CA", "postalCode": "V1E2Y7", "twitter": "None", "instagram": "None", "facebook": "None", "youtube": "None", "website": "None", "summary": "None", "logo": "None", "latitude": 50.71178646681873, "longitude": -119.24806050000001}, "841388226RR0001": {"name": "CANOE COVE CHRISTIAN CAMP INC.", "designationCode": "C", "categoryCode": "56", "address": "P.O. BOX 661", "city": "CHARLOTTETOWN", "province": "PE", "country": "CA", "postalCode": "C1A7L3", "twitter": "None", "instagram": "None", "facebook": "None", "youtube": "None", "website": "None", "summary": "None", "logo": "None", "latitude": 46.23659700000006, "longitude": -63.12815449999994}, "118837210RR0001": {"name": "CANOE COVE PRESBYTERIAN CHURCH", "designationCode": "C", "categoryCode": "37", "address": "548 CANOE COVE RD - RTE 19A", "city": "LONG CREEK", "province": "PE", "country": "CA", "postalCode": "C0A1H1", "twitter": "None", "instagram": "None", "facebook": "None", "youtube": "None", "website": "None", "summary": "None", "logo": "None", "latitude": 46.17132316654155, "longitude": -63.2714533364013}, "118837228RR0001": {"name": "CANOE UNITED CHURCH", "designationCode": "C", "categoryCode": "44", "address": "PO BOX 671", "city": "CANOE", "province": "BC", "country": "CA", "postalCode": "V0E1K0", "twitter": "None", "instagram": "None", "facebook": "None", "youtube": "None", "website": "None", "summary": "None", "logo": "None", "latitude": 52.00880716373645, "longitude": -118.56760579231016}, "118837236RR0002": {"name": "CANON DAVIS MEMORIAL CHURCH", "designationCode": "C", "categoryCode": "30", "address": "380 RUSSELL ST. NORTH", "city": "SARNIA", "province": "ON", "country": "CA", "postalCode": "N7T6S6", "twitter": "None", "instagram": "None", "facebook": "None", "youtube": "None", "website": "None", "summary": "None", "logo": "None", "latitude": 42.98058476986928, "longitude": -82.39123654732897}, "898855580RR0001": {"name": "CANORA & DISTRICT BENEVOLENT FUND ASSOCIATION INC", "designationCode": "C", "categoryCode": "09", "address": "BOX 515", "city": "CANORA", "province": "SK", "country": "CA", "postalCode": "S0A0L0", "twitter": "None", "instagram": "None", "facebook": "None", "youtube": "None", "website": "None", "summary": "None", "logo": "None", "latitude": 51.62535661313478, "longitude": -102.4443087080291}, "888290467RR0001": {"name": "CANORA GATEWAY LODGE AUXILIARY", "designationCode": "C", "categoryCode": "09", "address": "P.O. BOX 1387", "city": "CANORA", "province": "SK", "country": "CA", "postalCode": "S0A0L0", "twitter": "None", "instagram": "None", "facebook": "None", "youtube": "None", "website": "None", "summary": "None", "logo": "None", "latitude": 51.62535661313478, "longitude": -102.4443087080291}, "855419685RR0001": {"name": "CANORA HOSPITAL AUXILIARY", "designationCode": "C", "categoryCode": "19", "address": "BOX 749 1219 MAIN STREET", "city": "CANORA", "province": "SK", "country": "CA", "postalCode": "S0A0L0", "twitter": "None", "instagram": "None", "facebook": "None", "youtube": "None", "website": "None", "summary": "None", "logo": "None", "latitude": 50.93723404642059, "longitude": -102.80019316878223}, "119030666RR0030": {"name": "CANORA SEVENTH-DAY ADVENTIST CHURCH", "designationCode": "C", "categoryCode": "41", "address": "1004 VICTORIA AVE", "city": "SASKATOON", "province": "SK", "country": "CA", "postalCode": "S7N0Z8", "twitter": "None", "instagram": "None", "facebook": "None", "youtube": "None", "website": "None", "summary": "None", "logo": "None", "latitude": 52.115409, "longitude": -106.66240826773014}, "887272268RR0001": {"name": "CANORA UKRAINIAN HERITAGE MUSEUM INC.", "designationCode": "C", "categoryCode": "50", "address": "PO BOX 429", "city": "CANORA", "province": "SK", "country": "CA", "postalCode": "S0A0L0", "twitter": "None", "instagram": "None", "facebook": "None", "youtube": "None", "website": "None", "summary": "None", "logo": "None", "latitude": 51.62535661313478, "longitude": -102.4443087080291}, "888182391RR0001": {"name": "CANOSSIAN DAUGHTERS OF CHARITY SOCIETY", "designationCode": "C", "categoryCode": "46", "address": "730-1155 WEST PENDER ST.", "city": "VANCOUVER", "province": "BC", "country": "CA", "postalCode": "V6E2P4", "twitter": "None", "instagram": "None", "facebook": "None", "youtube": "None", "website": "None", "summary": "None", "logo": "None", "latitude": 49.28800598309178, "longitude": -123.12196316429119}, "118837350RR0001": {"name": "CANSO CHRISTIAN CENTER", "designationCode": "C", "categoryCode": "39", "address": "P.O. BOX 310", "city": "CANSO", "province": "NS", "country": "CA", "postalCode": "B0H1H0", "twitter": "None", "instagram": "None", "facebook": "None", "youtube": "None", "website": "None", "summary": "None", "logo": "None", "latitude": 45.643443709263856, "longitude": -61.4208012834455}, "118837368RR0001": {"name": "CANSO UNITED BAPTIST CHURCH", "designationCode": "C", "categoryCode": "31", "address": "ATTN: JOHN BENT               PO BOX 71, 1238 UNION STREET", "city": "CANSO", "province": "NS", "country": "CA", "postalCode": "B0H1H0", "twitter": "None", "instagram": "None", "facebook": "None", "youtube": "None", "website": "None", "summary": "None", "logo": "None", "latitude": 45.33676254674262, "longitude": -60.99784449861502}, "895487296RR0001": {"name": "CANTABILE CHOIRS OF KINGSTON", "designationCode": "C", "categoryCode": "22", "address": "P.O. BOX 2273", "city": "KINGSTON", "province": "ON", "country": "CA", "postalCode": "K7L5J9", "twitter": "None", "instagram": "None", "facebook": "None", "youtube": "None", "website": "None", "summary": "None", "logo": "None", "latitude": 44.23153200000006, "longitude": -76.47933049999993}, "118837384RR0001": {"name": "CANTABILE CHORAL SOCIETY", "designationCode": "C", "categoryCode": "22", "address": "P.O. BOX 1242", "city": "TRURO", "province": "NS", "country": "CA", "postalCode": "B2N5N2", "twitter": "None", "instagram": "None", "facebook": "None", "youtube": "None", "website": "None", "summary": "None", "logo": "None", "latitude": 45.36602700000006, "longitude": -63.289042999999936}, "889906426RR0001": {"name": "CANTARE CHILDREN'S CHOIR SOCIETY", "designationCode": "C", "categoryCode": "22", "address": "3212 PALLISER DR SW", "city": "CALGARY", "province": "AB", "country": "CA", "postalCode": "T2V4B7", "twitter": "None", "instagram": "None", "facebook": "None", "youtube": "None", "website": "None", "summary": "None", "logo": "None", "latitude": 50.972019925067784, "longitude": -114.13281250178902}, "118837392RR0001": {"name": "CANTATA SINGERS OF OTTAWA", "designationCode": "C", "categoryCode": "22", "address": "PO BOX 71096 RPO LAURIER WEST", "city": "OTTAWA", "province": "ON", "country": "CA", "postalCode": "K2P2L9", "twitter": "None", "instagram": "None", "facebook": "None", "youtube": "None", "website": "None", "summary": "None", "logo": "None", "latitude": 45.41932063522377, "longitude": -75.69713827602023}, "854478963RR0001": {"name": "CANTEEN DESTINY", "designationCode": "C", "categoryCode": "20", "address": "1050 HIGHWAY 5 WEST", "city": "DUNDAS", "province": "ON", "country": "CA", "postalCode": "L9H5E2", "twitter": "None", "instagram": "None", "facebook": "None", "youtube": "None", "website": "None", "summary": "None", "logo": "None", "latitude": 43.28673983426652, "longitude": -80.03439589465646}, "891786840RR0001": {"name": "CANTERBURY ARTS CENTRE DEVELOPMENT ASSOCIATION", "designationCode": "C", "categoryCode": "22", "address": "900 CANTERBURY AVE", "city": "OTTAWA", "province": "ON", "country": "CA", "postalCode": "K1G3A7", "twitter": "None", "instagram": "None", "facebook": "None", "youtube": "None", "website": "None", "summary": "None", "logo": "None", "latitude": 45.389164218653114, "longitude": -75.62742288065134}, "888763745RR0001": {"name": "CANTERBURY CLINIC", "designationCode": "C", "categoryCode": "11", "address": "40 WEST WILMOT                SUITE 7", "city": "RICHMOND HILL", "province": "ON", "country": "CA", "postalCode": "L4B1H8", "twitter": "None", "instagram": "None", "facebook": "None", "youtube": "None", "website": "None", "summary": "None", "logo": "None"}, "118837418RR0001": {"name": "CANTERBURY COLLEGE", "designationCode": "C", "categoryCode": "20", "address": "2500 UNIVERSITY AVE W", "city": "WINDSOR", "province": "ON", "country": "CA", "postalCode": "N9B3Y1", "twitter": "None", "instagram": "None", "facebook": "None", "youtube": "None", "website": "None", "summary": "None", "logo": "None", "latitude": 42.30895871720797, "longitude": -83.06778011561532}, "861850816RR0001": {"name": "CANTERBURY FIRE DEPARTMENT", "designationCode": "C", "categoryCode": "59", "address": "170 MAIN STREET", "city": "CANTERBURY", "province": "NB", "country": "CA", "postalCode": "E6H1M5", "twitter": "None", "instagram": "None", "facebook": "None", "youtube": "None", "website": "None", "summary": "None", "logo": "None", "latitude": 45.88592967695755, "longitude": -67.46867425428437}, "887411791RR0001": {"name": "CANTERBURY FOUNDATION", "designationCode": "C", "categoryCode": "09", "address": "8403 142 ST NW", "city": "EDMONTON", "province": "AB", "country": "CA", "postalCode": "T5R4L3", "twitter": "None", "instagram": "None", "facebook": "None", "youtube": "None", "website": "None", "summary": "None", "logo": "None", "latitude": 53.51646574854291, "longitude": -113.56563581730099}, "128400769RR0001": {"name": "CANTERBURY PARK DAY CARE INC", "designationCode": "C", "categoryCode": "01", "address": "PO BOX 62015 RPO TRANSCONA", "city": "WINNIPEG", "province": "MB", "country": "CA", "postalCode": "R2C5G2", "twitter": "None", "instagram": "None", "facebook": "None", "youtube": "None", "website": "None", "summary": "None", "logo": "None", "latitude": 49.90015262318507, "longitude": -97.02950803629832}, "870834645RR0001": {"name": "CANTILON CHORAL SOCIETY", "designationCode": "C", "categoryCode": "22", "address": "10209 123 ST", "city": "EDMONTON", "province": "AB", "country": "CA", "postalCode": "T5N1N3", "twitter": "None", "instagram": "None", "facebook": "None", "youtube": "None", "website": "None", "summary": "None", "logo": "None", "latitude": 53.54327674854292, "longitude": -113.53407779234267}, "118837467RR0001": {"name": "CANTORION CYMRAEG-CANADA/CANADIAN WELSH SINGERS INC.", "designationCode": "C", "categoryCode": "22", "address": "407 - 403 COMMISSIONERS RD W", "city": "LONDON", "province": "ON", "country": "CA", "postalCode": "N6J4G2", "twitter": "None", "instagram": "None", "facebook": "None", "youtube": "None", "website": "None", "summary": "None", "logo": "None", "latitude": 42.955293497198625, "longitude": -81.28350554816551}, "882596422RR0001": {"name": "CANTUS VOCUM CHAMBER CHOIR INC", "designationCode": "C", "categoryCode": "22", "address": "1 KINGFISHER PLACE", "city": "ST. JOHN'S", "province": "NL", "country": "CA", "postalCode": "A1A4R3", "twitter": "None", "instagram": "None", "facebook": "None", "youtube": "None", "website": "None", "summary": "None", "logo": "None", "latitude": 47.59757396502971, "longitude": -52.72092336138826}, "133867523RR0001": {"name": "CANUCK PLACE CHILDREN'S HOSPICE", "designationCode": "C", "categoryCode": "01", "address": "1690 MATTHEWS AVENUE", "city": "VANCOUVER", "province": "BC", "country": "CA", "postalCode": "V6J2T2", "twitter": "None", "instagram": "None", "facebook": "None", "youtube": "None", "website": "None", "summary": "None", "logo": "None", "latitude": 49.25190599137301, "longitude": -123.14325461322073}, "863704920RR0001": {"name": "CANUCK PLACE CHILDREN'S HOSPICE FOUNDATION", "designationCode": "A", "categoryCode": "13", "address": "1690 MATTHEWS AVE", "city": "VANCOUVER", "province": "BC", "country": "CA", "postalCode": "V6J2T2", "twitter": "None", "instagram": "None", "facebook": "None", "youtube": "None", "website": "None", "summary": "None", "logo": "None", "latitude": 49.25190599137301, "longitude": -123.14325461322073}, "118837483RR0001": {"name": "CANUCKS FOR KIDS FUND", "designationCode": "A", "categoryCode": "03", "address": "800 GRIFFITHS WAY", "city": "VANCOUVER", "province": "BC", "country": "CA", "postalCode": "V6B6G1", "twitter": "None", "instagram": "None", "facebook": "None", "youtube": "None", "website": "None", "summary": "None", "logo": "None", "latitude": 49.27791022182103, "longitude": -123.11031490847724}, "132319492RR0001": {"name": "CANYON CHURCH CAMP ASSOCIATION", "designationCode": "C", "categoryCode": "56", "address": "BOX 418                       210A-12A ST. N.", "city": "LETHBRIDGE", "province": "AB", "country": "CA", "postalCode": "T1H2J1", "twitter": "None", "instagram": "None", "facebook": "None", "youtube": "None", "website": "None", "summary": "None", "logo": "None", "latitude": 49.70184042402823, "longitude": -112.8285536776991}, "888230745RR0001": {"name": "CANYON COMMUNITY ASSOCIATION", "designationCode": "C", "categoryCode": "56", "address": "PO BOX 24", "city": "CANYON", "province": "BC", "country": "CA", "postalCode": "V0B1C0", "twitter": "None", "instagram": "None", "facebook": "None", "youtube": "None", "website": "None", "summary": "None", "logo": "None", "latitude": 49.52411271540065, "longitude": -115.06346372584365}, "132588146RR0001": {"name": "CANYON CREEK CHRISTIAN FELLOWSHIP", "designationCode": "C", "categoryCode": "31", "address": "101 295 MIDPARK WAY SE", "city": "CALGARY", "province": "AB", "country": "CA", "postalCode": "T2X2A8", "twitter": "None", "instagram": "None", "facebook": "None", "youtube": "None", "website": "None", "summary": "None", "logo": "None", "latitude": 50.90926433043842, "longitude": -114.06302796494288}, "866745136RR0001": {"name": "CANYON HEIGHTS CHRISTIAN ASSEMBLY", "designationCode": "C", "categoryCode": "36", "address": "4840 CAPILANO ROAD", "city": "NORTH VANCOUVER", "province": "BC", "country": "CA", "postalCode": "V7R4K5", "twitter": "None", "instagram": "None", "facebook": "None", "youtube": "None", "website": "None", "summary": "None", "logo": "None", "latitude": 49.356494129897825, "longitude": -123.10615636286016}, "891333585RR0001": {"name": "CANYON MEADOWS ELEMENTARY SCHOOL PARENT TEACHER ASSOCIATION", "designationCode": "C", "categoryCode": "21", "address": "395 CANTERBURY DRIVE SW", "city": "CALGARY", "province": "AB", "country": "CA", "postalCode": "T2W1J1", "twitter": "None", "instagram": "None", "facebook": "None", "youtube": "None", "website": "None", "summary": "None", "logo": "None", "latitude": 50.94778956895962, "longitude": -114.07838397890818}, "777837097RR0001": {"name": "CANYOUTH", "designationCode": "B", "categoryCode": "03", "address": "127 BEECHWOOD AVENUE", "city": "TORONTO", "province": "ON", "country": "CA", "postalCode": "M2L1J8", "twitter": "None", "instagram": "None", "facebook": "None", "youtube": "None", "website": "None", "summary": "None", "logo": "None", "latitude": 43.74587883484345, "longitude": -79.3893072053783}, "892076787RR0001": {"name": "CANZONA INC", "designationCode": "C", "categoryCode": "22", "address": "620 - 1445 PORTAGE AVE", "city": "WINNIPEG", "province": "MB", "country": "CA", "postalCode": "R3G3P4", "twitter": "None", "instagram": "None", "facebook": "None", "youtube": "None", "website": "None", "summary": "None", "logo": "None", "latitude": 49.8814393372667, "longitude": -97.195327971435}, "891462590RR0001": {"name": "CAODAIST ASSOCIATION OF MISSISSAUGA AND TORONTO", "designationCode": "C", "categoryCode": "49", "address": "1 - 3585 KEELE ST", "city": "NORTH YORK", "province": "ON", "country": "CA", "postalCode": "M3J3H5", "twitter": "None", "instagram": "None", "facebook": "None", "youtube": "None", "website": "None", "summary": "None", "logo": "None", "latitude": 43.75028177993518, "longitude": -79.48767395219045}, "835627134RR0001": {"name": "CAP FOUNDATION / FONDATION DE L'ACP", "designationCode": "C", "categoryCode": "25", "address": "555 KING EDWARD AVENUE        3RD FLOOR", "city": "OTTAWA", "province": "ON", "country": "CA", "postalCode": "K1N7N5", "twitter": "None", "instagram": "None", "facebook": "None", "youtube": "None", "website": "None", "summary": "None", "logo": "None", "latitude": 45.424676324744546, "longitude": -75.68231551203213}, "888987500RR0001": {"name": "CAP Network Inc.", "designationCode": "C", "categoryCode": "11", "address": "3 DURHAM ST", "city": "PORT HOPE", "province": "ON", "country": "CA", "postalCode": "L1A1G6", "twitter": "None", "instagram": "None", "facebook": "None", "youtube": "None", "website": "None", "summary": "None", "logo": "None", "latitude": 43.94799654651149, "longitude": -78.30127047662916}, "100878115RR0001": {"name": "CAP VIE", "designationCode": "C", "categoryCode": "49", "address": "367 BOUL STE-ROSE", "city": "LAVAL", "province": "QC", "country": "CA", "postalCode": "H7L1N3", "twitter": "None", "instagram": "None", "facebook": "None", "youtube": "None", "website": "None", "summary": "None", "logo": "None", "latitude": 45.60610494589981, "longitude": -73.7978595168213}, "106873557RR0001": {"name": "CAPABILITY SUPPORT SERVICES INC.", "designationCode": "C", "categoryCode": "01", "address": "106-3060 MAINWAY DR", "city": "BURLINGTON", "province": "ON", "country": "CA", "postalCode": "L7M1A3", "twitter": "None", "instagram": "None", "facebook": "None", "youtube": "None", "website": "None", "summary": "None", "logo": "None", "latitude": 43.366608556384726, "longitude": -79.80085422750768}, "863050068RR0001": {"name": "CAPE BREASTONERS (DRAGON BOAT) TEAM SOCIETY", "designationCode": "C", "categoryCode": "11", "address": "P.O. BOX 1001 STN A", "city": "SYDNEY", "province": "NS", "country": "CA", "postalCode": "B1P6J4", "twitter": "None", "instagram": "None", "facebook": "None", "youtube": "None", "website": "None", "summary": "None", "logo": "None", "latitude": 46.137372000000056, "longitude": -60.19552249999994}, "107764573RR0023": {"name": "CAPE BRETON BIBLE CAMP", "designationCode": "C", "categoryCode": "56", "address": "P.O. BOX 477", "city": "SYDNEY", "province": "NS", "country": "CA", "postalCode": "B1P6H4", "twitter": "None", "instagram": "None", "facebook": "None", "youtube": "None", "website": "None", "summary": "None", "logo": "None", "latitude": 46.137372000000056, "longitude": -60.19552249999994}, "106881808RR0001": {"name": "CAPE BRETON CENTRE FOR CRAFT AND DESIGN - CAPE BRETON SCHOOL OF CRAFTS", "designationCode": "C", "categoryCode": "22", "address": "BOX 1686", "city": "SYDNEY", "province": "NS", "country": "CA", "postalCode": "B1P6T7", "twitter": "None", "instagram": "None", "facebook": "None", "youtube": "None", "website": "None", "summary": "None", "logo": "None", "latitude": 46.137372000000056, "longitude": -60.19552249999994}, "886302595RR0001": {"name": "CAPE BRETON CENTRE FOR SEXUAL HEALTH", "designationCode": "C", "categoryCode": "09", "address": "150 BENTICK ST.               P.O. BOX 1598", "city": "SYDNEY", "province": "NS", "country": "CA", "postalCode": "B1P6R8", "twitter": "None", "instagram": "None", "facebook": "None", "youtube": "None", "website": "None", "summary": "None", "logo": "None", "latitude": 46.136411549541236, "longitude": -60.19313654997392}, "891522047RR0001": {"name": "CAPE BRETON CHORALE", "designationCode": "C", "categoryCode": "22", "address": "14 COTTAGE COURT", "city": "SYDNEY", "province": "NS", "country": "CA", "postalCode": "B1P6S2", "twitter": "None", "instagram": "None", "facebook": "None", "youtube": "None", "website": "None", "summary": "None", "logo": "None", "latitude": 46.12721702720868, "longitude": -60.16892027895421}, "106870983RR0001": {"name": "CAPE BRETON CHRISTIAN FELLOWSHIP CHURCH", "designationCode": "C", "categoryCode": "39", "address": "P.O.BOX 6014", "city": "SYDNEY", "province": "NS", "country": "CA", "postalCode": "B1S3V9", "twitter": "None", "instagram": "None", "facebook": "None", "youtube": "None", "website": "None", "summary": "None", "logo": "None", "latitude": 46.137372000000056, "longitude": -60.19552249999994}, "835895947RR0001": {"name": "CAPE BRETON COMMONLANDS ASSOCIATION INC.", "designationCode": "C", "categoryCode": "09", "address": "411 - 400 KINGS RD", "city": "SYDNEY", "province": "NS", "country": "CA", "postalCode": "B1S3N3", "twitter": "None", "instagram": "None", "facebook": "None", "youtube": "None", "website": "None", "summary": "None", "logo": "None", "latitude": 46.12262172113177, "longitude": -60.20195147720515}, "106962566RR0001": {"name": "CAPE BRETON COMMUNITY HOUSING ASSOCIATION", "designationCode": "C", "categoryCode": "01", "address": "PO BOX 1292  STN A", "city": "SYDNEY", "province": "NS", "country": "CA", "postalCode": "B1P6K3", "twitter": "None", "instagram": "None", "facebook": "None", "youtube": "None", "website": "None", "summary": "None", "logo": "None", "latitude": 46.137372000000056, "longitude": -60.19552249999994}, "888691342RR0001": {"name": "CAPE BRETON COMMUNITY HOUSING FOUNDATION", "designationCode": "A", "categoryCode": "03", "address": "POST OFFICE BOX 1292", "city": "SYDNEY", "province": "NS", "country": "CA", "postalCode": "B1P6K3", "twitter": "None", "instagram": "None", "facebook": "None", "youtube": "None", "website": "None", "summary": "None", "logo": "None", "latitude": 46.137372000000056, "longitude": -60.19552249999994}, "892994369RR0001": {"name": "CAPE BRETON DOWN SYNDROME SOCIETY", "designationCode": "C", "categoryCode": "11", "address": "154 RIVERSIDE DRIVE", "city": "SYDNEY", "province": "NS", "country": "CA", "postalCode": "B1S1G5", "twitter": "None", "instagram": "None", "facebook": "None", "youtube": "None", "website": "None", "summary": "None", "logo": "None", "latitude": 46.10211566331024, "longitude": -60.2382660811933}, "138687868RR0001": {"name": "CAPE BRETON FAMILY RESOURCE COALITION SOCIETY", "designationCode": "C", "categoryCode": "59", "address": "714 ALEXANDRA STREET", "city": "SYDNEY", "province": "NS", "country": "CA", "postalCode": "B1S2H4", "twitter": "None", "instagram": "None", "facebook": "None", "youtube": "None", "website": "None", "summary": "None", "logo": "None", "latitude": 46.10962351705247, "longitude": -60.20210473030701}, "851261636RR0001": {"name": "CAPE BRETON FELINE SUPPORT SOCIETY", "designationCode": "B", "categoryCode": "54", "address": "42 HILLSIDE AVE", "city": "GLACE BAY", "province": "NS", "country": "CA", "postalCode": "B1A4B8", "twitter": "None", "instagram": "None", "facebook": "None", "youtube": "None", "website": "None", "summary": "None", "logo": "None", "latitude": 46.19995663113858, "longitude": -59.966964248514245}, "890832199RR0001": {"name": "CAPE BRETON FIREFIGHTERS' BURN CARE SOCIETY", "designationCode": "A", "categoryCode": "53", "address": "PO BOX 1432, STATION \"A\"", "city": "SYDNEY", "province": "NS", "country": "CA", "postalCode": "B1P6R7", "twitter": "None", "instagram": "None", "facebook": "None", "youtube": "None", "website": "None", "summary": "None", "logo": "None", "latitude": 46.137372000000056, "longitude": -60.19552249999994}, "865050611RR0001": {"name": "CAPE BRETON HARVEST COMMUNITY CHURCH", "designationCode": "C", "categoryCode": "38", "address": "628 KINGS RD", "city": "SYDNEY", "province": "NS", "country": "CA", "postalCode": "B1S1B9", "twitter": "None", "instagram": "None", "facebook": "None", "youtube": "None", "website": "None", "summary": "None", "logo": "None", "latitude": 46.11985249608723, "longitude": -60.20677773829772}, "118837624RR0001": {"name": "CAPE BRETON MINERS FOUNDATION", "designationCode": "C", "categoryCode": "50", "address": "PO BOX 310", "city": "GLACE BAY", "province": "NS", "country": "CA", "postalCode": "B1A5T8", "twitter": "None", "instagram": "None", "facebook": "None", "youtube": "None", "website": "None", "summary": "None", "logo": "None", "latitude": 46.19686200000005, "longitude": -59.95771099999993}, "130404593RR0001": {"name": "CAPE BRETON REGIONAL HOSPITAL FOUNDATION", "designationCode": "C", "categoryCode": "11", "address": "45 WEATHERBEE ROAD            SUITE 209", "city": "SYDNEY", "province": "NS", "country": "CA", "postalCode": "B1M0A1", "twitter": "None", "instagram": "None", "facebook": "None", "youtube": "None", "website": "None", "summary": "None", "logo": "None", "latitude": 46.113873090167004, "longitude": -60.176224136217144}, "106871122RR0001": {"name": "CAPE BRETON REGIONAL LIBRARY BOARD", "designationCode": "C", "categoryCode": "50", "address": "50 FALMOUTH STREET", "city": "SYDNEY", "province": "NS", "country": "CA", "postalCode": "B1P6X9", "twitter": "None", "instagram": "None", "facebook": "None", "youtube": "None", "website": "None", "summary": "None", "logo": "None", "latitude": 46.13579071827582, "longitude": -60.19345842991519}, "891032591RR0001": {"name": "CAPE BRETON REGIONAL YOUTH SCIENCE ASSOCIATION", "designationCode": "C", "categoryCode": "21", "address": "18 BRIARWOOD DR", "city": "SYDNEY", "province": "NS", "country": "CA", "postalCode": "B1L1C8", "twitter": "None", "instagram": "None", "facebook": "None", "youtube": "None", "website": "None", "summary": "None", "logo": "None", "latitude": 46.088216786485646, "longitude": -60.2654187591318}, "119279032RR0001": {"name": "CAPE BRETON UNIVERSITY", "designationCode": "C", "categoryCode": "20", "address": "PO BOX 5300", "city": "SYDNEY", "province": "NS", "country": "CA", "postalCode": "B1P6L2", "twitter": "None", "instagram": "None", "facebook": "None", "youtube": "None", "website": "None", "summary": "None", "logo": "None", "latitude": 46.137372000000056, "longitude": -60.19552249999994}, "886582196RR0001": {"name": "CAPE BRETON VETERANS HOSPITAL COMFORT FUND", "designationCode": "C", "categoryCode": "19", "address": "24 BROOKVIEW DRIVE", "city": "SYDNEY", "province": "NS", "country": "CA", "postalCode": "B1P6N4", "twitter": "None", "instagram": "None", "facebook": "None", "youtube": "None", "website": "None", "summary": "None", "logo": "None", "latitude": 46.12348736190788, "longitude": -60.17994545741232}, "898121181RR0001": {"name": "CAPE BRETON WEST COMMUNITY ACTION 2000 SOCIETY", "designationCode": "C", "categoryCode": "09", "address": "P O BOX 269", "city": "MABOU", "province": "NS", "country": "CA", "postalCode": "B0E1X0", "twitter": "None", "instagram": "None", "facebook": "None", "youtube": "None", "website": "None", "summary": "None", "logo": "None", "latitude": 45.93925886245837, "longitude": -61.44986645485256}, "897171641RR0001": {"name": "CAPE BRETON-VICTORIA REGIONAL SCHOOL BOARD", "designationCode": "C", "categoryCode": "20", "address": "275 GEORGE ST", "city": "SYDNEY", "province": "NS", "country": "CA", "postalCode": "B1P1J7", "twitter": "None", "instagram": "None", "facebook": "None", "youtube": "None", "website": "None", "summary": "None", "logo": "None", "latitude": 46.14079717874658, "longitude": -60.19332463289892}, "870610748RR0001": {"name": "CAPE CROKER UNITED CHURCH", "designationCode": "C", "categoryCode": "44", "address": "4 PIT RD", "city": "NEYAASHIINIGMIING", "province": "ON", "country": "CA", "postalCode": "N0H2T0", "twitter": "None", "instagram": "None", "facebook": "None", "youtube": "None", "website": "None", "summary": "None", "logo": "None", "latitude": 44.923046414795785, "longitude": -81.02105709229247}, "884667767RR0001": {"name": "CAPE ENRAGE INTERPRETIVE CENTRE INCORPORATED", "designationCode": "C", "categoryCode": "52", "address": "P.O.BOX 1503", "city": "HOPEWELL CAPE", "province": "NB", "country": "CA", "postalCode": "E4H4W7", "twitter": "None", "instagram": "None", "facebook": "None", "youtube": "None", "website": "None", "summary": "None", "logo": "None", "latitude": 45.84683000000007, "longitude": -64.57627999999994}, "132933771RR0001": {"name": "CAPE FREELS HERITAGE TRUST INC", "designationCode": "C", "categoryCode": "52", "address": "P.O.BOX 135", "city": "NEWTOWN", "province": "NL", "country": "CA", "postalCode": "A0G3L0", "twitter": "None", "instagram": "None", "facebook": "None", "youtube": "None", "website": "None", "summary": "None", "logo": "None", "latitude": 49.20267290196271, "longitude": -53.53713535027524}, "119288918RR1045": {"name": "CAPE HORN CONGREGATION OF JEHOVAH'S WITNESSES", "designationCode": "C", "categoryCode": "61", "address": "134 WARRICK ST", "city": "COQUITLAM", "province": "BC", "country": "CA", "postalCode": "V3K5L4", "twitter": "None", "instagram": "None", "facebook": "None", "youtube": "None", "website": "None", "summary": "None", "logo": "None", "latitude": 49.233200090772606, "longitude": -122.83227344924667}, "885867630RR0001": {"name": "CAPE JOURIMAIN NATURE CENTRE INC.", "designationCode": "C", "categoryCode": "56", "address": "5039, ROUTE 16", "city": "BAYFIELD", "province": "NB", "country": "CA", "postalCode": "E4M3Z8", "twitter": "None", "instagram": "None", "facebook": "None", "youtube": "None", "website": "None", "summary": "None", "logo": "None", "latitude": 46.12564028060725, "longitude": -63.82792353415327}, "106871262RR0001": {"name": "CAPE SABLE HISTORICAL SOCIETY", "designationCode": "C", "categoryCode": "50", "address": "P O BOX 67", "city": "BARRINGTON", "province": "NS", "country": "CA", "postalCode": "B0W1E0", "twitter": "None", "instagram": "None", "facebook": "None", "youtube": "None", "website": "None", "summary": "None", "logo": "None", "latitude": 44.107428523541074, "longitude": -66.06027088088527}, "140650771RR0001": {"name": "CAPE-CENTRE FOR ACADEMIC AND PERSONAL EXCELLENCE INSTITUTE", "designationCode": "C", "categoryCode": "20", "address": "830A BALMORAL STREET SE", "city": "MEDICINE HAT", "province": "AB", "country": "CA", "postalCode": "T1A0W9", "twitter": "None", "instagram": "None", "facebook": "None", "youtube": "None", "website": "None", "summary": "None", "logo": "None", "latitude": 50.03858401742095, "longitude": -110.66692141027292}, "892433848RR0001": {"name": "CAPERCAILLIE PIPE BAND", "designationCode": "C", "categoryCode": "22", "address": "342158 BENTINCK TWP           RR 3", "city": "HANOVER", "province": "ON", "country": "CA", "postalCode": "N4N3B9", "twitter": "None", "instagram": "None", "facebook": "None", "youtube": "None", "website": "None", "summary": "None", "logo": "None", "latitude": 44.18672100000006, "longitude": -80.98862299999993}, "857302582RR0001": {"name": "CAPIH CHARITABLE FOUNDATION", "designationCode": "A", "categoryCode": "03", "address": "94 CHARING CROSD STREET", "city": "BRANTFORD", "province": "ON", "country": "CA", "postalCode": "N3R2H8", "twitter": "None", "instagram": "None", "facebook": "None", "youtube": "None", "website": "None", "summary": "None", "logo": "None", "latitude": 43.159811366611066, "longitude": -80.26627242105705}, "118837731RR0001": {"name": "CAPILANO CHRISTIAN ASSEMBLY", "designationCode": "C", "categoryCode": "47", "address": "9333 50TH STREET", "city": "EDMONTON", "province": "AB", "country": "CA", "postalCode": "T6B2L5", "twitter": "None", "instagram": "None", "facebook": "None", "youtube": "None", "website": "None", "summary": "None", "logo": "None", "latitude": 53.531405580904845, "longitude": -113.41809628787061}, "118837723RR0001": {"name": "CAPILANO CHRISTIAN COMMUNITY SOCIETY", "designationCode": "C", "categoryCode": "39", "address": "PO BOX 86985 STN MAIN", "city": "NORTH VANCOUVER", "province": "BC", "country": "CA", "postalCode": "V7L4P6", "twitter": "None", "instagram": "None", "facebook": "None", "youtube": "None", "website": "None", "summary": "None", "logo": "None", "latitude": 49.32107700000006, "longitude": -123.07521049999994}, "106871411RR0001": {"name": "CAPILANO COMMUNITY SERVICES SOCIETY", "designationCode": "C", "categoryCode": "59", "address": "600 WEST QUEENS ROAD", "city": "NORTH VANCOUVER", "province": "BC", "country": "CA", "postalCode": "V7N2L3", "twitter": "None", "instagram": "None", "facebook": "None", "youtube": "None", "website": "None", "summary": "None", "logo": "None", "latitude": 49.33664766123687, "longitude": -123.08545116123688}, "119288918RR0835": {"name": "CAPILANO CONGREGATION OF JEHOVAH'S WITNESSES", "designationCode": "C", "categoryCode": "61", "address": "1335 3RD STREET", "city": "WEST VANCOUVER", "province": "BC", "country": "CA", "postalCode": "V7S1H8", "twitter": "None", "instagram": "None", "facebook": "None", "youtube": "None", "website": "None", "summary": "None", "logo": "None", "latitude": 49.33631400872637, "longitude": -123.12407461673999}}