{"803416965RR0001": {"name": "Cancer Driveline Society", "designationCode": "C", "categoryCode": "11", "address": "550-2950 DOUGLAS ST", "city": "VICTORIA", "province": "BC", "country": "CA", "postalCode": "V8T4N4", "twitter": "None", "instagram": "None", "facebook": "None", "youtube": "None", "website": "None", "summary": "None", "logo": "None", "latitude": 48.44324183622842, "longitude": -123.36969413913039}, "816420228RR0001": {"name": "Cancer Education Research Foundation (CERF)", "designationCode": "C", "categoryCode": "11", "address": "101 - 7800 KENNEDY RD", "city": "MARKHAM", "province": "ON", "country": "CA", "postalCode": "L3R2C7", "twitter": "None", "instagram": "None", "facebook": "None", "youtube": "None", "website": "None", "summary": "None", "logo": "None", "latitude": 43.84488390507248, "longitude": -79.30529895328604}, "843357583RR0001": {"name": "Cancer Fermont", "designationCode": "C", "categoryCode": "11", "address": "42 RUE COLLIN                 CP 1447", "city": "FERMONT", "province": "QC", "country": "CA", "postalCode": "G0G1J0", "twitter": "None", "instagram": "None", "facebook": "None", "youtube": "None", "website": "None", "summary": "None", "logo": "None", "latitude": 52.79314592091284, "longitude": -67.10327337719998}, "819454703RR0001": {"name": "Cancer Kids Entertainment Inc.", "designationCode": "C", "categoryCode": "11", "address": "88 THORNRIDGE DRIVE", "city": "THORNHILL", "province": "ON", "country": "CA", "postalCode": "L4J1C9", "twitter": "None", "instagram": "None", "facebook": "None", "youtube": "None", "website": "None", "summary": "None", "logo": "None", "latitude": 43.81142593591649, "longitude": -79.43240036124404}, "830899811RR0001": {"name": "Cancer Patient Services Corporation", "designationCode": "C", "categoryCode": "11", "address": "PO BOX 376", "city": "MOUNT FOREST", "province": "ON", "country": "CA", "postalCode": "N0G2L2", "twitter": "None", "instagram": "None", "facebook": "None", "youtube": "None", "website": "None", "summary": "None", "logo": "None", "latitude": 44.031723000000056, "longitude": -81.09871549999994}, "888506268RR0001": {"name": "Cancer Saguenay", "designationCode": "C", "categoryCode": "09", "address": "2327, RUE LEVESQUE", "city": "JONQUIERE", "province": "QC", "country": "CA", "postalCode": "G7S3T4", "twitter": "None", "instagram": "None", "facebook": "None", "youtube": "None", "website": "None", "summary": "None", "logo": "None", "latitude": 48.408417136274466, "longitude": -71.17353110998943}, "850571589RR0001": {"name": "Cancer Support and Resource Program of Norfolk", "designationCode": "C", "categoryCode": "11", "address": "645 NORFOLK STREET NORTH", "city": "SIMCOE", "province": "ON", "country": "CA", "postalCode": "N3Y4L2", "twitter": "None", "instagram": "None", "facebook": "None", "youtube": "None", "website": "None", "summary": "None", "logo": "None", "latitude": 42.851321852357245, "longitude": -80.30916010416104}, "852229590RR0001": {"name": "Candace House Inc.", "designationCode": "C", "categoryCode": "59", "address": "PO BOX 441                    101-478 RIVER AVE", "city": "WINNIPEG", "province": "MB", "country": "CA", "postalCode": "R3L0B3", "twitter": "None", "instagram": "None", "facebook": "None", "youtube": "None", "website": "None", "summary": "None", "logo": "None", "latitude": 49.87893103523008, "longitude": -97.1471053771713}, "834124067RR0001": {"name": "Candlelighters Childhood Cancer Support Group", "designationCode": "C", "categoryCode": "11", "address": "21170 LAFOURCHE RD            BOX 142", "city": "ST-PIERRE-JOLYS", "province": "MB", "country": "CA", "postalCode": "R0A1V0", "twitter": "None", "instagram": "None", "facebook": "None", "youtube": "None", "website": "None", "summary": "None", "logo": "None", "latitude": 49.44078600000006, "longitude": -96.98513299999993}, "856292867RR0001": {"name": "Candlelighters Simcoe-Parents of Children with Cancer", "designationCode": "C", "categoryCode": "11", "address": "6 EMILY COURT,", "city": "BARRIE", "province": "ON", "country": "CA", "postalCode": "L4N6B4", "twitter": "None", "instagram": "None", "facebook": "None", "youtube": "None", "website": "None", "summary": "None", "logo": "None", "latitude": 44.39218205661037, "longitude": -79.72511205052217}, "810063065RR0001": {"name": "Canfel Foundation", "designationCode": "A", "categoryCode": "03", "address": "367 WOOLWICH STREET", "city": "GUELPH", "province": "ON", "country": "CA", "postalCode": "N1H3W4", "twitter": "None", "instagram": "None", "facebook": "None", "youtube": "None", "website": "None", "summary": "None", "logo": "None", "latitude": 43.55177037359331, "longitude": -80.25907388631792}, "867736886RR0001": {"name": "Canfield Community Centre Corporation", "designationCode": "C", "categoryCode": "56", "address": "1001 CONCESSION ROAD 1", "city": "CANFIELD", "province": "ON", "country": "CA", "postalCode": "N0A1C0", "twitter": "None", "instagram": "None", "facebook": "None", "youtube": "None", "website": "None", "summary": "None", "logo": "None", "latitude": 43.003986000000054, "longitude": -79.66479499999993}, "850249012RR0001": {"name": "Canfil Development Foundation", "designationCode": "B", "categoryCode": "01", "address": "1030 WEST GEORGIA STREET      1010 THE BURRARD BUILDING", "city": "VANCOUVER", "province": "BC", "country": "CA", "postalCode": "V6E2Y3", "twitter": "None", "instagram": "None", "facebook": "None", "youtube": "None", "website": "None", "summary": "None", "logo": "None"}, "843343047RR0001": {"name": "Canine Action Project Inc.", "designationCode": "C", "categoryCode": "54", "address": "PO BOX 114", "city": "LASHBURN", "province": "SK", "country": "CA", "postalCode": "S0M1H0", "twitter": "None", "instagram": "None", "facebook": "None", "youtube": "None", "website": "None", "summary": "None", "logo": "None", "latitude": 53.13346000000007, "longitude": -109.60150999999996}, "811492669RR0001": {"name": "Canine Comfort of Canada Inc.", "designationCode": "C", "categoryCode": "11", "address": "88 EVERGREEN ROAD             RR 2", "city": "STIRLING", "province": "ON", "country": "CA", "postalCode": "K0K3E0", "twitter": "None", "instagram": "None", "facebook": "None", "youtube": "None", "website": "None", "summary": "None", "logo": "None", "latitude": 44.31698796136572, "longitude": -77.5221457288074}, "859286221RR0001": {"name": "Canmedsend Foundation", "designationCode": "A", "categoryCode": "03", "address": "14 TALLY LANE", "city": "NORTH YORK", "province": "ON", "country": "CA", "postalCode": "M2K1V4", "twitter": "None", "instagram": "None", "facebook": "None", "youtube": "None", "website": "None", "summary": "None", "logo": "None", "latitude": 43.776632376651726, "longitude": -79.37695436386977}, "106693047RR0047": {"name": "Canmore Mountain Sanctuary Company of the Seventh-day Adventist Church", "designationCode": "C", "categoryCode": "41", "address": "5816 HIGHWAY, 2A", "city": "LACOMBE", "province": "AB", "country": "CA", "postalCode": "T4L2G5", "twitter": "None", "instagram": "None", "facebook": "None", "youtube": "None", "website": "None", "summary": "None", "logo": "None", "latitude": 52.474063600197404, "longitude": -113.71692568401835}, "817501760RR0001": {"name": "Canmore Theravada Buddhist Community", "designationCode": "C", "categoryCode": "35", "address": "518 2 ST", "city": "CANMORE", "province": "AB", "country": "CA", "postalCode": "T1W2K5", "twitter": "None", "instagram": "None", "facebook": "None", "youtube": "None", "website": "None", "summary": "None", "logo": "None", "latitude": 51.0834515115412, "longitude": -115.35472341618096}, "889967592RR0001": {"name": "Canning District Recreational Commission", "designationCode": "C", "categoryCode": "56", "address": "9846 MAIN STREET              P.O. BOX 313", "city": "CANNING", "province": "NS", "country": "CA", "postalCode": "B0P1H0", "twitter": "None", "instagram": "None", "facebook": "None", "youtube": "None", "website": "None", "summary": "None", "logo": "None", "latitude": 45.157245130157634, "longitude": -64.4201081343412}, "841434038RR0001": {"name": "Cannonbury Foundation", "designationCode": "B", "categoryCode": "03", "address": "17 PRINCE ARTHUR AVE          3RD FLOOR", "city": "TORONTO", "province": "ON", "country": "CA", "postalCode": "M5R1B2", "twitter": "None", "instagram": "None", "facebook": "None", "youtube": "None", "website": "None", "summary": "None", "logo": "None", "latitude": 43.669596783773, "longitude": -79.39599526366212}, "830164281RR0001": {"name": "Cano\u00eb de l'espoir/Canoe of Hope", "designationCode": "C", "categoryCode": "47", "address": "149 AV PERREAULT", "city": "CHIBOUGAMAU", "province": "QC", "country": "CA", "postalCode": "G8P2B2", "twitter": "None", "instagram": "None", "facebook": "None", "youtube": "None", "website": "None", "summary": "None", "logo": "None", "latitude": 49.918212586184964, "longitude": -74.36007353874984}, "845019207RR0001": {"name": "Canpak Health & Education Development Association", "designationCode": "C", "categoryCode": "20", "address": "96 DUFFERIN AVENUE,", "city": "BRANTFORD", "province": "ON", "country": "CA", "postalCode": "N3T4P8", "twitter": "None", "instagram": "None", "facebook": "None", "youtube": "None", "website": "None", "summary": "None", "logo": "None", "latitude": 43.146121559784355, "longitude": -80.2793627847826}, "873730444RR0002": {"name": "Canso and Area Food Bank Association", "designationCode": "C", "categoryCode": "09", "address": "193 MAIN STREET               POST OFFICE BOX 480", "city": "CANSO", "province": "NS", "country": "CA", "postalCode": "B0H1H0", "twitter": "None", "instagram": "None", "facebook": "None", "youtube": "None", "website": "None", "summary": "None", "logo": "None", "latitude": 45.334208641670145, "longitude": -60.99937776810552}, "735210890RR0001": {"name": "Canso Beacon of Light Ministry", "designationCode": "C", "categoryCode": "39", "address": "PO BOX 136", "city": "CANSO", "province": "NS", "country": "CA", "postalCode": "B0H1H0", "twitter": "None", "instagram": "None", "facebook": "None", "youtube": "None", "website": "None", "summary": "None", "logo": "None", "latitude": 45.643443709263856, "longitude": -61.4208012834455}, "847968328RR0001": {"name": "Canta Arya School for Strings Inc.", "designationCode": "C", "categoryCode": "22", "address": "101 LOWER UNION STREET", "city": "KINGSTON", "province": "ON", "country": "CA", "postalCode": "K7L2N3", "twitter": "None", "instagram": "None", "facebook": "None", "youtube": "None", "website": "None", "summary": "None", "logo": "None", "latitude": 44.226567973368276, "longitude": -76.48697946321204}, "783749724RR0001": {"name": "Cantala Choir Inc.", "designationCode": "C", "categoryCode": "22", "address": "126 PATON RD", "city": "TORONTO", "province": "ON", "country": "CA", "postalCode": "M6P3M2", "twitter": "None", "instagram": "None", "facebook": "None", "youtube": "None", "website": "None", "summary": "None", "logo": "None", "latitude": 43.65981919790516, "longitude": -79.44754698488079}, "814449526RR0001": {"name": "Cantelon Christian Communications Inc.", "designationCode": "C", "categoryCode": "47", "address": "2055 HALTON PLACE", "city": "BURLINGTON", "province": "ON", "country": "CA", "postalCode": "L7R1P8", "twitter": "None", "instagram": "None", "facebook": "None", "youtube": "None", "website": "None", "summary": "None", "logo": "None", "latitude": 43.33084109688942, "longitude": -79.80102078463837}, "803577725RR0001": {"name": "Canterbury Cemetery", "designationCode": "C", "categoryCode": "59", "address": "1386 ROUTE 122", "city": "SKIFF LAKE", "province": "NB", "country": "CA", "postalCode": "E6H1N6", "twitter": "None", "instagram": "None", "facebook": "None", "youtube": "None", "website": "None", "summary": "None", "logo": "None", "latitude": 45.829945821308755, "longitude": -67.53494837775641}, "805838620RR0001": {"name": "Cantiamo Girls Choir of Ottawa", "designationCode": "C", "categoryCode": "22", "address": "80 PENTLAND PL", "city": "OTTAWA", "province": "ON", "country": "CA", "postalCode": "K2K1V8", "twitter": "None", "instagram": "None", "facebook": "None", "youtube": "None", "website": "None", "summary": "None", "logo": "None", "latitude": 45.32577472938433, "longitude": -75.90703795311315}, "119288918RR1651": {"name": "Cantonese Circuit 1 of Jehovah's Witnesses", "designationCode": "C", "categoryCode": "61", "address": "81-3180 58TH AVENUE", "city": "VANCOUVER", "province": "BC", "country": "CA", "postalCode": "V5S3S8", "twitter": "None", "instagram": "None", "facebook": "None", "youtube": "None", "website": "None", "summary": "None", "logo": "None", "latitude": 49.21707761191867, "longitude": -123.03874670556537}, "118837475RR0001": {"name": "Cantuar Community Club Co-Operative Limited", "designationCode": "C", "categoryCode": "56", "address": "P.O BOX 1331", "city": "SWIFT CURRENT", "province": "SK", "country": "CA", "postalCode": "S9H3X4", "twitter": "None", "instagram": "None", "facebook": "None", "youtube": "None", "website": "None", "summary": "None", "logo": "None", "latitude": 50.292744000000056, "longitude": -107.80056349999994}, "822472957RR0001": {"name": "Canucks Autism Network Society", "designationCode": "C", "categoryCode": "11", "address": "101 - 2020 YUKON STREET", "city": "VANCOUVER", "province": "BC", "country": "CA", "postalCode": "V5Y3N8", "twitter": "None", "instagram": "None", "facebook": "None", "youtube": "None", "website": "None", "summary": "None", "logo": "None", "latitude": 49.267262514570945, "longitude": -123.1126899637603}, "825741242RR0001": {"name": "Canwood and District Bus Association Inc.", "designationCode": "C", "categoryCode": "59", "address": "PO BOX 344", "city": "CANWOOD", "province": "SK", "country": "CA", "postalCode": "S0J0K0", "twitter": "None", "instagram": "None", "facebook": "None", "youtube": "None", "website": "None", "summary": "None", "logo": "None", "latitude": 53.36680000000007, "longitude": -106.60110999999995}, "894478205RR0001": {"name": "Canwood First Responders Inc.", "designationCode": "C", "categoryCode": "11", "address": "PO BOX 176", "city": "CANWOOD", "province": "SK", "country": "CA", "postalCode": "S0J0K0", "twitter": "None", "instagram": "None", "facebook": "None", "youtube": "None", "website": "None", "summary": "None", "logo": "None", "latitude": 53.36680000000007, "longitude": -106.60110999999995}, "812603082RR0001": {"name": "CanAgua Foundation", "designationCode": "B", "categoryCode": "03", "address": "P.O.BOX 6563 STATION D", "city": "CALGARY", "province": "AB", "country": "CA", "postalCode": "T2P2E4", "twitter": "None", "instagram": "None", "facebook": "None", "youtube": "None", "website": "None", "summary": "None", "logo": "None", "latitude": 51.04531500000006, "longitude": -114.06301099999993}, "816860050RR0001": {"name": "CanEducate for Life", "designationCode": "C", "categoryCode": "21", "address": "1108E-500 QUEENS QUAY W", "city": "TORONTO", "province": "ON", "country": "CA", "postalCode": "M5V3K8", "twitter": "None", "instagram": "None", "facebook": "None", "youtube": "None", "website": "None", "summary": "None", "logo": "None", "latitude": 43.637299267874376, "longitude": -79.39492706968076}, "806480448RR0001": {"name": "CanHealth International", "designationCode": "C", "categoryCode": "21", "address": "649-550 WEST BROADWAY", "city": "VANCOUVER", "province": "BC", "country": "CA", "postalCode": "V5Z0E9", "twitter": "None", "instagram": "None", "facebook": "None", "youtube": "None", "website": "None", "summary": "None", "logo": "None", "latitude": 49.26316990068303, "longitude": -123.11671954168598}, "796132520RR0001": {"name": "CanTeach Connections Inc.", "designationCode": "C", "categoryCode": "21", "address": "333 THORNCREST DRIVE", "city": "WATERLOO", "province": "ON", "country": "CA", "postalCode": "N2L5R6", "twitter": "None", "instagram": "None", "facebook": "None", "youtube": "None", "website": "None", "summary": "None", "logo": "None", "latitude": 43.48413992255762, "longitude": -80.55864716680135}, "847438504RR0001": {"name": "CanU Canada", "designationCode": "C", "categoryCode": "21", "address": "ROOM 426 EDUCATION BLDG       UNIVERSITY OF MANITOBA", "city": "WINNIPEG", "province": "MB", "country": "CA", "postalCode": "R3T2N2", "twitter": "None", "instagram": "None", "facebook": "None", "youtube": "None", "website": "None", "summary": "None", "logo": "None", "latitude": 49.809599923394394, "longitude": -97.13332993277201}, "843257031RR0001": {"name": "CanUgan Disability Support", "designationCode": "C", "categoryCode": "09", "address": "31-257 BOTANICA PRIVATE", "city": "OTTAWA", "province": "ON", "country": "CA", "postalCode": "K1Y4P8", "twitter": "None", "instagram": "None", "facebook": "None", "youtube": "None", "website": "None", "summary": "None", "logo": "None", "latitude": 45.39488689148248, "longitude": -75.71514089731083}, "802814426RR0001": {"name": "Caodaist Association of Kitchener-Waterloo, ON", "designationCode": "C", "categoryCode": "39", "address": "259 COURTLAND AVENUE  ,", "city": "KITCHENER", "province": "ON", "country": "CA", "postalCode": "N2G2V6", "twitter": "None", "instagram": "None", "facebook": "None", "youtube": "None", "website": "None", "summary": "None", "logo": "None", "latitude": 43.4407777554678, "longitude": -80.48369802582368}, "808603336RR0001": {"name": "Cap Jem", "designationCode": "C", "categoryCode": "09", "address": "700, CHEMIN G\u00c9MONT", "city": "ST-ADOLPHE D'HOWARD", "province": "QC", "country": "CA", "postalCode": "J0T2B0", "twitter": "None", "instagram": "None", "facebook": "None", "youtube": "None", "website": "None", "summary": "None", "logo": "None", "latitude": 45.909791720149265, "longitude": -74.33360137054471}, "813170917RR0001": {"name": "Cap-Emma\u00fcs 1999", "designationCode": "C", "categoryCode": "09", "address": "14961 DE ST-AUGUSTIN", "city": "MIRABEL", "province": "QC", "country": "CA", "postalCode": "J7N1W8", "twitter": "None", "instagram": "None", "facebook": "None", "youtube": "None", "website": "None", "summary": "None", "logo": "None", "latitude": 45.623317095764264, "longitude": -73.98434654899297}, "816589287RR0001": {"name": "Capacity Canada", "designationCode": "C", "categoryCode": "59", "address": "ACCELERATOR CENTRE            295 HAGEY BOULEVARD", "city": "WATERLOO", "province": "ON", "country": "CA", "postalCode": "N2L6R5", "twitter": "None", "instagram": "None", "facebook": "None", "youtube": "None", "website": "None", "summary": "None", "logo": "None", "latitude": 43.47762914152594, "longitude": -80.54841921155246}, "808813737RR0001": {"name": "Cape Bear Lighthouse & Marconi Station Incorporated", "designationCode": "C", "categoryCode": "50", "address": "42 BLACK BROOK ROAD           RR 1", "city": "CAPE BEAR", "province": "PE", "country": "CA", "postalCode": "C0A1V0", "twitter": "None", "instagram": "None", "facebook": "None", "youtube": "None", "website": "None", "summary": "None", "logo": "None", "latitude": 46.004218723631006, "longitude": -62.46045639111411}, "851735407RR0001": {"name": "Cape Breton Assotiation of Youth Housing and Programs Initiative", "designationCode": "C", "categoryCode": "09", "address": "50 DORCHESTER ST              P.O. BOX 1292", "city": "SYDNEY", "province": "NS", "country": "CA", "postalCode": "B1P6K3", "twitter": "None", "instagram": "None", "facebook": "None", "youtube": "None", "website": "None", "summary": "None", "logo": "None", "latitude": 46.141091392723226, "longitude": -60.194983149316194}, "856717053RR0001": {"name": "Cape Breton Christian Education and Service Association", "designationCode": "C", "categoryCode": "20", "address": "167 CAMPBELL ROAD", "city": "BALLS CREEK", "province": "NS", "country": "CA", "postalCode": "B2A4L6", "twitter": "None", "instagram": "None", "facebook": "None", "youtube": "None", "website": "None", "summary": "None", "logo": "None", "latitude": 46.14926254809895, "longitude": -60.31293280997204}, "844906065RR0001": {"name": "Cape Breton County 4-H Leaders Council", "designationCode": "C", "categoryCode": "29", "address": "22 NAPOLEON ST", "city": "NORTH SYDNEY", "province": "NS", "country": "CA", "postalCode": "B2A3G5", "twitter": "None", "instagram": "None", "facebook": "None", "youtube": "None", "website": "None", "summary": "None", "logo": "None", "latitude": 46.22055506301567, "longitude": -60.247320212331864}, "834682957RR0001": {"name": "Cape Breton Health Recreation Complex Corporation", "designationCode": "C", "categoryCode": "56", "address": "1250 GRAND LAKE ROAD", "city": "SYDNEY", "province": "NS", "country": "CA", "postalCode": "B1P6L2", "twitter": "None", "instagram": "None", "facebook": "None", "youtube": "None", "website": "None", "summary": "None", "logo": "None", "latitude": 46.170800757704356, "longitude": -60.095615952430606}, "803035617RR0001": {"name": "Cape Breton Muslim Society", "designationCode": "C", "categoryCode": "60", "address": "PO BOX 26 WHITNEY PIER PO STAT", "city": "SYDNEY", "province": "NS", "country": "CA", "postalCode": "B1N3B1", "twitter": "None", "instagram": "None", "facebook": "None", "youtube": "None", "website": "None", "summary": "None", "logo": "None", "latitude": 46.15351000000004, "longitude": -60.17846999999995}, "866350226RR0001": {"name": "Cape Breton Search and Rescue Association (CBSARA)", "designationCode": "C", "categoryCode": "59", "address": "P.O. BOX 817 STN A", "city": "SYDNEY", "province": "NS", "country": "CA", "postalCode": "B1P6J1", "twitter": "None", "instagram": "None", "facebook": "None", "youtube": "None", "website": "None", "summary": "None", "logo": "None", "latitude": 46.137372000000056, "longitude": -60.19552249999994}, "803894658RR0001": {"name": "Cape Farewell Foundation", "designationCode": "C", "categoryCode": "22", "address": "52 MILVERTON BOULEVARD", "city": "TORONTO", "province": "ON", "country": "CA", "postalCode": "M5J2J6", "twitter": "None", "instagram": "None", "facebook": "None", "youtube": "None", "website": "None", "summary": "None", "logo": "None", "latitude": 43.683675212331885, "longitude": -79.33913976908646}, "873719512RR0001": {"name": "Cape Random Trust Inc.", "designationCode": "C", "categoryCode": "50", "address": "P O BOX 2, SITE 5", "city": "NEW BONAVENTURE", "province": "NL", "country": "CA", "postalCode": "A0C2S0", "twitter": "None", "instagram": "None", "facebook": "None", "youtube": "None", "website": "None", "summary": "None", "logo": "None", "latitude": 48.43308300000005, "longitude": -53.33039899999993}, "811428812RR0001": {"name": "Cape Town Children's Scholarship Foundation", "designationCode": "B", "categoryCode": "21", "address": "60 ST CLAIR AVENUE WEST       SUITE 903", "city": "TORONTO", "province": "ON", "country": "CA", "postalCode": "M4V1M1", "twitter": "None", "instagram": "None", "facebook": "None", "youtube": "None", "website": "None", "summary": "None", "logo": "None", "latitude": 43.687629260084094, "longitude": -79.39676572621032}, "128488392RR0001": {"name": "Capilano Review Contemporary Arts Society", "designationCode": "C", "categoryCode": "22", "address": "281 INDUSTRIAL AVE", "city": "VANCOUVER", "province": "BC", "country": "CA", "postalCode": "V6A2P2", "twitter": "None", "instagram": "None", "facebook": "None", "youtube": "None", "website": "None", "summary": "None", "logo": "None", "latitude": 49.27043402305374, "longitude": -123.09983612432924}, "835853797RR0001": {"name": "Capital Chamber Choir Corporation", "designationCode": "C", "categoryCode": "22", "address": "151 LAURIER AVE E", "city": "OTTAWA", "province": "ON", "country": "CA", "postalCode": "K1N6N8", "twitter": "None", "instagram": "None", "facebook": "None", "youtube": "None", "website": "None", "summary": "None", "logo": "None", "latitude": 45.42486646575087, "longitude": -75.68407172219962}, "867132516RR0001": {"name": "Capital City Church (Canada)", "designationCode": "C", "categoryCode": "39", "address": "PO BOX 59", "city": "CUMBERLAND", "province": "ON", "country": "CA", "postalCode": "K4C1E5", "twitter": "None", "instagram": "None", "facebook": "None", "youtube": "None", "website": "None", "summary": "None", "logo": "None", "latitude": 45.51628200000006, "longitude": -75.40533349999993}, "861937134RR0002": {"name": "Capital City Church Properties", "designationCode": "C", "categoryCode": "43", "address": "1123 OLD MONTREAL ROAD", "city": "OTTAWA", "province": "ON", "country": "CA", "postalCode": "K4A3N6", "twitter": "None", "instagram": "None", "facebook": "None", "youtube": "None", "website": "None", "summary": "None", "logo": "None", "latitude": 45.493769243248074, "longitude": -75.46845306459106}, "827288515RR0001": {"name": "Capital City Condors", "designationCode": "C", "categoryCode": "56", "address": "146 POST ROAD", "city": "KANATA", "province": "ON", "country": "CA", "postalCode": "K2L1L2", "twitter": "None", "instagram": "None", "facebook": "None", "youtube": "None", "website": "None", "summary": "None", "logo": "None", "latitude": 45.29427623703039, "longitude": -75.8759357490625}, "805059581RR0001": {"name": "Capital City Knits (CCK)", "designationCode": "C", "categoryCode": "09", "address": "186 INSPIRE BOULEVARD", "city": "BRAMPTON", "province": "ON", "country": "CA", "postalCode": "L6R3X7", "twitter": "None", "instagram": "None", "facebook": "None", "youtube": "None", "website": "None", "summary": "None", "logo": "None", "latitude": 43.76036743909046, "longitude": -79.78398044214887}, "812521334RR0001": {"name": "Capital City Regiment Performing Arts Association", "designationCode": "C", "categoryCode": "22", "address": "277 DESROCHERS BLVD SW", "city": "EDMONTON", "province": "AB", "country": "CA", "postalCode": "T6W3H8", "twitter": "None", "instagram": "None", "facebook": "None", "youtube": "None", "website": "None", "summary": "None", "logo": "None", "latitude": 53.39746126818176, "longitude": -113.54838845335514}, "782185698RR0001": {"name": "Capital Integral Charitable Foundation", "designationCode": "B", "categoryCode": "03", "address": "904 LADY ELLEN PL", "city": "OTTAWA", "province": "ON", "country": "CA", "postalCode": "K1Z5L5", "twitter": "None", "instagram": "None", "facebook": "None", "youtube": "None", "website": "None", "summary": "None", "logo": "None", "latitude": 45.37821571772758, "longitude": -75.7420709489582}, "106864010RR0002": {"name": "Capital Region Mental Health & Addictions Association, Inc.", "designationCode": "C", "categoryCode": "09", "address": "65 BRUNSWICK ST               SUITE 292", "city": "FREDERICTON", "province": "NB", "country": "CA", "postalCode": "E3B1G5", "twitter": "None", "instagram": "None", "facebook": "None", "youtube": "None", "website": "None", "summary": "None", "logo": "None", "latitude": 45.96439337333348, "longitude": -66.6524673918865}, "759622897RR0001": {"name": "Capital Strings and Voices Collective, Incorporated", "designationCode": "C", "categoryCode": "22", "address": "223 BRITANNIA ROAD", "city": "OTTAWA", "province": "ON", "country": "CA", "postalCode": "K2B5X1", "twitter": "None", "instagram": "None", "facebook": "None", "youtube": "None", "website": "None", "summary": "None", "logo": "None", "latitude": 45.36670096531819, "longitude": -75.79753413526485}, "735845893RR0001": {"name": "Capital Wheelchair Curling Club", "designationCode": "C", "categoryCode": "56", "address": "728 FIELDING DR", "city": "OTTAWA", "province": "ON", "country": "CA", "postalCode": "K1V7G5", "twitter": "None", "instagram": "None", "facebook": "None", "youtube": "None", "website": "None", "summary": "None", "logo": "None", "latitude": 45.36109796973293, "longitude": -75.6788366740147}, "852251396RR0001": {"name": "Capital Y's Men's Camp Magaguadavic Inc.", "designationCode": "C", "categoryCode": "56", "address": "570 YORK ST", "city": "FREDERICTON", "province": "NB", "country": "CA", "postalCode": "E3B3R2", "twitter": "None", "instagram": "None", "facebook": "None", "youtube": "None", "website": "None", "summary": "None", "logo": "None", "latitude": 45.95291283374693, "longitude": -66.65180774104108}, "815601760RR0001": {"name": "Capitalize For Kids Foundation", "designationCode": "B", "categoryCode": "03", "address": "70 TEMPERANCE ST. PH05", "city": "TORONTO", "province": "ON", "country": "CA", "postalCode": "M5H0B1", "twitter": "None", "instagram": "None", "facebook": "None", "youtube": "None", "website": "None", "summary": "None", "logo": "None", "latitude": 43.65035217236993, "longitude": -79.38231718526742}, "857853865RR0001": {"name": "Capitol Theatre Endowment Trust Foundation", "designationCode": "A", "categoryCode": "03", "address": "71 WALTON ST.", "city": "PORT HOPE", "province": "ON", "country": "CA", "postalCode": "L1A1N2", "twitter": "None", "instagram": "None", "facebook": "None", "youtube": "None", "website": "None", "summary": "None", "logo": "None", "latitude": 43.951488003857875, "longitude": -78.29426137442913}, "837172865RR0001": {"name": "Capreol Long-term & Supportive Housing", "designationCode": "C", "categoryCode": "09", "address": "38 COULSON STREET,            UNIT #20", "city": "CAPREOL", "province": "ON", "country": "CA", "postalCode": "P0M1H0", "twitter": "None", "instagram": "None", "facebook": "None", "youtube": "None", "website": "None", "summary": "None", "logo": "None", "latitude": 46.7002489350511, "longitude": -80.91771445608559}, "842817181RR0001": {"name": "Capstone Ministries", "designationCode": "C", "categoryCode": "39", "address": "1483 ROYAL YORK RD", "city": "ETOBICOKE", "province": "ON", "country": "CA", "postalCode": "M9P3B3", "twitter": "None", "instagram": "None", "facebook": "None", "youtube": "None", "website": "None", "summary": "None", "logo": "None", "latitude": 43.689469672225705, "longitude": -79.52966183065983}, "877568980RR0002": {"name": "Capsule jeunesse Rivi\u00e8re-H\u00e9va", "designationCode": "C", "categoryCode": "09", "address": "10 RUE DU PARC", "city": "RIVIERE HEVA", "province": "QC", "country": "CA", "postalCode": "J0Y2H0", "twitter": "None", "instagram": "None", "facebook": "None", "youtube": "None", "website": "None", "summary": "None", "logo": "None", "latitude": 48.2374784938055, "longitude": -78.21520328016732}, "783757727RR0001": {"name": "Captain William Jackman Heritage Society", "designationCode": "C", "categoryCode": "59", "address": "11 BRIARWOOD PL", "city": "ST. JOHN'S", "province": "NL", "country": "CA", "postalCode": "A1H1A1", "twitter": "None", "instagram": "None", "facebook": "None", "youtube": "None", "website": "None", "summary": "None", "logo": "None", "latitude": 47.493570290034064, "longitude": -52.81413040489957}, "118809656RR0001": {"name": "Caravan Farm Theatre Society", "designationCode": "C", "categoryCode": "22", "address": "4886 SALMON RIVER ROAD", "city": "ARMSTRONG", "province": "BC", "country": "CA", "postalCode": "V0E1B4", "twitter": "None", "instagram": "None", "facebook": "None", "youtube": "None", "website": "None", "summary": "None", "logo": "None", "latitude": 50.48846208237751, "longitude": -119.2615517141793}, "856233986RR0001": {"name": "Carcinoid-Neuroendocrine Tumour Society-Canada", "designationCode": "C", "categoryCode": "11", "address": "1608 BLAKELY DRIVE", "city": "CORNWALL", "province": "ON", "country": "CA", "postalCode": "K6J5P4", "twitter": "None", "instagram": "None", "facebook": "None", "youtube": "None", "website": "None", "summary": "None", "logo": "None", "latitude": 45.01916367303376, "longitude": -74.77559242088417}, "838547222RR0001": {"name": "Cardigan Area Heritage Association Inc.", "designationCode": "C", "categoryCode": "50", "address": "P.O. BOX 172", "city": "CARDIGAN", "province": "PE", "country": "CA", "postalCode": "C0A1G0", "twitter": "None", "instagram": "None", "facebook": "None", "youtube": "None", "website": "None", "summary": "None", "logo": "None", "latitude": 46.410999152731904, "longitude": -62.57920248076298}, "137787008RR0001": {"name": "Cardinal Pastoral Charge", "designationCode": "C", "categoryCode": "44", "address": "P.O. BOX 89", "city": "CARDINAL", "province": "ON", "country": "CA", "postalCode": "K0E1E0", "twitter": "None", "instagram": "None", "facebook": "None", "youtube": "None", "website": "None", "summary": "None", "logo": "None", "latitude": 44.787750000000074, "longitude": -75.38421999999997}, "855531422RR0001": {"name": "Cardston Baptist Church", "designationCode": "C", "categoryCode": "31", "address": "PO BOX 1479", "city": "CARDSTON", "province": "AB", "country": "CA", "postalCode": "T0K0K0", "twitter": "None", "instagram": "None", "facebook": "None", "youtube": "None", "website": "None", "summary": "None", "logo": "None", "latitude": 49.198480000000075, "longitude": -113.30176999999998}, "106872781RR0001": {"name": "Cardston Support Services Association", "designationCode": "C", "categoryCode": "20", "address": "PO BOX 1467", "city": "CARDSTON", "province": "AB", "country": "CA", "postalCode": "T0K0K0", "twitter": "None", "instagram": "None", "facebook": "None", "youtube": "None", "website": "None", "summary": "None", "logo": "None", "latitude": 49.198480000000075, "longitude": -113.30176999999998}, "807860168RR0001": {"name": "Care for a Child Foundation", "designationCode": "B", "categoryCode": "11", "address": "14112 94 ST", "city": "EDMONTON", "province": "AB", "country": "CA", "postalCode": "T5E3W1", "twitter": "None", "instagram": "None", "facebook": "None", "youtube": "None", "website": "None", "summary": "None", "logo": "None", "latitude": 53.60421382070518, "longitude": -113.48588915600996}, "823101886RR0001": {"name": "Care for Kidneys Foundation", "designationCode": "C", "categoryCode": "11", "address": "1106 OUELLETTE AVENUE         SUITE 104", "city": "WINDSOR", "province": "ON", "country": "CA", "postalCode": "N9A1C9", "twitter": "None", "instagram": "None", "facebook": "None", "youtube": "None", "website": "None", "summary": "None", "logo": "None", "latitude": 42.307073087165904, "longitude": -83.032252532143}, "832545180RR0001": {"name": "Care Ministries International (Canada)", "designationCode": "C", "categoryCode": "47", "address": "1909-175 BAMBURGH CIRCLE", "city": "TORONTO", "province": "ON", "country": "CA", "postalCode": "M1W3X8", "twitter": "None", "instagram": "None", "facebook": "None", "youtube": "None", "website": "None", "summary": "None", "logo": "None", "latitude": 43.811442999249266, "longitude": -79.32424751641729}, "826778763RR0001": {"name": "Carefirst Family Health Team", "designationCode": "C", "categoryCode": "11", "address": "300 SILVER STAR BLVD", "city": "SCARBOROUGH", "province": "ON", "country": "CA", "postalCode": "M1V0G2", "twitter": "None", "instagram": "None", "facebook": "None", "youtube": "None", "website": "None", "summary": "None", "logo": "None", "latitude": 43.8126521720528, "longitude": -79.29444266524253}, "783166291RR0001": {"name": "Caregivers Relief Initiative Society of Canada", "designationCode": "C", "categoryCode": "01", "address": "17 TANGMERE CRES", "city": "HALIFAX", "province": "NS", "country": "CA", "postalCode": "B3M1K2", "twitter": "None", "instagram": "None", "facebook": "None", "youtube": "None", "website": "None", "summary": "None", "logo": "None", "latitude": 44.65876419207677, "longitude": -63.6469722752033}, "822930616RR0001": {"name": "Caregiving Matters", "designationCode": "C", "categoryCode": "09", "address": "PO BOX 196", "city": "SCHOMBERG", "province": "ON", "country": "CA", "postalCode": "L0G1T0", "twitter": "None", "instagram": "None", "facebook": "None", "youtube": "None", "website": "None", "summary": "None", "logo": "None", "latitude": 44.00246003664379, "longitude": -79.68402999884614}, "825500200RR0001": {"name": "Carers Ark", "designationCode": "C", "categoryCode": "09", "address": "924 HOLLINRAKE CRES", "city": "MILTON", "province": "ON", "country": "CA", "postalCode": "L9T5T5", "twitter": "None", "instagram": "None", "facebook": "None", "youtube": "None", "website": "None", "summary": "None", "logo": "None", "latitude": 43.52059597861972, "longitude": -79.82961317955463}, "862974110RR0001": {"name": "Cares Counselling Society", "designationCode": "C", "categoryCode": "09", "address": "3 - 2630 BOURQUIN CRES W", "city": "ABBOTSFORD", "province": "BC", "country": "CA", "postalCode": "V2S5N7", "twitter": "None", "instagram": "None", "facebook": "None", "youtube": "None", "website": "None", "summary": "None", "logo": "None", "latitude": 49.04936924398394, "longitude": -122.30978964080477}, "818829681RR0001": {"name": "CareAidAfrica Foundation", "designationCode": "C", "categoryCode": "01", "address": "1800 - 510 GEORGIA ST W", "city": "VANCOUVER", "province": "BC", "country": "CA", "postalCode": "V6B0M3", "twitter": "None", "instagram": "None", "facebook": "None", "youtube": "None", "website": "None", "summary": "None", "logo": "None", "latitude": 49.281267759207665, "longitude": -123.11633309804196}, "804141836RR0001": {"name": "Caribbean African Canadian Social (CAFCAN) Services", "designationCode": "C", "categoryCode": "09", "address": "995 ARROW ROAD", "city": "TORONTO", "province": "ON", "country": "CA", "postalCode": "M9M2Z5", "twitter": "None", "instagram": "None", "facebook": "None", "youtube": "None", "website": "None", "summary": "None", "logo": "None", "latitude": 43.749541161549885, "longitude": -79.53280143709989}, "850839465RR0001": {"name": "Caribbean Canadian Relief Education Medical Assistance", "designationCode": "C", "categoryCode": "09", "address": "29 BLUENOSE CRES", "city": "SCARBOROUGH", "province": "ON", "country": "CA", "postalCode": "M1C4R8", "twitter": "None", "instagram": "None", "facebook": "None", "youtube": "None", "website": "None", "summary": "None", "logo": "None", "latitude": 43.793860925875826, "longitude": -79.16132604203942}, "804158152RR0001": {"name": "Caribbean Community Cultural Centre, Inc.", "designationCode": "C", "categoryCode": "56", "address": "1-1100 FIFE STREET", "city": "WINNIPEG", "province": "MB", "country": "CA", "postalCode": "R2X3A5", "twitter": "None", "instagram": "None", "facebook": "None", "youtube": "None", "website": "None", "summary": "None", "logo": "None", "latitude": 49.932289046367245, "longitude": -97.17224989944563}, "878964618RR0001": {"name": "Caribbeantales", "designationCode": "C", "categoryCode": "22", "address": "38 CONCORD AVENUE", "city": "TORONTO", "province": "ON", "country": "CA", "postalCode": "M6H2P1", "twitter": "None", "instagram": "None", "facebook": "None", "youtube": "None", "website": "None", "summary": "None", "logo": "None", "latitude": 43.655407376074805, "longitude": -79.42448473578962}, "852379965RR0001": {"name": "Cariboo Hoofbeats Assisted Activity Program Society", "designationCode": "C", "categoryCode": "56", "address": "P O BOX 4311", "city": "QUESNEL", "province": "BC", "country": "CA", "postalCode": "V2J3J3", "twitter": "None", "instagram": "None", "facebook": "None", "youtube": "None", "website": "None", "summary": "None", "logo": "None", "latitude": 52.978128000000055, "longitude": -122.49828349999993}, "842306011RR0001": {"name": "Cariboo Liberty Place Society", "designationCode": "C", "categoryCode": "57", "address": "3091 JASKELA ROAD", "city": "QUESNEL", "province": "BC", "country": "CA", "postalCode": "V2J7G2", "twitter": "None", "instagram": "None", "facebook": "None", "youtube": "None", "website": "None", "summary": "None", "logo": "None", "latitude": 53.008464575596065, "longitude": -122.6921195965723}, "802009076RR0001": {"name": "Cariboo Presbytery of The United Church of Canada", "designationCode": "C", "categoryCode": "39", "address": "2002 GUSHWA RD", "city": "HOUSTON", "province": "BC", "country": "CA", "postalCode": "V0J1Z1", "twitter": "None", "instagram": "None", "facebook": "None", "youtube": "None", "website": "None", "summary": "None", "logo": "None", "latitude": 54.405807948299355, "longitude": -126.72580698699491}, "857583256RR0001": {"name": "Caribou Torah Education Foundation", "designationCode": "C", "categoryCode": "49", "address": "77 GLEN RUSH BOULEVARD", "city": "TORONTO", "province": "ON", "country": "CA", "postalCode": "M5N2T8", "twitter": "None", "instagram": "None", "facebook": "None", "youtube": "None", "website": "None", "summary": "None", "logo": "None", "latitude": 43.71787829254421, "longitude": -79.42640947885086}, "860514025RR0001": {"name": "Caring for Young Minds (CYM)", "designationCode": "C", "categoryCode": "21", "address": "2637 LAKE SHORE BLVD W", "city": "ETOBICOKE", "province": "ON", "country": "CA", "postalCode": "M8V1G5", "twitter": "None", "instagram": "None", "facebook": "None", "youtube": "None", "website": "None", "summary": "None", "logo": "None", "latitude": 43.60406680985648, "longitude": -79.4923676638585}, "850171000RR0001": {"name": "Caring Hands Society (Canada)", "designationCode": "C", "categoryCode": "09", "address": "SUITE 470-1090 HOMER STREET", "city": "VANCOUVER", "province": "BC", "country": "CA", "postalCode": "V6B2W9", "twitter": "None", "instagram": "None", "facebook": "None", "youtube": "None", "website": "None", "summary": "None", "logo": "None", "latitude": 49.27644359504312, "longitude": -123.12141577849286}, "802775791RR0001": {"name": "Carion Fenn Foundation", "designationCode": "C", "categoryCode": "11", "address": "27 HORNSELL CIRCLE,", "city": "AJAX", "province": "ON", "country": "CA", "postalCode": "L1T0G5", "twitter": "None", "instagram": "None", "facebook": "None", "youtube": "None", "website": "None", "summary": "None", "logo": "None", "latitude": 43.88862057120998, "longitude": -79.03076071968945}, "860297282RR0001": {"name": "Caritas Christian Community Association", "designationCode": "C", "categoryCode": "39", "address": "1250-1500 GEORGIA STREET      BOX 62", "city": "VANCOUVER", "province": "BC", "country": "CA", "postalCode": "V6G2Z6", "twitter": "None", "instagram": "None", "facebook": "None", "youtube": "None", "website": "None", "summary": "None", "logo": "None", "latitude": 49.29013479542975, "longitude": -123.1300069287031}, "128057205RR0001": {"name": "Caritas School of Life", "designationCode": "C", "categoryCode": "57", "address": "241 HANLAN RD. UNIT 1 & 2", "city": "WOODBRIDGE", "province": "ON", "country": "CA", "postalCode": "L4L3R7", "twitter": "None", "instagram": "None", "facebook": "None", "youtube": "None", "website": "None", "summary": "None", "logo": "None", "latitude": 43.769987804836155, "longitude": -79.55961485079936}}