{"733739924RR0001": {"name": "Society for the Preservation of Canada's Nuclear Heritage INC.", "designationCode": "C", "categoryCode": "50", "address": "48 HIGHLAND CRESCENT          PO BOX 1231", "city": "DEEP RIVER", "province": "ON", "country": "CA", "postalCode": "K0J1P0", "twitter": "None", "instagram": "None", "facebook": "None", "youtube": "None", "website": "None", "summary": "None", "logo": "None", "latitude": 46.10555326146909, "longitude": -77.5014423773442}, "888399623RR0001": {"name": "Society for the Strathcona Youth Justice Committee", "designationCode": "C", "categoryCode": "59", "address": "73-51110 RANE ROAD 214", "city": "SHERWOOD PARK", "province": "AB", "country": "CA", "postalCode": "T8E1G7", "twitter": "None", "instagram": "None", "facebook": "None", "youtube": "None", "website": "None", "summary": "None", "logo": "None", "latitude": 53.36677500000006, "longitude": -113.07067099999993}, "834772303RR0001": {"name": "Society for Enterprise Education and Development SEED", "designationCode": "C", "categoryCode": "59", "address": "225 - 7071 BAYERS RD", "city": "HALIFAX", "province": "NS", "country": "CA", "postalCode": "B3L2C2", "twitter": "None", "instagram": "None", "facebook": "None", "youtube": "None", "website": "None", "summary": "None", "logo": "None", "latitude": 44.65370574279748, "longitude": -63.627277609595474}, "836792432RR0001": {"name": "Society for Kids at Tennis", "designationCode": "C", "categoryCode": "09", "address": "1642 CHANDLER AVENUE", "city": "VICTORIA", "province": "BC", "country": "CA", "postalCode": "V8S1N6", "twitter": "None", "instagram": "None", "facebook": "None", "youtube": "None", "website": "None", "summary": "None", "logo": "None", "latitude": 48.41525505969744, "longitude": -123.33570960978695}, "821701356RR0001": {"name": "Society for Learning in Retirement London", "designationCode": "C", "categoryCode": "09", "address": "1017 WESTERN RD", "city": "LONDON", "province": "ON", "country": "CA", "postalCode": "N6G1G5", "twitter": "None", "instagram": "None", "facebook": "None", "youtube": "None", "website": "None", "summary": "None", "logo": "None", "latitude": 42.9963403568056, "longitude": -81.27279434492367}, "883132367RR0001": {"name": "Society for New Music in Edmonton", "designationCode": "C", "categoryCode": "22", "address": "11607 127 ST NW", "city": "EDMONTON", "province": "AB", "country": "CA", "postalCode": "T5M0V6", "twitter": "None", "instagram": "None", "facebook": "None", "youtube": "None", "website": "None", "summary": "None", "logo": "None", "latitude": 53.56714500000001, "longitude": -113.5411347018872}, "818056038RR0001": {"name": "Society for Orphaned Armenian Relief - Montreal Chapter/Soci\u00e9t\u00e9 d'assistance aux orphelins Arm\u00e9niens - Chapitre de Montr\u00e9al", "designationCode": "C", "categoryCode": "01", "address": "205 BOULEVARD LEGER", "city": "LAVAL", "province": "QC", "country": "CA", "postalCode": "H7G3T1", "twitter": "None", "instagram": "None", "facebook": "None", "youtube": "None", "website": "None", "summary": "None", "logo": "None", "latitude": 45.57122871025442, "longitude": -73.67841253217166}, "849542832RR0001": {"name": "Society for Orphaned Armenian Relief - Toronto Chapter", "designationCode": "C", "categoryCode": "01", "address": "11260 INGLIS DRIVE            RURAL ROUTE 1", "city": "CAMPBELLVILLE", "province": "ON", "country": "CA", "postalCode": "L0P1B0", "twitter": "None", "instagram": "None", "facebook": "None", "youtube": "None", "website": "None", "summary": "None", "logo": "None", "latitude": 43.53206935743582, "longitude": -80.04189584961594}, "835927831RR0001": {"name": "Society for Wellness, Instruction and Mobility through Swimming", "designationCode": "A", "categoryCode": "03", "address": "POST OFFICE BOX 708", "city": "LILLOOET", "province": "BC", "country": "CA", "postalCode": "V0K1V0", "twitter": "None", "instagram": "None", "facebook": "None", "youtube": "None", "website": "None", "summary": "None", "logo": "None", "latitude": 50.70518720689823, "longitude": -121.90890624938581}, "826597924RR0001": {"name": "Society of our Lady of the Most Holy Trinity (Canada)", "designationCode": "C", "categoryCode": "47", "address": "225 NORTH SHORE BLVD WEST", "city": "BURLINGTON", "province": "ON", "country": "CA", "postalCode": "L7T1A3", "twitter": "None", "instagram": "None", "facebook": "None", "youtube": "None", "website": "None", "summary": "None", "logo": "None", "latitude": 43.298071458797324, "longitude": -79.85577974911982}, "132410671RR0533": {"name": "Society of saint Vincent de Paul - St. Dominic Conference - Oakville, ON", "designationCode": "C", "categoryCode": "09", "address": "2415 REBECCA STREET", "city": "OAKVILLE", "province": "ON", "country": "CA", "postalCode": "L6L2B1", "twitter": "None", "instagram": "None", "facebook": "None", "youtube": "None", "website": "None", "summary": "None", "logo": "None", "latitude": 43.399712912026025, "longitude": -79.71813193701298}, "833760382RR0001": {"name": "Society of the Company of Angels Dance Projects", "designationCode": "C", "categoryCode": "22", "address": "204 ST ANTHONY STREET", "city": "ANNAPOLIS ROYAL", "province": "NS", "country": "CA", "postalCode": "B0S1A0", "twitter": "None", "instagram": "None", "facebook": "None", "youtube": "None", "website": "None", "summary": "None", "logo": "None", "latitude": 44.74457514931621, "longitude": -65.51709577226045}, "140415662RR0001": {"name": "Society of Friends for the St. Albert Botanic Park", "designationCode": "C", "categoryCode": "50", "address": "BOX 9 STATION MAIN", "city": "ST ALBERT", "province": "AB", "country": "CA", "postalCode": "T8N1N2", "twitter": "None", "instagram": "None", "facebook": "None", "youtube": "None", "website": "None", "summary": "None", "logo": "None", "latitude": 53.633832000000055, "longitude": -113.62747399999994}, "803553502RR0001": {"name": "Society of International Bible Baptist Church of British Columbia", "designationCode": "C", "categoryCode": "31", "address": "58-9382 128 ST", "city": "SURREY", "province": "BC", "country": "CA", "postalCode": "V3V6A4", "twitter": "None", "instagram": "None", "facebook": "None", "youtube": "None", "website": "None", "summary": "None", "logo": "None", "latitude": 49.17326400000002, "longitude": -122.8679994622311}, "132410671RR0593": {"name": "Society of Saint Vicent de Paul-Our Lady of Grace ConferenceCalgary, AB", "designationCode": "C", "categoryCode": "09", "address": "1714 14 AVENUE NE", "city": "CALGARY", "province": "AB", "country": "CA", "postalCode": "T2E1G3", "twitter": "None", "instagram": "None", "facebook": "None", "youtube": "None", "website": "None", "summary": "None", "logo": "None", "latitude": 51.06545451875454, "longitude": -114.02010254832915}, "132410671RR0079": {"name": "Society of Saint Vincent de paul - Conf\u00e9rence Saint-Pierre aux Liens", "designationCode": "C", "categoryCode": "09", "address": "17025-107 HENRI BOURASSA", "city": "QUEBEC", "province": "QC", "country": "CA", "postalCode": "G1G4A6", "twitter": "None", "instagram": "None", "facebook": "None", "youtube": "None", "website": "None", "summary": "None", "logo": "None", "latitude": 46.88713558542131, "longitude": -71.29293792953341}, "132410671RR0545": {"name": "Society of Saint Vincent de Paul - All Saints Conference, Strathroy, ON", "designationCode": "C", "categoryCode": "09", "address": "124 FRONT STREET", "city": "STRATHROY", "province": "ON", "country": "CA", "postalCode": "N7G1Y9", "twitter": "None", "instagram": "None", "facebook": "None", "youtube": "None", "website": "None", "summary": "None", "logo": "None", "latitude": 42.9605583652261, "longitude": -81.62025837688284}, "119254746RR0001": {"name": "Society of Saint Vincent de Paul - Conference of Good Shepherd", "designationCode": "C", "categoryCode": "09", "address": "225 GRACE RD", "city": "WINDSOR", "province": "ON", "country": "CA", "postalCode": "N8N2G6", "twitter": "None", "instagram": "None", "facebook": "None", "youtube": "None", "website": "None", "summary": "None", "logo": "None", "latitude": 42.32399207532724, "longitude": -82.87002206149559}, "132410671RR0566": {"name": "Society of Saint Vincent de Paul - Corpus Christi Conference, Thunder Bay, ON", "designationCode": "C", "categoryCode": "09", "address": "664 RED RIVER ROAD", "city": "THUNDER BAY", "province": "ON", "country": "CA", "postalCode": "P7B1H8", "twitter": "None", "instagram": "None", "facebook": "None", "youtube": "None", "website": "None", "summary": "None", "logo": "None", "latitude": 48.440624026948875, "longitude": -89.24277494849686}, "132410671RR0516": {"name": "Society of Saint Vincent de Paul - Divine Mercy Conference (Tecumseh, Ontario)", "designationCode": "C", "categoryCode": "09", "address": "12827 DILLON DRIVE", "city": "TECUMSEH", "province": "ON", "country": "CA", "postalCode": "N8N1E1", "twitter": "None", "instagram": "None", "facebook": "None", "youtube": "None", "website": "None", "summary": "None", "logo": "None", "latitude": 42.32946878766813, "longitude": -82.87935863128278}, "132410671RR0427": {"name": "Society of Saint Vincent de Paul - Divine Mercy Conference, Edmonton, AB", "designationCode": "C", "categoryCode": "09", "address": "210 HADDOW CLOSE NW", "city": "EDMONTON", "province": "AB", "country": "CA", "postalCode": "T6R2P3", "twitter": "None", "instagram": "None", "facebook": "None", "youtube": "None", "website": "None", "summary": "None", "logo": "None", "latitude": 53.46062038190317, "longitude": -113.59046439332973}, "132410671RR0564": {"name": "Society of Saint Vincent de Paul - Good Shepherd Conference", "designationCode": "C", "categoryCode": "09", "address": "18407-60 AVENUE", "city": "EDMONTON", "province": "AB", "country": "CA", "postalCode": "T6M1X7", "twitter": "None", "instagram": "None", "facebook": "None", "youtube": "None", "website": "None", "summary": "None", "logo": "None", "latitude": 53.49409652842077, "longitude": -113.64080391618097}, "132410671RR0531": {"name": "Society of Saint Vincent de Paul - Holy Angels Conference", "designationCode": "C", "categoryCode": "09", "address": "40 CENTRE STREET              BOX 329", "city": "BRIGHTON", "province": "ON", "country": "CA", "postalCode": "K0K1H0", "twitter": "None", "instagram": "None", "facebook": "None", "youtube": "None", "website": "None", "summary": "None", "logo": "None", "latitude": 44.03794595446948, "longitude": -77.74058333325597}, "132410671RR0314": {"name": "Society of Saint Vincent de Paul - Holy Family Conference, Amherst, NS", "designationCode": "C", "categoryCode": "09", "address": "P.O BOX 1075", "city": "AMHERST", "province": "NS", "country": "CA", "postalCode": "B4H4E2", "twitter": "None", "instagram": "None", "facebook": "None", "youtube": "None", "website": "None", "summary": "None", "logo": "None", "latitude": 45.83198400000006, "longitude": -64.20979249999993}, "132410671RR0370": {"name": "Society of Saint Vincent de Paul - Holy Family Conference, London, ON", "designationCode": "C", "categoryCode": "09", "address": "85 DEER PARK CIRCLE", "city": "LONDON", "province": "ON", "country": "CA", "postalCode": "N6H3B7", "twitter": "None", "instagram": "None", "facebook": "None", "youtube": "None", "website": "None", "summary": "None", "logo": "None", "latitude": 42.97819056731485, "longitude": -81.30468071481336}, "132410671RR0562": {"name": "Society of Saint Vincent de Paul - Most Blessed Sacrament Conference, Hamilton, ON", "designationCode": "C", "categoryCode": "09", "address": "305 EAST 37TH STREET", "city": "HAMILTON", "province": "ON", "country": "CA", "postalCode": "L8V4B5", "twitter": "None", "instagram": "None", "facebook": "None", "youtube": "None", "website": "None", "summary": "None", "logo": "None", "latitude": 43.22839064849852, "longitude": -79.84166168056875}, "132410671RR0546": {"name": "Society of Saint Vincent de Paul - Mother Teresa Conference, Sault Ste Marie, ON", "designationCode": "C", "categoryCode": "09", "address": "208 PRENTICE AVE", "city": "SAULT STE. MARIE", "province": "ON", "country": "CA", "postalCode": "P6C4P9", "twitter": "None", "instagram": "None", "facebook": "None", "youtube": "None", "website": "None", "summary": "None", "logo": "None", "latitude": 46.53696837829651, "longitude": -84.37136184912593}, "132410671RR0228": {"name": "Society of Saint Vincent de Paul - Newfoundland and Labrador Particular Council", "designationCode": "C", "categoryCode": "09", "address": "6 SAPPHIRE CRES", "city": "MOUNT PEARL", "province": "NL", "country": "CA", "postalCode": "A1N4X7", "twitter": "None", "instagram": "None", "facebook": "None", "youtube": "None", "website": "None", "summary": "None", "logo": "None", "latitude": 47.49844893842769, "longitude": -52.805399497474184}, "132410671RR0166": {"name": "Society of Saint Vincent de Paul - North Fraser Particular Council (Coquitlam, BC)", "designationCode": "C", "categoryCode": "09", "address": "1738 E. HASTINGS STREET", "city": "VANCOUVER", "province": "BC", "country": "CA", "postalCode": "V5L1S9", "twitter": "None", "instagram": "None", "facebook": "None", "youtube": "None", "website": "None", "summary": "None", "logo": "None", "latitude": 49.28119547013694, "longitude": -123.06940407951987}, "132410671RR0529": {"name": "Society of Saint Vincent de Paul - Notre Dame du Portage Parish Conference", "designationCode": "C", "categoryCode": "09", "address": "222 1ST ST N.", "city": "KENORA", "province": "ON", "country": "CA", "postalCode": "P9N2K4", "twitter": "None", "instagram": "None", "facebook": "None", "youtube": "None", "website": "None", "summary": "None", "logo": "None", "latitude": 49.769191026371956, "longitude": -94.48743341243006}, "132410671RR0565": {"name": "Society of Saint Vincent de Paul - Our Lady of the Assumption Conference, Stoney Creek, ON", "designationCode": "C", "categoryCode": "09", "address": "63 REGIONAL ROAD 20", "city": "STONEY CREEK", "province": "ON", "country": "CA", "postalCode": "L8J2W9", "twitter": "None", "instagram": "None", "facebook": "None", "youtube": "None", "website": "None", "summary": "None", "logo": "None", "latitude": 43.17195379049773, "longitude": -79.77041391421264}, "132410671RR0557": {"name": "Society of Saint Vincent de Paul - Our Lady of the Assumption, Toronto, ON", "designationCode": "C", "categoryCode": "09", "address": "2565 BATHURST STREET", "city": "TORONTO", "province": "ON", "country": "CA", "postalCode": "M6B2Z3", "twitter": "None", "instagram": "None", "facebook": "None", "youtube": "None", "website": "None", "summary": "None", "logo": "None", "latitude": 43.706939238415366, "longitude": -79.42676412819571}, "132410671RR0575": {"name": "Society of Saint Vincent de Paul - Our Lady of Lourdes Conference, Hamilton, ON", "designationCode": "C", "categoryCode": "09", "address": "416 MOHAWK RD E", "city": "HAMILTON", "province": "ON", "country": "CA", "postalCode": "L8V2H7", "twitter": "None", "instagram": "None", "facebook": "None", "youtube": "None", "website": "None", "summary": "None", "logo": "None", "latitude": 43.22304189976369, "longitude": -79.85891051292617}, "132410671RR0586": {"name": "Society of Saint Vincent de Paul - Our Lady of Perpetual Help Conference", "designationCode": "C", "categoryCode": "09", "address": "13 BROWER DR", "city": "SHERWOOD PARK", "province": "AB", "country": "CA", "postalCode": "T8H1Y7", "twitter": "None", "instagram": "None", "facebook": "None", "youtube": "None", "website": "None", "summary": "None", "logo": "None", "latitude": 53.54334832944775, "longitude": -113.28673380229732}, "132410671RR0577": {"name": "Society of Saint Vincent de Paul - Our Lady Help of Christians, Wallaceburg, ON", "designationCode": "C", "categoryCode": "09", "address": "647 MURRAY STREET", "city": "WALLACEBURG", "province": "ON", "country": "CA", "postalCode": "N8A1M1", "twitter": "None", "instagram": "None", "facebook": "None", "youtube": "None", "website": "None", "summary": "None", "logo": "None", "latitude": 42.58532680099833, "longitude": -82.38016319937704}, "132410671RR0072": {"name": "Society of Saint Vincent de Paul - Particular Council of Welland (Ontario)", "designationCode": "C", "categoryCode": "09", "address": "51 EAST MAIN STREET", "city": "WELLAND", "province": "ON", "country": "CA", "postalCode": "L3B5W4", "twitter": "None", "instagram": "None", "facebook": "None", "youtube": "None", "website": "None", "summary": "None", "logo": "None", "latitude": 42.991886394131264, "longitude": -79.24939125195417}, "132410671RR0556": {"name": "Society of Saint Vincent de Paul - Rainbow Spirit North, Sault Ste. Marie Diocese Particular Council, Val Caron, ON", "designationCode": "C", "categoryCode": "09", "address": "2506 HIGHWAY 69 NORTH", "city": "VAL CARON", "province": "ON", "country": "CA", "postalCode": "P3N1K6", "twitter": "None", "instagram": "None", "facebook": "None", "youtube": "None", "website": "None", "summary": "None", "logo": "None", "latitude": 46.59678244457212, "longitude": -81.00707174232691}, "132410671RR0540": {"name": "Society of Saint Vincent de Paul - Sacred Heart - Williams Lake, BC", "designationCode": "C", "categoryCode": "09", "address": "450 PIGEON AVENUE", "city": "WILLIAMS LAKE", "province": "BC", "country": "CA", "postalCode": "V2G2A9", "twitter": "None", "instagram": "None", "facebook": "None", "youtube": "None", "website": "None", "summary": "None", "logo": "None", "latitude": 52.13624280324869, "longitude": -122.146568001299}, "132410671RR0578": {"name": "Society of Saint Vincent de Paul - Saint Paul's Conference, Gravenhurst, Ontario", "designationCode": "C", "categoryCode": "09", "address": "231 HOTCHKISS ST", "city": "GRAVENHURST", "province": "ON", "country": "CA", "postalCode": "P1P1J1", "twitter": "None", "instagram": "None", "facebook": "None", "youtube": "None", "website": "None", "summary": "None", "logo": "None", "latitude": 44.91844586759201, "longitude": -79.37576560032322}, "132410671RR0543": {"name": "Society of Saint Vincent de Paul - St Augustine Conference, Dundas, ON", "designationCode": "C", "categoryCode": "09", "address": "58 SYDENHAM STREET", "city": "DUNDAS", "province": "ON", "country": "CA", "postalCode": "L9H2T9", "twitter": "None", "instagram": "None", "facebook": "None", "youtube": "None", "website": "None", "summary": "None", "logo": "None", "latitude": 43.269114698309174, "longitude": -79.95637812949379}, "132410671RR0576": {"name": "Society of Saint Vincent de Paul - St Francis of Assisi Conference, Toronto, ON", "designationCode": "C", "categoryCode": "09", "address": "72 MANSFIELD AVE", "city": "TORONTO", "province": "ON", "country": "CA", "postalCode": "M6J2B2", "twitter": "None", "instagram": "None", "facebook": "None", "youtube": "None", "website": "None", "summary": "None", "logo": "None", "latitude": 43.6533732489756, "longitude": -79.41402631724273}, "132410671RR0570": {"name": "Society of Saint Vincent de Paul - St Francis Xavier Conference, Brockville, ON", "designationCode": "C", "categoryCode": "09", "address": "66 CHURCH ST", "city": "BROCKVILLE", "province": "ON", "country": "CA", "postalCode": "K6V3X6", "twitter": "None", "instagram": "None", "facebook": "None", "youtube": "None", "website": "None", "summary": "None", "logo": "None", "latitude": 44.58908600279861, "longitude": -75.68874545686405}, "132410671RR0187": {"name": "Society of Saint Vincent de Paul - St John Chrysostom/St Elizabeth Seton Conference", "designationCode": "C", "categoryCode": "09", "address": "432 ONTARIO ST", "city": "NEWMARKET", "province": "ON", "country": "CA", "postalCode": "L3Y2K4", "twitter": "None", "instagram": "None", "facebook": "None", "youtube": "None", "website": "None", "summary": "None", "logo": "None", "latitude": 44.05718885648353, "longitude": -79.46088457770219}, "132410671RR0542": {"name": "Society of Saint Vincent de Paul - St Joseph Conference, Bracebridge, ON", "designationCode": "C", "categoryCode": "09", "address": "118 MCMURRAY STREET", "city": "BRACEBRIDGE", "province": "ON", "country": "CA", "postalCode": "P1L1R8", "twitter": "None", "instagram": "None", "facebook": "None", "youtube": "None", "website": "None", "summary": "None", "logo": "None", "latitude": 45.042827019418375, "longitude": -79.3158931592126}, "132410671RR0548": {"name": "Society of Saint Vincent de Paul - St Katharine Conference, Red Deer, AB", "designationCode": "C", "categoryCode": "09", "address": "5508 - 48A AVENUE", "city": "RED DEER", "province": "AB", "country": "CA", "postalCode": "T4N3V6", "twitter": "None", "instagram": "None", "facebook": "None", "youtube": "None", "website": "None", "summary": "None", "logo": "None", "latitude": 52.2742155925616, "longitude": -113.81036581101031}, "132410671RR0544": {"name": "Society of Saint Vincent de Paul - St Mary's Conference, Victoria Harbour, ON", "designationCode": "C", "categoryCode": "09", "address": "351 ROBINS PT. ROAD           POST OFFICE BOX 164", "city": "VICTORIA HARBOUR", "province": "ON", "country": "CA", "postalCode": "L0K2A0", "twitter": "None", "instagram": "None", "facebook": "None", "youtube": "None", "website": "None", "summary": "None", "logo": "None", "latitude": 44.76382611740433, "longitude": -79.75502036943836}, "132410671RR0522": {"name": "Society of Saint Vincent de Paul - St Michael's Conference (Ridgetown,Ontario)", "designationCode": "C", "categoryCode": "09", "address": "26 GEORGE STREET              BOX 478, ST MICHAEL'S CHURCH", "city": "RIDGETOWN", "province": "ON", "country": "CA", "postalCode": "N0P2C0", "twitter": "None", "instagram": "None", "facebook": "None", "youtube": "None", "website": "None", "summary": "None", "logo": "None", "latitude": 42.434098440446796, "longitude": -81.89010660794061}, "132410671RR0547": {"name": "Society of Saint Vincent de Paul - St Paul's Conference, Alliston, ON", "designationCode": "C", "categoryCode": "09", "address": "5911 COUNTY ROAD 56           RURAL ROUTE #1", "city": "EGBERT", "province": "ON", "country": "CA", "postalCode": "L0L1N0", "twitter": "None", "instagram": "None", "facebook": "None", "youtube": "None", "website": "None", "summary": "None", "logo": "None", "latitude": 44.20772820574006, "longitude": -79.78722574376474}, "132410671RR0580": {"name": "Society of Saint Vincent de Paul - St Teresa Conference", "designationCode": "C", "categoryCode": "09", "address": "123 ELEVENTH ST", "city": "ETOBICOKE", "province": "ON", "country": "CA", "postalCode": "M8V3G6", "twitter": "None", "instagram": "None", "facebook": "None", "youtube": "None", "website": "None", "summary": "None", "logo": "None", "latitude": 43.598306071017, "longitude": -79.50903381868304}, "132410671RR0524": {"name": "Society of Saint Vincent de Paul - St. Agnes Conference, Thunder Bay, ON", "designationCode": "C", "categoryCode": "09", "address": "1446 CUTHBERTSON PL", "city": "THUNDER BAY", "province": "ON", "country": "CA", "postalCode": "P7E5L2", "twitter": "None", "instagram": "None", "facebook": "None", "youtube": "None", "website": "None", "summary": "None", "logo": "None", "latitude": 48.3800075323159, "longitude": -89.25905241618096}, "132410671RR0558": {"name": "Society of Saint Vincent de Paul - St. Ann's Conference, Hamilton, ON", "designationCode": "C", "categoryCode": "09", "address": "120 SHERMAN AVENUE NORTH", "city": "HAMILTON", "province": "ON", "country": "CA", "postalCode": "L8L6M6", "twitter": "None", "instagram": "None", "facebook": "None", "youtube": "None", "website": "None", "summary": "None", "logo": "None", "latitude": 43.255754539269454, "longitude": -79.83640984566348}, "132410671RR0559": {"name": "Society of Saint Vincent de Paul - St. Anthony Conference, Glace Bay, NS", "designationCode": "C", "categoryCode": "09", "address": "90 STEELE'S HILL ROAD", "city": "GLACE BAY", "province": "NS", "country": "CA", "postalCode": "B1A2V6", "twitter": "None", "instagram": "None", "facebook": "None", "youtube": "None", "website": "None", "summary": "None", "logo": "None", "latitude": 46.174737312222405, "longitude": -59.984123396878154}, "132410671RR0555": {"name": "Society of Saint Vincent de Paul - St. Bernadette Parish Conference, Surrey, BC", "designationCode": "C", "categoryCode": "09", "address": "6543-132 STREET               ST. BERNADETTE PARISH OFFICE", "city": "SURREY", "province": "BC", "country": "CA", "postalCode": "V3W4L4", "twitter": "None", "instagram": "None", "facebook": "None", "youtube": "None", "website": "None", "summary": "None", "logo": "None", "latitude": 49.12109700000006, "longitude": -122.85659149999994}, "132410671RR0330": {"name": "Society of Saint Vincent de Paul - St. Catherine of Siena Conference, Halifax, NS", "designationCode": "C", "categoryCode": "09", "address": "6466 BAYERS RD", "city": "HALIFAX", "province": "NS", "country": "CA", "postalCode": "B3L2B1", "twitter": "None", "instagram": "None", "facebook": "None", "youtube": "None", "website": "None", "summary": "None", "logo": "None"}, "132410671RR0551": {"name": "Society of Saint Vincent de Paul - St. Clare Conference, Toronto, ON", "designationCode": "C", "categoryCode": "09", "address": "133 WESTMOUNT AVENUE", "city": "TORONTO", "province": "ON", "country": "CA", "postalCode": "M6E3M6", "twitter": "None", "instagram": "None", "facebook": "None", "youtube": "None", "website": "None", "summary": "None", "logo": "None", "latitude": 43.67886042215359, "longitude": -79.4421798287266}, "132410671RR0537": {"name": "Society of Saint Vincent de Paul - St. Clement Conference", "designationCode": "C", "categoryCode": "09", "address": "409 MARKLAND DRIVE", "city": "TORONTO", "province": "ON", "country": "CA", "postalCode": "M9C1S5", "twitter": "None", "instagram": "None", "facebook": "None", "youtube": "None", "website": "None", "summary": "None", "logo": "None", "latitude": 43.6332271423913, "longitude": -79.57058879693031}, "132410671RR0587": {"name": "Society of Saint Vincent de Paul - St. Francis Xavier Conference, Tilbury, ON", "designationCode": "C", "categoryCode": "09", "address": "32 CANEL STREET WEST", "city": "TILBURY", "province": "ON", "country": "CA", "postalCode": "N0P2L0", "twitter": "None", "instagram": "None", "facebook": "None", "youtube": "None", "website": "None", "summary": "None", "logo": "None", "latitude": 42.25798852345777, "longitude": -82.43566154385708}, "132410671RR0589": {"name": "Society of Saint Vincent de Paul - St. John the Baptist Conference, Hamilton, ON", "designationCode": "B", "categoryCode": "09", "address": "128 EDGEMONT ST S", "city": "HAMILTON", "province": "ON", "country": "CA", "postalCode": "L8K2H8", "twitter": "None", "instagram": "None", "facebook": "None", "youtube": "None", "website": "None", "summary": "None", "logo": "None", "latitude": 43.238229061179105, "longitude": -79.81942369316461}, "132410671RR0512": {"name": "Society of Saint Vincent de Paul - St. Joseph - St. Ursula Conference, Chatham, ON", "designationCode": "C", "categoryCode": "09", "address": "205 TWEEDSMUIR AVENUE W", "city": "CHATHAM", "province": "ON", "country": "CA", "postalCode": "N7M5N8", "twitter": "None", "instagram": "None", "facebook": "None", "youtube": "None", "website": "None", "summary": "None", "logo": "None", "latitude": 42.38845646130746, "longitude": -82.17898895423832}, "132410671RR0523": {"name": "Society of Saint Vincent de Paul - St. Joseph the Worker Conference (Vaughan, Ontario)", "designationCode": "C", "categoryCode": "09", "address": "191 WADE GT", "city": "THORNHILL", "province": "ON", "country": "CA", "postalCode": "L4J5Y4", "twitter": "None", "instagram": "None", "facebook": "None", "youtube": "None", "website": "None", "summary": "None", "logo": "None", "latitude": 43.80281555006085, "longitude": -79.4696898934157}, "132410671RR0527": {"name": "Society of Saint Vincent de Paul - St. Joseph's Conference - Port Moody, BC", "designationCode": "C", "categoryCode": "09", "address": "140 MOODY STREET", "city": "PORT MOODY", "province": "BC", "country": "CA", "postalCode": "V3H2P9", "twitter": "None", "instagram": "None", "facebook": "None", "youtube": "None", "website": "None", "summary": "None", "logo": "None", "latitude": 49.275029923394335, "longitude": -122.85015891116063}, "132410671RR0552": {"name": "Society of Saint Vincent de Paul - St. Joseph's Conference, Stratford, ON", "designationCode": "C", "categoryCode": "09", "address": "96 HURON STREET               ST. JOSEPH'S CATHOLIC CHURCH", "city": "STRATFORD", "province": "ON", "country": "CA", "postalCode": "N5A5S6", "twitter": "None", "instagram": "None", "facebook": "None", "youtube": "None", "website": "None", "summary": "None", "logo": "None", "latitude": 43.373626006693776, "longitude": -80.9873107712222}, "132410671RR0476": {"name": "Society of Saint Vincent de Paul - St. Marguerite Bourgeoys Conference, Lakeside", "designationCode": "C", "categoryCode": "09", "address": "18 SCHOLARS RD", "city": "UPPER TANTALLON", "province": "NS", "country": "CA", "postalCode": "B3Z0N2", "twitter": "None", "instagram": "None", "facebook": "None", "youtube": "None", "website": "None", "summary": "None", "logo": "None", "latitude": 44.696647471493264, "longitude": -63.86488002668906}, "132410671RR0549": {"name": "Society of Saint Vincent de Paul - St. Mark's Conference, Stouffville, ON", "designationCode": "C", "categoryCode": "09", "address": "345 GLAD PARK AVENUE", "city": "STOUFFVILLE", "province": "ON", "country": "CA", "postalCode": "L4A1E4", "twitter": "None", "instagram": "None", "facebook": "None", "youtube": "None", "website": "None", "summary": "None", "logo": "None", "latitude": 43.974058118500864, "longitude": -79.25950610667027}, "132410671RR0436": {"name": "Society of Saint Vincent de Paul - St. Mary Star of the Sea Conference, Mississauga, ON", "designationCode": "C", "categoryCode": "39", "address": "11 PETER STREET SOUTH", "city": "MISSISSAUGA", "province": "ON", "country": "CA", "postalCode": "L5H2G1", "twitter": "None", "instagram": "None", "facebook": "None", "youtube": "None", "website": "None", "summary": "None", "logo": "None", "latitude": 43.548392251745554, "longitude": -79.58810686482205}, "132410671RR0532": {"name": "Society of Saint Vincent de Paul - St. Mary's Conference", "designationCode": "C", "categoryCode": "09", "address": "PO BOX 599", "city": "CAMPBELLFORD", "province": "ON", "country": "CA", "postalCode": "K0L1L0", "twitter": "None", "instagram": "None", "facebook": "None", "youtube": "None", "website": "None", "summary": "None", "logo": "None", "latitude": 44.287060000000054, "longitude": -77.80936999999994}, "132410671RR0536": {"name": "Society of Saint Vincent de Paul - St. Norbert Conference - Toronto, ON", "designationCode": "C", "categoryCode": "09", "address": "197 MCALLISTER ROAD", "city": "TORONTO", "province": "ON", "country": "CA", "postalCode": "M3H2P1", "twitter": "None", "instagram": "None", "facebook": "None", "youtube": "None", "website": "None", "summary": "None", "logo": "None", "latitude": 43.75049786759202, "longitude": -79.45149801220502}, "132410671RR0553": {"name": "Society of Saint Vincent de Paul - St. Patrick Conference, Hamilton, ON", "designationCode": "C", "categoryCode": "09", "address": "440 KING STREET EAST", "city": "HAMILTON", "province": "ON", "country": "CA", "postalCode": "L8N1C6", "twitter": "None", "instagram": "None", "facebook": "None", "youtube": "None", "website": "None", "summary": "None", "logo": "None", "latitude": 43.25303968495032, "longitude": -79.85634802290949}, "132410671RR0541": {"name": "Society of Saint Vincent de Paul - St. Paul The Apostle - Burlington, ON", "designationCode": "C", "categoryCode": "09", "address": "2265 HEADON ROAD", "city": "BURLINGTON", "province": "ON", "country": "CA", "postalCode": "L7M4E2", "twitter": "None", "instagram": "None", "facebook": "None", "youtube": "None", "website": "None", "summary": "None", "logo": "None", "latitude": 43.381538359166576, "longitude": -79.8201435356341}, "132410671RR0525": {"name": "Society of Saint Vincent de Paul - St. Peter's Conference (Mackenzie, British Columbia)", "designationCode": "C", "categoryCode": "09", "address": "599 SKEENA DRIVE              P.O. BOX 99", "city": "MACKENZIE", "province": "BC", "country": "CA", "postalCode": "V0J2C0", "twitter": "None", "instagram": "None", "facebook": "None", "youtube": "None", "website": "None", "summary": "None", "logo": "None", "latitude": 55.34244513692616, "longitude": -123.09091458735253}, "132410671RR0563": {"name": "Society of Saint Vincent de Paul - St. Therese of Lisieux Conference, Port Colborne, ON", "designationCode": "C", "categoryCode": "09", "address": "1215 SHERK ROAD               RURAL ROUTE #1", "city": "OTTAWA", "province": "ON", "country": "CA", "postalCode": "L3K5V3", "twitter": "None", "instagram": "None", "facebook": "None", "youtube": "None", "website": "None", "summary": "None", "logo": "None", "latitude": 42.89599794754457, "longitude": -79.17336649899039}, "132410671RR0567": {"name": "Society of Saint Vincent de Paul - St.Therese Conference, Courtice, ON", "designationCode": "C", "categoryCode": "09", "address": "3800 COURTICE ROAD NORTH", "city": "COURTICE", "province": "ON", "country": "CA", "postalCode": "L1E2L5", "twitter": "None", "instagram": "None", "facebook": "None", "youtube": "None", "website": "None", "summary": "None", "logo": "None", "latitude": 43.93090678347711, "longitude": -78.7867690575083}, "132410671RR0498": {"name": "Society of Saint Vincent de Paul - SS Salvador Do Mundo & Cristo Rei Conference, Mississauga, ON", "designationCode": "C", "categoryCode": "09", "address": "1212 MELTON DRIVE", "city": "MISSISSAUGA", "province": "ON", "country": "CA", "postalCode": "L4Y1L5", "twitter": "None", "instagram": "None", "facebook": "None", "youtube": "None", "website": "None", "summary": "None", "logo": "None", "latitude": 43.59895356284277, "longitude": -79.57842159377368}, "132410671RR0550": {"name": "Society of Saint Vincent de Paul - York South Particular Council, Toronto, ON", "designationCode": "C", "categoryCode": "09", "address": "18 WAVERLEY CRES", "city": "RICHMOND HILL", "province": "ON", "country": "CA", "postalCode": "L4C8Z5", "twitter": "None", "instagram": "None", "facebook": "None", "youtube": "None", "website": "None", "summary": "None", "logo": "None", "latitude": 43.87205725200535, "longitude": -79.46151060410278}, "132410671RR0590": {"name": "Society of Saint Vincent de Paul -All Saints' Conference, Edmonton, AB", "designationCode": "C", "categoryCode": "09", "address": "13503-40 STREET", "city": "EDMONTON", "province": "AB", "country": "CA", "postalCode": "T5A3C9", "twitter": "None", "instagram": "None", "facebook": "None", "youtube": "None", "website": "None", "summary": "None", "logo": "None", "latitude": 53.5963007879566, "longitude": -113.40232482451434}, "863042297RR0001": {"name": "Society of Saint Vincent de Paul Edmonton Central Council", "designationCode": "C", "categoryCode": "09", "address": "PO BOX, 11532 MAIN POST OFFICE", "city": "EDMONTON", "province": "AB", "country": "CA", "postalCode": "T5H3C1", "twitter": "None", "instagram": "None", "facebook": "None", "youtube": "None", "website": "None", "summary": "None", "logo": "None", "latitude": 53.55337200000005, "longitude": -113.50857049999993}, "726964893RR0001": {"name": "Society of Saint Vincent de Paul Hamilton West Particular Council", "designationCode": "C", "categoryCode": "09", "address": "696 KING STREET EAST", "city": "HAMILTON", "province": "ON", "country": "CA", "postalCode": "L8M1A1", "twitter": "None", "instagram": "None", "facebook": "None", "youtube": "None", "website": "None", "summary": "None", "logo": "None", "latitude": 43.251926586704556, "longitude": -79.8478841677823}, "815358411RR0001": {"name": "Society of Saint Vincent de Paul St. Catharines Central Council", "designationCode": "C", "categoryCode": "09", "address": "67 QUEENSTON STREET", "city": "ST CATHARINES", "province": "ON", "country": "CA", "postalCode": "L2R2Z1", "twitter": "None", "instagram": "None", "facebook": "None", "youtube": "None", "website": "None", "summary": "None", "logo": "None", "latitude": 43.16321516515656, "longitude": -79.23641632015692}, "132410671RR0588": {"name": "Society of Saint Vincent de Paul- Assumption of the Blessed Virgin Mary/St. Ignatius Conference, Ottawa, ON", "designationCode": "C", "categoryCode": "09", "address": "320 OLMSTEAD ST", "city": "VANIER", "province": "ON", "country": "CA", "postalCode": "K1L7K3", "twitter": "None", "instagram": "None", "facebook": "None", "youtube": "None", "website": "None", "summary": "None", "logo": "None", "latitude": 45.433963195106536, "longitude": -75.66115207954853}, "132410671RR0561": {"name": "Society of Saint Vincent de Paul-Our Lady of Lourdes Conference, West Kelowna, BC", "designationCode": "C", "categoryCode": "09", "address": "2547 HEBERT ROAD", "city": "KELOWNA", "province": "BC", "country": "CA", "postalCode": "V4T2J6", "twitter": "None", "instagram": "None", "facebook": "None", "youtube": "None", "website": "None", "summary": "None", "logo": "None", "latitude": 49.828148999999996, "longitude": -119.63389089540719}, "132410671RR0574": {"name": "Society of Saint Vincent de Paul-St Helen's, Beamsville,ON", "designationCode": "C", "categoryCode": "09", "address": "4106 MOUNTAIN ST", "city": "BEAMSVILLE", "province": "ON", "country": "CA", "postalCode": "L0R1B7", "twitter": "None", "instagram": "None", "facebook": "None", "youtube": "None", "website": "None", "summary": "None", "logo": "None", "latitude": 43.157477570434644, "longitude": -79.47794979972957}, "132410671RR0592": {"name": "Society of Saint Vincent de Paul-St. Matthew's Conference, Edmonton, AB", "designationCode": "C", "categoryCode": "09", "address": "13131 86 STREET", "city": "EDMONTON", "province": "AB", "country": "CA", "postalCode": "T5E3B5", "twitter": "None", "instagram": "None", "facebook": "None", "youtube": "None", "website": "None", "summary": "None", "logo": "None", "latitude": 53.59163450291419, "longitude": -113.47258421241877}, "132410671RR0568": {"name": "Society of Saint Vincent de Paul, Regina Mundi Conference, Hamilton Ontario", "designationCode": "C", "categoryCode": "09", "address": "631 MOHAWK RD W", "city": "HAMILTON", "province": "ON", "country": "CA", "postalCode": "L9C1X7", "twitter": "None", "instagram": "None", "facebook": "None", "youtube": "None", "website": "None", "summary": "None", "logo": "None", "latitude": 43.23317662277136, "longitude": -79.9123467983726}, "132410671RR0584": {"name": "Society of Saint Vincent de Paul, St Albert Conference", "designationCode": "C", "categoryCode": "09", "address": "7 ST VITAL AVE", "city": "ST. ALBERT", "province": "AB", "country": "CA", "postalCode": "T8N1K1", "twitter": "None", "instagram": "None", "facebook": "None", "youtube": "None", "website": "None", "summary": "None", "logo": "None", "latitude": 53.63800510979928, "longitude": -113.63165962356823}, "132410671RR0585": {"name": "Society of Saint Vincent De Paul - St Francis Xavier Conference", "designationCode": "C", "categoryCode": "09", "address": "304 HIGHWAY 8", "city": "STONEY CREEK", "province": "ON", "country": "CA", "postalCode": "L8G1E6", "twitter": "None", "instagram": "None", "facebook": "None", "youtube": "None", "website": "None", "summary": "None", "logo": "None", "latitude": 43.22015725291262, "longitude": -79.73091735174756}, "132410671RR0492": {"name": "Society of Saint Vincent De Paul - St. Mary Immaculate Conference", "designationCode": "C", "categoryCode": "09", "address": "10295 YONGE ST", "city": "RICHMOND HILL", "province": "ON", "country": "CA", "postalCode": "L4C3B9", "twitter": "None", "instagram": "None", "facebook": "None", "youtube": "None", "website": "None", "summary": "None", "logo": "None", "latitude": 43.87841289592588, "longitude": -79.43886688727021}, "132410671RR0581": {"name": "Society of Saint VIncent de Paul - St Mary Conference", "designationCode": "C", "categoryCode": "09", "address": "95 MARLBOROUGH STREET", "city": "BLENHEIM", "province": "ON", "country": "CA", "postalCode": "N0P1A0", "twitter": "None", "instagram": "None", "facebook": "None", "youtube": "None", "website": "None", "summary": "None", "logo": "None", "latitude": 42.333520471579234, "longitude": -82.00264469608747}, "132410671RR0571": {"name": "Society of Saint-Vincent de Paul - Sacred Heart Conference, Paris, ON", "designationCode": "C", "categoryCode": "09", "address": "17 WASHINGTON ST", "city": "PARIS", "province": "ON", "country": "CA", "postalCode": "N3L2A2", "twitter": "None", "instagram": "None", "facebook": "None", "youtube": "None", "website": "None", "summary": "None", "logo": "None", "latitude": 43.18770254287615, "longitude": -80.3779989382824}, "132410671RR0520": {"name": "Society of Saint-Vincent de Paul - St Benedict Labre Conference, Sudbury, Ontario", "designationCode": "C", "categoryCode": "09", "address": "2082 BANCROFT DRIVE", "city": "SUDBURY", "province": "ON", "country": "CA", "postalCode": "P3B1S9", "twitter": "None", "instagram": "None", "facebook": "None", "youtube": "None", "website": "None", "summary": "None", "logo": "None", "latitude": 46.49067544604403, "longitude": -80.93227519900167}, "132410671RR0501": {"name": "Society of Saint-Vincent de Paul - St. Anthony of Padua Conference in Kincardine", "designationCode": "C", "categoryCode": "09", "address": "749 RUSSELL STREET", "city": "KINCARDINE", "province": "ON", "country": "CA", "postalCode": "N2Z1S7", "twitter": "None", "instagram": "None", "facebook": "None", "youtube": "None", "website": "None", "summary": "None", "logo": "None", "latitude": 44.16910143527677, "longitude": -81.6215109971841}, "132410671RR0534": {"name": "Society of Saint-Vincent de Paul - St. Paul's Conference - Summerside, PEI", "designationCode": "C", "categoryCode": "09", "address": "289 WINTER STREET", "city": "SUMMERSIDE", "province": "PE", "country": "CA", "postalCode": "C1N1N4", "twitter": "None", "instagram": "None", "facebook": "None", "youtube": "None", "website": "None", "summary": "None", "logo": "None", "latitude": 46.395129394396655, "longitude": -63.791398618789316}, "132410671RR0521": {"name": "Society of Saint-Vincent de Paul- Saint Mary's Conference, (Collingwood, Ontario)", "designationCode": "C", "categoryCode": "09", "address": "63 ELGIN STREET", "city": "COLLINGWOOD", "province": "ON", "country": "CA", "postalCode": "L9Y3L6", "twitter": "None", "instagram": "None", "facebook": "None", "youtube": "None", "website": "None", "summary": "None", "logo": "None", "latitude": 44.49996999511103, "longitude": -80.21453863459202}, "845702026RR0001": {"name": "Society of Semiahmoo Animal League", "designationCode": "C", "categoryCode": "09", "address": "PO BOX 45051 RPO OCEAN PARK", "city": "SURREY", "province": "BC", "country": "CA", "postalCode": "V4A9L1", "twitter": "None", "instagram": "None", "facebook": "None", "youtube": "None", "website": "None", "summary": "None", "logo": "None", "latitude": 49.03519090817018, "longitude": -122.87567092121638}, "891335762RR0001": {"name": "Society of Seniors Caring About Seniors", "designationCode": "C", "categoryCode": "09", "address": "100 - 6770 129 AVE", "city": "EDMONTON", "province": "AB", "country": "CA", "postalCode": "T5C1V7", "twitter": "None", "instagram": "None", "facebook": "None", "youtube": "None", "website": "None", "summary": "None", "logo": "None", "latitude": 53.587662523226626, "longitude": -113.44526163918864}, "132410671RR0477": {"name": "Society of St. Vincent de Paul - Immaculate Heart of Mary Conference", "designationCode": "C", "categoryCode": "09", "address": "131 BIRCHMOUNT RD", "city": "SCARBOROUGH", "province": "ON", "country": "CA", "postalCode": "M1N3J7", "twitter": "None", "instagram": "None", "facebook": "None", "youtube": "None", "website": "None", "summary": "None", "logo": "None", "latitude": 43.69631964669047, "longitude": -79.26365984176833}, "132410671RR0485": {"name": "Society of St. Vincent De Paul - Halton Particular Council", "designationCode": "C", "categoryCode": "09", "address": "2745 NORTH RIDGE TRAIL", "city": "OAKVILLE", "province": "ON", "country": "CA", "postalCode": "L6H7A3", "twitter": "None", "instagram": "None", "facebook": "None", "youtube": "None", "website": "None", "summary": "None", "logo": "None", "latitude": 43.488662059957264, "longitude": -79.71261182030115}, "132410671RR0484": {"name": "Society of St.Vincent de Paul,-Holy Rosary Conferences of Thorold ON", "designationCode": "C", "categoryCode": "09", "address": "21 QUEEN STREET SOUTH", "city": "THOROLD", "province": "ON", "country": "CA", "postalCode": "L2V3M7", "twitter": "None", "instagram": "None", "facebook": "None", "youtube": "None", "website": "None", "summary": "None", "logo": "None", "latitude": 43.12347313627447, "longitude": -79.20506912868574}, "132410671RR0487": {"name": "Society of St-Vincent de Paul, St. Alphonsus, of Edmonton AB", "designationCode": "C", "categoryCode": "09", "address": "11828-85TH STREET", "city": "EDMONTON", "province": "AB", "country": "CA", "postalCode": "T5B3E9", "twitter": "None", "instagram": "None", "facebook": "None", "youtube": "None", "website": "None", "summary": "None", "logo": "None", "latitude": 53.57124000000002, "longitude": -113.470899262046}, "890347370RR0001": {"name": "Society of Supporters of Ecole St. Matthew School", "designationCode": "C", "categoryCode": "21", "address": "416 83RD AVENUE SOUTHEAST", "city": "CALGARY", "province": "AB", "country": "CA", "postalCode": "T2H1N3", "twitter": "None", "instagram": "None", "facebook": "None", "youtube": "None", "website": "None", "summary": "None", "logo": "None", "latitude": 50.97812940550515, "longitude": -114.05812065736627}, "845609361RR0001": {"name": "Society to Explore and Record Christian History", "designationCode": "C", "categoryCode": "47", "address": "531 LESSARD DR NW", "city": "EDMONTON", "province": "AB", "country": "CA", "postalCode": "T6M1A9", "twitter": "None", "instagram": "None", "facebook": "None", "youtube": "None", "website": "None", "summary": "None", "logo": "None", "latitude": 53.49170151985108, "longitude": -113.62171130388386}}