{"868333022RR0001": {"name": "OTTAWA SARANG PRESBYTERIAN CHURCH", "designationCode": "C", "categoryCode": "39", "address": "10 CHESTERTON DR.", "city": "OTTAWA", "province": "ON", "country": "CA", "postalCode": "K2E5S9", "twitter": "None", "instagram": "None", "facebook": "None", "youtube": "None", "website": "None", "summary": "None", "logo": "None", "latitude": 45.35309530417233, "longitude": -75.72942177855018}, "126510528RR0001": {"name": "OTTAWA SCHOOL OF ART ECOLE D'ART D'OTTAWA", "designationCode": "C", "categoryCode": "22", "address": "35 GEORGE ST", "city": "OTTAWA", "province": "ON", "country": "CA", "postalCode": "K1N8W5", "twitter": "None", "instagram": "None", "facebook": "None", "youtube": "None", "website": "None", "summary": "None", "logo": "None", "latitude": 45.42661615269175, "longitude": -75.6933621621268}, "880975065RR0001": {"name": "OTTAWA SENATORS FOUNDATION /FONDATION DES S\u00c9NATEURS D'OTTAWA", "designationCode": "A", "categoryCode": "23", "address": "1000 PALLADIUM DR", "city": "KANATA", "province": "ON", "country": "CA", "postalCode": "K2V1A5", "twitter": "None", "instagram": "None", "facebook": "None", "youtube": "None", "website": "None", "summary": "None", "logo": "None", "latitude": 45.29590142832773, "longitude": -75.92626883106294}, "107797383RR0095": {"name": "OTTAWA SEVENTH-DAY ADVENTIST CHURCH", "designationCode": "C", "categoryCode": "41", "address": "2200 BENJAMIN AVE.", "city": "OTTAWA", "province": "ON", "country": "CA", "postalCode": "K2A1P5", "twitter": "None", "instagram": "None", "facebook": "None", "youtube": "None", "website": "None", "summary": "None", "logo": "None", "latitude": 45.363093803451164, "longitude": -75.76799899887483}, "107797383RR0117": {"name": "OTTAWA SEVENTH-DAY ADVENTIST SCHOOL", "designationCode": "C", "categoryCode": "41", "address": "2200 BENJAMIN AVE", "city": "OTTAWA", "province": "ON", "country": "CA", "postalCode": "K2A1T5", "twitter": "None", "instagram": "None", "facebook": "None", "youtube": "None", "website": "None", "summary": "None", "logo": "None", "latitude": 45.363093803451164, "longitude": -75.76799899887483}, "119071850RR0001": {"name": "OTTAWA SIKH SOCIETY", "designationCode": "C", "categoryCode": "62", "address": "25 GURDWARA RD                TREASURER", "city": "NEPEAN", "province": "ON", "country": "CA", "postalCode": "K2E7X6", "twitter": "None", "instagram": "None", "facebook": "None", "youtube": "None", "website": "None", "summary": "None", "logo": "None", "latitude": 45.3392847779446, "longitude": -75.70488418714336}, "119071876RR0001": {"name": "OTTAWA SYMPHONY ORCHESTRA-L'ORCHESTRE SYMPHONIQUE D'OTTAWA", "designationCode": "C", "categoryCode": "22", "address": "2 DALY AVENUE SUITE 250", "city": "OTTAWA", "province": "ON", "country": "CA", "postalCode": "K1N6E2", "twitter": "None", "instagram": "None", "facebook": "None", "youtube": "None", "website": "None", "summary": "None", "logo": "None", "latitude": 45.42564301552326, "longitude": -75.68902925893026}, "136886637RR0001": {"name": "OTTAWA TALMUD TORAH AFTERNOON SCHOOL", "designationCode": "C", "categoryCode": "20", "address": "2310 VIRGINIA DR", "city": "OTTAWA", "province": "ON", "country": "CA", "postalCode": "K1H6S2", "twitter": "None", "instagram": "None", "facebook": "None", "youtube": "None", "website": "None", "summary": "None", "logo": "None", "latitude": 45.386062344711185, "longitude": -75.64474282047404}, "119071900RR0001": {"name": "OTTAWA THEOLOGICAL HALL INC.", "designationCode": "C", "categoryCode": "20", "address": "P.O. BOX 23139", "city": "OTTAWA", "province": "ON", "country": "CA", "postalCode": "K2A4E2", "twitter": "None", "instagram": "None", "facebook": "None", "youtube": "None", "website": "None", "summary": "None", "logo": "None", "latitude": 45.42177300000006, "longitude": -75.69115999999994}, "883128308RR0001": {"name": "OTTAWA THERAPY DOGS", "designationCode": "C", "categoryCode": "11", "address": "SUITE 369                     99-1568 MERIVALE ROAD", "city": "OTTAWA", "province": "ON", "country": "CA", "postalCode": "K2G5Y7", "twitter": "None", "instagram": "None", "facebook": "None", "youtube": "None", "website": "None", "summary": "None", "logo": "None", "latitude": 45.351826408534926, "longitude": -75.73418209608137}, "839016771RR0001": {"name": "OTTAWA TORAH CENTRE", "designationCode": "C", "categoryCode": "42", "address": "111 LAMPLIGHTERS DRIVE", "city": "NEPEAN", "province": "ON", "country": "CA", "postalCode": "K2J0C2", "twitter": "None", "instagram": "None", "facebook": "None", "youtube": "None", "website": "None", "summary": "None", "logo": "None", "latitude": 45.265576736597694, "longitude": -75.77323098574617}, "107806374RR0001": {"name": "OTTAWA TORAH INSTITUTE", "designationCode": "C", "categoryCode": "20", "address": "1400 COLDREY AVENUE", "city": "OTTAWA", "province": "ON", "country": "CA", "postalCode": "K1Z7P9", "twitter": "None", "instagram": "None", "facebook": "None", "youtube": "None", "website": "None", "summary": "None", "logo": "None", "latitude": 45.38125917949732, "longitude": -75.73954371518873}, "880166426RR0001": {"name": "OTTAWA VALLEY AID FOR CHERNOBYL CHILDREN", "designationCode": "C", "categoryCode": "02", "address": "7149 MCCORDICK ROAD", "city": "NORTH GOWER", "province": "ON", "country": "CA", "postalCode": "K0A2T0", "twitter": "None", "instagram": "None", "facebook": "None", "youtube": "None", "website": "None", "summary": "None", "logo": "None", "latitude": 45.093289710974624, "longitude": -75.70309241491343}, "898179973RR0001": {"name": "OTTAWA VALLEY AMBASSADORS HOCKEY CLUB", "designationCode": "C", "categoryCode": "56", "address": "23 ANDREA CRES", "city": "NEPEAN", "province": "ON", "country": "CA", "postalCode": "K2J1G8", "twitter": "None", "instagram": "None", "facebook": "None", "youtube": "None", "website": "None", "summary": "None", "logo": "None", "latitude": 45.2807496453055, "longitude": -75.76755476423902}, "888002649RR0001": {"name": "OTTAWA VALLEY ASSOCIATION OF THE FELLOWSHIP OF EVANGELICAL BAPTIST CHURCHES OF CANADA", "designationCode": "C", "categoryCode": "49", "address": "20 MEADOWBROOK DR", "city": "PEMBROKE", "province": "ON", "country": "CA", "postalCode": "K8A7C3", "twitter": "None", "instagram": "None", "facebook": "None", "youtube": "None", "website": "None", "summary": "None", "logo": "None", "latitude": 45.839318380858884, "longitude": -77.17319431465033}, "890050347RR0001": {"name": "OTTAWA VALLEY COUNTRY MUSIC HALL OF FAME", "designationCode": "C", "categoryCode": "50", "address": "3170 HWY 29 BOX 106", "city": "PAKENHAM", "province": "ON", "country": "CA", "postalCode": "K0A2X0", "twitter": "None", "instagram": "None", "facebook": "None", "youtube": "None", "website": "None", "summary": "None", "logo": "None", "latitude": 45.32920800000005, "longitude": -76.28272999999993}, "119071975RR0001": {"name": "OTTAWA VALLEY PENTECOSTAL CAMP", "designationCode": "C", "categoryCode": "56", "address": "P.O. BOX 337", "city": "COBOURG", "province": "ON", "country": "CA", "postalCode": "K9A4K8", "twitter": "None", "instagram": "None", "facebook": "None", "youtube": "None", "website": "None", "summary": "None", "logo": "None", "latitude": 43.95960600000005, "longitude": -78.16778449999994}, "885193029RR0001": {"name": "OTTAWA VALLEY SEARCH AND RESCUE DOG ASSOCIATION", "designationCode": "C", "categoryCode": "59", "address": "2413-7 STEVENAGE DRIVE", "city": "OTTAWA", "province": "ON", "country": "CA", "postalCode": "K1G3W1", "twitter": "None", "instagram": "None", "facebook": "None", "youtube": "None", "website": "None", "summary": "None", "logo": "None", "latitude": 45.380665641179206, "longitude": -75.60640121305302}, "896119112RR0001": {"name": "OTTAWA VALLEY THEATRE ORGAN SOCIETY", "designationCode": "C", "categoryCode": "22", "address": "8 HARVARD AVE", "city": "OTTAWA", "province": "ON", "country": "CA", "postalCode": "K1S4Z1", "twitter": "None", "instagram": "None", "facebook": "None", "youtube": "None", "website": "None", "summary": "None", "logo": "None", "latitude": 45.39061163030185, "longitude": -75.68125171094688}, "833673528RR0001": {"name": "OTTAWA VALLEY VINEYARD CHURCH", "designationCode": "C", "categoryCode": "39", "address": "P.O  BOX 177", "city": "CARLETON PLACE", "province": "ON", "country": "CA", "postalCode": "K7C3P2", "twitter": "None", "instagram": "None", "facebook": "None", "youtube": "None", "website": "None", "summary": "None", "logo": "None", "latitude": 45.08818800000006, "longitude": -76.08027499999993}, "893401380RR0002": {"name": "OTTAWA VALLEY WILD BIRD CARE CENTRE", "designationCode": "C", "categoryCode": "54", "address": "PO BOX 11159", "city": "OTTAWA", "province": "ON", "country": "CA", "postalCode": "K2H7T9", "twitter": "None", "instagram": "None", "facebook": "None", "youtube": "None", "website": "None", "summary": "None", "logo": "None", "latitude": 45.34429200000005, "longitude": -75.76434349999994}, "894945633RR0013": {"name": "OTTAWA VIETNAMESE ALLIANCE CHURCH", "designationCode": "C", "categoryCode": "39", "address": "1386 BANK STREET", "city": "OTTAWA", "province": "ON", "country": "CA", "postalCode": "K1H8N6", "twitter": "None", "instagram": "None", "facebook": "None", "youtube": "None", "website": "None", "summary": "None", "logo": "None", "latitude": 45.384281770183, "longitude": -75.6722071078537}, "129578696RR0001": {"name": "OTTAWA WALDORF SCHOOL", "designationCode": "C", "categoryCode": "20", "address": "29 LAUMANN CRT", "city": "STITTSVILLE", "province": "ON", "country": "CA", "postalCode": "K2S1V9", "twitter": "None", "instagram": "None", "facebook": "None", "youtube": "None", "website": "None", "summary": "None", "logo": "None", "latitude": 45.26717081432854, "longitude": -75.93448892812619}, "891279671RR0001": {"name": "OTTAWA WELSH CHORAL SOCIETY", "designationCode": "C", "categoryCode": "22", "address": "2-3205 UPLANDS DRIVE", "city": "OTTAWA", "province": "ON", "country": "CA", "postalCode": "K1V9T3", "twitter": "None", "instagram": "None", "facebook": "None", "youtube": "None", "website": "None", "summary": "None", "logo": "None", "latitude": 45.349114707830225, "longitude": -75.67876064521857}, "890626104RR0001": {"name": "OTTAWA WEST COMMUNITY SUPPORT SERVICE COMMUNAUTAIRE D'OTTAWA-OUEST", "designationCode": "C", "categoryCode": "09", "address": "1137 WELLINGTON STREET", "city": "OTTAWA", "province": "ON", "country": "CA", "postalCode": "K1Y2Y8", "twitter": "None", "instagram": "None", "facebook": "None", "youtube": "None", "website": "None", "summary": "None", "logo": "None", "latitude": 45.401986162098154, "longitude": -75.72673916668577}, "119072023RR0001": {"name": "OTTAWA WEST END COMMUNITY CHAPLAINCY", "designationCode": "C", "categoryCode": "59", "address": "1008 - 265 POULIN AVE", "city": "OTTAWA", "province": "ON", "country": "CA", "postalCode": "K2B7Y8", "twitter": "None", "instagram": "None", "facebook": "None", "youtube": "None", "website": "None", "summary": "None", "logo": "None", "latitude": 45.366282480177574, "longitude": -75.79396220765827}, "892993189RR0001": {"name": "OTTAWA WEST JUNIOR MUSIC CLUB", "designationCode": "C", "categoryCode": "22", "address": "5430 WADELL COURT", "city": "MANOTICK", "province": "ON", "country": "CA", "postalCode": "K4M1L3", "twitter": "None", "instagram": "None", "facebook": "None", "youtube": "None", "website": "None", "summary": "None", "logo": "None", "latitude": 45.22522448407273, "longitude": -75.69548708099175}, "119072031RR0001": {"name": "OTTAWA WEST LIONS CLUB WELFARE FUND", "designationCode": "C", "categoryCode": "65", "address": "1323 HANBURY ST", "city": "OTTAWA", "province": "ON", "country": "CA", "postalCode": "K2C2M1", "twitter": "None", "instagram": "None", "facebook": "None", "youtube": "None", "website": "None", "summary": "None", "logo": "None", "latitude": 45.35775409576425, "longitude": -75.75463239768622}, "119072072RR0001": {"name": "OTTAWA YOUNG MEN'S AND YOUNG WOMEN'S CHRISTIAN ASSOCIATION", "designationCode": "C", "categoryCode": "49", "address": "180 ARGYLE AVENUE", "city": "OTTAWA", "province": "ON", "country": "CA", "postalCode": "K2P1B7", "twitter": "None", "instagram": "None", "facebook": "None", "youtube": "None", "website": "None", "summary": "None", "logo": "None", "latitude": 45.41162258863782, "longitude": -75.68970199691292}, "899127237RR0001": {"name": "OTTAWA YOUTH ORCHESTRA ACADEMY", "designationCode": "C", "categoryCode": "22", "address": "2450 LANCASTER ROAD           UNIT 38", "city": "OTTAWA", "province": "ON", "country": "CA", "postalCode": "K1B5N3", "twitter": "None", "instagram": "None", "facebook": "None", "youtube": "None", "website": "None", "summary": "None", "logo": "None", "latitude": 45.40174964109325, "longitude": -75.61932662934956}, "107806010RR0001": {"name": "OTTAWA-CARLETON ASSOCIATION FOR PERSONS WITH DEVELOPMENTAL DISABILITIES", "designationCode": "C", "categoryCode": "11", "address": "229 COLONNADE ROAD SOUTH", "city": "OTTAWA", "province": "ON", "country": "CA", "postalCode": "K2E7K3", "twitter": "None", "instagram": "None", "facebook": "None", "youtube": "None", "website": "None", "summary": "None", "logo": "None", "latitude": 45.34090948317869, "longitude": -75.71967080310446}, "887132793RR0001": {"name": "OTTAWA-CARLETON COUNCIL ON SMOKING AND HEALTH, CONSEIL D'OTTAWA-CARLETON SUR LE TABAGISME ET LA SANTE", "designationCode": "C", "categoryCode": "59", "address": "116 QUEEN ELIZABETH DR", "city": "OTTAWA", "province": "ON", "country": "CA", "postalCode": "K2P1E6", "twitter": "None", "instagram": "None", "facebook": "None", "youtube": "None", "website": "None", "summary": "None", "logo": "None", "latitude": 45.414594691095814, "longitude": -75.68334262297292}, "119249233RR0003": {"name": "OTTAWA-CARLETON DISTRICT SCHOOL BOARD", "designationCode": "C", "categoryCode": "20", "address": "133 GREENBANK ROAD", "city": "NEPEAN", "province": "ON", "country": "CA", "postalCode": "K2H6L3", "twitter": "None", "instagram": "None", "facebook": "None", "youtube": "None", "website": "None", "summary": "None", "logo": "None", "latitude": 45.33188703650506, "longitude": -75.78261959165043}, "132240284RR0001": {"name": "OTTAWA-CARLETON WILDLIFE CENTRE INC.", "designationCode": "C", "categoryCode": "54", "address": "P O BOX 11051, STATION H", "city": "OTTAWA", "province": "ON", "country": "CA", "postalCode": "K2H7T8", "twitter": "None", "instagram": "None", "facebook": "None", "youtube": "None", "website": "None", "summary": "None", "logo": "None", "latitude": 45.34429200000005, "longitude": -75.76434349999994}, "119071611RR0001": {"name": "OTTAWA-HULL CAMBODIAN BUDDHIST ASSOCIATION INC.", "designationCode": "C", "categoryCode": "35", "address": "5883 HAZELDEAN ROAD", "city": "OTTAWA", "province": "ON", "country": "CA", "postalCode": "K2S1B9", "twitter": "None", "instagram": "None", "facebook": "None", "youtube": "None", "website": "None", "summary": "None", "logo": "None", "latitude": 45.27807719793382, "longitude": -75.91989968310304}, "119072106RR0001": {"name": "OTTER LAKE CONSERVATIVE MENNONITE CHURCH", "designationCode": "C", "categoryCode": "34", "address": "246 BLUE LAKE RD", "city": "SEGUIN", "province": "ON", "country": "CA", "postalCode": "P2A0B2", "twitter": "None", "instagram": "None", "facebook": "None", "youtube": "None", "website": "None", "summary": "None", "logo": "None", "latitude": 45.28158508520401, "longitude": -79.98879716483944}, "119072122RR0001": {"name": "OTTERVILLE BAPTIST CHURCH", "designationCode": "C", "categoryCode": "31", "address": "PO BOX 236                    106 JOHN ST", "city": "OTTERVILLE", "province": "ON", "country": "CA", "postalCode": "N0J1R0", "twitter": "None", "instagram": "None", "facebook": "None", "youtube": "None", "website": "None", "summary": "None", "logo": "None", "latitude": 42.92695940529074, "longitude": -80.60068450525642}, "119072130RR0001": {"name": "OTTERVILLE UNITED CHURCH", "designationCode": "C", "categoryCode": "44", "address": "P.O. BOX 53                   231 MAIN ST. E.", "city": "OTTERVILLE", "province": "ON", "country": "CA", "postalCode": "N0J1R0", "twitter": "None", "instagram": "None", "facebook": "None", "youtube": "None", "website": "None", "summary": "None", "logo": "None", "latitude": 42.926658663887146, "longitude": -80.60202666348405}, "107806531RR0001": {"name": "OTTEWELL CHRISTIAN REFORMED CHURCH OF EDMONTON", "designationCode": "C", "categoryCode": "39", "address": "6811-92A AVE", "city": "EDMONTON", "province": "AB", "country": "CA", "postalCode": "T6B0T7", "twitter": "None", "instagram": "None", "facebook": "None", "youtube": "None", "website": "None", "summary": "None", "logo": "None", "latitude": 53.52823581536775, "longitude": -113.4334440192455}, "119072148RR0001": {"name": "OTTEWELL CONGREGATION OF JEHOVAH'S WITNESSES", "designationCode": "C", "categoryCode": "61", "address": "10121 81 ST NW", "city": "EDMONTON", "province": "AB", "country": "CA", "postalCode": "T6A3K6", "twitter": "None", "instagram": "None", "facebook": "None", "youtube": "None", "website": "None", "summary": "None", "logo": "None", "latitude": 53.541792000000015, "longitude": -113.45242630734631}, "107806556RR0001": {"name": "OTTEWELL UNITED CHURCH", "designationCode": "C", "categoryCode": "44", "address": "6611 - 93A AVENUE", "city": "EDMONTON", "province": "AB", "country": "CA", "postalCode": "T6B0X1", "twitter": "None", "instagram": "None", "facebook": "None", "youtube": "None", "website": "None", "summary": "None", "logo": "None", "latitude": 53.53036659059972, "longitude": -113.43129824978365}, "883858714RR0001": {"name": "OTTO AND MARIE PICK CHARITABLE FOUNDATION", "designationCode": "B", "categoryCode": "03", "address": "237 KENT STREET W", "city": "LINDSAY", "province": "ON", "country": "CA", "postalCode": "K9V2Z3", "twitter": "None", "instagram": "None", "facebook": "None", "youtube": "None", "website": "None", "summary": "None", "logo": "None", "latitude": 44.353086181857755, "longitude": -78.74475503357102}, "888668662RR0001": {"name": "OUJE-BOUGOUMOU PENTECOSTAL CHURCH (JISHEMUNDO-MIJWAP)", "designationCode": "C", "categoryCode": "36", "address": "BOX 1107", "city": "OUJ\u00c9-BOUGOUMOU", "province": "QC", "country": "CA", "postalCode": "G0W3C0", "twitter": "None", "instagram": "None", "facebook": "None", "youtube": "None", "website": "None", "summary": "None", "logo": "None", "latitude": 49.92622944399434, "longitude": -74.80775692045326}, "119072197RR0001": {"name": "OUR ADVOCATE WITH GOD", "designationCode": "C", "categoryCode": "31", "address": "P.O. BOX 25283 RPO WAPITI CTR", "city": "GRANDE PRAIRIE", "province": "AB", "country": "CA", "postalCode": "T8W0G2", "twitter": "None", "instagram": "None", "facebook": "None", "youtube": "None", "website": "None", "summary": "None", "logo": "None", "latitude": 55.13703900000006, "longitude": -118.89748699999993}, "869417154RR0001": {"name": "OUR CHILDREN, OUR FUTURE - FAMILY RESOURCES NOS ENFANTS, NOTRE AVENIR - RESSOURCES POUR LES FAMILLES", "designationCode": "C", "categoryCode": "09", "address": "201 JOGUES STREET", "city": "SUDBURY", "province": "ON", "country": "CA", "postalCode": "P3C5L7", "twitter": "None", "instagram": "None", "facebook": "None", "youtube": "None", "website": "None", "summary": "None", "logo": "None", "latitude": 46.497913424125805, "longitude": -80.9877383262905}, "868724733RR0001": {"name": "OUR CHRIST IS WONDERFUL MISSIONS & MINISTRIES INTERNATIONAL INC", "designationCode": "C", "categoryCode": "39", "address": "5 MANETT CRES", "city": "BRAMPTON", "province": "ON", "country": "CA", "postalCode": "L6X4X4", "twitter": "None", "instagram": "None", "facebook": "None", "youtube": "None", "website": "None", "summary": "None", "logo": "None", "latitude": 43.702269266980345, "longitude": -79.78873441162199}, "890169394RR0001": {"name": "OUR COMMUNITY POOL-PLANNING COMMITTEE", "designationCode": "C", "categoryCode": "56", "address": "PO BOX 423", "city": "MARKDALE", "province": "ON", "country": "CA", "postalCode": "N0C1H0", "twitter": "None", "instagram": "None", "facebook": "None", "youtube": "None", "website": "None", "summary": "None", "logo": "None", "latitude": 44.31914000000006, "longitude": -80.64888999999994}, "867367401RR0001": {"name": "OUR DAILY BREAD SOUP KITCHEN INC.", "designationCode": "C", "categoryCode": "09", "address": "PO BOX 123 STN MAIN", "city": "SELKIRK", "province": "MB", "country": "CA", "postalCode": "R1A2B1", "twitter": "None", "instagram": "None", "facebook": "None", "youtube": "None", "website": "None", "summary": "None", "logo": "None", "latitude": 50.126263301544775, "longitude": -96.89946750364722}, "859292443RR0001": {"name": "OUR FATHER'S HOUSE CHRISTIAN OUTREACH CENTRE", "designationCode": "C", "categoryCode": "39", "address": "30B FOXHUNT TRAIL", "city": "COURTICE", "province": "ON", "country": "CA", "postalCode": "L1E1G1", "twitter": "None", "instagram": "None", "facebook": "None", "youtube": "None", "website": "None", "summary": "None", "logo": "None", "latitude": 43.9016651304211, "longitude": -78.80746212087834}, "129480836RR0001": {"name": "OUR HOUSE (EDMONTON) LTD", "designationCode": "C", "categoryCode": "57", "address": "22210 STONY PLAIN ROAD, NW", "city": "EDMONTON", "province": "AB", "country": "CA", "postalCode": "T5S2C3", "twitter": "None", "instagram": "None", "facebook": "None", "youtube": "None", "website": "None", "summary": "None", "logo": "None", "latitude": 53.54167953101691, "longitude": -113.7007035}, "841508161RR0001": {"name": "OUR HOUSE SIX STEPS DRUG RECOVERY CORPORATION", "designationCode": "C", "categoryCode": "57", "address": "PO BOX 613", "city": "ESTERHAZY", "province": "SK", "country": "CA", "postalCode": "S0A0X0", "twitter": "None", "instagram": "None", "facebook": "None", "youtube": "None", "website": "None", "summary": "None", "logo": "None", "latitude": 50.65157000000005, "longitude": -102.05784999999997}, "892688961RR0001": {"name": "OUR KIDS CELEBRITY CLASSIC", "designationCode": "A", "categoryCode": "13", "address": "3663 HIGHWAY 7", "city": "OMEMEE", "province": "ON", "country": "CA", "postalCode": "K0L2W0", "twitter": "None", "instagram": "None", "facebook": "None", "youtube": "None", "website": "None", "summary": "None", "logo": "None", "latitude": 44.293788216017845, "longitude": -78.59335983198612}, "134770270RR0001": {"name": "OUR KIDS CHILD CARE LAMBTON INC.", "designationCode": "C", "categoryCode": "20", "address": "720 ELM AVENUE", "city": "SARNIA", "province": "ON", "country": "CA", "postalCode": "N7T4H3", "twitter": "None", "instagram": "None", "facebook": "None", "youtube": "None", "website": "None", "summary": "None", "logo": "None", "latitude": 42.97232766607829, "longitude": -82.38190369757523}, "869508994RR0001": {"name": "OUR KIDS COUNT OF THUNDER BAY INC", "designationCode": "C", "categoryCode": "09", "address": "704 MCKENZIE ST", "city": "THUNDER BAY", "province": "ON", "country": "CA", "postalCode": "P7C3L4", "twitter": "None", "instagram": "None", "facebook": "None", "youtube": "None", "website": "None", "summary": "None", "logo": "None", "latitude": 48.394241424635084, "longitude": -89.23716869828053}, "119109817RR0041": {"name": "OUR LADY HELP OF CHRISTIANS", "designationCode": "C", "categoryCode": "38", "address": "68 UNION ST", "city": "FOREST", "province": "ON", "country": "CA", "postalCode": "N0N1J0", "twitter": "None", "instagram": "None", "facebook": "None", "youtube": "None", "website": "None", "summary": "None", "logo": "None", "latitude": 43.101520719585025, "longitude": -82.00428387526053}, "119109817RR0112": {"name": "OUR LADY HELP OF CHRISTIANS CHURCH", "designationCode": "C", "categoryCode": "38", "address": "647 MURRAY STREET", "city": "WALLACEBURG", "province": "ON", "country": "CA", "postalCode": "N8A1W1", "twitter": "None", "instagram": "None", "facebook": "None", "youtube": "None", "website": "None", "summary": "None", "logo": "None", "latitude": 42.58532680099833, "longitude": -82.38016319937704}, "107910176RR0014": {"name": "OUR LADY OF ANGELS PARISH", "designationCode": "C", "categoryCode": "38", "address": "PO BOX 1363 STN C", "city": "ST. JOHN'S", "province": "NL", "country": "CA", "postalCode": "A1C5N5", "twitter": "None", "instagram": "None", "facebook": "None", "youtube": "None", "website": "None", "summary": "None", "logo": "None", "latitude": 47.56082100000006, "longitude": -52.71219349999993}, "817736747RR0001": {"name": "OUR LADY OF COMBERMERE CHARITABLE ORGANIZATION", "designationCode": "C", "categoryCode": "43", "address": "2888 DAFOE ROAD", "city": "COMBERMERE", "province": "ON", "country": "CA", "postalCode": "K0J1L0", "twitter": "None", "instagram": "None", "facebook": "None", "youtube": "None", "website": "None", "summary": "None", "logo": "None", "latitude": 45.35695411131616, "longitude": -77.61241489335839}, "107585085RR0028": {"name": "OUR LADY OF CONSOLATION PARISH, MELFORT, SK", "designationCode": "C", "categoryCode": "38", "address": "PO BOX 3009", "city": "MELFORT", "province": "SK", "country": "CA", "postalCode": "S0E1A0", "twitter": "None", "instagram": "None", "facebook": "None", "youtube": "None", "website": "None", "summary": "None", "logo": "None", "latitude": 52.85637, "longitude": -104.63436225000001}, "119109817RR0052": {"name": "OUR LADY OF CZESTOCHOWA", "designationCode": "C", "categoryCode": "38", "address": "419 HILL ST", "city": "LONDON", "province": "ON", "country": "CA", "postalCode": "N6B1E5", "twitter": "None", "instagram": "None", "facebook": "None", "youtube": "None", "website": "None", "summary": "None", "logo": "None", "latitude": 42.978340071296905, "longitude": -81.23458305785111}, "107307191RR0063": {"name": "OUR LADY OF CZESTOCHOWA CHURCH", "designationCode": "C", "categoryCode": "38", "address": "301 AVENUE Y SOUTH", "city": "SASKATOON", "province": "SK", "country": "CA", "postalCode": "S7M3J6", "twitter": "None", "instagram": "None", "facebook": "None", "youtube": "None", "website": "None", "summary": "None", "logo": "None", "latitude": 52.125876922009354, "longitude": -106.70888621665969}, "107806978RR0001": {"name": "OUR LADY OF CZESTOCHOWA PARISH", "designationCode": "C", "categoryCode": "38", "address": "2550 GASCON AVE", "city": "MONTREAL", "province": "QC", "country": "CA", "postalCode": "H2K2W6", "twitter": "None", "instagram": "None", "facebook": "None", "youtube": "None", "website": "None", "summary": "None", "logo": "None", "latitude": 45.53656327947383, "longitude": -73.55884924231049}, "107585085RR0037": {"name": "OUR LADY OF CZESTOCHOWA PARISH, PRINCE ALBERT, SK", "designationCode": "C", "categoryCode": "38", "address": "160-12TH STREET EAST", "city": "PRINCE ALBERT", "province": "SK", "country": "CA", "postalCode": "S6V1B6", "twitter": "None", "instagram": "None", "facebook": "None", "youtube": "None", "website": "None", "summary": "None", "logo": "None", "latitude": 53.20216948600597, "longitude": -105.7494915}, "880673140RR0001": {"name": "OUR LADY OF FATIMA ADVISORY CATHOLIC SCHOOL COUNCIL", "designationCode": "C", "categoryCode": "99", "address": "2135 KNIGHTSBRIDGE RD", "city": "OTTAWA", "province": "ON", "country": "CA", "postalCode": "K2A0R3", "twitter": "None", "instagram": "None", "facebook": "None", "youtube": "None", "website": "None", "summary": "None", "logo": "None", "latitude": 45.377092064169524, "longitude": -75.77306760355454}, "107909939RR0082": {"name": "OUR LADY OF FATIMA CATHOLIC CHURCH", "designationCode": "C", "categoryCode": "38", "address": "4747-30 STREET SOUTH EAST", "city": "CALGARY", "province": "AB", "country": "CA", "postalCode": "T2B3K5", "twitter": "None", "instagram": "None", "facebook": "None", "youtube": "None", "website": "None", "summary": "None", "logo": "None", "latitude": 51.0119118440187, "longitude": -113.98901403540297}, "107307191RR0049": {"name": "OUR LADY OF FATIMA CHURCH", "designationCode": "C", "categoryCode": "38", "address": "BOX 550                       109- 7TH AVE. WEST", "city": "BIGGAR", "province": "SK", "country": "CA", "postalCode": "S0K0M0", "twitter": "None", "instagram": "None", "facebook": "None", "youtube": "None", "website": "None", "summary": "None", "logo": "None", "latitude": 52.05975499331426, "longitude": -107.98294923291151}, "107876468RR0016": {"name": "OUR LADY OF FATIMA CHURCH", "designationCode": "C", "categoryCode": "38", "address": "13 TRINITY CRESCENT", "city": "CLARENVILLE", "province": "NL", "country": "CA", "postalCode": "A5A1Z7", "twitter": "None", "instagram": "None", "facebook": "None", "youtube": "None", "website": "None", "summary": "None", "logo": "None", "latitude": 48.16140421898008, "longitude": -53.968508623786086}, "107876476RR0014": {"name": "OUR LADY OF FATIMA CHURCH", "designationCode": "C", "categoryCode": "38", "address": "45 SPRUCE AVE", "city": "ELLIOT LAKE", "province": "ON", "country": "CA", "postalCode": "P5A2B7", "twitter": "None", "instagram": "None", "facebook": "None", "youtube": "None", "website": "None", "summary": "None", "logo": "None", "latitude": 46.3851656887001, "longitude": -82.65446887028504}, "119072353RR0001": {"name": "OUR LADY OF FATIMA CHURCH", "designationCode": "C", "categoryCode": "38", "address": "96 VAN HORNE AVENUE", "city": "DRYDEN", "province": "ON", "country": "CA", "postalCode": "P8N2B4", "twitter": "None", "instagram": "None", "facebook": "None", "youtube": "None", "website": "None", "summary": "None", "logo": "None", "latitude": 49.78025966472387, "longitude": -92.83636457848066}, "119110450RR0120": {"name": "OUR LADY OF FATIMA CHURCH", "designationCode": "C", "categoryCode": "38", "address": "P.O. BOX 1706", "city": "CAMBRIDGE", "province": "ON", "country": "CA", "postalCode": "N1R7G8", "twitter": "None", "instagram": "None", "facebook": "None", "youtube": "None", "website": "None", "summary": "None", "logo": "None", "latitude": 43.36140300000005, "longitude": -80.31533299999994}, "889075560RR0001": {"name": "OUR LADY OF FATIMA COUNCIL NO 3732 CHARITABLE WELFARE TRUST", "designationCode": "A", "categoryCode": "65", "address": "5 LINWOOD AVENUE", "city": "PORT COLBORNE", "province": "ON", "country": "CA", "postalCode": "L3K5J4", "twitter": "None", "instagram": "None", "facebook": "None", "youtube": "None", "website": "None", "summary": "None", "logo": "None", "latitude": 42.880733832361926, "longitude": -79.26442300288554}, "107020331RR0041": {"name": "OUR LADY OF FATIMA PARISH", "designationCode": "C", "categoryCode": "38", "address": "PO BOX 22022 RPO MARYSVILLE", "city": "FREDERICTON", "province": "NB", "country": "CA", "postalCode": "E3A5T6", "twitter": "None", "instagram": "None", "facebook": "None", "youtube": "None", "website": "None", "summary": "None", "logo": "None", "latitude": 45.988765133735654, "longitude": -66.58685947323184}, "107910192RR0001": {"name": "OUR LADY OF FATIMA PARISH", "designationCode": "C", "categoryCode": "38", "address": "OUR LADY OF FATIMA PARISH     BOX,138 RR 2", "city": "PICCADILLY", "province": "NL", "country": "CA", "postalCode": "A0N1T0", "twitter": "None", "instagram": "None", "facebook": "None", "youtube": "None", "website": "None", "summary": "None", "logo": "None", "latitude": 48.55666200000006, "longitude": -58.71009499999994}, "118849470RR0059": {"name": "OUR LADY OF FATIMA PARISH", "designationCode": "C", "categoryCode": "38", "address": "1423 E 13TH AVE", "city": "VANCOUVER", "province": "BC", "country": "CA", "postalCode": "V5N2B5", "twitter": "None", "instagram": "None", "facebook": "None", "youtube": "None", "website": "None", "summary": "None", "logo": "None", "latitude": 49.258731518754566, "longitude": -123.0748332485429}, "118849470RR0079": {"name": "OUR LADY OF FATIMA PARISH", "designationCode": "C", "categoryCode": "38", "address": "315 WALKER ST", "city": "COQUITLAM", "province": "BC", "country": "CA", "postalCode": "V3K4C7", "twitter": "None", "instagram": "None", "facebook": "None", "youtube": "None", "website": "None", "summary": "None", "logo": "None", "latitude": 49.241680566449475, "longitude": -122.87781225209227}, "119110443RR0035": {"name": "OUR LADY OF FATIMA PARISH", "designationCode": "C", "categoryCode": "38", "address": "588 DIVISION ST", "city": "KINGSTON", "province": "ON", "country": "CA", "postalCode": "K7K4B6", "twitter": "None", "instagram": "None", "facebook": "None", "youtube": "None", "website": "None", "summary": "None", "logo": "None", "latitude": 44.24587654786779, "longitude": -76.49559162652135}, "119110450RR0076": {"name": "OUR LADY OF FATIMA PARISH", "designationCode": "C", "categoryCode": "38", "address": "300 SIMEON ST", "city": "KITCHENER", "province": "ON", "country": "CA", "postalCode": "N2H1T5", "twitter": "None", "instagram": "None", "facebook": "None", "youtube": "None", "website": "None", "summary": "None", "logo": "None", "latitude": 43.44691600582837, "longitude": -80.47320466371427}, "129950804RR0007": {"name": "OUR LADY OF FATIMA PARISH", "designationCode": "C", "categoryCode": "38", "address": "4635 ELK LAKE DRIVE", "city": "VICTORIA", "province": "BC", "country": "CA", "postalCode": "V8Z5M2", "twitter": "None", "instagram": "None", "facebook": "None", "youtube": "None", "website": "None", "summary": "None", "logo": "None", "latitude": 48.500879470425396, "longitude": -123.38653821977637}, "106880107RR0078": {"name": "OUR LADY OF FATIMA PARISH, SYDNEY RIVER", "designationCode": "C", "categoryCode": "38", "address": "1483 KING'S ROAD", "city": "SYDNEY RIVER", "province": "NS", "country": "CA", "postalCode": "B1S1E6", "twitter": "None", "instagram": "None", "facebook": "None", "youtube": "None", "website": "None", "summary": "None", "logo": "None", "latitude": 46.10696931650576, "longitude": -60.22460739398484}, "128967353RR0049": {"name": "OUR LADY OF FATIMA'S PARISH", "designationCode": "C", "categoryCode": "38", "address": "153 WOODROFFE AVE", "city": "OTTAWA", "province": "ON", "country": "CA", "postalCode": "K2A3T8", "twitter": "None", "instagram": "None", "facebook": "None", "youtube": "None", "website": "None", "summary": "None", "logo": "None", "latitude": 45.37706470081934, "longitude": -75.77467098773766}, "119072528RR0001": {"name": "OUR LADY OF GOOD COUNSEL", "designationCode": "C", "categoryCode": "38", "address": "4609 50 AVE", "city": "ST PAUL", "province": "AB", "country": "CA", "postalCode": "T0A3A3", "twitter": "None", "instagram": "None", "facebook": "None", "youtube": "None", "website": "None", "summary": "None", "logo": "None", "latitude": 53.99135148730496, "longitude": -111.28695202553523}, "107876476RR0030": {"name": "OUR LADY OF GOOD COUNSEL CHURCH", "designationCode": "C", "categoryCode": "38", "address": "114 MACDONALD AVE", "city": "SAULT STE. MARIE", "province": "ON", "country": "CA", "postalCode": "P6B1H3", "twitter": "None", "instagram": "None", "facebook": "None", "youtube": "None", "website": "None", "summary": "None", "logo": "None", "latitude": 46.515730493219316, "longitude": -84.32292235928213}, "118849470RR0081": {"name": "OUR LADY OF GOOD COUNSEL PARISH", "designationCode": "C", "categoryCode": "38", "address": "10460 139 ST", "city": "SURREY", "province": "BC", "country": "CA", "postalCode": "V3T4L5", "twitter": "None", "instagram": "None", "facebook": "None", "youtube": "None", "website": "None", "summary": "None", "logo": "None", "latitude": 49.1927037485429, "longitude": -122.83699794996876}, "886346394RR0001": {"name": "OUR LADY OF GOOD COUNSEL PARISH, HIGH LEVEL, ALBERTA", "designationCode": "C", "categoryCode": "38", "address": "BOX 327", "city": "HIGH LEVEL", "province": "AB", "country": "CA", "postalCode": "T0H1Z0", "twitter": "None", "instagram": "None", "facebook": "None", "youtube": "None", "website": "None", "summary": "None", "logo": "None", "latitude": 58.52077909031678, "longitude": -117.13094845132863}, "887657591RR0001": {"name": "OUR LADY OF GOOD COUNSEL ROMAN CATHOLIC PARISH", "designationCode": "C", "categoryCode": "38", "address": "PO BOX 33", "city": "PINEWOOD", "province": "ON", "country": "CA", "postalCode": "P0W1K0", "twitter": "None", "instagram": "None", "facebook": "None", "youtube": "None", "website": "None", "summary": "None", "logo": "None", "latitude": 48.713010000000054, "longitude": -94.30547999999999}, "118849470RR0026": {"name": "OUR LADY OF GOOD HOPE PARISH", "designationCode": "C", "categoryCode": "38", "address": "671 WATER AVE                 BOX 159", "city": "HOPE", "province": "BC", "country": "CA", "postalCode": "V0X1L0", "twitter": "None", "instagram": "None", "facebook": "None", "youtube": "None", "website": "None", "summary": "None", "logo": "None", "latitude": 49.38068420151182, "longitude": -121.44600706463179}, "119072593RR0001": {"name": "OUR LADY OF GRACE CHURCH", "designationCode": "C", "categoryCode": "38", "address": "BOX 67", "city": "SEDLEY", "province": "SK", "country": "CA", "postalCode": "S0G4K0", "twitter": "None", "instagram": "None", "facebook": "None", "youtube": "None", "website": "None", "summary": "None", "logo": "None", "latitude": 50.17074809641333, "longitude": -104.01590106652539}, "107307191RR0042": {"name": "OUR LADY OF GRACE PARISH", "designationCode": "C", "categoryCode": "38", "address": "PO BOX 605", "city": "KERROBERT", "province": "SK", "country": "CA", "postalCode": "S0L1R0", "twitter": "None", "instagram": "None", "facebook": "None", "youtube": "None", "website": "None", "summary": "None", "logo": "None", "latitude": 51.920060000000035, "longitude": -109.13800999999995}, "107910192RR0015": {"name": "OUR LADY OF GRACE PARISH", "designationCode": "C", "categoryCode": "38", "address": "94 MICHAEL'S DRIVE", "city": "BIRD COVE", "province": "NL", "country": "CA", "postalCode": "A0K1L0", "twitter": "None", "instagram": "None", "facebook": "None", "youtube": "None", "website": "None", "summary": "None", "logo": "None", "latitude": 51.053292374342895, "longitude": -56.92860653639106}, "119122778RR0022": {"name": "OUR LADY OF GRACE PARISH", "designationCode": "C", "categoryCode": "38", "address": "OUR LADY OF GRACE             PO BOX 218", "city": "INGLESIDE", "province": "ON", "country": "CA", "postalCode": "K0C1M0", "twitter": "None", "instagram": "None", "facebook": "None", "youtube": "None", "website": "None", "summary": "None", "logo": "None", "latitude": 45.02841000000005, "longitude": -75.00180049999993}, "129950804RR0008": {"name": "OUR LADY OF GRACE PARISH", "designationCode": "C", "categoryCode": "38", "address": "135 DRAKE ROAD", "city": "SALT SPRING ISLAND", "province": "BC", "country": "CA", "postalCode": "V8K2K8", "twitter": "None", "instagram": "None", "facebook": "None", "youtube": "None", "website": "None", "summary": "None", "logo": "None", "latitude": 48.85067618180544, "longitude": -123.50385396832532}, "842610552RR0001": {"name": "OUR LADY OF GUADALUPE NON-PROFIT HOME OF WINDSOR INC.", "designationCode": "C", "categoryCode": "09", "address": "591 ALEXANDRINE STREET", "city": "WINDSOR", "province": "ON", "country": "CA", "postalCode": "N8X3B8", "twitter": "None", "instagram": "None", "facebook": "None", "youtube": "None", "website": "None", "summary": "None", "logo": "None", "latitude": 42.28472342879004, "longitude": -83.01004366665711}, "119109817RR0023": {"name": "OUR LADY OF GUADALUPE PARISH", "designationCode": "C", "categoryCode": "38", "address": "834 RAYMO RD", "city": "WINDSOR", "province": "ON", "country": "CA", "postalCode": "N8Y4A6", "twitter": "None", "instagram": "None", "facebook": "None", "youtube": "None", "website": "None", "summary": "None", "logo": "None", "latitude": 42.326196926669894, "longitude": -82.97693328355767}, "119110450RR0128": {"name": "OUR LADY OF GUADALUPE PARISH, KITCHENER", "designationCode": "C", "categoryCode": "38", "address": "85 STRANGE STREET", "city": "KITCHENER", "province": "ON", "country": "CA", "postalCode": "N2G1R4", "twitter": "None", "instagram": "None", "facebook": "None", "youtube": "None", "website": "None", "summary": "None", "logo": "None", "latitude": 43.44862128169553, "longitude": -80.50836635876253}, "867491607RR0001": {"name": "OUR LADY OF HIS MERCY FRIENDSHIP HOUSE APOSTOLATE", "designationCode": "C", "categoryCode": "38", "address": "591 BURN STREET ST            UNIT A", "city": "OTTAWA", "province": "ON", "country": "CA", "postalCode": "K1K1B6", "twitter": "None", "instagram": "None", "facebook": "None", "youtube": "None", "website": "None", "summary": "None", "logo": "None", "latitude": 45.43509992812619, "longitude": -75.63957177352987}, "107876476RR0047": {"name": "OUR LADY OF HOPE PARISH", "designationCode": "C", "categoryCode": "38", "address": "591 BRENNAN RD", "city": "SUDBURY", "province": "ON", "country": "CA", "postalCode": "P3C5L6", "twitter": "None", "instagram": "None", "facebook": "None", "youtube": "None", "website": "None", "summary": "None", "logo": "None", "latitude": 46.48030767954891, "longitude": -81.01674453593944}, "118787746RR0001": {"name": "OUR LADY OF HOPE ROMAN CATHOLIC CHURCH", "designationCode": "C", "categoryCode": "38", "address": "PO BOX 265", "city": "ANOLA", "province": "MB", "country": "CA", "postalCode": "R0E0A0", "twitter": "None", "instagram": "None", "facebook": "None", "youtube": "None", "website": "None", "summary": "None", "logo": "None", "latitude": 49.88506000000007, "longitude": -96.64108999999996}, "119109791RR0020": {"name": "OUR LADY OF HUNGARY CHURCH", "designationCode": "C", "categoryCode": "38", "address": "337 HELLEMS AVENUE", "city": "WELLAND", "province": "ON", "country": "CA", "postalCode": "L3B3C2", "twitter": "None", "instagram": "None", "facebook": "None", "youtube": "None", "website": "None", "summary": "None", "logo": "None", "latitude": 42.985287, "longitude": -79.2466775809335}, "118849470RR0011": {"name": "OUR LADY OF HUNGARY PARISH", "designationCode": "C", "categoryCode": "38", "address": "1810 E 7TH AVE", "city": "VANCOUVER", "province": "BC", "country": "CA", "postalCode": "V5N1S2", "twitter": "None", "instagram": "None", "facebook": "None", "youtube": "None", "website": "None", "summary": "None", "logo": "None", "latitude": 49.26413852120741, "longitude": -123.06758294171618}, "119072726RR0001": {"name": "OUR LADY OF LA SALETTE CHURCH", "designationCode": "C", "categoryCode": "38", "address": "P.O. BOX 40", "city": "FORGET", "province": "SK", "country": "CA", "postalCode": "S0C0X0", "twitter": "None", "instagram": "None", "facebook": "None", "youtube": "None", "website": "None", "summary": "None", "logo": "None", "latitude": 49.650600000000054, "longitude": -102.86934999999994}}