{"892774365RR0001": {"name": "SOHIAN OVERSEAS EDUCATION SOCIETY", "designationCode": "C", "categoryCode": "21", "address": "11626 SUMMIT CRES", "city": "DELTA", "province": "BC", "country": "CA", "postalCode": "V4E2Z5", "twitter": "None", "instagram": "None", "facebook": "None", "youtube": "None", "website": "None", "summary": "None", "logo": "None", "latitude": 49.12281910436259, "longitude": -122.90204940671725}, "141141523RR0001": {"name": "SOHRAE CHURCH", "designationCode": "C", "categoryCode": "37", "address": "70 HILDA AVENUE", "city": "TORONTO", "province": "ON", "country": "CA", "postalCode": "M2M1V5", "twitter": "None", "instagram": "None", "facebook": "None", "youtube": "None", "website": "None", "summary": "None", "logo": "None", "latitude": 43.78714594004275, "longitude": -79.42479267225436}, "119155901RR0001": {"name": "SOIL AND WATER CONSERVATION SOCIETY, ONTARIO", "designationCode": "C", "categoryCode": "59", "address": "ROOM 266, ALEXANDER BUILDING  UNIVERSITY OF GUELPH", "city": "GUELPH", "province": "ON", "country": "CA", "postalCode": "N1G2W1", "twitter": "None", "instagram": "None", "facebook": "None", "youtube": "None", "website": "None", "summary": "None", "logo": "None", "latitude": 43.52788000000004, "longitude": -80.22310999999996}, "130636137RR0001": {"name": "SOIL CONSERVATION COUNCIL OF CANADA", "designationCode": "C", "categoryCode": "59", "address": "PO BOX 733", "city": "BEAUSEJOUR", "province": "MB", "country": "CA", "postalCode": "R0E0C0", "twitter": "None", "instagram": "None", "facebook": "None", "youtube": "None", "website": "None", "summary": "None", "logo": "None", "latitude": 50.061750000000075, "longitude": -96.50519999999995}, "897748679RR0001": {"name": "SOINS PALLIATIFS HORIZON-TIMMINS INC./HORIZON-TIMMINS PALLIATIVE CARE INC.", "designationCode": "C", "categoryCode": "09", "address": "733, AV. ROSS EST", "city": "TIMMINS", "province": "ON", "country": "CA", "postalCode": "P4N8S8", "twitter": "None", "instagram": "None", "facebook": "None", "youtube": "None", "website": "None", "summary": "None", "logo": "None", "latitude": 48.485925952652714, "longitude": -81.31351966007911}, "107992448RR0001": {"name": "SOINTULA COMMUNITY CHURCH", "designationCode": "C", "categoryCode": "39", "address": "P.O. BOX 29", "city": "SOINTULA", "province": "BC", "country": "CA", "postalCode": "V0N3E0", "twitter": "None", "instagram": "None", "facebook": "None", "youtube": "None", "website": "None", "summary": "None", "logo": "None", "latitude": 50.628040000000055, "longitude": -127.01764999999995}, "889756532RR0001": {"name": "SOJOURNERS CAMP & WILDERNESS SOCIETY", "designationCode": "C", "categoryCode": "49", "address": "3452 CARIBOU DRIVE NW", "city": "CALGARY", "province": "AB", "country": "CA", "postalCode": "T2L0S5", "twitter": "None", "instagram": "None", "facebook": "None", "youtube": "None", "website": "None", "summary": "None", "logo": "None", "latitude": 51.08355637996994, "longitude": -114.10972662600268}, "129849899RR0001": {"name": "SOKA GAKKAI INTERNATIONAL ASSOCIATION OF CANADA/ASSOCIATION DE LA SOKA GAKKAI INTERNATIONALE DU CANADA", "designationCode": "C", "categoryCode": "49", "address": "2050 DUFFERIN STREET", "city": "TORONTO", "province": "ON", "country": "CA", "postalCode": "M6E3R6", "twitter": "None", "instagram": "None", "facebook": "None", "youtube": "None", "website": "None", "summary": "None", "logo": "None", "latitude": 43.6866219328294, "longitude": -79.44657516114586}, "127259901RR0001": {"name": "SOLA SCRIPTURA MINISTRIES INTERNATIONAL", "designationCode": "C", "categoryCode": "47", "address": "3-271 SHOEMAKER ST", "city": "KITCHENER", "province": "ON", "country": "CA", "postalCode": "N2E3B3", "twitter": "None", "instagram": "None", "facebook": "None", "youtube": "None", "website": "None", "summary": "None", "logo": "None", "latitude": 43.404520380778, "longitude": -80.46767382993775}, "119155943RR0001": {"name": "SOLAR STAGE", "designationCode": "C", "categoryCode": "22", "address": "176 - 601 CHRISTIE ST", "city": "TORONTO", "province": "ON", "country": "CA", "postalCode": "M6G4C7", "twitter": "None", "instagram": "None", "facebook": "None", "youtube": "None", "website": "None", "summary": "None", "logo": "None", "latitude": 43.67978587067912, "longitude": -79.42488115174038}, "793987488RR0001": {"name": "SOLARA FOUNDATION", "designationCode": "B", "categoryCode": "03", "address": "1800-510 WEST GEORGIA STREET", "city": "VANCOUVER", "province": "BC", "country": "CA", "postalCode": "V6B0M3", "twitter": "None", "instagram": "None", "facebook": "None", "youtube": "None", "website": "None", "summary": "None", "logo": "None", "latitude": 49.281267759207665, "longitude": -123.11633309804196}, "838612729RR0001": {"name": "SOLARIS CENTRE", "designationCode": "C", "categoryCode": "09", "address": "5122, COTE DES NEIGES, CP     49621", "city": "MONTREAL", "province": "QC", "country": "CA", "postalCode": "H3T2A5", "twitter": "None", "instagram": "None", "facebook": "None", "youtube": "None", "website": "None", "summary": "None", "logo": "None", "latitude": 45.495031516504206, "longitude": -73.61944239745507}, "119155950RR0001": {"name": "SOLBREKKEN EVANGELISTIC ASSOCIATION OF CANADA", "designationCode": "C", "categoryCode": "49", "address": "PO BOX 44220 RPO GARSIDE", "city": "EDMONTON", "province": "AB", "country": "CA", "postalCode": "T5V1N6", "twitter": "None", "instagram": "None", "facebook": "None", "youtube": "None", "website": "None", "summary": "None", "logo": "None", "latitude": 53.58790500000005, "longitude": -113.62086349999993}, "119155976RR0001": {"name": "SOLDIERS MEMORIAL HOSPITAL FOUNDATION", "designationCode": "A", "categoryCode": "13", "address": "PO BOX 730", "city": "MIDDLETON", "province": "NS", "country": "CA", "postalCode": "B0S1P0", "twitter": "None", "instagram": "None", "facebook": "None", "youtube": "None", "website": "None", "summary": "None", "logo": "None", "latitude": 45.01449600000005, "longitude": -65.06449099999993}, "885937110RR0001": {"name": "SOLDIERS' MEMORIAL HEALTH AUXILIARY SOCIETY", "designationCode": "C", "categoryCode": "19", "address": "POST OFFICE BOX 24            632 MAIN STREET", "city": "MIDDLETON", "province": "NS", "country": "CA", "postalCode": "B0S1P0", "twitter": "None", "instagram": "None", "facebook": "None", "youtube": "None", "website": "None", "summary": "None", "logo": "None", "latitude": 44.88285468964406, "longitude": -65.16844389620968}, "890107477RR0001": {"name": "SOLEIL DES NATIONS", "designationCode": "C", "categoryCode": "09", "address": "2720 RUE O'GRADY", "city": "ST-LAURENT", "province": "QC", "country": "CA", "postalCode": "H4M2W5", "twitter": "None", "instagram": "None", "facebook": "None", "youtube": "None", "website": "None", "summary": "None", "logo": "None", "latitude": 45.499142357752945, "longitude": -73.69564515955932}, "119156008RR0001": {"name": "SOLEL CONGREGATION OF MISSISSAUGA", "designationCode": "C", "categoryCode": "42", "address": "2399 FOLKWAY DR", "city": "MISSISSAUGA", "province": "ON", "country": "CA", "postalCode": "L5L2M6", "twitter": "None", "instagram": "None", "facebook": "None", "youtube": "None", "website": "None", "summary": "None", "logo": "None", "latitude": 43.54976742498087, "longitude": -79.69136543464705}, "135752822RR0001": {"name": "SOLI-CAN LAC SAINT-JEAN EST (SOLIDARITE-CANCER)", "designationCode": "C", "categoryCode": "09", "address": "1540 BOULEVARD AUGER OUEST", "city": "ALMA", "province": "QC", "country": "CA", "postalCode": "G8C1H8", "twitter": "None", "instagram": "None", "facebook": "None", "youtube": "None", "website": "None", "summary": "None", "logo": "None", "latitude": 48.54710265277865, "longitude": -71.67214667943905}, "832453120RR0001": {"name": "SOLID FOUNDATION CANADA", "designationCode": "B", "categoryCode": "05", "address": "4025 DORCHESTER ROAD          SUITE 226", "city": "NIAGARA FALLS", "province": "ON", "country": "CA", "postalCode": "L2E7K8", "twitter": "None", "instagram": "None", "facebook": "None", "youtube": "None", "website": "None", "summary": "None", "logo": "None", "latitude": 43.11436468581571, "longitude": -79.11181954544361}, "855875282RR0001": {"name": "SOLID GROUND BIBLE STUDY MINISTRIES", "designationCode": "C", "categoryCode": "47", "address": "15 OTTAWA STREET NORTH", "city": "KITCHENER", "province": "ON", "country": "CA", "postalCode": "N2H3K2", "twitter": "None", "instagram": "None", "facebook": "None", "youtube": "None", "website": "None", "summary": "None", "logo": "None", "latitude": 43.44265306659371, "longitude": -80.47019788660637}, "890807621RR0001": {"name": "SOLID ROCK BAPTIST CHAPEL OF MISSISSAUGA", "designationCode": "C", "categoryCode": "31", "address": "3665 HAVEN GLENN", "city": "MISSISSAUGA", "province": "ON", "country": "CA", "postalCode": "L4X1X7", "twitter": "None", "instagram": "None", "facebook": "None", "youtube": "None", "website": "None", "summary": "None", "logo": "None", "latitude": 43.62508279404478, "longitude": -79.59321446000939}, "801405143RR0001": {"name": "SOLID ROCK BAPTIST CHURCH OF ALBERTA", "designationCode": "C", "categoryCode": "39", "address": "284091 TOWNSHIP ROAD 230", "city": "ROCKY VIEW COUNTY", "province": "AB", "country": "CA", "postalCode": "T1X0G9", "twitter": "None", "instagram": "None", "facebook": "None", "youtube": "None", "website": "None", "summary": "None", "logo": "None", "latitude": 50.92136048052524, "longitude": -113.84511368595992}, "861390805RR0001": {"name": "SOLID ROCK CHRISTIAN ASSEMBLY", "designationCode": "C", "categoryCode": "39", "address": "101 - 19 WOODBINE DOWNS BLVD", "city": "ETOBICOKE", "province": "ON", "country": "CA", "postalCode": "M9W6N5", "twitter": "None", "instagram": "None", "facebook": "None", "youtube": "None", "website": "None", "summary": "None", "logo": "None", "latitude": 43.73466236135961, "longitude": -79.6064639498532}, "118865260RR0001": {"name": "SOLID ROCK CHRISTIAN FELLOWSHIP WORLD OUTREACH SOCIETY", "designationCode": "C", "categoryCode": "39", "address": "34371 4TH AVE", "city": "ABBOTSFORD", "province": "BC", "country": "CA", "postalCode": "V2S8B6", "twitter": "None", "instagram": "None", "facebook": "None", "youtube": "None", "website": "None", "summary": "None", "logo": "None", "latitude": 49.006108587589445, "longitude": -122.272308188829}, "118899004RR0001": {"name": "SOLID ROCK COMMUNITY CHURCH INC.", "designationCode": "C", "categoryCode": "39", "address": "PO BOX 1239", "city": "SWAN RIVER", "province": "MB", "country": "CA", "postalCode": "R0L1Z0", "twitter": "None", "instagram": "None", "facebook": "None", "youtube": "None", "website": "None", "summary": "None", "logo": "None", "latitude": 52.11672730414978, "longitude": -101.25989472758229}, "892394578RR0001": {"name": "SOLID ROCK FREE LUTHERAN CHURCH OF CAMROSE", "designationCode": "C", "categoryCode": "32", "address": "4501 52 AVE", "city": "CAMROSE", "province": "AB", "country": "CA", "postalCode": "T4V0W5", "twitter": "None", "instagram": "None", "facebook": "None", "youtube": "None", "website": "None", "summary": "None", "logo": "None", "latitude": 53.024341614981076, "longitude": -112.81784808898358}, "803509496RR0001": {"name": "SOLID ROCK INDIGENOUS MINISTRIES", "designationCode": "C", "categoryCode": "39", "address": "27 GRANTBROOK STREET", "city": "NORTH YORK", "province": "ON", "country": "CA", "postalCode": "M2R2E6", "twitter": "None", "instagram": "None", "facebook": "None", "youtube": "None", "website": "None", "summary": "None", "logo": "None", "latitude": 43.7774093222344, "longitude": -79.4319652159099}, "869897926RR0001": {"name": "SOLID ROCK MINISTRIES INC.", "designationCode": "B", "categoryCode": "39", "address": "125 4TH AVE NE", "city": "PORTAGE LA PRAIRIE", "province": "MB", "country": "CA", "postalCode": "R1N0E9", "twitter": "None", "instagram": "None", "facebook": "None", "youtube": "None", "website": "None", "summary": "None", "logo": "None", "latitude": 49.97952956341378, "longitude": -98.28820673114198}, "899301519RR0001": {"name": "SOLID ROCK WESLEYAN CHURCH", "designationCode": "C", "categoryCode": "39", "address": "111 PARK AVENUE", "city": "MOUNT PEARL", "province": "NL", "country": "CA", "postalCode": "A1N1J6", "twitter": "None", "instagram": "None", "facebook": "None", "youtube": "None", "website": "None", "summary": "None", "logo": "None", "latitude": 47.51966419387533, "longitude": -52.78802018477364}, "863939815RR0001": {"name": "SOLID ROCK YOUTH AND FAMILY FOUNDATION", "designationCode": "C", "categoryCode": "09", "address": "4517 HARVEST GREEN", "city": "TABER", "province": "AB", "country": "CA", "postalCode": "T1G1A1", "twitter": "None", "instagram": "None", "facebook": "None", "youtube": "None", "website": "None", "summary": "None", "logo": "None", "latitude": 49.776839161809676, "longitude": -112.15816334678865}, "892192444RR0001": {"name": "SOLIDARIT\u00c9 BR\u00c9SIL-OUTAOUAIS (SBO)", "designationCode": "C", "categoryCode": "59", "address": "63 RUE PERRAS", "city": "GATINEAU", "province": "QC", "country": "CA", "postalCode": "J8Y6K3", "twitter": "None", "instagram": "None", "facebook": "None", "youtube": "None", "website": "None", "summary": "None", "logo": "None", "latitude": 45.458326855387014, "longitude": -75.76162543363745}, "873575476RR0001": {"name": "SOLIDARIT\u00c9 ETHNIQUE R\u00c9GIONALE DE LA YAMASKA", "designationCode": "C", "categoryCode": "09", "address": "369, RUE SAINT-JACQUES", "city": "GRANBY", "province": "QC", "country": "CA", "postalCode": "J2G3N5", "twitter": "None", "instagram": "None", "facebook": "None", "youtube": "None", "website": "None", "summary": "None", "logo": "None", "latitude": 45.399144329476414, "longitude": -72.73442749832655}, "887802981RR0001": {"name": "SOLIDARIT\u00c9 LAURENTIDES - AM\u00c9RIQUE CENTRALE (SLAM)", "designationCode": "C", "categoryCode": "09", "address": "347 RUE DU PALAIS", "city": "SAINT-JEROME", "province": "QC", "country": "CA", "postalCode": "J7Z1X9", "twitter": "None", "instagram": "None", "facebook": "None", "youtube": "None", "website": "None", "summary": "None", "logo": "None", "latitude": 45.77814261060737, "longitude": -73.99915261485015}, "138562806RR0001": {"name": "SOLIDARIT\u00c9 R\u00c9GIONALE D'AIDE ET D'ACCOMPAGNEMENT POUR LA D\u00c9FENSE DES DROITS EN SANT\u00c9 MENTALE DU CENTRE-DU-QU\u00c9BEC/MAURICIE", "designationCode": "C", "categoryCode": "09", "address": "1060 SAINT-FRANCOIS-XAVIER    BUREAU 340", "city": "TROIS-RIVIERES", "province": "QC", "country": "CA", "postalCode": "G9A1R8", "twitter": "None", "instagram": "None", "facebook": "None", "youtube": "None", "website": "None", "summary": "None", "logo": "None", "latitude": 46.35088687067911, "longitude": -72.54580268148787}, "119156016RR0001": {"name": "SOLIDARITE BEAUCE-SARTIGAN INC.", "designationCode": "C", "categoryCode": "09", "address": "12523,25E AVENUE", "city": "ST-GEORGES", "province": "QC", "country": "CA", "postalCode": "G5Y5N6", "twitter": "None", "instagram": "None", "facebook": "None", "youtube": "None", "website": "None", "summary": "None", "logo": "None", "latitude": 46.12847674493622, "longitude": -70.6547927149576}, "107992703RR0001": {"name": "SOLIDARITE DE PARENTS DE PERSONNES HANDICAPEES INC.", "designationCode": "C", "categoryCode": "09", "address": "5199, RUE SHERBROOKE E        PORTE 4780", "city": "MONTREAL", "province": "QC", "country": "CA", "postalCode": "H1T3X2", "twitter": "None", "instagram": "None", "facebook": "None", "youtube": "None", "website": "None", "summary": "None", "logo": "None", "latitude": 45.56789273229268, "longitude": -73.55291133089138}, "886257799RR0001": {"name": "SOLIDARITE DEUIL D'ENFANT DE QUEBEC", "designationCode": "C", "categoryCode": "09", "address": "C.P. 9309", "city": "STE-FOY", "province": "QC", "country": "CA", "postalCode": "G1V4B5", "twitter": "None", "instagram": "None", "facebook": "None", "youtube": "None", "website": "None", "summary": "None", "logo": "None", "latitude": 46.78481673911341, "longitude": -71.28547031164715}, "893568519RR0001": {"name": "SOLIDARITE FAMILLES DUBERGER-LES SAULES", "designationCode": "C", "categoryCode": "09", "address": "2 - 6800 RUE DE PERTUIS", "city": "QUEBEC", "province": "QC", "country": "CA", "postalCode": "G2C1G2", "twitter": "None", "instagram": "None", "facebook": "None", "youtube": "None", "website": "None", "summary": "None", "logo": "None", "latitude": 46.82591501413826, "longitude": -71.33587427557867}, "141076349RR0001": {"name": "SOLIDARITE JEUNESSE", "designationCode": "C", "categoryCode": "47", "address": "101 RUE PARENT", "city": "OTTAWA", "province": "ON", "country": "CA", "postalCode": "K1N7B2", "twitter": "None", "instagram": "None", "facebook": "None", "youtube": "None", "website": "None", "summary": "None", "logo": "None", "latitude": 45.43045412629113, "longitude": -75.69485538646215}, "867399842RR0001": {"name": "SOLIDARITE JUSTICE ET FOI PETITE NATION", "designationCode": "C", "categoryCode": "09", "address": "67 MONT\u00c9E SAINT-ANDR\u00c9", "city": "SAINT-SIXTE", "province": "QC", "country": "CA", "postalCode": "J0X3B0", "twitter": "None", "instagram": "None", "facebook": "None", "youtube": "None", "website": "None", "summary": "None", "logo": "None", "latitude": 45.68962942829908, "longitude": -75.1232659640441}, "141463703RR0001": {"name": "SOLIDARITE MERCIER-EST", "designationCode": "C", "categoryCode": "09", "address": "8613 RUE SAINTE-CLAIRE", "city": "MONTR\u00c9AL", "province": "QC", "country": "CA", "postalCode": "H1L1Y1", "twitter": "None", "instagram": "None", "facebook": "None", "youtube": "None", "website": "None", "summary": "None", "logo": "None", "latitude": 45.60174014544972, "longitude": -73.52459308595382}, "892906157RR0001": {"name": "SOLIDARITE MISERE MONDE", "designationCode": "B", "categoryCode": "03", "address": "616 DU MANOIR", "city": "REPENTIGNY", "province": "QC", "country": "CA", "postalCode": "J6A3A2", "twitter": "None", "instagram": "None", "facebook": "None", "youtube": "None", "website": "None", "summary": "None", "logo": "None", "latitude": 45.74871398167813, "longitude": -73.43376732996734}, "863989372RR0001": {"name": "SOLIDARITE MONTEREGIE AMERIQUE CENTRALE (SMAC)", "designationCode": "C", "categoryCode": "09", "address": "200, BOULEVARD RICHELIEU", "city": "RICHELIEU", "province": "QC", "country": "CA", "postalCode": "J3L3R4", "twitter": "None", "instagram": "None", "facebook": "None", "youtube": "None", "website": "None", "summary": "None", "logo": "None", "latitude": 45.4431497205262, "longitude": -73.2531830491372}, "119108942RR0001": {"name": "SOLIDARITE NORD-SUD DES BOIS-FRANCS INC.", "designationCode": "C", "categoryCode": "59", "address": "59 RUE MONFETTE               LOCAL 106", "city": "VICTORIAVILLE", "province": "QC", "country": "CA", "postalCode": "G6P1J8", "twitter": "None", "instagram": "None", "facebook": "None", "youtube": "None", "website": "None", "summary": "None", "logo": "None", "latitude": 46.06164779188039, "longitude": -71.9668892342031}, "886172055RR0001": {"name": "SOLIDARITE SOCIALE DE RAWDON", "designationCode": "C", "categoryCode": "09", "address": "3625 QUEEN # 2", "city": "RAWDON", "province": "QC", "country": "CA", "postalCode": "J0K1S0", "twitter": "None", "instagram": "None", "facebook": "None", "youtube": "None", "website": "None", "summary": "None", "logo": "None", "latitude": 46.04175418177634, "longitude": -73.70616053416222}, "858047236RR0001": {"name": "SOLIDARITE SUD (SOL-SUD)", "designationCode": "C", "categoryCode": "09", "address": "C.P. 9267 - SUCC SAINTE-FOY", "city": "QU\u00c9BEC", "province": "QC", "country": "CA", "postalCode": "G1V4B1", "twitter": "None", "instagram": "None", "facebook": "None", "youtube": "None", "website": "None", "summary": "None", "logo": "None", "latitude": 46.78481673911341, "longitude": -71.28547031164715}, "844335760RR0001": {"name": "SOLIDARITY IN ACTION INCORPORATED", "designationCode": "C", "categoryCode": "09", "address": "2412 GLENWOOD SCHOOL DRIVE", "city": "BURLINGTON", "province": "ON", "country": "CA", "postalCode": "L7R3S1", "twitter": "None", "instagram": "None", "facebook": "None", "youtube": "None", "website": "None", "summary": "None", "logo": "None", "latitude": 43.34841563751521, "longitude": -79.80399651788917}, "884199605RR0001": {"name": "SOLIDARQC", "designationCode": "C", "categoryCode": "02", "address": "512, RUE DE L'\u00c9GLISE", "city": "\u00ceLE BIZARD", "province": "QC", "country": "CA", "postalCode": "H9C1G9", "twitter": "None", "instagram": "None", "facebook": "None", "youtube": "None", "website": "None", "summary": "None", "logo": "None", "latitude": 45.48941529695896, "longitude": -73.88255384404735}, "131274474RR0001": {"name": "SOLITUDE MYRIAM INC", "designationCode": "C", "categoryCode": "49", "address": "11120 ROUTE ARTHUR SAUVE", "city": "MIRABEL", "province": "QC", "country": "CA", "postalCode": "J7N2T9", "twitter": "None", "instagram": "None", "facebook": "None", "youtube": "None", "website": "None", "summary": "None", "logo": "None", "latitude": 45.60370301884148, "longitude": -74.05870343092481}, "130838287RR0001": {"name": "SOLITUDE ST-JOSEPH INC", "designationCode": "C", "categoryCode": "49", "address": "6 RUE ALBERT", "city": "VICTORIAVILLE", "province": "QC", "country": "CA", "postalCode": "G6P3L4", "twitter": "None", "instagram": "None", "facebook": "None", "youtube": "None", "website": "None", "summary": "None", "logo": "None", "latitude": 46.05773881822368, "longitude": -71.96104058523268}, "868878778RR0001": {"name": "SOLITUDES WILDLIFE REHABILITATION CENTRE (ONTARIO)", "designationCode": "C", "categoryCode": "54", "address": "P O BOX 29                    529 STONEWAY ROAD", "city": "KEARNEY", "province": "ON", "country": "CA", "postalCode": "P0A1M0", "twitter": "None", "instagram": "None", "facebook": "None", "youtube": "None", "website": "None", "summary": "None", "logo": "None", "latitude": 45.58406010202814, "longitude": -79.1899044653487}, "896440617RR0001": {"name": "SOLO COLLECTIVE THEATRE SOCIETY", "designationCode": "C", "categoryCode": "22", "address": "4220 WINDSOR ST", "city": "VANCOUVER", "province": "BC", "country": "CA", "postalCode": "V5V4P4", "twitter": "None", "instagram": "None", "facebook": "None", "youtube": "None", "website": "None", "summary": "None", "logo": "None", "latitude": 49.24738786372555, "longitude": -123.08387993280073}, "129886107RR0001": {"name": "SOLO DEO MONASTERY", "designationCode": "C", "categoryCode": "46", "address": "3300 MONASTERY RD", "city": "DUNCAN", "province": "BC", "country": "CA", "postalCode": "V9L6M9", "twitter": "None", "instagram": "None", "facebook": "None", "youtube": "None", "website": "None", "summary": "None", "logo": "None", "latitude": 48.6835573867428, "longitude": -123.66878269813203}, "880974134RR0001": {"name": "SOLO SWIMS OF ONTARIO INC.", "designationCode": "C", "categoryCode": "59", "address": "1027 NORTH SERVICE RD", "city": "STONEY CREEK", "province": "ON", "country": "CA", "postalCode": "L8E5C8", "twitter": "None", "instagram": "None", "facebook": "None", "youtube": "None", "website": "None", "summary": "None", "logo": "None", "latitude": 43.22424403805738, "longitude": -79.66509427947382}, "870582285RR0001": {"name": "SOLOMAN BROTHER'S CHRISTIAN MINISTRY", "designationCode": "C", "categoryCode": "49", "address": "53 SPRING GARDEN AVE. STE.204", "city": "NORTH YORK", "province": "ON", "country": "CA", "postalCode": "M2N3G1", "twitter": "None", "instagram": "None", "facebook": "None", "youtube": "None", "website": "None", "summary": "None", "logo": "None", "latitude": 43.76472483484345, "longitude": -79.40953559602404}, "119156099RR0001": {"name": "SOLOMON BENEVOLENT FOUNDATION", "designationCode": "C", "categoryCode": "10", "address": "214A EVERGREEN DRIVE", "city": "PORT MOODY", "province": "BC", "country": "CA", "postalCode": "V3H1R9", "twitter": "None", "instagram": "None", "facebook": "None", "youtube": "None", "website": "None", "summary": "None", "logo": "None", "latitude": 49.280121897558175, "longitude": -122.8745361576644}, "845625003RR0001": {"name": "SOLOMON MINISTRY", "designationCode": "C", "categoryCode": "47", "address": "PO BOX 23544 RPO CENTENNIAL", "city": "BRAMPTON", "province": "ON", "country": "CA", "postalCode": "L6V4J4", "twitter": "None", "instagram": "None", "facebook": "None", "youtube": "None", "website": "None", "summary": "None", "logo": "None", "latitude": 43.703729962779406, "longitude": -79.75760999495095}, "891429441RR0001": {"name": "SOLOR LUTHERAN CHURCH", "designationCode": "C", "categoryCode": "32", "address": "BOX 913", "city": "CHINOOK", "province": "AB", "country": "CA", "postalCode": "T0J0R0", "twitter": "None", "instagram": "None", "facebook": "None", "youtube": "None", "website": "None", "summary": "None", "logo": "None", "latitude": 51.44957000000005, "longitude": -110.91905999999994}, "137375184RR0001": {"name": "SOLUN THEATRE SOCIETY", "designationCode": "C", "categoryCode": "21", "address": "6306 1ERE AVENUE", "city": "MONTREAL", "province": "QC", "country": "CA", "postalCode": "H1Y3A8", "twitter": "None", "instagram": "None", "facebook": "None", "youtube": "None", "website": "None", "summary": "None", "logo": "None", "latitude": 45.549380840671816, "longitude": -73.58837499391181}, "868913575RR0001": {"name": "SOMALI CANADIAN EDUCATION AND RURAL DEVELOPMENT ORGANIZATION(SCERDO)", "designationCode": "C", "categoryCode": "21", "address": "12052 FORT ROAD", "city": "EDMONTON", "province": "AB", "country": "CA", "postalCode": "T5B4H1", "twitter": "None", "instagram": "None", "facebook": "None", "youtube": "None", "website": "None", "summary": "None", "logo": "None", "latitude": 53.57492689869582, "longitude": -113.46021006731483}, "890867567RR0001": {"name": "SOMALI CENTRE FOR FAMILY SERVICE", "designationCode": "C", "categoryCode": "09", "address": "1719 BANK ST                  SUITE 200", "city": "OTTAWA", "province": "ON", "country": "CA", "postalCode": "K1V7Z4", "twitter": "None", "instagram": "None", "facebook": "None", "youtube": "None", "website": "None", "summary": "None", "logo": "None", "latitude": 45.37435675910316, "longitude": -75.66530112262713}, "856550306RR0001": {"name": "SOMALI CHRISTIAN MINISTRIES", "designationCode": "C", "categoryCode": "47", "address": "P.O. BOX 30239                123 REXDALE BLVD", "city": "ETOBICOKE", "province": "ON", "country": "CA", "postalCode": "M9W0B1", "twitter": "None", "instagram": "None", "facebook": "None", "youtube": "None", "website": "None", "summary": "None", "logo": "None", "latitude": 43.71190286311995, "longitude": -79.56542562917667}, "136380904RR0001": {"name": "SOMALI ISLAMIC SOCIETY OF CANADA", "designationCode": "C", "categoryCode": "09", "address": "16 BETHREDGE RD", "city": "ETOBICOKE", "province": "ON", "country": "CA", "postalCode": "M9W1N1", "twitter": "None", "instagram": "None", "facebook": "None", "youtube": "None", "website": "None", "summary": "None", "logo": "None", "latitude": 43.708493460470756, "longitude": -79.56872044463039}, "137747481RR0001": {"name": "SOMALI RELIEF NETWORK OF NORTH AMERICA", "designationCode": "C", "categoryCode": "09", "address": "3C - 15 CLUB GOLFWAY", "city": "NORTH YORK", "province": "ON", "country": "CA", "postalCode": "M3C3B1", "twitter": "None", "instagram": "None", "facebook": "None", "youtube": "None", "website": "None", "summary": "None", "logo": "None", "latitude": 43.71848968581569, "longitude": -79.32548227422235}, "132938051RR0001": {"name": "SOMANG CHRISTIAN REFORMED CHURCH", "designationCode": "C", "categoryCode": "31", "address": "11520 ELLERSLIE RD", "city": "EDMONTON", "province": "AB", "country": "CA", "postalCode": "T6W0B7", "twitter": "None", "instagram": "None", "facebook": "None", "youtube": "None", "website": "None", "summary": "None", "logo": "None", "latitude": 53.42489533351483, "longitude": -113.5231963936459}, "821098878RR0001": {"name": "SOMAR FAMILY FOUNDATION", "designationCode": "B", "categoryCode": "03", "address": "111 PUMPVALLEY COURT SW", "city": "CALGARY", "province": "AB", "country": "CA", "postalCode": "T2V5E2", "twitter": "None", "instagram": "None", "facebook": "None", "youtube": "None", "website": "None", "summary": "None", "logo": "None", "latitude": 50.96791148211082, "longitude": -114.09644219608748}, "888446663RR0001": {"name": "SOMBRA TOWNSHIP CHILD CARE", "designationCode": "C", "categoryCode": "01", "address": "3536 ST.CLAIR PARKWAY", "city": "SOMBRA", "province": "ON", "country": "CA", "postalCode": "N0P2H0", "twitter": "None", "instagram": "None", "facebook": "None", "youtube": "None", "website": "None", "summary": "None", "logo": "None", "latitude": 42.70842549151722, "longitude": -82.48006025249629}, "119156123RR0001": {"name": "SOMBRA TOWNSHIP MUSEUM", "designationCode": "C", "categoryCode": "50", "address": "PO BOX 76", "city": "SOMBRA", "province": "ON", "country": "CA", "postalCode": "N0P2H0", "twitter": "None", "instagram": "None", "facebook": "None", "youtube": "None", "website": "None", "summary": "None", "logo": "None", "latitude": 42.71417000000008, "longitude": -82.47841999999997}, "890127673RR0001": {"name": "SOMBRILLA INTERNATIONAL DEVELOPMENT SOCIETY", "designationCode": "C", "categoryCode": "09", "address": "11424-77 AVENUE", "city": "EDMONTON", "province": "AB", "country": "CA", "postalCode": "T6G0L8", "twitter": "None", "instagram": "None", "facebook": "None", "youtube": "None", "website": "None", "summary": "None", "logo": "None", "latitude": 53.51323252596792, "longitude": -113.52698083236193}, "130722994RR0001": {"name": "SOME OTHER SOLUTIONS SOCIETY FOR CRISIS PREVENTION", "designationCode": "C", "categoryCode": "09", "address": "9908 MANNING AVE", "city": "FORT MCMURRAY", "province": "AB", "country": "CA", "postalCode": "T9H2B9", "twitter": "None", "instagram": "None", "facebook": "None", "youtube": "None", "website": "None", "summary": "None", "logo": "None", "latitude": 56.72787991369948, "longitude": -111.37883955479269}, "136681012RR0001": {"name": "SOME PLACE SPECIAL CHRISTIAN DAY CARE AND ACADEMY", "designationCode": "C", "categoryCode": "01", "address": "22 HERITAGE ROAD", "city": "MARKHAM", "province": "ON", "country": "CA", "postalCode": "L3P1M4", "twitter": "None", "instagram": "None", "facebook": "None", "youtube": "None", "website": "None", "summary": "None", "logo": "None", "latitude": 43.870342114663025, "longitude": -79.2830762431472}, "133967505RR0001": {"name": "SOMENOS MARSH WILDLIFE SOCIETY", "designationCode": "C", "categoryCode": "54", "address": "BOX 711", "city": "DUNCAN", "province": "BC", "country": "CA", "postalCode": "V9L3Y1", "twitter": "None", "instagram": "None", "facebook": "None", "youtube": "None", "website": "None", "summary": "None", "logo": "None", "latitude": 48.77908800000006, "longitude": -123.70739299999994}, "100405299RR0001": {"name": "SOMERSET ACADEMY", "designationCode": "C", "categoryCode": "20", "address": "7700 BRIMLEY RD", "city": "MARKHAM", "province": "ON", "country": "CA", "postalCode": "L3R0E5", "twitter": "None", "instagram": "None", "facebook": "None", "youtube": "None", "website": "None", "summary": "None", "logo": "None", "latitude": 43.84479613682273, "longitude": -79.29430811330671}, "119156172RR0001": {"name": "SOMERSET AND AREA ELDERLY AND INFIRM PERSONS HOUSING CO INCORPORATED", "designationCode": "C", "categoryCode": "01", "address": "BOX 354", "city": "SOMERSET", "province": "MB", "country": "CA", "postalCode": "R0G2L0", "twitter": "None", "instagram": "None", "facebook": "None", "youtube": "None", "website": "None", "summary": "None", "logo": "None", "latitude": 49.411550000000034, "longitude": -98.65896999999995}, "119156180RR0001": {"name": "SOMERSET BIBLE CHAPEL", "designationCode": "C", "categoryCode": "39", "address": "BOX 67", "city": "SOMERSET", "province": "MB", "country": "CA", "postalCode": "R0G2L0", "twitter": "None", "instagram": "None", "facebook": "None", "youtube": "None", "website": "None", "summary": "None", "logo": "None", "latitude": 49.411550000000034, "longitude": -98.65896999999995}, "871151718RR0001": {"name": "SOMERSET FOUNDATION", "designationCode": "B", "categoryCode": "03", "address": "510-5525 WEST BLVD", "city": "VANCOUVER", "province": "BC", "country": "CA", "postalCode": "V6M3W6", "twitter": "None", "instagram": "None", "facebook": "None", "youtube": "None", "website": "None", "summary": "None", "logo": "None", "latitude": 49.23618429704238, "longitude": -123.15559426785543}, "892219445RR0001": {"name": "SOMERSET HOME AND SCHOOL ASSOCIATION", "designationCode": "C", "categoryCode": "21", "address": "205 PARKER CONDON RD.", "city": "BERWICK", "province": "NS", "country": "CA", "postalCode": "B0P1E0", "twitter": "None", "instagram": "None", "facebook": "None", "youtube": "None", "website": "None", "summary": "None", "logo": "None", "latitude": 45.058452252870744, "longitude": -64.7479558909342}, "119156206RR0001": {"name": "SOMERSET PRE-SCHOOL INC.", "designationCode": "C", "categoryCode": "01", "address": "84 ROPEWALK ROAD", "city": "SAINT JOHN", "province": "NB", "country": "CA", "postalCode": "E2K2R1", "twitter": "None", "instagram": "None", "facebook": "None", "youtube": "None", "website": "None", "summary": "None", "logo": "None", "latitude": 45.286337507040464, "longitude": -66.08181445161352}, "119156214RR0001": {"name": "SOMERSET RENDEZ-VOUS CENTRE INC.", "designationCode": "A", "categoryCode": "56", "address": "400 - 3RD STREET              BOX 283", "city": "SOMERSET", "province": "MB", "country": "CA", "postalCode": "R0G2L0", "twitter": "None", "instagram": "None", "facebook": "None", "youtube": "None", "website": "None", "summary": "None", "logo": "None", "latitude": 49.40872912553798, "longitude": -98.65889776833276}, "119156222RR0001": {"name": "SOMERSET VILLA INC.", "designationCode": "C", "categoryCode": "01", "address": "BOX 203", "city": "SOMERSET", "province": "MB", "country": "CA", "postalCode": "R0G2L0", "twitter": "None", "instagram": "None", "facebook": "None", "youtube": "None", "website": "None", "summary": "None", "logo": "None", "latitude": 49.411550000000034, "longitude": -98.65896999999995}, "118881671RR0001": {"name": "SOMERSET WEST COMMUNITY HEALTH CENTRE", "designationCode": "C", "categoryCode": "01", "address": "55, ECCLES STREET", "city": "OTTAWA", "province": "ON", "country": "CA", "postalCode": "K1R6S3", "twitter": "None", "instagram": "None", "facebook": "None", "youtube": "None", "website": "None", "summary": "None", "logo": "None", "latitude": 45.408891015840375, "longitude": -75.70981059146509}, "863538765RR0001": {"name": "SOMETHING SPECIAL CHILDREN'S CENTRE", "designationCode": "C", "categoryCode": "01", "address": "10 CHAPMAN ST", "city": "KINGSTON", "province": "ON", "country": "CA", "postalCode": "K7K6B8", "twitter": "None", "instagram": "None", "facebook": "None", "youtube": "None", "website": "None", "summary": "None", "logo": "None", "latitude": 44.23409890236827, "longitude": -76.49226687446274}, "140768524RR0001": {"name": "SOMMERFELD CHARITABLE TRUST", "designationCode": "B", "categoryCode": "39", "address": "780 SASKATCHEWAN AVE W", "city": "PORTAGE LA PRAIRIE", "province": "MB", "country": "CA", "postalCode": "R1N0M7", "twitter": "None", "instagram": "None", "facebook": "None", "youtube": "None", "website": "None", "summary": "None", "logo": "None", "latitude": 49.97373494820344, "longitude": -98.30132080652011}, "119156289RR0001": {"name": "SON LIGHT MISSIONS CANADA", "designationCode": "C", "categoryCode": "47", "address": "BOX 527", "city": "MILVERTON", "province": "ON", "country": "CA", "postalCode": "N0K1M0", "twitter": "None", "instagram": "None", "facebook": "None", "youtube": "None", "website": "None", "summary": "None", "logo": "None", "latitude": 43.567990000000066, "longitude": -80.92049999999995}, "118818491RR0063": {"name": "SON VALLEY FELLOWSHIP SEVENTH-DAY ADVENTIST CHURCH", "designationCode": "C", "categoryCode": "41", "address": "PO 1000", "city": "ABBOTSFORD", "province": "BC", "country": "CA", "postalCode": "V2S4P5", "twitter": "None", "instagram": "None", "facebook": "None", "youtube": "None", "website": "None", "summary": "None", "logo": "None", "latitude": 49.03851300000005, "longitude": -122.29441549999993}, "891228702RR0001": {"name": "SONBOW MINISTRIES", "designationCode": "C", "categoryCode": "39", "address": "276 FLAT ROAD                 R.R. #1", "city": "DACRE", "province": "ON", "country": "CA", "postalCode": "K0J1N0", "twitter": "None", "instagram": "None", "facebook": "None", "youtube": "None", "website": "None", "summary": "None", "logo": "None", "latitude": 45.3361842640271, "longitude": -76.90521021913531}, "892169319RR0001": {"name": "SONGBIRDS ONLY AVIAN REHABILITATION", "designationCode": "C", "categoryCode": "54", "address": "PO.BOX 75", "city": "ROCKWOOD", "province": "ON", "country": "CA", "postalCode": "N0B2K0", "twitter": "None", "instagram": "None", "facebook": "None", "youtube": "None", "website": "None", "summary": "None", "logo": "None", "latitude": 43.61851000000007, "longitude": -80.14375999999999}, "898205018RR0001": {"name": "SONGS OF DELIVERANCE MINISTRIES ASSOCIATION OF ALBERTA", "designationCode": "C", "categoryCode": "47", "address": "7546-SPEAKER WAY", "city": "EDMONTON", "province": "AB", "country": "CA", "postalCode": "T6R0P1", "twitter": "None", "instagram": "None", "facebook": "None", "youtube": "None", "website": "None", "summary": "None", "logo": "None", "latitude": 53.441800772981615, "longitude": -113.57245998837189}, "132361759RR0001": {"name": "SONGWRITERS ASSOCIATION OF CANADA", "designationCode": "C", "categoryCode": "81", "address": "41 VALLEYBROOK DRIVE", "city": "TORONTO", "province": "ON", "country": "CA", "postalCode": "M3B2S6", "twitter": "None", "instagram": "None", "facebook": "None", "youtube": "None", "website": "None", "summary": "None", "logo": "None", "latitude": 43.75903719066312, "longitude": -79.35403702741114}, "888632270RR0001": {"name": "SONIA'S SCHOOL OF UKRAINIAN DANCE INC.", "designationCode": "C", "categoryCode": "20", "address": "PO BOX 694", "city": "WARMAN", "province": "SK", "country": "CA", "postalCode": "S0K4S0", "twitter": "None", "instagram": "None", "facebook": "None", "youtube": "None", "website": "None", "summary": "None", "logo": "None", "latitude": 52.31985000000006, "longitude": -106.58322349999993}, "884849951RR0001": {"name": "SONLIFE COMMUNITY CHURCH", "designationCode": "C", "categoryCode": "36", "address": "152 WINDMILL RD", "city": "DARTMOUTH", "province": "NS", "country": "CA", "postalCode": "B3A1E6", "twitter": "None", "instagram": "None", "facebook": "None", "youtube": "None", "website": "None", "summary": "None", "logo": "None", "latitude": 44.66896174799466, "longitude": -63.582973451266824}, "119233047RR0001": {"name": "SONLIGHT CHRISTIAN REFORMED CHURCH INC.", "designationCode": "C", "categoryCode": "39", "address": "139 CANNON ST", "city": "REGINA", "province": "SK", "country": "CA", "postalCode": "S4N4L3", "twitter": "None", "instagram": "None", "facebook": "None", "youtube": "None", "website": "None", "summary": "None", "logo": "None", "latitude": 50.45608732944774, "longitude": -104.55253736147517}, "887846061RR0001": {"name": "SONLIGHT MINISTRIES", "designationCode": "C", "categoryCode": "39", "address": "104-8900 CITATION DRIVE", "city": "RICHMOND", "province": "BC", "country": "CA", "postalCode": "V6Y3A3", "twitter": "None", "instagram": "None", "facebook": "None", "youtube": "None", "website": "None", "summary": "None", "logo": "None", "latitude": 49.165019725165955, "longitude": -123.12513898400023}, "887500999RR0001": {"name": "SONORA BAPTIST CHURCH", "designationCode": "C", "categoryCode": "31", "address": "RR#1, 1871 SONORA ROAD", "city": "SHERBROOK", "province": "NS", "country": "CA", "postalCode": "B0J3C0", "twitter": "None", "instagram": "None", "facebook": "None", "youtube": "None", "website": "None", "summary": "None", "logo": "None", "latitude": 45.09803846748124, "longitude": -61.958053612326225}, "119156347RR0001": {"name": "SONRISE CHRISTIAN ACADEMY", "designationCode": "C", "categoryCode": "20", "address": "58 JOHNSON ST.", "city": "PICTON", "province": "ON", "country": "CA", "postalCode": "K0K2T0", "twitter": "None", "instagram": "None", "facebook": "None", "youtube": "None", "website": "None", "summary": "None", "logo": "None", "latitude": 44.01431202150524, "longitude": -77.14723290541205}, "133287938RR0001": {"name": "SONRISE CHRISTIAN CENTRE", "designationCode": "C", "categoryCode": "39", "address": "BOX 20249", "city": "WHITEHORSE", "province": "YT", "country": "CA", "postalCode": "Y1A7A2", "twitter": "None", "instagram": "None", "facebook": "None", "youtube": "None", "website": "None", "summary": "None", "logo": "None", "latitude": 60.72084600000005, "longitude": -135.05323399999992}, "855920880RR0001": {"name": "SONRISE CHRISTIAN FELLOWSHIP", "designationCode": "C", "categoryCode": "39", "address": "148 STEWARD PL", "city": "PENTICTON", "province": "BC", "country": "CA", "postalCode": "V2A3Y9", "twitter": "None", "instagram": "None", "facebook": "None", "youtube": "None", "website": "None", "summary": "None", "logo": "None", "latitude": 49.48456349125743, "longitude": -119.56849875852622}, "107993404RR0001": {"name": "SONRISE CHRISTIAN REFORMED CHURCH", "designationCode": "C", "categoryCode": "39", "address": "BOX 4354", "city": "PONOKA", "province": "AB", "country": "CA", "postalCode": "T4J1R7", "twitter": "None", "instagram": "None", "facebook": "None", "youtube": "None", "website": "None", "summary": "None", "logo": "None", "latitude": 52.67526900000006, "longitude": -113.58076399999993}, "119156388RR0001": {"name": "SONRISE COMMUNITY BAPTIST CHURCH", "designationCode": "C", "categoryCode": "31", "address": "7015-32 AVENUE N.E.", "city": "CALGARY", "province": "AB", "country": "CA", "postalCode": "T1Y6T9", "twitter": "None", "instagram": "None", "facebook": "None", "youtube": "None", "website": "None", "summary": "None", "logo": "None", "latitude": 51.081438532315886, "longitude": -113.93091008381903}, "135140069RR0001": {"name": "SONRISE FOUNDATION", "designationCode": "B", "categoryCode": "03", "address": "1631 DICKSON AVENUE           SUITE 1700", "city": "KELOWNA", "province": "BC", "country": "CA", "postalCode": "V1Y0B5", "twitter": "None", "instagram": "None", "facebook": "None", "youtube": "None", "website": "None", "summary": "None", "logo": "None", "latitude": 49.88064051067581, "longitude": -119.46192316763806}}