{"897270195RR0001": {"name": "THE MICAH MISSION INC.", "designationCode": "C", "categoryCode": "49", "address": "226 AVE V SOUTH", "city": "SASKATOON", "province": "SK", "country": "CA", "postalCode": "S7M3E3", "twitter": "None", "instagram": "None", "facebook": "None", "youtube": "None", "website": "None", "summary": "None", "logo": "None", "latitude": 52.12674899999999, "longitude": -106.70418627944517}, "877833327RR0001": {"name": "THE MICHAEL AND RITA BRAUN CHARITABLE FOUNDATION", "designationCode": "B", "categoryCode": "03", "address": "5 VANLEY CRESCENT", "city": "NORTH YORK", "province": "ON", "country": "CA", "postalCode": "M3J2B7", "twitter": "None", "instagram": "None", "facebook": "None", "youtube": "None", "website": "None", "summary": "None", "logo": "None", "latitude": 43.75980884537503, "longitude": -79.47718544281271}, "864919105RR0001": {"name": "THE MICHAEL AND SONJA KOERNER CHARITABLE FOUNDATION", "designationCode": "B", "categoryCode": "03", "address": "200 BAY STREET, SUITE 2910    ROYAL BANK PLAZA, SOUTH TOWER", "city": "TORONTO", "province": "ON", "country": "CA", "postalCode": "M5J2J2", "twitter": "None", "instagram": "None", "facebook": "None", "youtube": "None", "website": "None", "summary": "None", "logo": "None", "latitude": 43.64868300000006, "longitude": -79.38544399999994}, "888359445RR0001": {"name": "THE MICHAEL J. FOX THEATRE SOCIETY", "designationCode": "C", "categoryCode": "22", "address": "5325 KINCAID ST", "city": "BURNABY", "province": "BC", "country": "CA", "postalCode": "V5G1W2", "twitter": "None", "instagram": "None", "facebook": "None", "youtube": "None", "website": "None", "summary": "None", "logo": "None", "latitude": 49.24844748268774, "longitude": -122.98697163918865}, "889539706RR0001": {"name": "THE MICHAEL R. SHAW OUTDOOR DEVELOPMENT FOUNDATION", "designationCode": "B", "categoryCode": "03", "address": "155 WELLINGTON ST W, 20TH FL. ROYAL TRUST CORP. #04043", "city": "TORONTO", "province": "ON", "country": "CA", "postalCode": "M5V3K7", "twitter": "None", "instagram": "None", "facebook": "None", "youtube": "None", "website": "None", "summary": "None", "logo": "None", "latitude": 43.64596500000006, "longitude": -79.38562849999994}, "890287618RR0001": {"name": "THE MICHAEL YOUNG FAMILY FOUNDATION", "designationCode": "B", "categoryCode": "03", "address": "1300 BAY STREET               SUITE 400", "city": "TORONTO", "province": "ON", "country": "CA", "postalCode": "M5R3K8", "twitter": "None", "instagram": "None", "facebook": "None", "youtube": "None", "website": "None", "summary": "None", "logo": "None", "latitude": 43.67228353926945, "longitude": -79.3906142781175}, "119245124RR0001": {"name": "THE MICHENER AWARDS FOUNDATION/LA FONDATION DES PRIX MICHENE", "designationCode": "C", "categoryCode": "21", "address": "A-61 IRVING AVE", "city": "OTTAWA", "province": "ON", "country": "CA", "postalCode": "K1Y1Z2", "twitter": "None", "instagram": "None", "facebook": "None", "youtube": "None", "website": "None", "summary": "None", "logo": "None", "latitude": 45.40386519262504, "longitude": -75.72201304951257}, "140774472RR0001": {"name": "THE MID-AMERICA REFORMED SEMINARY FOUNDATION", "designationCode": "C", "categoryCode": "21", "address": "PO BOX 10612 STN WINONA", "city": "STONEY CREEK", "province": "ON", "country": "CA", "postalCode": "L8E5R1", "twitter": "None", "instagram": "None", "facebook": "None", "youtube": "None", "website": "None", "summary": "None", "logo": "None", "latitude": 43.21282865582898, "longitude": -79.64882084506915}, "887993756RR0001": {"name": "THE MIDDLE EASTERN BIBLE FELLOWSHIP IN WINDSOR", "designationCode": "C", "categoryCode": "39", "address": "3385 FOREST GLADE DR", "city": "WINDSOR", "province": "ON", "country": "CA", "postalCode": "N8R2E1", "twitter": "None", "instagram": "None", "facebook": "None", "youtube": "None", "website": "None", "summary": "None", "logo": "None", "latitude": 42.30120211076791, "longitude": -82.91834019207676}, "119245140RR0001": {"name": "THE MIDDLE RIVER - BIRCH HILL CEMETERY", "designationCode": "C", "categoryCode": "59", "address": "RR2", "city": "WESTVILLE", "province": "NS", "country": "CA", "postalCode": "B0K2A0", "twitter": "None", "instagram": "None", "facebook": "None", "youtube": "None", "website": "None", "summary": "None", "logo": "None", "latitude": 45.559140000000056, "longitude": -62.70123049999994}, "108078718RR0001": {"name": "THE MIDDLESEX COUNTY LIBRARY BOARD", "designationCode": "C", "categoryCode": "50", "address": "399 RIDOUT ST N", "city": "LONDON", "province": "ON", "country": "CA", "postalCode": "N6A2P1", "twitter": "None", "instagram": "None", "facebook": "None", "youtube": "None", "website": "None", "summary": "None", "logo": "None", "latitude": 42.982445087880535, "longitude": -81.2540006037152}, "865284632RR0001": {"name": "THE MIDLOCH FOUNDATION", "designationCode": "B", "categoryCode": "53", "address": "1 ADELAIDE ST. EAST           SUITE 2601 PO BOX 181", "city": "TORONTO", "province": "ON", "country": "CA", "postalCode": "M5C2V9", "twitter": "None", "instagram": "None", "facebook": "None", "youtube": "None", "website": "None", "summary": "None", "logo": "None", "latitude": 43.650488809308214, "longitude": -79.37807503774025}, "133307587RR0001": {"name": "THE MIDWAY PUBLIC LIBRARY ASSOCIATION", "designationCode": "C", "categoryCode": "50", "address": "BOX 268", "city": "MIDWAY", "province": "BC", "country": "CA", "postalCode": "V0H1M0", "twitter": "None", "instagram": "None", "facebook": "None", "youtube": "None", "website": "None", "summary": "None", "logo": "None", "latitude": 49.10113921679708, "longitude": -118.67616064840723}, "899163505RR0001": {"name": "THE MIGRATION RESEARCH FOUNDATION INC.", "designationCode": "C", "categoryCode": "21", "address": "53 CHAPARRAL VALLEY CRES SE", "city": "CALGARY", "province": "AB", "country": "CA", "postalCode": "T2X0Y3", "twitter": "None", "instagram": "None", "facebook": "None", "youtube": "None", "website": "None", "summary": "None", "logo": "None", "latitude": 50.88888852899767, "longitude": -114.0167830073576}, "124242397RR0001": {"name": "THE MIKE AND SANDRA FLORENCE FAMILY FOUNDATION", "designationCode": "B", "categoryCode": "03", "address": "1858 AVENUE RD.               UNIT #300", "city": "TORONTO", "province": "ON", "country": "CA", "postalCode": "M5M3Z5", "twitter": "None", "instagram": "None", "facebook": "None", "youtube": "None", "website": "None", "summary": "None", "logo": "None", "latitude": 43.73147143658031, "longitude": -79.41931893533955}, "891547366RR0001": {"name": "THE MIKE DONATELLI CHILD, YOUTH AND FAMILY COUNSELLING CENTRE", "designationCode": "C", "categoryCode": "01", "address": "125 WELLAND AVE", "city": "ST. CATHERINES", "province": "ON", "country": "CA", "postalCode": "L2R2N5", "twitter": "None", "instagram": "None", "facebook": "None", "youtube": "None", "website": "None", "summary": "None", "logo": "None", "latitude": 43.16413450571281, "longitude": -79.2449008729008}, "859153207RR0001": {"name": "THE MIKE WEIR FOUNDATION/FONDATION MIKE WEIR", "designationCode": "B", "categoryCode": "03", "address": "1217 MIKE WEIR DRIVE", "city": "BRIGHTS GROVE", "province": "ON", "country": "CA", "postalCode": "N0N1C0", "twitter": "None", "instagram": "None", "facebook": "None", "youtube": "None", "website": "None", "summary": "None", "logo": "None", "latitude": 43.02666669244571, "longitude": -82.26085695812192}, "872492004RR0001": {"name": "THE MIKEY NETWORK", "designationCode": "C", "categoryCode": "11", "address": "245 YORKLAND BLVD             SUITE 100", "city": "WILLOWDALE", "province": "ON", "country": "CA", "postalCode": "M2J4W9", "twitter": "None", "instagram": "None", "facebook": "None", "youtube": "None", "website": "None", "summary": "None", "logo": "None", "latitude": 43.77274421175494, "longitude": -79.33618726637381}, "890036775RR0001": {"name": "THE MILAL MISSION", "designationCode": "C", "categoryCode": "47", "address": "76 ROYAL APPIAN CRES.", "city": "VAUGHAN", "province": "ON", "country": "CA", "postalCode": "L4K5L2", "twitter": "None", "instagram": "None", "facebook": "None", "youtube": "None", "website": "None", "summary": "None", "logo": "None", "latitude": 43.8391602489756, "longitude": -79.49487887552652}, "119245223RR0001": {"name": "THE MILITARY AND HOSPITALLER ORDER OF SAINT LAZARUS OF JERUSALEM IN CANADA L'ORDRE MILITAIRE ET HOSPITALIER DE SAINT-LAZARE-DE-JERUSALEM AU CANADA", "designationCode": "A", "categoryCode": "13", "address": "214-223 CHEMIN COLONNADE RD. S", "city": "OTTAWA", "province": "ON", "country": "CA", "postalCode": "K2E7K3", "twitter": "None", "instagram": "None", "facebook": "None", "youtube": "None", "website": "None", "summary": "None", "logo": "None", "latitude": 45.342038231366224, "longitude": -75.71136097191743}, "898772751RR0001": {"name": "THE MILITARY COMMUNICATIONS AND ELECTRONICS MUSEUM FOUNDATION", "designationCode": "A", "categoryCode": "50", "address": "BOX 17000 STN FORCES", "city": "KINGSTON", "province": "ON", "country": "CA", "postalCode": "K7K7B4", "twitter": "None", "instagram": "None", "facebook": "None", "youtube": "None", "website": "None", "summary": "None", "logo": "None", "latitude": 44.23153200000006, "longitude": -76.47933049999993}, "119245231RR0001": {"name": "THE MILITARY ENGINEERS MUSEUM ASSOCIATION OF CANADA", "designationCode": "C", "categoryCode": "50", "address": "CFSME, MITCHELL BLG J-10      CFB/GAGETOWN, PO BOX 17000 SF", "city": "OROMOCTO", "province": "NB", "country": "CA", "postalCode": "E2V4J5", "twitter": "None", "instagram": "None", "facebook": "None", "youtube": "None", "website": "None", "summary": "None", "logo": "None", "latitude": 45.83982000000003, "longitude": -66.46903999999995}, "876545203RR0001": {"name": "THE MILITARY MUSEUMS FOUNDATION", "designationCode": "C", "categoryCode": "20", "address": "4520 CROWCHILD TR SW", "city": "CALGARY", "province": "AB", "country": "CA", "postalCode": "T2T5J4", "twitter": "None", "instagram": "None", "facebook": "None", "youtube": "None", "website": "None", "summary": "None", "logo": "None", "latitude": 51.014627821546306, "longitude": -114.11605994395097}, "119245249RR0001": {"name": "THE MILITARY RE-ENACTMENT SOCIETY OF CANADA", "designationCode": "C", "categoryCode": "50", "address": "16715-12 YONGE ST SUITE 250", "city": "NEWMARKET", "province": "ON", "country": "CA", "postalCode": "L3X1X4", "twitter": "None", "instagram": "None", "facebook": "None", "youtube": "None", "website": "None", "summary": "None", "logo": "None", "latitude": 44.02910184814723, "longitude": -79.4744072046704}, "888465846RR0001": {"name": "THE MILK RIVER CEMETERY COMPANY", "designationCode": "C", "categoryCode": "59", "address": "P.O. BOX 251", "city": "MILK RIVER", "province": "AB", "country": "CA", "postalCode": "T0K1M0", "twitter": "None", "instagram": "None", "facebook": "None", "youtube": "None", "website": "None", "summary": "None", "logo": "None", "latitude": 49.14831000000004, "longitude": -112.08642999999995}, "119245264RR0001": {"name": "THE MILL BROOK AND AREA COMMUNITY ASSOCIATION", "designationCode": "C", "categoryCode": "56", "address": "2806 GAIRLOCH ROAD", "city": "WESTVILLE", "province": "NS", "country": "CA", "postalCode": "B0K2A0", "twitter": "None", "instagram": "None", "facebook": "None", "youtube": "None", "website": "None", "summary": "None", "logo": "None", "latitude": 45.484458862888836, "longitude": -62.7943233134345}, "872582929RR0001": {"name": "THE MILL RACE FOLK SOCIETY", "designationCode": "C", "categoryCode": "22", "address": "P O BOX 22148, GALT CENTRAL PO", "city": "CAMBRIDGE", "province": "ON", "country": "CA", "postalCode": "N1R8E3", "twitter": "None", "instagram": "None", "facebook": "None", "youtube": "None", "website": "None", "summary": "None", "logo": "None", "latitude": 43.37412947066547, "longitude": -80.30553925358247}, "119245306RR0001": {"name": "THE MILL STREET BUILDING TRUSTEESHIP, PLYMOUTH BRETHERN", "designationCode": "C", "categoryCode": "39", "address": "640 MAIN STREET", "city": "WOODSTOCK", "province": "ON", "country": "CA", "postalCode": "N4S8Y5", "twitter": "None", "instagram": "None", "facebook": "None", "youtube": "None", "website": "None", "summary": "None", "logo": "None", "latitude": 43.127950044953614, "longitude": -80.74925767470718}, "119245272RR0001": {"name": "THE MILLBROOK AND DISTRICT MEDICAL CENTRE", "designationCode": "C", "categoryCode": "11", "address": "PO BOX 443", "city": "MILLBROOK", "province": "ON", "country": "CA", "postalCode": "L0A1G0", "twitter": "None", "instagram": "None", "facebook": "None", "youtube": "None", "website": "None", "summary": "None", "logo": "None", "latitude": 44.12605200000006, "longitude": -78.43440499999993}, "119245280RR0001": {"name": "THE MILLET AND DISTRICT HISTORICAL SOCIETY", "designationCode": "C", "categoryCode": "50", "address": "PO BOX 178", "city": "MILLET", "province": "AB", "country": "CA", "postalCode": "T0C1Z0", "twitter": "None", "instagram": "None", "facebook": "None", "youtube": "None", "website": "None", "summary": "None", "logo": "None", "latitude": 53.09068000000008, "longitude": -113.46958999999998}, "817126071RR0001": {"name": "THE MILLETT NEW MINAS RECREATIONAL TRUST", "designationCode": "B", "categoryCode": "15", "address": "PO BOX 566", "city": "BRIDGETOWN", "province": "NS", "country": "CA", "postalCode": "B0S1C0", "twitter": "None", "instagram": "None", "facebook": "None", "youtube": "None", "website": "None", "summary": "None", "logo": "None", "latitude": 44.85015000000004, "longitude": -65.29881999999998}, "119245298RR0001": {"name": "THE MILLS FAMILY MEMORIAL FUND", "designationCode": "B", "categoryCode": "05", "address": "1402 - 1 KING ST W", "city": "HAMILTON", "province": "ON", "country": "CA", "postalCode": "L8P1A4", "twitter": "None", "instagram": "None", "facebook": "None", "youtube": "None", "website": "None", "summary": "None", "logo": "None", "latitude": 43.26019321073324, "longitude": -79.88135629363086}, "854456332RR0001": {"name": "THE MILLSTREAM CHORUS - BEDFORD SACKVILLE CHAPTER", "designationCode": "C", "categoryCode": "22", "address": "88 OCEANVIEW DR", "city": "BEDFORD", "province": "NS", "country": "CA", "postalCode": "B4A4C5", "twitter": "None", "instagram": "None", "facebook": "None", "youtube": "None", "website": "None", "summary": "None", "logo": "None", "latitude": 44.707784773789676, "longitude": -63.68151463890018}, "119245322RR0001": {"name": "THE MILTON AND FRIMETTE SNOW CHARITABLE FOUNDATION", "designationCode": "B", "categoryCode": "03", "address": "219 - 3089 BATHURST ST", "city": "NORTH YORK", "province": "ON", "country": "CA", "postalCode": "M6A2A4", "twitter": "None", "instagram": "None", "facebook": "None", "youtube": "None", "website": "None", "summary": "None", "logo": "None", "latitude": 43.72029554232787, "longitude": -79.42995586952526}, "119245330RR0001": {"name": "THE MILTON DISTRICT HOSPITAL FOUNDATION", "designationCode": "A", "categoryCode": "13", "address": "725 BRONTE ST S", "city": "MILTON", "province": "ON", "country": "CA", "postalCode": "L9T9K1", "twitter": "None", "instagram": "None", "facebook": "None", "youtube": "None", "website": "None", "summary": "None", "logo": "None", "latitude": 43.49546873369749, "longitude": -79.87038967324443}, "107703555RR0001": {"name": "THE MILTON HERITAGE SOCIETY", "designationCode": "C", "categoryCode": "52", "address": "P.O. BOX 572", "city": "MILTON", "province": "NS", "country": "CA", "postalCode": "B0T1P0", "twitter": "None", "instagram": "None", "facebook": "None", "youtube": "None", "website": "None", "summary": "None", "logo": "None", "latitude": 44.04603947901783, "longitude": -64.72496115525942}, "127961159RR0001": {"name": "THE MINIOTA COMMUNITY CENTRE", "designationCode": "C", "categoryCode": "56", "address": "BOX 100", "city": "MINIOTA", "province": "MB", "country": "CA", "postalCode": "R0M1M0", "twitter": "None", "instagram": "None", "facebook": "None", "youtube": "None", "website": "None", "summary": "None", "logo": "None", "latitude": 50.14250000000004, "longitude": -101.03465999999997}, "129688396RR0001": {"name": "THE MINISTRY TO SEAFARERS OF THE CHRISTIAN REFORMED CHURCH", "designationCode": "C", "categoryCode": "49", "address": "PO BOX 128 PLACE D'ARMES", "city": "MONTREAL", "province": "QC", "country": "CA", "postalCode": "H2Y3E9", "twitter": "None", "instagram": "None", "facebook": "None", "youtube": "None", "website": "None", "summary": "None", "logo": "None", "latitude": 45.50475000000006, "longitude": -73.55678999999998}, "874458029RR0001": {"name": "THE MINSTREL FOUNDATION FOR MUSIC & ARTS ADVANCEMENT", "designationCode": "A", "categoryCode": "03", "address": "99 LYNDHURST AVENUE", "city": "TORONTO", "province": "ON", "country": "CA", "postalCode": "M5R2Z3", "twitter": "None", "instagram": "None", "facebook": "None", "youtube": "None", "website": "None", "summary": "None", "logo": "None", "latitude": 43.68036275160132, "longitude": -79.41270936577436}, "897377065RR0001": {"name": "THE MIRACLE CHANNEL ASSOCIATION", "designationCode": "C", "categoryCode": "49", "address": "450 31 ST N", "city": "LETHBRIDGE", "province": "AB", "country": "CA", "postalCode": "T1H3Z3", "twitter": "None", "instagram": "None", "facebook": "None", "youtube": "None", "website": "None", "summary": "None", "logo": "None", "latitude": 49.704830528449406, "longitude": -112.7954645024519}, "897948923RR0001": {"name": "THE MIREILLE AND MURRAY STEINBERG FAMILY FOUNDATION/LA FONDATION DE LA FAMILLE MIREILLE ET MURRAY STEINBERG", "designationCode": "B", "categoryCode": "03", "address": "18 LYNCROFT", "city": "HAMPSTEAD", "province": "QC", "country": "CA", "postalCode": "H3X3E4", "twitter": "None", "instagram": "None", "facebook": "None", "youtube": "None", "website": "None", "summary": "None", "logo": "None", "latitude": 45.48247125261635, "longitude": -73.64326328003933}, "889035044RR0001": {"name": "THE MIRIAM AND HAROLD GREEN FAMILY FOUNDATION", "designationCode": "B", "categoryCode": "03", "address": "19 LESMILL ROAD UNIT 101", "city": "TORONTO", "province": "ON", "country": "CA", "postalCode": "M3B2T3", "twitter": "None", "instagram": "None", "facebook": "None", "youtube": "None", "website": "None", "summary": "None", "logo": "None", "latitude": 43.75614036248479, "longitude": -79.35259752813229}, "874960925RR0001": {"name": "THE MISSION ADOPT-A-BLOCK SOCIETY", "designationCode": "C", "categoryCode": "59", "address": "P.O. BOX 3245", "city": "MISSION", "province": "BC", "country": "CA", "postalCode": "V2V4J4", "twitter": "None", "instagram": "None", "facebook": "None", "youtube": "None", "website": "None", "summary": "None", "logo": "None", "latitude": 49.13294100000006, "longitude": -122.32108249999993}, "896362167RR0001": {"name": "THE MISSION OF TAO-CONFUCIANISM", "designationCode": "C", "categoryCode": "39", "address": "73 BROADVIEW AVE", "city": "TORONTO", "province": "ON", "country": "CA", "postalCode": "M4M2E4", "twitter": "None", "instagram": "None", "facebook": "None", "youtube": "None", "website": "None", "summary": "None", "logo": "None", "latitude": 43.65788902859366, "longitude": -79.34937757005613}, "119245595RR0002": {"name": "THE MISSION PARISH OF TRINITY - ST. ALBAN'S", "designationCode": "C", "categoryCode": "30", "address": "BALA FALLS RD                 BOX 244", "city": "BALA", "province": "ON", "country": "CA", "postalCode": "P0C1A0", "twitter": "None", "instagram": "None", "facebook": "None", "youtube": "None", "website": "None", "summary": "None", "logo": "None", "latitude": 45.0116689914425, "longitude": -79.61366809346765}, "889108445RR0001": {"name": "THE MISSION TO SEAFARERS IN THE DIOCESE OF NEW WESTMINSTER", "designationCode": "C", "categoryCode": "30", "address": "401 WATERFRONT RD E", "city": "VANCOUVER", "province": "BC", "country": "CA", "postalCode": "V6A4G9", "twitter": "None", "instagram": "None", "facebook": "None", "youtube": "None", "website": "None", "summary": "None", "logo": "None", "latitude": 49.28563241850793, "longitude": -123.09547219902815}, "119245611RR0002": {"name": "THE MISSION TO SEAFARERS, HALIFAX", "designationCode": "C", "categoryCode": "30", "address": "P.O. BOX 27114", "city": "HALIFAX", "province": "NS", "country": "CA", "postalCode": "B3H4M8", "twitter": "None", "instagram": "None", "facebook": "None", "youtube": "None", "website": "None", "summary": "None", "logo": "None", "latitude": 44.645478000000054, "longitude": -63.576552499999934}, "119245496RR0001": {"name": "THE MISSIONARY ASSOCIATION OF THE SISTERS OF THE CHILD JESUS", "designationCode": "C", "categoryCode": "49", "address": "318 LAVAL SQ", "city": "COQUITLAM", "province": "BC", "country": "CA", "postalCode": "V3K2C8", "twitter": "None", "instagram": "None", "facebook": "None", "youtube": "None", "website": "None", "summary": "None", "logo": "None", "latitude": 49.241373602675985, "longitude": -122.85804364542744}, "118795707RR0001": {"name": "THE MISSIONARY CHURCH", "designationCode": "C", "categoryCode": "39", "address": "4008-50 AVE", "city": "ATHABASCA", "province": "AB", "country": "CA", "postalCode": "T9S1M2", "twitter": "None", "instagram": "None", "facebook": "None", "youtube": "None", "website": "None", "summary": "None", "logo": "None", "latitude": 54.72114163577956, "longitude": -113.26218224589195}, "119245561RR0001": {"name": "THE MISSIONARY SOCIETY OF THE ANGLICAN CHURCH OF CANADA", "designationCode": "C", "categoryCode": "47", "address": "80 HAYDEN STREET", "city": "TORONTO", "province": "ON", "country": "CA", "postalCode": "M4Y3G2", "twitter": "None", "instagram": "None", "facebook": "None", "youtube": "None", "website": "None", "summary": "None", "logo": "None", "latitude": 43.67041924897559, "longitude": -79.38167951041602}, "119245553RR0001": {"name": "THE MISSIONARY SOCIETY OF THE DAMIENS OF SAINT-JOSEPH INCORPORATED", "designationCode": "C", "categoryCode": "49", "address": "1419 AUBIN STREET", "city": "CORNWALL", "province": "ON", "country": "CA", "postalCode": "K6J4S1", "twitter": "None", "instagram": "None", "facebook": "None", "youtube": "None", "website": "None", "summary": "None", "logo": "None", "latitude": 45.035906049685465, "longitude": -74.74292553246012}, "119245603RR0002": {"name": "THE MISSIONS TO SEAMEN (LAKEHEAD BRANCH)", "designationCode": "C", "categoryCode": "30", "address": "SUITE 450, 100 MAIN ST", "city": "THUNDER BAY", "province": "ON", "country": "CA", "postalCode": "P7B6R9", "twitter": "None", "instagram": "None", "facebook": "None", "youtube": "None", "website": "None", "summary": "None", "logo": "None", "latitude": 48.40658388805532, "longitude": -89.24063836124878}, "888291630RR0001": {"name": "THE MISSISSAUGA BIG BAND JAZZ ENSEMBLE", "designationCode": "C", "categoryCode": "22", "address": "2062 SAVA CRES.", "city": "MISSISSAUGA", "province": "ON", "country": "CA", "postalCode": "L5A1E1", "twitter": "None", "instagram": "None", "facebook": "None", "youtube": "None", "website": "None", "summary": "None", "logo": "None", "latitude": 43.57657050505217, "longitude": -79.5956138751141}, "119245652RR0001": {"name": "THE MISSISSAUGA ECUMENICAL CENTRE INC", "designationCode": "C", "categoryCode": "09", "address": "100 CITY CENTRE DR            SQUARE ONE SHOPPING CENTRE", "city": "MISSISSAUGA", "province": "ON", "country": "CA", "postalCode": "L5B2C9", "twitter": "None", "instagram": "None", "facebook": "None", "youtube": "None", "website": "None", "summary": "None", "logo": "None", "latitude": 43.59298005179072, "longitude": -79.64057002943034}, "118927011RR0001": {"name": "THE MISSISSAUGA FOOD BANK", "designationCode": "C", "categoryCode": "09", "address": "3121 UNIVERSAL DR", "city": "MISSISSAUGA", "province": "ON", "country": "CA", "postalCode": "L4X2E2", "twitter": "None", "instagram": "None", "facebook": "None", "youtube": "None", "website": "None", "summary": "None", "logo": "None", "latitude": 43.62383031173147, "longitude": -79.57320870886942}, "119245660RR0001": {"name": "THE MISSISSAUGA HERITAGE FOUNDATION INCORPORATED", "designationCode": "C", "categoryCode": "50", "address": "1921 DUNDAS ST W", "city": "MISSISSAUGA", "province": "ON", "country": "CA", "postalCode": "L5K1R2", "twitter": "None", "instagram": "None", "facebook": "None", "youtube": "None", "website": "None", "summary": "None", "logo": "None", "latitude": 43.53993098199527, "longitude": -79.6627507633154}, "134558832RR0001": {"name": "THE MISSISSAUGA MISSIONARY BAPTIST CHURCH", "designationCode": "C", "categoryCode": "31", "address": "4205 SAWMILL VALLEY DRIVE", "city": "MISSISSAUGA", "province": "ON", "country": "CA", "postalCode": "L5L3H1", "twitter": "None", "instagram": "None", "facebook": "None", "youtube": "None", "website": "None", "summary": "None", "logo": "None", "latitude": 43.55198309383102, "longitude": -79.68805198055296}, "888791142RR0001": {"name": "THE MISSISSAUGA WEST CHRISTADELPHIAN ECCLESIA", "designationCode": "C", "categoryCode": "39", "address": "1304 SAGINAW CRES", "city": "MISSISSAUGA", "province": "ON", "country": "CA", "postalCode": "L5H1X5", "twitter": "None", "instagram": "None", "facebook": "None", "youtube": "None", "website": "None", "summary": "None", "logo": "None", "latitude": 43.539391237290175, "longitude": -79.62943063278335}, "871244695RR0001": {"name": "THE MISSY FOUNDATION", "designationCode": "A", "categoryCode": "53", "address": "BOX 280", "city": "BOWEN ISLAND", "province": "BC", "country": "CA", "postalCode": "V0N1G0", "twitter": "None", "instagram": "None", "facebook": "None", "youtube": "None", "website": "None", "summary": "None", "logo": "None", "latitude": 49.38112992339439, "longitude": -123.3307800379408}, "858875974RR0001": {"name": "THE MITCHELL AND KATHRYN BARAN FAMILY FOUNDATION", "designationCode": "B", "categoryCode": "03", "address": "725 THIRD ST", "city": "LONDON", "province": "ON", "country": "CA", "postalCode": "N5V5G4", "twitter": "None", "instagram": "None", "facebook": "None", "youtube": "None", "website": "None", "summary": "None", "logo": "None", "latitude": 43.01524455388329, "longitude": -81.19084306268829}, "867263287RR0001": {"name": "THE MITCHELL ROTARIAN FUND", "designationCode": "C", "categoryCode": "65", "address": "BOX 225", "city": "MITCHELL", "province": "ON", "country": "CA", "postalCode": "N0K1N0", "twitter": "None", "instagram": "None", "facebook": "None", "youtube": "None", "website": "None", "summary": "None", "logo": "None", "latitude": 43.461771000000056, "longitude": -81.20430349999994}, "888790441RR0001": {"name": "THE MITSUI CANADA FOUNDATION/LA FONDATION MITSUI CANADA", "designationCode": "B", "categoryCode": "23", "address": "66 WELLINGTON STREET WEST     SUITE 3510", "city": "TORONTO", "province": "ON", "country": "CA", "postalCode": "M5K1K2", "twitter": "None", "instagram": "None", "facebook": "None", "youtube": "None", "website": "None", "summary": "None", "logo": "None", "latitude": 43.647055248975605, "longitude": -79.38109901041601}, "119245736RR0001": {"name": "THE MOE LEVIN FAMILY FOUNDATION", "designationCode": "B", "categoryCode": "03", "address": "15 WINDSOR AVE", "city": "WESTMOUNT", "province": "QC", "country": "CA", "postalCode": "H3Y2L7", "twitter": "None", "instagram": "None", "facebook": "None", "youtube": "None", "website": "None", "summary": "None", "logo": "None", "latitude": 45.4798452983726, "longitude": -73.60678481323201}, "119245744RR0001": {"name": "THE MOHAWK COLLEGE FOUNDATION", "designationCode": "A", "categoryCode": "23", "address": "FENNELL AVENUE & WEST 5TH ST. P.O. BOX 2034", "city": "HAMILTON", "province": "ON", "country": "CA", "postalCode": "L8N3T2", "twitter": "None", "instagram": "None", "facebook": "None", "youtube": "None", "website": "None", "summary": "None", "logo": "None", "latitude": 43.238844000000014, "longitude": -79.8827175}, "119245751RR0001": {"name": "THE MOLSON FOUNDATION/FONDATION MOLSON", "designationCode": "B", "categoryCode": "03", "address": "1555 NOTRE DAME ST EAST", "city": "MONTREAL", "province": "QC", "country": "CA", "postalCode": "H2L2R5", "twitter": "None", "instagram": "None", "facebook": "None", "youtube": "None", "website": "None", "summary": "None", "logo": "None", "latitude": 45.51874154899299, "longitude": -73.5479823855385}, "895008068RR0001": {"name": "THE MOMIJI FOUNDATION", "designationCode": "A", "categoryCode": "03", "address": "3555 KINGSTON ROAD", "city": "SCARBOROUGH", "province": "ON", "country": "CA", "postalCode": "M1M3W4", "twitter": "None", "instagram": "None", "facebook": "None", "youtube": "None", "website": "None", "summary": "None", "logo": "None", "latitude": 43.7395598711987, "longitude": -79.21573834217236}, "129759940RR0001": {"name": "THE MONASTERY OF MOUNT CARMEL", "designationCode": "C", "categoryCode": "20", "address": "7020 STANLEY AVE", "city": "NIAGARA FALLS", "province": "ON", "country": "CA", "postalCode": "L2G7B7", "twitter": "None", "instagram": "None", "facebook": "None", "youtube": "None", "website": "None", "summary": "None", "logo": "None", "latitude": 43.07436190011601, "longitude": -79.083595907417}, "803574672RR0001": {"name": "THE MONDUL OTTAWA KHMER BUDDHIST MONASTERY", "designationCode": "C", "categoryCode": "35", "address": "4537 HAWTHORNE RD", "city": "OTTAWA", "province": "ON", "country": "CA", "postalCode": "K1G3N4", "twitter": "None", "instagram": "None", "facebook": "None", "youtube": "None", "website": "None", "summary": "None", "logo": "None", "latitude": 45.32228644604404, "longitude": -75.56768276787531}, "825880875RR0001": {"name": "THE MONTEAGLE CEMETERY COMPANY INCORPORATED", "designationCode": "C", "categoryCode": "59", "address": "47 BRAEMAR ST", "city": "SALISBURY", "province": "NB", "country": "CA", "postalCode": "E4J2A1", "twitter": "None", "instagram": "None", "facebook": "None", "youtube": "None", "website": "None", "summary": "None", "logo": "None", "latitude": 46.02156517011956, "longitude": -65.04119536995795}, "107718199RR0001": {"name": "THE MONTESSORI DAY CARE SOCIETY", "designationCode": "C", "categoryCode": "20", "address": "2091 WEST 8TH AVE", "city": "VANCOUVER", "province": "BC", "country": "CA", "postalCode": "V6J1W4", "twitter": "None", "instagram": "None", "facebook": "None", "youtube": "None", "website": "None", "summary": "None", "logo": "None", "latitude": 49.2647825259679, "longitude": -123.15265102553522}, "130920119RR0001": {"name": "THE MONTESSORI SCHOOL OF CAMBRIDGE", "designationCode": "C", "categoryCode": "20", "address": "9 ROSEVIEW AVENUE", "city": "CAMBRIDGE", "province": "ON", "country": "CA", "postalCode": "N1R4A5", "twitter": "None", "instagram": "None", "facebook": "None", "youtube": "None", "website": "None", "summary": "None", "logo": "None", "latitude": 43.364353179035035, "longitude": -80.31118637924878}, "887361194RR0001": {"name": "THE MONTHLY FUND OF EMES CHARITABLE FOUNDATION", "designationCode": "C", "categoryCode": "09", "address": "32 STORMONT AVENUE", "city": "TORONTO", "province": "ON", "country": "CA", "postalCode": "M5N2B9", "twitter": "None", "instagram": "None", "facebook": "None", "youtube": "None", "website": "None", "summary": "None", "logo": "None", "latitude": 43.7194951906918, "longitude": -79.42467637122735}, "127276681RR0001": {"name": "THE MONTREAL AND CANADIAN DIOCESE OF THE RUSSIAN ORTHODOX CHURCH OUTSIDE OF RUSSIA", "designationCode": "C", "categoryCode": "39", "address": "99 STONEHURST AVE", "city": "OTTAWA", "province": "ON", "country": "CA", "postalCode": "K1Y4R6", "twitter": "None", "instagram": "None", "facebook": "None", "youtube": "None", "website": "None", "summary": "None", "logo": "None", "latitude": 45.40708915072983, "longitude": -75.72859031992671}, "889152773RR0001": {"name": "THE MONTREAL CHAPTER OF DYSAUTONOMIA FOUNDATION", "designationCode": "C", "categoryCode": "11", "address": "3551 ST-CHARLES BLVD          SUITE 155", "city": "KIRKLAND", "province": "QC", "country": "CA", "postalCode": "H9H3C4", "twitter": "None", "instagram": "None", "facebook": "None", "youtube": "None", "website": "None", "summary": "None", "logo": "None", "latitude": 45.456789821570574, "longitude": -73.86289059596673}, "889007795RR0001": {"name": "THE MONTREAL HIGHLAND DANCING ASSOCIATION", "designationCode": "C", "categoryCode": "22", "address": "2005 O'BRIEN", "city": "ST. LAURENT", "province": "QC", "country": "CA", "postalCode": "H4L3X1", "twitter": "None", "instagram": "None", "facebook": "None", "youtube": "None", "website": "None", "summary": "None", "logo": "None", "latitude": 45.524758200675116, "longitude": -73.69477675255361}, "838281079RR0001": {"name": "THE MONTREAL INTERNATIONAL INSTITUTE FOR THE ENVIRONMENT/L'INSTITUT INTERNATIONAL DE MONTREAL POUR L'ENVIRONNEMENT", "designationCode": "C", "categoryCode": "59", "address": "865 RICHMOND SQUARE", "city": "MONTREAL", "province": "QC", "country": "CA", "postalCode": "H3J1V8", "twitter": "None", "instagram": "None", "facebook": "None", "youtube": "None", "website": "None", "summary": "None", "logo": "None", "latitude": 45.49185603398467, "longitude": -73.57274994790104}, "108089095RR0001": {"name": "THE MONTREAL KOREAN UNITED CHURCH", "designationCode": "C", "categoryCode": "44", "address": "208-6525 BOUL. DECARIE", "city": "MONTREAL", "province": "QC", "country": "CA", "postalCode": "H3W3E3", "twitter": "None", "instagram": "None", "facebook": "None", "youtube": "None", "website": "None", "summary": "None", "logo": "None", "latitude": 45.491328228720505, "longitude": -73.64576926475864}, "861044568RR0001": {"name": "THE MOODY CHARITABLE FOUNDATION", "designationCode": "B", "categoryCode": "05", "address": "333 BAY STREET                SUITE 5100", "city": "TORONTO", "province": "ON", "country": "CA", "postalCode": "M5H2R2", "twitter": "None", "instagram": "None", "facebook": "None", "youtube": "None", "website": "None", "summary": "None", "logo": "None", "latitude": 43.65025349737428, "longitude": -79.38084819908858}, "890787344RR0001": {"name": "THE MOOG FOUNDATION", "designationCode": "A", "categoryCode": "03", "address": "498 ELLIS STREET", "city": "PENTICTON", "province": "BC", "country": "CA", "postalCode": "V2A4M2", "twitter": "None", "instagram": "None", "facebook": "None", "youtube": "None", "website": "None", "summary": "None", "logo": "None", "latitude": 49.49615351096429, "longitude": -119.58980787217965}, "132063330RR0001": {"name": "THE MOOSE JAW HUMANE SOCIETY INCORPORATED", "designationCode": "C", "categoryCode": "54", "address": "PO BOX 1658  STN MAIN", "city": "MOOSE JAW", "province": "SK", "country": "CA", "postalCode": "S6H7K7", "twitter": "None", "instagram": "None", "facebook": "None", "youtube": "None", "website": "None", "summary": "None", "logo": "None", "latitude": 50.37724922856035, "longitude": -105.53464629643145}, "851126540RR0001": {"name": "THE MORIAH TRUST", "designationCode": "C", "categoryCode": "45", "address": "30 DUKE STREET", "city": "ST. CATHARINES", "province": "ON", "country": "CA", "postalCode": "L2R5W5", "twitter": "None", "instagram": "None", "facebook": "None", "youtube": "None", "website": "None", "summary": "None", "logo": "None", "latitude": 43.15981683374691, "longitude": -79.2489793889723}, "850897471RR0001": {"name": "THE MORLEY GREENE FAMILY FOUNDATION", "designationCode": "B", "categoryCode": "03", "address": "SUITE 1550 - 1185 WEST GEORGIASTREET", "city": "VANCOUVER", "province": "BC", "country": "CA", "postalCode": "V6E4C6", "twitter": "None", "instagram": "None", "facebook": "None", "youtube": "None", "website": "None", "summary": "None", "logo": "None", "latitude": 49.28388900000006, "longitude": -123.12799099999994}, "865587216RR0001": {"name": "THE MORNING STAR CHARITABLE FOUNDATION", "designationCode": "B", "categoryCode": "05", "address": "31 ELIZABETH PARKWAY", "city": "ROTHESAY", "province": "NB", "country": "CA", "postalCode": "E2H1E8", "twitter": "None", "instagram": "None", "facebook": "None", "youtube": "None", "website": "None", "summary": "None", "logo": "None", "latitude": 45.347116421865124, "longitude": -66.03084618042}, "867140931RR0001": {"name": "THE MORNING STAR CHARITABLE FOUNDATION", "designationCode": "B", "categoryCode": "03", "address": "P.O. BOX 580", "city": "RED DEER", "province": "AB", "country": "CA", "postalCode": "T4N5G1", "twitter": "None", "instagram": "None", "facebook": "None", "youtube": "None", "website": "None", "summary": "None", "logo": "None", "latitude": 52.26852300000006, "longitude": -113.80901299999994}, "868868779RR0001": {"name": "THE MORNINGVIEW FOUNDATION", "designationCode": "B", "categoryCode": "03", "address": "993673 MONO-ADJALA TOWN LINE", "city": "ORANGEVILLE", "province": "ON", "country": "CA", "postalCode": "L9W2Z2", "twitter": "None", "instagram": "None", "facebook": "None", "youtube": "None", "website": "None", "summary": "None", "logo": "None", "latitude": 43.989602248081226, "longitude": -79.96090066833291}, "119245900RR0001": {"name": "THE MORRIS AND BEVERLY BAKER FOUNDATION", "designationCode": "B", "categoryCode": "03", "address": "374 OUELLETTE AVENUE STE 1000", "city": "WINDSOR", "province": "ON", "country": "CA", "postalCode": "N9A1A9", "twitter": "None", "instagram": "None", "facebook": "None", "youtube": "None", "website": "None", "summary": "None", "logo": "None", "latitude": 42.31671942211798, "longitude": -83.03846026278273}, "119245918RR0001": {"name": "THE MORRIS AND HELEN BELKIN FOUNDATION", "designationCode": "B", "categoryCode": "03", "address": "900-1508 WEST BROADWAY", "city": "VANCOUVER", "province": "BC", "country": "CA", "postalCode": "V6J1W8", "twitter": "None", "instagram": "None", "facebook": "None", "youtube": "None", "website": "None", "summary": "None", "logo": "None", "latitude": 49.263577535634134, "longitude": -123.13927355300369}, "890451974RR0001": {"name": "THE MORRIS FAMILY FOUNDATION", "designationCode": "B", "categoryCode": "53", "address": "22 HARVARD CRES W", "city": "LETHBRIDGE", "province": "AB", "country": "CA", "postalCode": "T1K6R4", "twitter": "None", "instagram": "None", "facebook": "None", "youtube": "None", "website": "None", "summary": "None", "logo": "None", "latitude": 49.674094995268156, "longitude": -112.88824256215028}, "107725053RR0001": {"name": "THE MORRIS FELLOWSHIP CHAPEL", "designationCode": "C", "categoryCode": "34", "address": "BOX 219", "city": "MORRIS", "province": "MB", "country": "CA", "postalCode": "R0G1K0", "twitter": "None", "instagram": "None", "facebook": "None", "youtube": "None", "website": "None", "summary": "None", "logo": "None", "latitude": 49.35468000000003, "longitude": -97.36605999999995}, "119245967RR0001": {"name": "THE MORRIS JUSTEIN FAMILY CHARITABLE FOUNDATION", "designationCode": "B", "categoryCode": "53", "address": "820-100 SHEPPARD AVE EAST", "city": "TORONTO", "province": "ON", "country": "CA", "postalCode": "M2N6N5", "twitter": "None", "instagram": "None", "facebook": "None", "youtube": "None", "website": "None", "summary": "None", "logo": "None", "latitude": 43.76277030062296, "longitude": -79.40532551139695}, "119245975RR0001": {"name": "THE MORRIS KROLL MEMORIAL SCHOLARSHIP", "designationCode": "C", "categoryCode": "25", "address": "ATTN: B. FRANKLIN SHOSTACK    100-95 BARBER GREENE ROAD", "city": "TORONTO", "province": "ON", "country": "CA", "postalCode": "M3C3E9", "twitter": "None", "instagram": "None", "facebook": "None", "youtube": "None", "website": "None", "summary": "None", "logo": "None", "latitude": 43.729918672456826, "longitude": -79.34975403583566}, "891660177RR0001": {"name": "THE MORRISON FOUNDATION", "designationCode": "B", "categoryCode": "05", "address": "86 LEUTY AVE", "city": "TORONTO", "province": "ON", "country": "CA", "postalCode": "M4E2R4", "twitter": "None", "instagram": "None", "facebook": "None", "youtube": "None", "website": "None", "summary": "None", "logo": "None", "latitude": 43.66990926810551, "longitude": -79.29626537595922}, "853427961RR0001": {"name": "THE MORSE CEMETERY CARE & MAINTENANCE SOCIETY", "designationCode": "C", "categoryCode": "50", "address": "120 COTTAGE ST", "city": "BERWICK", "province": "NS", "country": "CA", "postalCode": "B0P1E0", "twitter": "None", "instagram": "None", "facebook": "None", "youtube": "None", "website": "None", "summary": "None", "logo": "None", "latitude": 45.04730391508445, "longitude": -64.72604300695355}, "890939879RR0001": {"name": "THE MOTZ FAMILY FOUNDATION", "designationCode": "B", "categoryCode": "03", "address": "490 DUTTON DRIVE              UNIT C3", "city": "WATERLOO", "province": "ON", "country": "CA", "postalCode": "N2L6H7", "twitter": "None", "instagram": "None", "facebook": "None", "youtube": "None", "website": "None", "summary": "None", "logo": "None", "latitude": 43.49395276244295, "longitude": -80.53872485967753}, "888153848RR0001": {"name": "THE MOUNT FOREST LOUISE MARSHALL HOSPITAL FOUNDATION", "designationCode": "A", "categoryCode": "13", "address": "630 DUBLIN STREET", "city": "MOUNT FOREST", "province": "ON", "country": "CA", "postalCode": "N0G2L3", "twitter": "None", "instagram": "None", "facebook": "None", "youtube": "None", "website": "None", "summary": "None", "logo": "None", "latitude": 43.97465900907795, "longitude": -80.73819198621267}, "119246056RR0001": {"name": "THE MOUNT PLEASANT CEMETERY BOARD", "designationCode": "C", "categoryCode": "50", "address": "1045 3RD CONC. RD.            RR 1", "city": "PORT ROWAN", "province": "ON", "country": "CA", "postalCode": "N0E1M0", "twitter": "None", "instagram": "None", "facebook": "None", "youtube": "None", "website": "None", "summary": "None", "logo": "None", "latitude": 42.647858213716844, "longitude": -80.49349121011016}, "837791722RR0001": {"name": "THE MOUNT REFUGE CHURCH OF THE FIRST BORN OF METROPOLITAN TORONTO", "designationCode": "C", "categoryCode": "39", "address": "3313 WESTON ROAD, UNIT 7", "city": "WESTON", "province": "ON", "country": "CA", "postalCode": "M9M2V6", "twitter": "None", "instagram": "None", "facebook": "None", "youtube": "None", "website": "None", "summary": "None", "logo": "None", "latitude": 43.74330269553921, "longitude": -79.540406423337}, "119246064RR0001": {"name": "THE MOUNT ROYAL COMMUNITY ASSOCIATION", "designationCode": "C", "categoryCode": "56", "address": "2317-10 ST S.W.", "city": "CALGARY", "province": "AB", "country": "CA", "postalCode": "T2T3G7", "twitter": "None", "instagram": "None", "facebook": "None", "youtube": "None", "website": "None", "summary": "None", "logo": "None", "latitude": 51.03181766472389, "longitude": -114.08584520304103}, "119246072RR0001": {"name": "THE MOUNT SAINT JOSEPH HOSPITAL FOUNDATION", "designationCode": "A", "categoryCode": "13", "address": "4865 HEATHER ST", "city": "VANCOUVER", "province": "BC", "country": "CA", "postalCode": "V5Z0B3", "twitter": "None", "instagram": "None", "facebook": "None", "youtube": "None", "website": "None", "summary": "None", "logo": "None", "latitude": 49.24184697412038, "longitude": -123.12067587898831}, "889766374RR0001": {"name": "THE MOUNT ZION SHILOH APOSTOLIC CHURCH OF CANADA", "designationCode": "C", "categoryCode": "39", "address": "762 ELMHURST RD.", "city": "WINNIPEG", "province": "MB", "country": "CA", "postalCode": "R3R0V1", "twitter": "None", "instagram": "None", "facebook": "None", "youtube": "None", "website": "None", "summary": "None", "logo": "None", "latitude": 49.84964388121068, "longitude": -97.25736465101829}}