{"129715991RR0001": {"name": "CHRIST CHURCH", "designationCode": "C", "categoryCode": "30", "address": "312 GREENWOOD AVE", "city": "NORTH BAY", "province": "ON", "country": "CA", "postalCode": "P1B5G4", "twitter": "None", "instagram": "None", "facebook": "None", "youtube": "None", "website": "None", "summary": "None", "logo": "None", "latitude": 46.32639651875454, "longitude": -79.47127341618096}, "131831141RR0001": {"name": "CHRIST CHURCH", "designationCode": "C", "categoryCode": "30", "address": "30 CHURCH ST", "city": "GANANOQUE", "province": "ON", "country": "CA", "postalCode": "K7G2N3", "twitter": "None", "instagram": "None", "facebook": "None", "youtube": "None", "website": "None", "summary": "None", "logo": "None", "latitude": 44.32501595697963, "longitude": -76.16648121484202}, "133005728RR0002": {"name": "CHRIST CHURCH", "designationCode": "C", "categoryCode": "30", "address": "79 RUE PRINCE C.P.1022", "city": "SOREL-TRACY", "province": "QC", "country": "CA", "postalCode": "J3P4J7", "twitter": "None", "instagram": "None", "facebook": "None", "youtube": "None", "website": "None", "summary": "None", "logo": "None", "latitude": 46.043800511800995, "longitude": -73.11411035856099}, "869640136RR0001": {"name": "CHRIST CHURCH", "designationCode": "C", "categoryCode": "39", "address": "550 RUE DUFFERIN", "city": "STANSTEAD", "province": "QC", "country": "CA", "postalCode": "J0B3E0", "twitter": "None", "instagram": "None", "facebook": "None", "youtube": "None", "website": "None", "summary": "None", "logo": "None", "latitude": 45.01690927171221, "longitude": -72.09291155923609}, "870002847RR0001": {"name": "CHRIST CHURCH", "designationCode": "C", "categoryCode": "30", "address": "3537 METCALFE ST.", "city": "RAWDON", "province": "QC", "country": "CA", "postalCode": "J0K1S0", "twitter": "None", "instagram": "None", "facebook": "None", "youtube": "None", "website": "None", "summary": "None", "logo": "None", "latitude": 46.041307974176306, "longitude": -73.70003802013953}, "887867265RR0001": {"name": "CHRIST CHURCH", "designationCode": "C", "categoryCode": "30", "address": "163 RTE DULONG SAULT", "city": "SAINT-ANDRE-D'ARGENTEUIL", "province": "QC", "country": "CA", "postalCode": "J0V1X0", "twitter": "None", "instagram": "None", "facebook": "None", "youtube": "None", "website": "None", "summary": "None", "logo": "None", "latitude": 45.56118300000006, "longitude": -74.33129599999994}, "888061199RR0002": {"name": "CHRIST CHURCH", "designationCode": "C", "categoryCode": "30", "address": "3424 GLANWORTH DR", "city": "LONDON", "province": "ON", "country": "CA", "postalCode": "N6L1J6", "twitter": "None", "instagram": "None", "facebook": "None", "youtube": "None", "website": "None", "summary": "None", "logo": "None", "latitude": 42.865235544361155, "longitude": -81.21263638001523}, "888462991RR0001": {"name": "CHRIST CHURCH", "designationCode": "C", "categoryCode": "30", "address": "12 TURNER ST                  BOX 1066", "city": "ROCHES POINT", "province": "ON", "country": "CA", "postalCode": "L0E1P0", "twitter": "None", "instagram": "None", "facebook": "None", "youtube": "None", "website": "None", "summary": "None", "logo": "None", "latitude": 44.271430000000066, "longitude": -79.49732999999998}, "889241394RR0002": {"name": "CHRIST CHURCH", "designationCode": "C", "categoryCode": "30", "address": "PO BOX 565                    414 OIL ST", "city": "PETROLIA", "province": "ON", "country": "CA", "postalCode": "N0N1R0", "twitter": "None", "instagram": "None", "facebook": "None", "youtube": "None", "website": "None", "summary": "None", "logo": "None", "latitude": 42.88125852727488, "longitude": -82.14423333425339}, "889707840RR0002": {"name": "CHRIST CHURCH", "designationCode": "C", "categoryCode": "30", "address": "PO BOX 23052 RPO SPRINGBANK", "city": "WOODSTOCK", "province": "ON", "country": "CA", "postalCode": "N4T1R9", "twitter": "None", "instagram": "None", "facebook": "None", "youtube": "None", "website": "None", "summary": "None", "logo": "None", "latitude": 43.152854672830244, "longitude": -80.73460318113167}, "892173840RR0002": {"name": "CHRIST CHURCH", "designationCode": "C", "categoryCode": "30", "address": "20 MAIN ST., SOUTH", "city": "FOREST", "province": "ON", "country": "CA", "postalCode": "N0N1J0", "twitter": "None", "instagram": "None", "facebook": "None", "youtube": "None", "website": "None", "summary": "None", "logo": "None", "latitude": 43.09565937547988, "longitude": -82.00056934393271}, "119184554RR0001": {"name": "CHRIST CHURCH - ST JUDE'S", "designationCode": "C", "categoryCode": "30", "address": "7330 9TH LINE, RR 3", "city": "THORNTON", "province": "ON", "country": "CA", "postalCode": "L0L2N0", "twitter": "None", "instagram": "None", "facebook": "None", "youtube": "None", "website": "None", "summary": "None", "logo": "None", "latitude": 44.27268917121078, "longitude": -79.71914624026316}, "106917677RR0001": {"name": "CHRIST CHURCH ANGLICAN", "designationCode": "C", "categoryCode": "30", "address": "39 EVERETT ST", "city": "BELLEVILLE", "province": "ON", "country": "CA", "postalCode": "K8P3K1", "twitter": "None", "instagram": "None", "facebook": "None", "youtube": "None", "website": "None", "summary": "None", "logo": "None", "latitude": 44.164773827370276, "longitude": -77.3879721511052}, "107020307RR0020": {"name": "CHRIST CHURCH ANGLICAN", "designationCode": "C", "categoryCode": "30", "address": "P.O. BOX 127", "city": "FORT ALEXANDER", "province": "MB", "country": "CA", "postalCode": "R0E0P0", "twitter": "None", "instagram": "None", "facebook": "None", "youtube": "None", "website": "None", "summary": "None", "logo": "None", "latitude": 50.612220000000036, "longitude": -96.29613999999998}, "118854009RR0002": {"name": "CHRIST CHURCH ANGLICAN", "designationCode": "C", "categoryCode": "30", "address": "6610 POPLAR DR", "city": "GRANDE PRAIRIE", "province": "AB", "country": "CA", "postalCode": "T8W1H1", "twitter": "None", "instagram": "None", "facebook": "None", "youtube": "None", "website": "None", "summary": "None", "logo": "None", "latitude": 55.1401385440013, "longitude": -118.77546010315051}, "118854603RR0002": {"name": "CHRIST CHURCH ANGLICAN", "designationCode": "C", "categoryCode": "30", "address": "283 COLBORNE ST", "city": "PORT STANLEY", "province": "ON", "country": "CA", "postalCode": "N5L1A9", "twitter": "None", "instagram": "None", "facebook": "None", "youtube": "None", "website": "None", "summary": "None", "logo": "None", "latitude": 42.67053311580778, "longitude": -81.2135899383581}, "129144549RR0011": {"name": "CHRIST CHURCH ANGLICAN", "designationCode": "C", "categoryCode": "30", "address": "422 - 7TH AVENUE NORTH", "city": "CRESTON", "province": "BC", "country": "CA", "postalCode": "V0B1G4", "twitter": "None", "instagram": "None", "facebook": "None", "youtube": "None", "website": "None", "summary": "None", "logo": "None", "latitude": 49.0992807869745, "longitude": -116.51731069949807}, "888589595RR0002": {"name": "CHRIST CHURCH ANGLICAN", "designationCode": "C", "categoryCode": "30", "address": "PO BOX 181", "city": "BERWYN", "province": "AB", "country": "CA", "postalCode": "T0H0E0", "twitter": "None", "instagram": "None", "facebook": "None", "youtube": "None", "website": "None", "summary": "None", "logo": "None", "latitude": 56.148250000000075, "longitude": -117.72161999999997}, "119238210RR0007": {"name": "CHRIST CHURCH ANGLICAN KITIMAT", "designationCode": "C", "categoryCode": "30", "address": "1739 GYRFALCON ST.", "city": "KITIMAT", "province": "BC", "country": "CA", "postalCode": "V8C1N7", "twitter": "None", "instagram": "None", "facebook": "None", "youtube": "None", "website": "None", "summary": "None", "logo": "None", "latitude": 54.05736762666652, "longitude": -128.6341170412027}, "118854033RR0001": {"name": "CHRIST CHURCH ANGLICAN PARISH", "designationCode": "C", "categoryCode": "30", "address": "BOX 1421", "city": "HOPE", "province": "BC", "country": "CA", "postalCode": "V0X1L0", "twitter": "None", "instagram": "None", "facebook": "None", "youtube": "None", "website": "None", "summary": "None", "logo": "None", "latitude": 49.37911800000006, "longitude": -121.44296149999994}, "108084658RR0103": {"name": "CHRIST CHURCH AYLMER, P.Q.", "designationCode": "C", "categoryCode": "30", "address": "PO BOX 301", "city": "GATINEAU", "province": "QC", "country": "CA", "postalCode": "J9H5E6", "twitter": "None", "instagram": "None", "facebook": "None", "youtube": "None", "website": "None", "summary": "None", "logo": "None", "latitude": 45.39902100000006, "longitude": -75.85311499999993}, "888669397RR0002": {"name": "CHRIST CHURCH BEAUREPAIRE", "designationCode": "C", "categoryCode": "30", "address": "455 CHURCH STREET", "city": "BEACONSFIELD", "province": "QC", "country": "CA", "postalCode": "H9W3S6", "twitter": "None", "instagram": "None", "facebook": "None", "youtube": "None", "website": "None", "summary": "None", "logo": "None", "latitude": 45.422399460470736, "longitude": -73.881303474609}, "118854124RR0001": {"name": "CHRIST CHURCH BROMPTON CEMETERY COMMITTEE", "designationCode": "C", "categoryCode": "59", "address": "59 RUE FRYE E", "city": "WINDSOR", "province": "QC", "country": "CA", "postalCode": "J1S2W3", "twitter": "None", "instagram": "None", "facebook": "None", "youtube": "None", "website": "None", "summary": "None", "logo": "None", "latitude": 45.58000162559865, "longitude": -72.00636133114985}, "108084658RR0035": {"name": "CHRIST CHURCH CATHEDRAL", "designationCode": "C", "categoryCode": "30", "address": "439 QUEEN STREET", "city": "OTTAWA", "province": "ON", "country": "CA", "postalCode": "K1R5A6", "twitter": "None", "instagram": "None", "facebook": "None", "youtube": "None", "website": "None", "summary": "None", "logo": "None", "latitude": 45.41756134860632, "longitude": -75.70783456800733}, "118787142RR0017": {"name": "CHRIST CHURCH CATHEDRAL", "designationCode": "C", "categoryCode": "30", "address": "930 BURDETT AVENUE", "city": "VICTORIA", "province": "BC", "country": "CA", "postalCode": "V8V3G8", "twitter": "None", "instagram": "None", "facebook": "None", "youtube": "None", "website": "None", "summary": "None", "logo": "None", "latitude": 48.421650391655355, "longitude": -123.35891728544644}, "119208031RR0013": {"name": "CHRIST CHURCH CATHEDRAL", "designationCode": "C", "categoryCode": "30", "address": "P.O. BOX 31442", "city": "WHITEHORSE", "province": "YT", "country": "CA", "postalCode": "Y1A6K8", "twitter": "None", "instagram": "None", "facebook": "None", "youtube": "None", "website": "None", "summary": "None", "logo": "None", "latitude": 60.72084600000005, "longitude": -135.05323399999992}, "130353592RR0001": {"name": "CHRIST CHURCH CATHEDRAL", "designationCode": "C", "categoryCode": "30", "address": "168 CHURCH STREET", "city": "FREDERICTON", "province": "NB", "country": "CA", "postalCode": "E3B4C9", "twitter": "None", "instagram": "None", "facebook": "None", "youtube": "None", "website": "None", "summary": "None", "logo": "None", "latitude": 45.95693371717931, "longitude": -66.63604853635528}, "132806472RR0002": {"name": "CHRIST CHURCH CATHEDRAL", "designationCode": "C", "categoryCode": "30", "address": "1444 UNION AVENUE", "city": "MONTREAL", "province": "QC", "country": "CA", "postalCode": "H3A2B8", "twitter": "None", "instagram": "None", "facebook": "None", "youtube": "None", "website": "None", "summary": "None", "logo": "None", "latitude": 45.50443994281272, "longitude": -73.57068662060699}, "118854165RR0001": {"name": "CHRIST CHURCH CATHEDRAL BUILDINGS LIMITED", "designationCode": "C", "categoryCode": "43", "address": "900 VANCOUVER STREET", "city": "VICTORIA", "province": "BC", "country": "CA", "postalCode": "V8V3V7", "twitter": "None", "instagram": "None", "facebook": "None", "youtube": "None", "website": "None", "summary": "None", "logo": "None", "latitude": 48.42170864599994, "longitude": -123.35749388759996}, "128882974RR0001": {"name": "CHRIST CHURCH CATHEDRAL EDUCATIONAL SOCIETY", "designationCode": "C", "categoryCode": "20", "address": "912 VANCOUVER STREET", "city": "VICTORIA", "province": "BC", "country": "CA", "postalCode": "V8V3V7", "twitter": "None", "instagram": "None", "facebook": "None", "youtube": "None", "website": "None", "summary": "None", "logo": "None", "latitude": 48.422102741329546, "longitude": -123.35737172886472}, "118854199RR0001": {"name": "CHRIST CHURCH CATHEDRAL SOCIAL SERVICE SOCIETY", "designationCode": "C", "categoryCode": "09", "address": "1444 UNION AVE", "city": "MONTREAL", "province": "QC", "country": "CA", "postalCode": "H3A2B8", "twitter": "None", "instagram": "None", "facebook": "None", "youtube": "None", "website": "None", "summary": "None", "logo": "None", "latitude": 45.50443994281272, "longitude": -73.57068662060699}, "118854660RR0002": {"name": "CHRIST CHURCH COLCHESTER", "designationCode": "C", "categoryCode": "30", "address": "190 BAGOT ST., RR#1", "city": "HARROW", "province": "ON", "country": "CA", "postalCode": "N0R1G0", "twitter": "None", "instagram": "None", "facebook": "None", "youtube": "None", "website": "None", "summary": "None", "logo": "None", "latitude": 41.98447632361936, "longitude": -82.92993560462239}, "894359710RR0001": {"name": "CHRIST CHURCH COMMUNITY MUSEUM", "designationCode": "C", "categoryCode": "50", "address": "P.O. BOX 1542                 62 QUEEN STREET", "city": "LAKEFIELD", "province": "ON", "country": "CA", "postalCode": "K0L2H0", "twitter": "None", "instagram": "None", "facebook": "None", "youtube": "None", "website": "None", "summary": "None", "logo": "None", "latitude": 44.42508184347044, "longitude": -78.27206592345165}, "129144549RR0046": {"name": "CHRIST CHURCH FALKLAND", "designationCode": "C", "categoryCode": "30", "address": "2018 CHASE FALKLAND ROAD", "city": "FALKLAND", "province": "BC", "country": "CA", "postalCode": "V0E1W1", "twitter": "None", "instagram": "None", "facebook": "None", "youtube": "None", "website": "None", "summary": "None", "logo": "None", "latitude": 50.54224961004675, "longitude": -119.60095634569214}, "886919901RR0001": {"name": "CHRIST CHURCH FOUNDATION, WINDSOR, NOVA SCOTIA", "designationCode": "C", "categoryCode": "43", "address": "B.O BOX 2664                  531 KING ST", "city": "WINDSOR", "province": "NS", "country": "CA", "postalCode": "B0N2T0", "twitter": "None", "instagram": "None", "facebook": "None", "youtube": "None", "website": "None", "summary": "None", "logo": "None", "latitude": 44.9906434452073, "longitude": -64.13129701826453}, "130575731RR0002": {"name": "CHRIST CHURCH MARKDALE", "designationCode": "C", "categoryCode": "30", "address": "BOX 238", "city": "MARKDALE", "province": "ON", "country": "CA", "postalCode": "N0C1H0", "twitter": "None", "instagram": "None", "facebook": "None", "youtube": "None", "website": "None", "summary": "None", "logo": "None", "latitude": 44.31914000000006, "longitude": -80.64888999999994}, "108099771RR0023": {"name": "CHRIST CHURCH MCNAB", "designationCode": "C", "categoryCode": "30", "address": "RR#5", "city": "NIAGARA-ON-THE-LAKE", "province": "ON", "country": "CA", "postalCode": "L0S1J0", "twitter": "None", "instagram": "None", "facebook": "None", "youtube": "None", "website": "None", "summary": "None", "logo": "None", "latitude": 43.23448500000005, "longitude": -79.16177149999993}, "132047622RR0001": {"name": "CHRIST CHURCH NANTON,", "designationCode": "C", "categoryCode": "30", "address": "BOX 71", "city": "STAVELY", "province": "AB", "country": "CA", "postalCode": "T0L1Z0", "twitter": "None", "instagram": "None", "facebook": "None", "youtube": "None", "website": "None", "summary": "None", "logo": "None", "latitude": 50.166780000000074, "longitude": -113.63524999999998}, "118855204RR0002": {"name": "CHRIST CHURCH OF CHINA", "designationCode": "C", "categoryCode": "39", "address": "300 EAST PENDER STREET", "city": "VANCOUVER", "province": "BC", "country": "CA", "postalCode": "V6A1T9", "twitter": "None", "instagram": "None", "facebook": "None", "youtube": "None", "website": "None", "summary": "None", "logo": "None", "latitude": 49.2802845212074, "longitude": -123.09649136081134}, "107396905RR0067": {"name": "CHRIST CHURCH OF GLORY FOURSQUARE CHURCH", "designationCode": "C", "categoryCode": "39", "address": "17126 102TH AVENUE", "city": "SURREY", "province": "BC", "country": "CA", "postalCode": "V4N3L4", "twitter": "None", "instagram": "None", "facebook": "None", "youtube": "None", "website": "None", "summary": "None", "logo": "None", "latitude": 49.18790151067582, "longitude": -122.74751160935426}, "106917958RR0001": {"name": "CHRIST CHURCH PARISH VANCOUVER B.C.", "designationCode": "C", "categoryCode": "30", "address": "690 BURRARD ST", "city": "VANCOUVER", "province": "BC", "country": "CA", "postalCode": "V6C2L1", "twitter": "None", "instagram": "None", "facebook": "None", "youtube": "None", "website": "None", "summary": "None", "logo": "None", "latitude": 49.28467090478402, "longitude": -123.12062577987784}, "890426463RR0001": {"name": "CHRIST CHURCH PATIENCE LAKE CEMETERY ORGANIZATION", "designationCode": "C", "categoryCode": "59", "address": "BOX 285                       RR#9", "city": "SASKATOON", "province": "SK", "country": "CA", "postalCode": "S7K1P3", "twitter": "None", "instagram": "None", "facebook": "None", "youtube": "None", "website": "None", "summary": "None", "logo": "None", "latitude": 52.13049000000005, "longitude": -106.65926449999994}, "118855246RR0002": {"name": "CHRIST CHURCH SIX NATIONS RESERVE", "designationCode": "C", "categoryCode": "30", "address": "PO BOX 60", "city": "OHSWEKEN", "province": "ON", "country": "CA", "postalCode": "N0A1M0", "twitter": "None", "instagram": "None", "facebook": "None", "youtube": "None", "website": "None", "summary": "None", "logo": "None", "latitude": 43.06907000000007, "longitude": -80.11879999999996}, "130603988RR0001": {"name": "CHRIST CHURCH ST. JAMES ANGLICAN CHURCH", "designationCode": "C", "categoryCode": "30", "address": "194 PARK LAWN RD", "city": "ETOBICOKE", "province": "ON", "country": "CA", "postalCode": "M8Y3J1", "twitter": "None", "instagram": "None", "facebook": "None", "youtube": "None", "website": "None", "summary": "None", "logo": "None", "latitude": 43.63003235330952, "longitude": -79.49079568044866}, "890135973RR0002": {"name": "CHRIST CHURCH TARA", "designationCode": "C", "categoryCode": "30", "address": "PO BOX 430", "city": "TARA", "province": "ON", "country": "CA", "postalCode": "N0H2N0", "twitter": "None", "instagram": "None", "facebook": "None", "youtube": "None", "website": "None", "summary": "None", "logo": "None", "latitude": 44.63441100000001, "longitude": -81.26877149999999}, "108084658RR0125": {"name": "CHRIST CHURCH THIRD LINE", "designationCode": "C", "categoryCode": "30", "address": "TREASURER                     BOX 235", "city": "CARP", "province": "ON", "country": "CA", "postalCode": "K0A1L0", "twitter": "None", "instagram": "None", "facebook": "None", "youtube": "None", "website": "None", "summary": "None", "logo": "None", "latitude": 45.31724451992793, "longitude": -76.00182925214146}, "130533185RR0001": {"name": "CHRIST CHURCH UNITED CHURCH", "designationCode": "C", "categoryCode": "44", "address": "1700 MAZO CRESCENT", "city": "MISSISSAUGA", "province": "ON", "country": "CA", "postalCode": "L5J1Y8", "twitter": "None", "instagram": "None", "facebook": "None", "youtube": "None", "website": "None", "summary": "None", "logo": "None", "latitude": 43.52642757144111, "longitude": -79.63310352452561}, "106918006RR0001": {"name": "CHRIST CHURCH UNITED CHURCH OF CANADA", "designationCode": "C", "categoryCode": "44", "address": "214 AV 14E", "city": "DEUX-MONTAGNES", "province": "QC", "country": "CA", "postalCode": "J7R3W2", "twitter": "None", "instagram": "None", "facebook": "None", "youtube": "None", "website": "None", "summary": "None", "logo": "None", "latitude": 45.53850446208686, "longitude": -73.89734065422094}, "106918022RR0001": {"name": "CHRIST CHURCH UNITY", "designationCode": "C", "categoryCode": "39", "address": "639 MAIN ST E", "city": "HAMILTON", "province": "ON", "country": "CA", "postalCode": "L8M1J4", "twitter": "None", "instagram": "None", "facebook": "None", "youtube": "None", "website": "None", "summary": "None", "logo": "None", "latitude": 43.24907603416224, "longitude": -79.84510363015761}, "108084658RR0104": {"name": "CHRIST CHURCH-POLTIMORE", "designationCode": "C", "categoryCode": "30", "address": "27 CH. DU PONT", "city": "VAL-DES-MONTS", "province": "QC", "country": "CA", "postalCode": "J8N2J2", "twitter": "None", "instagram": "None", "facebook": "None", "youtube": "None", "website": "None", "summary": "None", "logo": "None", "latitude": 45.78533047489747, "longitude": -75.70610489217496}, "129578449RR0001": {"name": "CHRIST CHURCH,", "designationCode": "C", "categoryCode": "30", "address": "PO BOX 125", "city": "THE PAS", "province": "MB", "country": "CA", "postalCode": "R9A1K3", "twitter": "None", "instagram": "None", "facebook": "None", "youtube": "None", "website": "None", "summary": "None", "logo": "None", "latitude": 53.81342700000006, "longitude": -101.25038149999993}, "130376858RR0001": {"name": "CHRIST CHURCH,", "designationCode": "C", "categoryCode": "30", "address": "292 KETTLEBY RD", "city": "KING", "province": "ON", "country": "CA", "postalCode": "L7B0C9", "twitter": "None", "instagram": "None", "facebook": "None", "youtube": "None", "website": "None", "summary": "None", "logo": "None", "latitude": 44.01007713240797, "longitude": -79.56000970650348}, "131858185RR0001": {"name": "CHRIST CHURCH,", "designationCode": "C", "categoryCode": "30", "address": "BOX 99", "city": "MELITA", "province": "MB", "country": "CA", "postalCode": "R0M1L0", "twitter": "None", "instagram": "None", "facebook": "None", "youtube": "None", "website": "None", "summary": "None", "logo": "None", "latitude": 49.26665000000003, "longitude": -100.96985999999998}, "135473429RR0001": {"name": "CHRIST CHURCH,", "designationCode": "C", "categoryCode": "30", "address": "BOX 479", "city": "RUSSELL", "province": "MB", "country": "CA", "postalCode": "R0J1W0", "twitter": "None", "instagram": "None", "facebook": "None", "youtube": "None", "website": "None", "summary": "None", "logo": "None", "latitude": 50.69676379161792, "longitude": -101.40612232134879}, "890054646RR0001": {"name": "CHRIST CHURCH,", "designationCode": "C", "categoryCode": "30", "address": "57 5TH AVENUE", "city": "SAINT-GABRIEL-DE-VALCARTIER", "province": "QC", "country": "CA", "postalCode": "G0A4S0", "twitter": "None", "instagram": "None", "facebook": "None", "youtube": "None", "website": "None", "summary": "None", "logo": "None", "latitude": 46.95689676864539, "longitude": -71.46834280664018}, "891092371RR0001": {"name": "CHRIST CHURCH,", "designationCode": "C", "categoryCode": "30", "address": "217-ROUTE 253", "city": "SAWYERVILLE", "province": "QC", "country": "CA", "postalCode": "J0B3A0", "twitter": "None", "instagram": "None", "facebook": "None", "youtube": "None", "website": "None", "summary": "None", "logo": "None", "latitude": 45.34720238894086, "longitude": -71.58400915344154}, "118854058RR0001": {"name": "CHRIST CHURCH, BATTEAU", "designationCode": "C", "categoryCode": "30", "address": "PO BOX 96", "city": "DUNTROON", "province": "ON", "country": "CA", "postalCode": "L0M1H0", "twitter": "None", "instagram": "None", "facebook": "None", "youtube": "None", "website": "None", "summary": "None", "logo": "None", "latitude": 44.398000000000025, "longitude": -80.19377999999995}, "118854082RR0001": {"name": "CHRIST CHURCH, BOBCAYGEON", "designationCode": "C", "categoryCode": "30", "address": "BOX 133", "city": "BOBCAYGEON", "province": "ON", "country": "CA", "postalCode": "K0M1A0", "twitter": "None", "instagram": "None", "facebook": "None", "youtube": "None", "website": "None", "summary": "None", "logo": "None", "latitude": 44.77947037273382, "longitude": -78.64831406506559}, "106917685RR0001": {"name": "CHRIST CHURCH, BOLTON", "designationCode": "C", "categoryCode": "30", "address": "22 NANCY ST. PO BOX 567", "city": "BOLTON", "province": "ON", "country": "CA", "postalCode": "L7E5T4", "twitter": "None", "instagram": "None", "facebook": "None", "youtube": "None", "website": "None", "summary": "None", "logo": "None", "latitude": 43.878207815136605, "longitude": -79.73827469138428}, "130648892RR0001": {"name": "CHRIST CHURCH, BRAMPTON,", "designationCode": "C", "categoryCode": "30", "address": "4 ELIZABETH ST N", "city": "BRAMPTON", "province": "ON", "country": "CA", "postalCode": "L6X1S2", "twitter": "None", "instagram": "None", "facebook": "None", "youtube": "None", "website": "None", "summary": "None", "logo": "None", "latitude": 43.684388380806666, "longitude": -79.76197448124545}, "118855071RR0001": {"name": "CHRIST CHURCH, DEER PARK", "designationCode": "C", "categoryCode": "30", "address": "1570 YONGE STREET", "city": "TORONTO", "province": "ON", "country": "CA", "postalCode": "M4T1Z8", "twitter": "None", "instagram": "None", "facebook": "None", "youtube": "None", "website": "None", "summary": "None", "logo": "None", "latitude": 43.69033825200536, "longitude": -79.39499901797514}, "118855105RR0001": {"name": "CHRIST CHURCH, HOLLAND LANDING", "designationCode": "C", "categoryCode": "30", "address": "110 PETER STREET", "city": "HOLLAND LANDING", "province": "ON", "country": "CA", "postalCode": "L9N1K9", "twitter": "None", "instagram": "None", "facebook": "None", "youtube": "None", "website": "None", "summary": "None", "logo": "None", "latitude": 44.096529426308514, "longitude": -79.48912937180428}, "118855154RR0001": {"name": "CHRIST CHURCH, MILLARVILLE", "designationCode": "C", "categoryCode": "30", "address": "BOX 45, SITE 3, RR #1", "city": "MILLARVILLE", "province": "AB", "country": "CA", "postalCode": "T0L1K0", "twitter": "None", "instagram": "None", "facebook": "None", "youtube": "None", "website": "None", "summary": "None", "logo": "None", "latitude": 50.756966572977674, "longitude": -114.3249581429459}, "891513574RR0002": {"name": "CHRIST CHURCH, NEWBURY", "designationCode": "C", "categoryCode": "30", "address": "185 MAIN ST                   RR 1", "city": "GLENCOE", "province": "ON", "country": "CA", "postalCode": "N0L1M0", "twitter": "None", "instagram": "None", "facebook": "None", "youtube": "None", "website": "None", "summary": "None", "logo": "None", "latitude": 42.74645404218365, "longitude": -81.70910150236593}, "118855238RR0001": {"name": "CHRIST CHURCH, SCARBOROUGH,", "designationCode": "C", "categoryCode": "30", "address": "155 MARKHAM RD", "city": "SCARBOROUGH", "province": "ON", "country": "CA", "postalCode": "M1M3A1", "twitter": "None", "instagram": "None", "facebook": "None", "youtube": "None", "website": "None", "summary": "None", "logo": "None", "latitude": 43.74163865918396, "longitude": -79.21824848857437}, "106917693RR0001": {"name": "CHRIST CHURCH, WOODBRIDGE", "designationCode": "C", "categoryCode": "30", "address": "8045 ISLINGTON AVE", "city": "WOODBRIDGE", "province": "ON", "country": "CA", "postalCode": "L4L1W4", "twitter": "None", "instagram": "None", "facebook": "None", "youtube": "None", "website": "None", "summary": "None", "logo": "None", "latitude": 43.78897313151395, "longitude": -79.58742000689624}, "814302253RR0001": {"name": "CHRIST CITY CHURCH", "designationCode": "C", "categoryCode": "34", "address": "5887 PRINCE EDWARD ST", "city": "VANCOUVER", "province": "BC", "country": "CA", "postalCode": "V5W2X8", "twitter": "None", "instagram": "None", "facebook": "None", "youtube": "None", "website": "None", "summary": "None", "logo": "None", "latitude": 49.231216037191984, "longitude": -123.09732244341829}, "888894649RR0001": {"name": "CHRIST COMMISSION CHURCH OF FAITH", "designationCode": "C", "categoryCode": "39", "address": "UNIT#6-8, 3410 MIDLAND AVE", "city": "SCARBOROUGH", "province": "ON", "country": "CA", "postalCode": "M1V4V4", "twitter": "None", "instagram": "None", "facebook": "None", "youtube": "None", "website": "None", "summary": "None", "logo": "None", "latitude": 43.81102834609616, "longitude": -79.29062276369076}, "118855337RR0001": {"name": "CHRIST COMMUNITY CHURCH", "designationCode": "C", "categoryCode": "39", "address": "PO BOX 1093", "city": "GRANDE PRAIRIE", "province": "AB", "country": "CA", "postalCode": "T8V4B5", "twitter": "None", "instagram": "None", "facebook": "None", "youtube": "None", "website": "None", "summary": "None", "logo": "None", "latitude": 55.171122000000054, "longitude": -118.79491399999993}, "106918071RR0001": {"name": "CHRIST COMMUNITY CHURCH OF THE CHRISTIAN REFORMED CHURCH OF NANAIMO, B.C.", "designationCode": "C", "categoryCode": "39", "address": "2221 BOWEN RD", "city": "NANAIMO", "province": "BC", "country": "CA", "postalCode": "V9S5J3", "twitter": "None", "instagram": "None", "facebook": "None", "youtube": "None", "website": "None", "summary": "None", "logo": "None", "latitude": 49.192502396329886, "longitude": -123.99249159120434}, "130220692RR0001": {"name": "CHRIST COMMUNITY CHURCH OF UCLUELET", "designationCode": "C", "categoryCode": "39", "address": "P.O. BOX 167", "city": "UCLUELET", "province": "BC", "country": "CA", "postalCode": "V0R3A0", "twitter": "None", "instagram": "None", "facebook": "None", "youtube": "None", "website": "None", "summary": "None", "logo": "None", "latitude": 48.938210000000026, "longitude": -125.54276999999996}, "118855352RR0001": {"name": "CHRIST COMMUNITY CHURCH OF VICTORIA", "designationCode": "C", "categoryCode": "39", "address": "3897 HOLLAND AVE", "city": "VICTORIA", "province": "BC", "country": "CA", "postalCode": "V8Z5K2", "twitter": "None", "instagram": "None", "facebook": "None", "youtube": "None", "website": "None", "summary": "None", "logo": "None", "latitude": 48.470138163896756, "longitude": -123.42249667833417}, "870244415RR0001": {"name": "CHRIST COMMUNITY CHURCH OF WELLAND INC.", "designationCode": "C", "categoryCode": "39", "address": "224 DIVISION STREET", "city": "WELLAND", "province": "ON", "country": "CA", "postalCode": "L3B4A2", "twitter": "None", "instagram": "None", "facebook": "None", "youtube": "None", "website": "None", "summary": "None", "logo": "None", "latitude": 42.99188125287073, "longitude": -79.24385572621033}, "118855360RR0001": {"name": "CHRIST COMMUNITY CHURCH ST ALBERT, ALBERTA", "designationCode": "C", "categoryCode": "39", "address": "25230 TWP RD 542", "city": "STURGEON COUNTY", "province": "AB", "country": "CA", "postalCode": "T8T1L8", "twitter": "None", "instagram": "None", "facebook": "None", "youtube": "None", "website": "None", "summary": "None", "logo": "None", "latitude": 53.65798393556101, "longitude": -113.56005541785339}, "868015546RR0001": {"name": "CHRIST COVENANT CHURCH", "designationCode": "C", "categoryCode": "39", "address": "21670 MAXWELL CRES", "city": "LANGLEY", "province": "BC", "country": "CA", "postalCode": "V2Y2P9", "twitter": "None", "instagram": "None", "facebook": "None", "youtube": "None", "website": "None", "summary": "None", "logo": "None", "latitude": 49.12772008433865, "longitude": -122.62153404278922}, "890218324RR0001": {"name": "CHRIST EMBASSY CHRISTIAN CENTRE", "designationCode": "C", "categoryCode": "39", "address": "600 CLAYSON ROAD", "city": "NORTH YORK", "province": "ON", "country": "CA", "postalCode": "M9M2H2", "twitter": "None", "instagram": "None", "facebook": "None", "youtube": "None", "website": "None", "summary": "None", "logo": "None", "latitude": 43.72699644656364, "longitude": -79.52856618991238}, "813676558RR0001": {"name": "CHRIST EMMANUEL COMMUNITY CHURCH", "designationCode": "C", "categoryCode": "39", "address": "2712 VICTORIA PARK AVENUE", "city": "TORONTO", "province": "ON", "country": "CA", "postalCode": "M2J4A7", "twitter": "None", "instagram": "None", "facebook": "None", "youtube": "None", "website": "None", "summary": "None", "logo": "None", "latitude": 43.784287638900196, "longitude": -79.3272915537535}, "885156489RR0001": {"name": "CHRIST EN ACTION EVANGELISATION (C A E)", "designationCode": "C", "categoryCode": "49", "address": "2305 DE LA RUE HOLT", "city": "MONTREAL", "province": "QC", "country": "CA", "postalCode": "H2G1Y2", "twitter": "None", "instagram": "None", "facebook": "None", "youtube": "None", "website": "None", "summary": "None", "logo": "None", "latitude": 45.54346230697094, "longitude": -73.58489548863169}, "106918139RR0001": {"name": "CHRIST EVANGELICAL LUTHERAN CHURCH", "designationCode": "C", "categoryCode": "32", "address": "7 LACEY COURT", "city": "AURORA", "province": "ON", "country": "CA", "postalCode": "L4G5H2", "twitter": "None", "instagram": "None", "facebook": "None", "youtube": "None", "website": "None", "summary": "None", "logo": "None", "latitude": 43.99688574655235, "longitude": -79.48635724669657}, "106918154RR0001": {"name": "CHRIST EVANGELICAL LUTHERAN CHURCH", "designationCode": "C", "categoryCode": "32", "address": "445 ANNDALE ROAD", "city": "WATERLOO", "province": "ON", "country": "CA", "postalCode": "N2K2E3", "twitter": "None", "instagram": "None", "facebook": "None", "youtube": "None", "website": "None", "summary": "None", "logo": "None", "latitude": 43.49394992365412, "longitude": -80.5118016605976}, "106918162RR0001": {"name": "CHRIST EVANGELICAL LUTHERAN CHURCH", "designationCode": "C", "categoryCode": "32", "address": "BOX 415", "city": "RED LAKE", "province": "ON", "country": "CA", "postalCode": "P0V2M0", "twitter": "None", "instagram": "None", "facebook": "None", "youtube": "None", "website": "None", "summary": "None", "logo": "None", "latitude": 51.017789973887886, "longitude": -93.82652994835257}, "118855386RR0001": {"name": "CHRIST EVANGELICAL LUTHERAN CHURCH", "designationCode": "C", "categoryCode": "32", "address": "47 WALKOVER ST", "city": "THUNDER BAY", "province": "ON", "country": "CA", "postalCode": "P7B1L1", "twitter": "None", "instagram": "None", "facebook": "None", "youtube": "None", "website": "None", "summary": "None", "logo": "None", "latitude": 48.44500688359319, "longitude": -89.24993398314979}, "130636640RR0001": {"name": "CHRIST EVANGELICAL LUTHERAN CHURCH OF KELOWNA", "designationCode": "C", "categoryCode": "32", "address": "2091 GORDON DRIVE", "city": "KELOWNA", "province": "BC", "country": "CA", "postalCode": "V1Y3J2", "twitter": "None", "instagram": "None", "facebook": "None", "youtube": "None", "website": "None", "summary": "None", "logo": "None", "latitude": 49.87563331584328, "longitude": -119.47704422057052}, "106918121RR0001": {"name": "CHRIST EVANGELICAL LUTHERAN CHURCH OF PETERBOROUGH", "designationCode": "C", "categoryCode": "32", "address": "463 HIGHLAND RD", "city": "PETERBOROUGH", "province": "ON", "country": "CA", "postalCode": "K9H5J8", "twitter": "None", "instagram": "None", "facebook": "None", "youtube": "None", "website": "None", "summary": "None", "logo": "None", "latitude": 44.317032037163344, "longitude": -78.33765091545982}, "851941286RR0001": {"name": "CHRIST EXALTED MINISTRIES", "designationCode": "C", "categoryCode": "47", "address": "229 MEADOWVALE ROAD #2", "city": "SCARBOROUGH", "province": "ON", "country": "CA", "postalCode": "M1C5B2", "twitter": "None", "instagram": "None", "facebook": "None", "youtube": "None", "website": "None", "summary": "None", "logo": "None", "latitude": 43.78646436969815, "longitude": -79.16114853202743}, "896579992RR0001": {"name": "CHRIST FOR ALL NATIONS", "designationCode": "C", "categoryCode": "47", "address": "217-101 CHERRYHILL BLVD", "city": "LONDON", "province": "ON", "country": "CA", "postalCode": "N6H4S4", "twitter": "None", "instagram": "None", "facebook": "None", "youtube": "None", "website": "None", "summary": "None", "logo": "None", "latitude": 42.98933219424116, "longitude": -81.27673127719386}, "853991057RR0001": {"name": "CHRIST FOR LIFE MINISTRIES", "designationCode": "C", "categoryCode": "39", "address": "3607 WOLFEDALE ROAD", "city": "MISSISSAUGA", "province": "ON", "country": "CA", "postalCode": "L5C1V8", "twitter": "None", "instagram": "None", "facebook": "None", "youtube": "None", "website": "None", "summary": "None", "logo": "None", "latitude": 43.57499968722934, "longitude": -79.65321326447017}, "875772519RR0001": {"name": "CHRIST FOR THE CITY INTERNATIONAL (CANADA) INC.", "designationCode": "C", "categoryCode": "47", "address": "P.O. BOX 75509 RPO VILLAGE    3034 EDGEMONT VILLAGE", "city": "NORTH VANCOUVER", "province": "BC", "country": "CA", "postalCode": "V7R4X1", "twitter": "None", "instagram": "None", "facebook": "None", "youtube": "None", "website": "None", "summary": "None", "logo": "None", "latitude": 49.33700358974394, "longitude": -123.101137979773}, "866714330RR0001": {"name": "CHRIST FOR YOUR CITY", "designationCode": "C", "categoryCode": "42", "address": "PO BOX 35035 RPO NELSON PARK", "city": "LONDON", "province": "ON", "country": "CA", "postalCode": "N5W5Z6", "twitter": "None", "instagram": "None", "facebook": "None", "youtube": "None", "website": "None", "summary": "None", "logo": "None", "latitude": 42.9985041046318, "longitude": -81.17701794538134}, "138603105RR0001": {"name": "CHRIST FULL GOSPEL FELLOWSHIP", "designationCode": "C", "categoryCode": "39", "address": "P.O. BOX 107", "city": "PLUM COULEE", "province": "MB", "country": "CA", "postalCode": "R0G1R0", "twitter": "None", "instagram": "None", "facebook": "None", "youtube": "None", "website": "None", "summary": "None", "logo": "None", "latitude": 49.19050000000004, "longitude": -97.75855999999999}, "859709933RR0001": {"name": "CHRIST HARVEST IN ASIA SOCIETY", "designationCode": "C", "categoryCode": "47", "address": "952 KEIL ST", "city": "WHITE ROCK", "province": "BC", "country": "CA", "postalCode": "V4B4V7", "twitter": "None", "instagram": "None", "facebook": "None", "youtube": "None", "website": "None", "summary": "None", "logo": "None", "latitude": 49.019346167638076, "longitude": -122.78333014040074}, "862125077RR0001": {"name": "CHRIST IN YOU ASSOCIATION", "designationCode": "B", "categoryCode": "09", "address": "103 SHEPHERD ROAD", "city": "HALIFAX", "province": "NS", "country": "CA", "postalCode": "B3P2K6", "twitter": "None", "instagram": "None", "facebook": "None", "youtube": "None", "website": "None", "summary": "None", "logo": "None", "latitude": 44.62643214876794, "longitude": -63.62039097639801}, "891334740RR0001": {"name": "CHRIST IN YOU THE HOPE OF GLORY INC", "designationCode": "C", "categoryCode": "39", "address": "77 WICKHAM RD", "city": "WINNIPEG", "province": "MB", "country": "CA", "postalCode": "R2J2L3", "twitter": "None", "instagram": "None", "facebook": "None", "youtube": "None", "website": "None", "summary": "None", "logo": "None", "latitude": 49.871776506780684, "longitude": -97.08433238773155}, "896362365RR0001": {"name": "CHRIST IS COMING CHURCH OF CALGARY", "designationCode": "C", "categoryCode": "39", "address": "204-1829 54 ST SE", "city": "CALGARY", "province": "AB", "country": "CA", "postalCode": "T2B1N5", "twitter": "None", "instagram": "None", "facebook": "None", "youtube": "None", "website": "None", "summary": "None", "logo": "None", "latitude": 51.03639613988114, "longitude": -113.95562671137958}, "872158571RR0001": {"name": "CHRIST IS COMING/L'ARRIVEE DE DIEU", "designationCode": "C", "categoryCode": "39", "address": "4863, DE LA PELTRIE", "city": "MONTREAL", "province": "QC", "country": "CA", "postalCode": "H3W1K6", "twitter": "None", "instagram": "None", "facebook": "None", "youtube": "None", "website": "None", "summary": "None", "logo": "None", "latitude": 45.49247775688144, "longitude": -73.63665456053417}, "106920960RR0001": {"name": "CHRIST LATVIAN EVANGELICAL LUTHERAN CHURCH", "designationCode": "C", "categoryCode": "32", "address": "18 VICTORIA AVENUE SOUTH", "city": "HAMILTON", "province": "ON", "country": "CA", "postalCode": "L8N2S6", "twitter": "None", "instagram": "None", "facebook": "None", "youtube": "None", "website": "None", "summary": "None", "logo": "None", "latitude": 43.2527102020601, "longitude": -79.85701383308307}, "861195998RR0001": {"name": "CHRIST LIFE MINISTRIES", "designationCode": "C", "categoryCode": "39", "address": "805 RIVERVIEW LANE", "city": "ELIZABETHTOWN", "province": "ON", "country": "CA", "postalCode": "K6V7G5", "twitter": "None", "instagram": "None", "facebook": "None", "youtube": "None", "website": "None", "summary": "None", "logo": "None", "latitude": 44.605337918691134, "longitude": -75.65835590810222}, "106918147RR0001": {"name": "CHRIST LUTHERAN CHURCH", "designationCode": "C", "categoryCode": "32", "address": "BOX 383", "city": "HARROW", "province": "ON", "country": "CA", "postalCode": "N0R1G0", "twitter": "None", "instagram": "None", "facebook": "None", "youtube": "None", "website": "None", "summary": "None", "logo": "None", "latitude": 42.03553000000005, "longitude": -82.91788999999994}, "106920994RR0001": {"name": "CHRIST LUTHERAN CHURCH", "designationCode": "C", "categoryCode": "32", "address": "P.O. BOX 71                   9 LUTHERAN CHURCH ROAD", "city": "MAYNOOTH", "province": "ON", "country": "CA", "postalCode": "K0L2S0", "twitter": "None", "instagram": "None", "facebook": "None", "youtube": "None", "website": "None", "summary": "None", "logo": "None", "latitude": 45.250005811719355, "longitude": -77.86252130676556}, "106921000RR0001": {"name": "CHRIST LUTHERAN CHURCH", "designationCode": "C", "categoryCode": "32", "address": "RR 6                          516 AIRPORT RD", "city": "PEMBROKE", "province": "ON", "country": "CA", "postalCode": "K8A6W7", "twitter": "None", "instagram": "None", "facebook": "None", "youtube": "None", "website": "None", "summary": "None", "logo": "None", "latitude": 45.85345503473914, "longitude": -77.25708714351649}}